,mid,x,y,z,mpry,pitch,roll,yaw,vgx,vgy,vgz,templ,temph,tof,h,bat,baro,time,agx,agy,agz,timestamp,address
3,-1,-100,-100,-100,"0,0,0",0,0,-1,0,0,0,61,64,10,0,82,-1.61,0,-2.0,-10.0,-1000.0,13:57:31.044527,192.168.0.112
7,-1,-100,-100,-100,"0,0,0",0,0,-1,0,0,0,61,64,10,0,82,-1.58,0,-1.0,-9.0,-1000.0,13:57:31.144083,192.168.0.112
12,-1,-100,-100,-100,"0,0,0",0,0,-1,0,0,0,61,64,10,0,82,-1.57,0,-1.0,-9.0,-1000.0,13:57:31.246190,192.168.0.112
17,-1,-100,-100,-100,"0,0,0",0,0,-1,0,0,0,61,64,10,0,82,-1.57,0,-9.0,-15.0,-1000.0,13:57:31.351633,192.168.0.112
22,-1,-100,-100,-100,"0,0,0",0,0,-1,0,0,0,61,64,10,0,82,-1.57,0,-5.0,-7.0,-1002.0,13:57:31.450430,192.168.0.112
27,-1,-100,-100,-100,"0,0,0",0,0,-1,0,0,0,61,64,10,0,82,-1.57,0,3.0,-9.0,-1000.0,13:57:31.552404,192.168.0.112
32,-1,-100,-100,-100,"0,0,0",0,0,-1,0,0,0,60,64,10,0,82,-1.57,0,-3.0,-58.0,-997.0,13:57:31.654928,192.168.0.112
38,-1,-100,-100,-100,"0,0,0",0,0,-1,0,0,0,60,64,10,0,82,-1.57,0,-10.0,6.0,-1102.0,13:57:31.756367,192.168.0.112
43,-1,-100,-100,-100,"0,0,0",0,0,0,0,0,0,60,64,10,0,82,-1.57,0,-12.0,3.0,-1262.0,13:57:31.858472,192.168.0.112
48,-1,-100,-100,-100,"0,0,0",0,0,0,0,0,2,60,64,10,0,82,-1.57,0,-46.0,-3.0,-1326.0,13:57:31.960451,192.168.0.112
53,-1,-100,-100,-100,"0,0,0",0,0,0,0,0,5,60,64,13,0,82,-1.57,0,-21.0,-13.0,-1135.0,13:57:32.062446,192.168.0.112
58,-1,-100,-100,-100,"0,0,0",-1,0,0,0,0,7,60,64,21,0,82,-1.13,0,-40.0,-15.0,-1064.0,13:57:32.165321,192.168.0.112
63,-1,-100,-100,-100,"0,0,0",0,0,0,0,0,7,60,64,30,10,82,-1.05,0,-25.0,-17.0,-987.0,13:57:32.266378,192.168.0.112
68,-1,-100,-100,-100,"0,0,0",-1,1,0,0,0,7,60,64,38,10,82,-0.96,1,-11.0,-23.0,-953.0,13:57:32.368360,192.168.0.112
73,-1,-100,-100,-100,"0,0,0",-2,0,0,0,0,6,60,64,48,20,82,-0.91,1,-6.0,-16.0,-925.0,13:57:32.470402,192.168.0.112
78,-1,-100,-100,-100,"0,0,0",-1,1,0,0,0,5,60,64,55,20,82,-0.88,1,-6.0,-18.0,-904.0,13:57:32.572230,192.168.0.112
83,-1,-100,-100,-100,"0,0,0",-1,1,0,0,0,4,60,64,62,30,82,-0.84,1,-7.0,-27.0,-905.0,13:57:32.674383,192.168.0.112
88,-1,-100,-100,-100,"0,0,0",-1,1,0,0,0,3,60,64,68,30,82,-0.79,1,-1.0,-19.0,-899.0,13:57:32.776432,192.168.0.112
93,-1,-100,-100,-100,"0,0,0",-1,1,0,0,0,2,60,64,73,30,82,-0.69,1,14.0,-26.0,-919.0,13:57:32.880414,192.168.0.112
98,-1,-100,-100,-100,"0,0,0",-1,1,0,0,0,2,60,64,77,40,82,-0.61,1,16.0,-35.0,-933.0,13:57:32.980341,192.168.0.112
103,-1,-100,-100,-100,"0,0,0",0,1,0,0,0,1,60,64,80,40,82,-0.62,1,3.0,-25.0,-941.0,13:57:33.082510,192.168.0.112
108,-1,-100,-100,-100,"0,0,0",0,2,0,0,0,0,60,64,83,40,82,-0.62,1,13.0,-31.0,-965.0,13:57:33.184244,192.168.0.112
113,-1,-100,-100,-100,"0,0,0",0,2,0,0,0,0,60,64,86,40,82,-0.56,1,-1.0,-15.0,-965.0,13:57:33.286480,192.168.0.112
118,-1,-100,-100,-100,"0,0,0",0,2,0,0,0,0,60,64,88,40,82,-0.53,2,15.0,-16.0,-974.0,13:57:33.388342,192.168.0.112
123,-1,-100,-100,-100,"0,0,0",0,2,0,0,0,0,60,64,90,50,82,-0.56,2,18.0,-17.0,-982.0,13:57:33.490311,192.168.0.112
126,-1,-100,-100,-100,"0,0,0",0,2,0,0,0,0,60,64,92,50,82,-0.49,2,14.0,-32.0,-965.0,13:57:33.541260,192.168.0.112
133,-1,-100,-100,-100,"0,0,0",0,2,0,0,0,0,60,63,94,50,82,-0.44,2,15.0,-36.0,-966.0,13:57:33.695974,192.168.0.112
137,-1,-100,-100,-100,"0,0,0",1,2,0,0,0,0,60,63,95,50,82,-0.48,2,13.0,-19.0,-945.0,13:57:33.745244,192.168.0.112
142,-1,-100,-100,-100,"0,0,0",0,2,0,0,0,0,60,63,96,50,82,-0.48,2,3.0,-12.0,-965.0,13:57:33.847416,192.168.0.112
147,-1,-100,-100,-100,"0,0,0",1,1,0,0,0,0,60,63,97,50,82,-0.4,2,4.0,-20.0,-973.0,13:57:33.949255,192.168.0.112
152,-1,-100,-100,-100,"0,0,0",1,1,-1,0,0,0,60,63,97,50,82,-0.44,2,7.0,-14.0,-961.0,13:57:34.051414,192.168.0.112
157,-1,-100,-100,-100,"0,0,0",1,1,-1,0,0,0,60,63,96,50,82,-0.43,2,32.0,-19.0,-982.0,13:57:34.152678,192.168.0.112
163,-1,-100,-100,-100,"0,0,0",0,1,-1,0,0,-1,60,63,95,50,82,-0.39,2,18.0,-15.0,-964.0,13:57:34.255349,192.168.0.112
168,-1,-100,-100,-100,"0,0,0",0,1,-1,0,0,-1,60,63,95,50,82,-0.44,3,2.0,2.0,-947.0,13:57:34.357192,192.168.0.112
173,-1,-100,-100,-100,"0,0,0",0,0,-1,0,0,-1,60,63,93,50,82,-0.44,3,36.0,-15.0,-980.0,13:57:34.459276,192.168.0.112
178,-1,-100,-100,-100,"0,0,0",0,0,-1,0,0,-1,60,63,91,50,82,-0.42,3,14.0,0.0,-981.0,13:57:34.563733,192.168.0.112
183,-1,-100,-100,-100,"0,0,0",1,0,0,0,0,-1,60,63,91,50,82,-0.52,3,30.0,-17.0,-1010.0,13:57:34.663473,192.168.0.112
188,-1,-100,-100,-100,"0,0,0",1,0,0,0,0,-1,60,63,89,50,82,-0.4,3,41.0,-7.0,-1002.0,13:57:34.765216,192.168.0.112
193,-1,-100,-100,-100,"0,0,0",1,0,0,0,0,-1,60,63,88,50,82,-0.53,3,25.0,0.0,-1001.0,13:57:34.867321,192.168.0.112
198,-1,-100,-100,-100,"0,0,0",1,0,0,0,0,-1,60,63,87,50,82,-0.48,3,26.0,-14.0,-1003.0,13:57:34.969084,192.168.0.112
203,-1,-100,-100,-100,"0,0,0",1,0,0,0,0,0,60,63,87,50,82,-0.54,3,17.0,-7.0,-1017.0,13:57:35.071151,192.168.0.112
208,-1,-100,-100,-100,"0,0,0",2,1,0,0,0,0,60,63,86,50,82,-0.49,3,29.0,-18.0,-1009.0,13:57:35.173177,192.168.0.112
213,-1,-100,-100,-100,"0,0,0",2,1,0,0,0,0,60,63,86,50,82,-0.54,3,25.0,-14.0,-984.0,13:57:35.275176,192.168.0.112
218,-1,-100,-100,-100,"0,0,0",2,1,0,0,0,0,60,63,85,50,82,-0.59,4,18.0,-18.0,-995.0,13:57:35.377185,192.168.0.112
223,-1,-100,-100,-100,"0,0,0",1,1,0,0,0,0,60,63,85,50,82,-0.54,4,21.0,-15.0,-1001.0,13:57:35.479190,192.168.0.112
228,-1,-100,-100,-100,"0,0,0",1,1,0,0,0,0,60,63,84,50,82,-0.54,4,36.0,-33.0,-992.0,13:57:35.582382,192.168.0.112
233,-1,-100,-100,-100,"0,0,0",1,1,0,0,0,0,61,63,84,50,82,-0.61,4,14.0,-36.0,-983.0,13:57:35.682995,192.168.0.112
238,-1,-100,-100,-100,"0,0,0",1,1,0,0,0,0,61,63,83,50,82,-0.66,4,11.0,-41.0,-1001.0,13:57:35.785161,192.168.0.112
243,-1,-100,-100,-100,"0,0,0",1,2,0,0,0,0,61,63,83,50,82,-0.54,4,14.0,-26.0,-1008.0,13:57:35.887564,192.168.0.112
248,-1,-100,-100,-100,"0,0,0",0,2,0,0,0,0,61,63,82,50,82,-0.52,4,12.0,-15.0,-1015.0,13:57:35.988937,192.168.0.112
252,-1,-100,-100,-100,"0,0,0",0,2,0,0,0,0,61,63,82,50,82,-0.59,4,11.0,-27.0,-1002.0,13:57:36.091192,192.168.0.112
258,-1,-100,-100,-100,"0,0,0",0,2,0,0,0,0,61,63,81,50,82,-0.46,4,3.0,-23.0,-1000.0,13:57:36.193005,192.168.0.112
263,-1,-100,-100,-100,"0,0,0",0,2,0,0,0,0,61,63,80,40,82,-0.62,4,-2.0,-26.0,-1003.0,13:57:36.296336,192.168.0.112
268,-1,-100,-100,-100,"0,0,0",0,1,0,0,0,0,61,63,80,40,82,-0.66,5,-12.0,-7.0,-984.0,13:57:36.398785,192.168.0.112
273,-1,-100,-100,-100,"0,0,0",0,1,0,0,0,0,61,63,79,40,82,-0.58,5,-18.0,-1.0,-1001.0,13:57:36.499114,192.168.0.112
278,-1,-100,-100,-100,"0,0,0",0,1,0,0,0,0,61,63,79,40,82,-0.57,5,8.0,-25.0,-989.0,13:57:36.600949,192.168.0.112
283,-1,-100,-100,-100,"0,0,0",0,0,0,0,0,0,61,64,79,40,82,-0.57,5,-8.0,1.0,-994.0,13:57:36.703023,192.168.0.112
288,-1,-100,-100,-100,"0,0,0",0,0,0,0,0,0,61,64,78,40,82,-0.5,5,5.0,-13.0,-988.0,13:57:36.805045,192.168.0.112
292,-1,-100,-100,-100,"0,0,0",0,0,0,0,0,0,61,64,79,40,82,-0.54,5,-4.0,-11.0,-1004.0,13:57:36.907281,192.168.0.112
298,-1,-100,-100,-100,"0,0,0",0,0,0,0,0,0,61,64,79,40,82,-0.51,5,-8.0,3.0,-1036.0,13:57:37.008736,192.168.0.112
303,-1,-100,-100,-100,"0,0,0",0,0,0,0,0,0,61,64,79,40,82,-0.54,5,10.0,17.0,-982.0,13:57:37.112581,192.168.0.112
308,-1,-100,-100,-100,"0,0,0",0,0,0,0,0,0,61,64,79,40,82,-0.57,5,8.0,8.0,-1007.0,13:57:37.161918,192.168.0.112
313,-1,-100,-100,-100,"0,0,0",0,0,0,0,0,0,61,64,80,40,82,-0.54,6,8.0,0.0,-985.0,13:57:37.263941,192.168.0.112
318,-1,-100,-100,-100,"0,0,0",0,0,0,0,0,0,61,64,81,40,82,-0.47,6,7.0,2.0,-990.0,13:57:37.365999,192.168.0.112
323,-1,-100,-100,-100,"0,0,0",0,0,0,0,0,0,61,64,81,50,82,-0.59,6,15.0,0.0,-995.0,13:57:37.468243,192.168.0.112
328,-1,-100,-100,-100,"0,0,0",0,0,0,0,0,0,61,64,81,50,82,-0.53,6,25.0,-17.0,-981.0,13:57:37.569995,192.168.0.112
333,-1,-100,-100,-100,"0,0,0",0,0,-1,0,0,0,60,63,81,50,82,-0.55,6,30.0,-12.0,-986.0,13:57:37.672111,192.168.0.112
338,-1,-100,-100,-100,"0,0,0",0,0,-1,0,0,0,60,63,82,50,82,-0.55,6,23.0,-6.0,-980.0,13:57:37.774221,192.168.0.112
343,-1,-100,-100,-100,"0,0,0",1,0,-1,0,0,0,60,63,82,50,82,-0.59,6,27.0,-5.0,-984.0,13:57:37.877155,192.168.0.112
348,-1,-100,-100,-100,"0,0,0",1,0,-1,0,0,0,60,63,81,50,82,-0.56,6,26.0,-17.0,-991.0,13:57:37.977946,192.168.0.112
353,-1,-100,-100,-100,"0,0,0",1,0,0,0,0,0,60,63,81,50,82,-0.56,6,22.0,-13.0,-995.0,13:57:38.080359,192.168.0.112
358,-1,-100,-100,-100,"0,0,0",1,1,0,0,0,0,60,63,81,50,82,-0.54,6,28.0,-19.0,-1003.0,13:57:38.182109,192.168.0.112
363,-1,-100,-100,-100,"0,0,0",1,1,0,0,0,0,60,63,81,50,82,-0.51,7,18.0,-8.0,-1008.0,13:57:38.283923,192.168.0.112
368,-1,-100,-100,-100,"0,0,0",1,1,0,0,0,0,60,63,81,50,82,-0.47,7,6.0,-17.0,-995.0,13:57:38.386565,192.168.0.112
373,-1,-100,-100,-100,"0,0,0",1,1,0,0,0,0,60,63,81,50,82,-0.51,7,13.0,-24.0,-1004.0,13:57:38.487818,192.168.0.112
378,-1,-100,-100,-100,"0,0,0",1,1,0,0,0,0,60,63,81,40,82,-0.58,7,12.0,-12.0,-1014.0,13:57:38.590045,192.168.0.112
383,-1,-100,-100,-100,"0,0,0",1,1,0,0,0,0,61,64,80,40,82,-0.58,7,27.0,-25.0,-1007.0,13:57:38.692012,192.168.0.112
388,-1,-100,-100,-100,"0,0,0",0,1,0,0,0,0,61,64,80,40,82,-0.53,7,0.0,-17.0,-989.0,13:57:38.798743,192.168.0.112
393,-1,-100,-100,-100,"0,0,0",0,2,0,0,0,0,61,64,80,40,82,-0.63,7,14.0,-35.0,-1027.0,13:57:38.895908,192.168.0.112
398,-1,-100,-100,-100,"0,0,0",0,1,0,0,0,0,61,64,80,40,82,-0.61,7,7.0,-26.0,-988.0,13:57:38.997753,192.168.0.112
403,-1,-100,-100,-100,"0,0,0",0,2,0,0,0,0,61,64,80,40,82,-0.56,7,22.0,-38.0,-998.0,13:57:39.099445,192.168.0.112
408,-1,-100,-100,-100,"0,0,0",0,3,0,0,0,0,61,64,80,40,82,-0.51,7,29.0,-21.0,-1016.0,13:57:39.201995,192.168.0.112
413,-1,-100,-100,-100,"0,0,0",1,3,0,0,0,0,61,64,80,40,82,-0.57,8,30.0,-16.0,-1007.0,13:57:39.306296,192.168.0.112
418,-1,-100,-100,-100,"0,0,0",1,2,0,0,0,0,61,64,80,40,82,-0.56,8,44.0,-20.0,-1006.0,13:57:39.405955,192.168.0.112
423,-1,-100,-100,-100,"0,0,0",1,1,0,0,0,0,61,64,80,40,82,-0.52,8,38.0,-8.0,-1003.0,13:57:39.507797,192.168.0.112
428,-1,-100,-100,-100,"0,0,0",2,0,0,0,0,0,61,64,79,40,82,-0.55,8,39.0,-9.0,-1002.0,13:57:39.610048,192.168.0.112
433,-1,-100,-100,-100,"0,0,0",2,0,0,0,0,0,60,63,79,40,82,-0.46,8,40.0,-16.0,-1014.0,13:57:39.714328,192.168.0.112
438,-1,-100,-100,-100,"0,0,0",2,0,0,0,0,0,60,63,79,40,82,-0.59,8,57.0,-12.0,-1022.0,13:57:39.813965,192.168.0.112
443,-1,-100,-100,-100,"0,0,0",3,0,0,0,0,0,60,63,79,40,82,-0.48,8,32.0,-24.0,-1000.0,13:57:39.915859,192.168.0.112
448,-1,-100,-100,-100,"0,0,0",3,1,0,0,0,0,60,63,79,40,82,-0.53,8,57.0,-32.0,-1005.0,13:57:40.017625,192.168.0.112
453,-1,-100,-100,-100,"0,0,0",3,1,0,0,0,0,60,63,79,40,82,-0.56,8,42.0,-5.0,-1013.0,13:57:40.119423,192.168.0.112
458,-1,-100,-100,-100,"0,0,0",2,0,0,0,0,0,60,63,80,40,82,-0.55,8,19.0,3.0,-1015.0,13:57:40.225769,192.168.0.112
463,-1,-100,-100,-100,"0,0,0",0,0,0,0,0,0,60,63,80,40,82,-0.49,9,52.0,-4.0,-1000.0,13:57:40.323865,192.168.0.112
468,-1,-100,-100,-100,"0,0,0",0,0,0,-1,0,0,60,63,80,40,82,-0.58,9,65.0,-1.0,-986.0,13:57:40.425874,192.168.0.112
473,-1,-100,-100,-100,"0,0,0",0,0,0,-1,0,0,60,63,80,40,82,-0.55,9,41.0,-5.0,-996.0,13:57:40.483719,192.168.0.112
477,-1,-100,-100,-100,"0,0,0",0,0,0,-1,0,0,60,63,80,40,82,-0.66,9,39.0,-5.0,-970.0,13:57:40.578924,192.168.0.112
483,-1,-100,-100,-100,"0,0,0",0,0,0,-2,0,0,61,63,81,40,82,-0.61,9,40.0,-2.0,-1022.0,13:57:40.731983,192.168.0.112
488,-1,-100,-100,-100,"0,0,0",0,0,0,-2,0,0,61,63,81,40,82,-0.59,9,54.0,-2.0,-992.0,13:57:40.782792,192.168.0.112
493,-1,-100,-100,-100,"0,0,0",1,0,0,-2,0,0,61,63,80,40,82,-0.55,9,32.0,8.0,-988.0,13:57:40.885937,192.168.0.112
498,-1,-100,-100,-100,"0,0,0",1,0,0,-3,0,0,61,63,81,40,82,-0.51,9,19.0,18.0,-984.0,13:57:40.986214,192.168.0.112
503,-1,-100,-100,-100,"0,0,0",1,0,0,-3,0,0,61,63,81,40,82,-0.5,9,31.0,6.0,-1014.0,13:57:41.091284,192.168.0.112
508,-1,-100,-100,-100,"0,0,0",1,0,0,-3,0,0,61,63,81,40,82,-0.5,9,0.0,16.0,-1011.0,13:57:41.190686,192.168.0.112
513,-1,-100,-100,-100,"0,0,0",0,0,0,-3,0,0,61,63,80,40,82,-0.67,10,9.0,-9.0,-1005.0,13:57:41.292776,192.168.0.112
518,-1,-100,-100,-100,"0,0,0",0,0,0,-2,0,0,61,63,80,40,82,-0.48,10,-4.0,7.0,-989.0,13:57:41.394741,192.168.0.112
523,-1,-100,-100,-100,"0,0,0",0,0,0,-2,0,0,61,63,81,40,82,-0.48,10,2.0,0.0,-996.0,13:57:41.497912,192.168.0.112
528,-1,-100,-100,-100,"0,0,0",0,0,0,-2,0,0,61,63,81,40,82,-0.48,10,-13.0,42.0,-1018.0,13:57:41.598720,192.168.0.112
533,-1,-100,-100,-100,"0,0,0",0,0,0,-2,0,0,61,63,81,40,82,-0.45,10,-2.0,16.0,-1000.0,13:57:41.700965,192.168.0.112
538,-1,-100,-100,-100,"0,0,0",0,0,0,-2,0,0,61,63,81,40,82,-0.48,10,-8.0,36.0,-990.0,13:57:41.802626,192.168.0.112
543,-1,-100,-100,-100,"0,0,0",0,-1,0,-2,-1,0,61,63,81,40,82,-0.5,10,1.0,48.0,-997.0,13:57:41.904779,192.168.0.112
548,-1,-100,-100,-100,"0,0,0",0,-2,0,-2,-1,0,61,63,81,40,82,-0.5,10,-8.0,30.0,-993.0,13:57:42.006708,192.168.0.112
553,-1,-100,-100,-100,"0,0,0",0,-3,0,-3,0,0,61,63,80,40,82,-0.43,10,-3.0,26.0,-988.0,13:57:42.108612,192.168.0.112
558,-1,-100,-100,-100,"0,0,0",0,-3,0,-3,0,0,61,63,80,40,82,-0.45,10,11.0,0.0,-999.0,13:57:42.210783,192.168.0.112
563,-1,-100,-100,-100,"0,0,0",1,-1,-1,-3,0,0,61,63,80,40,82,-0.59,11,19.0,3.0,-1001.0,13:57:42.312648,192.168.0.112
568,-1,-100,-100,-100,"0,0,0",1,0,0,-3,0,0,61,63,80,40,82,-0.6,11,30.0,-4.0,-1014.0,13:57:42.414788,192.168.0.112
573,-1,-100,-100,-100,"0,0,0",1,0,0,-3,0,0,61,63,80,40,82,-0.64,11,15.0,9.0,-1002.0,13:57:42.516404,192.168.0.112
578,-1,-100,-100,-100,"0,0,0",1,0,-1,-3,0,0,61,63,80,40,82,-0.54,11,8.0,2.0,-1008.0,13:57:42.618699,192.168.0.112
583,-1,-100,-100,-100,"0,0,0",1,0,-1,-2,0,0,61,63,80,40,82,-0.6,11,25.0,-15.0,-989.0,13:57:42.720798,192.168.0.112
588,-1,-100,-100,-100,"0,0,0",1,0,-1,-2,0,0,61,63,80,40,82,-0.61,11,12.0,-23.0,-998.0,13:57:42.822718,192.168.0.112
593,-1,-100,-100,-100,"0,0,0",1,1,0,-2,0,0,61,63,81,40,82,-0.56,11,0.0,-15.0,-1003.0,13:57:42.924789,192.168.0.112
598,-1,-100,-100,-100,"0,0,0",0,1,0,-2,0,0,61,63,81,40,82,-0.51,11,-6.0,-5.0,-1005.0,13:57:43.026598,192.168.0.112
603,-1,-100,-100,-100,"0,0,0",0,1,0,-2,0,0,61,63,80,40,82,-0.48,11,7.0,-1.0,-1014.0,13:57:43.128668,192.168.0.112
608,-1,-100,-100,-100,"0,0,0",0,1,-1,-2,0,0,61,63,80,40,82,-0.47,11,20.0,-17.0,-1014.0,13:57:43.230451,192.168.0.112
613,-1,-100,-100,-100,"0,0,0",0,1,-1,-2,0,0,61,63,80,40,82,-0.49,12,17.0,-20.0,-1009.0,13:57:43.332746,192.168.0.112
618,-1,-100,-100,-100,"0,0,0",0,0,0,-2,0,0,61,63,81,40,82,-0.46,12,23.0,-28.0,-1003.0,13:57:43.434763,192.168.0.112
623,-1,-100,-100,-100,"0,0,0",0,1,0,-2,0,0,61,63,81,40,82,-0.51,12,2.0,-5.0,-986.0,13:57:43.537447,192.168.0.112
628,-1,-100,-100,-100,"0,0,0",0,1,0,-2,0,0,61,63,81,40,82,-0.43,12,6.0,-3.0,-992.0,13:57:43.639531,192.168.0.112
633,-1,-100,-100,-100,"0,0,0",1,0,0,-2,0,0,61,63,81,40,82,-0.61,12,5.0,-8.0,-1000.0,13:57:43.742084,192.168.0.112
637,-1,-100,-100,-100,"0,0,0",6,0,0,-1,0,0,61,63,81,50,82,-0.57,12,4.0,-6.0,-1020.0,13:57:43.791227,192.168.0.112
642,-1,-100,-100,-100,"0,0,0",4,0,0,-1,0,0,61,63,81,50,82,-0.48,12,18.0,14.0,-1011.0,13:57:43.893657,192.168.0.112
647,-1,-100,-100,-100,"0,0,0",3,0,0,0,0,0,61,63,82,50,82,-0.55,12,28.0,-5.0,-1001.0,13:57:43.995557,192.168.0.112
652,-1,-100,-100,-100,"0,0,0",2,0,0,0,0,0,61,63,82,50,82,-0.49,12,28.0,-4.0,-978.0,13:57:44.097578,192.168.0.112
658,-1,-100,-100,-100,"0,0,0",2,0,0,0,0,0,61,63,82,50,82,-0.57,12,24.0,2.0,-983.0,13:57:44.199539,192.168.0.112
663,-1,-100,-100,-100,"0,0,0",2,0,0,0,0,0,61,63,81,50,82,-0.54,13,20.0,0.0,-986.0,13:57:44.301567,192.168.0.112
668,-1,-100,-100,-100,"0,0,0",2,0,0,0,0,0,61,63,81,40,82,-0.49,13,17.0,-9.0,-990.0,13:57:44.403627,192.168.0.112
673,-1,-100,-100,-100,"0,0,0",1,0,0,0,0,0,61,63,81,40,82,-0.55,13,20.0,-16.0,-990.0,13:57:44.505560,192.168.0.112
678,-1,-100,-100,-100,"0,0,0",1,0,0,0,0,0,61,63,81,40,82,-0.47,13,22.0,0.0,-1016.0,13:57:44.608126,192.168.0.112
683,-1,-100,-100,-100,"0,0,0",0,0,0,0,0,0,61,63,81,40,82,-0.57,13,24.0,0.0,-990.0,13:57:44.709520,192.168.0.112
688,-1,-100,-100,-100,"0,0,0",0,0,0,0,0,0,61,63,80,40,82,-0.5,13,13.0,1.0,-1001.0,13:57:44.811513,192.168.0.112
693,-1,-100,-100,-100,"0,0,0",1,0,0,0,0,0,61,63,81,40,82,-0.5,13,22.0,-5.0,-1007.0,13:57:44.913485,192.168.0.112
698,-1,-100,-100,-100,"0,0,0",1,0,0,0,0,0,61,63,80,40,82,-0.52,13,39.0,-9.0,-1011.0,13:57:45.015580,192.168.0.112
703,-1,-100,-100,-100,"0,0,0",1,0,0,0,0,0,61,63,80,40,82,-0.57,13,12.0,2.0,-991.0,13:57:45.124093,192.168.0.112
708,-1,-100,-100,-100,"0,0,0",1,0,0,0,0,0,61,63,81,40,82,-0.65,13,25.0,-9.0,-1012.0,13:57:45.219537,192.168.0.112
713,-1,-100,-100,-100,"0,0,0",1,0,0,0,0,0,61,63,81,40,82,-0.65,14,18.0,1.0,-993.0,13:57:45.321534,192.168.0.112
718,-1,-100,-100,-100,"0,0,0",1,0,0,0,0,0,61,63,81,40,82,-0.62,14,7.0,23.0,-1001.0,13:57:45.423465,192.168.0.112
723,-1,-100,-100,-100,"0,0,0",1,0,0,0,0,0,61,63,81,40,82,-0.53,14,28.0,15.0,-1007.0,13:57:45.525644,192.168.0.112
728,-1,-100,-100,-100,"0,0,0",1,0,0,0,0,0,61,63,81,40,82,-0.59,14,34.0,0.0,-1007.0,13:57:45.627549,192.168.0.112
733,-1,-100,-100,-100,"0,0,0",1,0,0,0,0,0,60,64,83,50,82,-0.57,14,43.0,-8.0,-993.0,13:57:45.729455,192.168.0.112
738,-1,-100,-100,-100,"0,0,0",2,0,0,0,0,0,60,64,82,50,82,-0.48,14,45.0,-2.0,-997.0,13:57:45.831472,192.168.0.112
743,-1,-100,-100,-100,"0,0,0",2,0,0,0,0,0,60,64,82,50,82,-0.54,14,36.0,7.0,-990.0,13:57:45.933456,192.168.0.112
748,-1,-100,-100,-100,"0,0,0",2,0,0,0,0,0,60,64,82,50,82,-0.55,14,33.0,-7.0,-995.0,13:57:46.035153,192.168.0.112
753,-1,-100,-100,-100,"0,0,0",2,0,0,0,0,0,60,64,82,50,82,-0.55,14,33.0,-5.0,-995.0,13:57:46.137186,192.168.0.112
758,-1,-100,-100,-100,"0,0,0",2,0,0,0,0,0,60,64,82,50,82,-0.52,14,22.0,7.0,-996.0,13:57:46.239601,192.168.0.112
763,-1,-100,-100,-100,"0,0,0",2,0,-1,0,0,0,60,64,81,50,82,-0.57,15,23.0,7.0,-1005.0,13:57:46.341437,192.168.0.112
768,-1,-100,-100,-100,"0,0,0",2,0,-1,0,0,0,60,64,81,50,82,-0.56,15,43.0,-10.0,-1014.0,13:57:46.443456,192.168.0.112
773,-1,-100,-100,-100,"0,0,0",1,0,-1,0,0,0,60,64,81,50,82,-0.53,15,24.0,19.0,-995.0,13:57:46.545483,192.168.0.112
778,-1,-100,-100,-100,"0,0,0",1,0,0,0,0,0,60,64,82,40,82,-0.55,15,11.0,-1.0,-1002.0,13:57:46.651025,192.168.0.112
782,-1,-100,-100,-100,"0,0,0",1,0,-1,0,0,0,61,64,82,40,82,-0.63,15,15.0,26.0,-990.0,13:57:46.750426,192.168.0.112
788,-1,-100,-100,-100,"0,0,0",1,0,-1,0,0,0,61,64,81,40,82,-0.56,15,31.0,38.0,-990.0,13:57:46.853686,192.168.0.112
793,-1,-100,-100,-100,"0,0,0",1,0,-1,0,0,0,61,64,81,40,82,-0.5,15,13.0,18.0,-1015.0,13:57:46.954404,192.168.0.112
798,-1,-100,-100,-100,"0,0,0",1,-1,0,0,0,0,61,64,81,40,82,-0.61,15,29.0,18.0,-1019.0,13:57:47.058601,192.168.0.112
803,-1,-100,-100,-100,"0,0,0",1,-1,0,0,0,0,61,64,81,40,82,-0.62,15,25.0,10.0,-1000.0,13:57:47.157274,192.168.0.112
808,-1,-100,-100,-100,"0,0,0",1,-1,0,0,0,0,61,64,81,40,82,-0.61,15,18.0,17.0,-990.0,13:57:47.259453,192.168.0.112
812,-1,-100,-100,-100,"0,0,0",1,-1,0,0,0,0,61,64,81,40,82,-0.58,16,25.0,12.0,-996.0,13:57:47.310352,192.168.0.112
817,-1,-100,-100,-100,"0,0,0",1,-1,0,0,0,0,61,64,81,40,82,-0.59,16,15.0,13.0,-981.0,13:57:47.412352,192.168.0.112
822,-1,-100,-100,-100,"0,0,0",1,-1,0,0,0,0,61,64,80,40,82,-0.57,16,0.0,25.0,-946.0,13:57:47.515038,192.168.0.112
827,-1,-100,-100,-100,"0,0,0",1,0,0,0,0,0,61,64,80,40,82,-0.59,16,17.0,17.0,-947.0,13:57:47.616437,192.168.0.112
832,-1,-100,-100,-100,"0,0,0",0,0,0,0,0,-1,61,65,79,40,82,-0.7,16,36.0,-1.0,-934.0,13:57:47.718354,192.168.0.112
838,-1,-100,-100,-100,"0,0,0",0,0,0,0,0,-2,61,65,77,40,82,-0.64,16,6.0,7.0,-913.0,13:57:47.820276,192.168.0.112
843,-1,-100,-100,-100,"0,0,0",0,0,-1,0,0,-2,61,65,74,40,82,-0.61,16,5.0,7.0,-927.0,13:57:47.922343,192.168.0.112
848,-1,-100,-100,-100,"0,0,0",0,0,-1,0,0,-3,61,65,71,40,82,-0.69,16,-10.0,18.0,-950.0,13:57:48.024312,192.168.0.112
853,-1,-100,-100,-100,"0,0,0",0,0,-1,0,0,-4,61,65,66,30,82,-0.66,16,18.0,-6.0,-962.0,13:57:48.128960,192.168.0.112
858,-1,-100,-100,-100,"0,0,0",0,0,-1,0,0,-4,61,65,62,30,82,-0.74,16,3.0,-2.0,-972.0,13:57:48.228408,192.168.0.112
863,-1,-100,-100,-100,"0,0,0",0,0,-1,0,0,-4,61,65,57,20,82,-0.76,17,18.0,-13.0,-1033.0,13:57:48.330351,192.168.0.112
868,-1,-100,-100,-100,"0,0,0",0,0,-1,0,0,-4,61,65,52,20,82,-0.83,17,25.0,-12.0,-1018.0,13:57:48.432375,192.168.0.112
873,-1,-100,-100,-100,"0,0,0",0,0,-1,0,0,-4,61,65,48,10,82,-0.89,17,18.0,-31.0,-998.0,13:57:48.534405,192.168.0.112
878,-1,-100,-100,-100,"0,0,0",0,0,-1,0,0,-4,61,65,43,10,82,-1.02,17,12.0,-22.0,-1016.0,13:57:48.636264,192.168.0.112
883,-1,-100,-100,-100,"0,0,0",0,1,0,0,0,-4,62,64,38,0,82,-1.03,17,0.0,-22.0,-1017.0,13:57:48.738250,192.168.0.112
888,-1,-100,-100,-100,"0,0,0",0,1,0,0,0,-4,62,64,34,0,82,-1.16,17,-9.0,-18.0,-1035.0,13:57:48.840206,192.168.0.112
893,-1,-100,-100,-100,"0,0,0",1,2,0,0,0,-4,62,64,30,0,82,-1.15,17,-14.0,-18.0,-1007.0,13:57:48.942279,192.168.0.112
898,-1,-100,-100,-100,"0,0,0",0,1,0,0,0,-4,62,64,26,0,82,-1.18,17,8.0,-45.0,-965.0,13:57:49.044229,192.168.0.112
903,-1,-100,-100,-100,"0,0,0",0,2,0,0,0,-4,62,64,21,0,82,-1.01,17,0.0,-25.0,-1014.0,13:57:49.148664,192.168.0.112
908,-1,-100,-100,-100,"0,0,0",0,1,0,0,0,-4,62,64,15,-10,82,-1.29,17,-23.0,-22.0,-1006.0,13:57:49.248727,192.168.0.112
913,-1,-100,-100,-100,"0,0,0",0,1,0,0,0,-4,62,64,11,-10,82,-1.75,18,9.0,-12.0,-1038.0,13:57:49.350187,192.168.0.112
918,-1,-100,-100,-100,"0,0,0",-1,0,0,0,0,-4,62,64,10,-20,82,-2.53,18,-12.0,-59.0,-1088.0,13:57:49.452214,192.168.0.112
923,-1,-100,-100,-100,"0,0,0",-1,1,0,0,0,-3,62,64,10,-20,82,-3.85,18,6.0,0.0,-1041.0,13:57:49.554325,192.168.0.112
928,-1,-100,-100,-100,"0,0,0",0,2,0,0,0,-3,62,64,10,-30,82,-4.6,18,32.0,2.0,-1845.0,13:57:49.665265,192.168.0.112
933,-1,-100,-100,-100,"0,0,0",0,0,0,0,0,0,61,64,10,-30,82,-3.51,18,-18.0,-8.0,-748.0,13:57:49.757926,192.168.0.112
938,-1,-100,-100,-100,"0,0,0",1,1,0,0,0,-1,61,64,10,-30,82,-3.99,18,116.0,147.0,-1416.0,13:57:49.861505,192.168.0.112
943,-1,-100,-100,-100,"0,0,0",1,0,0,0,0,0,61,64,10,-30,82,-3.47,18,19.0,9.0,-930.0,13:57:49.962214,192.168.0.112
948,-1,-100,-100,-100,"0,0,0",-1,0,1,0,0,0,61,64,10,-20,82,-3.2,18,-69.0,-27.0,-962.0,13:57:50.064879,192.168.0.112
953,-1,-100,-100,-100,"0,0,0",-1,0,1,0,0,0,61,64,10,-20,82,-2.51,18,-40.0,2.0,-994.0,13:57:50.167914,192.168.0.112
958,-1,-100,-100,-100,"0,0,0",-1,0,1,0,0,0,61,64,10,-20,82,-2.2,18,-31.0,-2.0,-1001.0,13:57:50.270226,192.168.0.112
963,-1,-100,-100,-100,"0,0,0",-1,0,1,0,0,0,61,64,10,-20,82,-2.07,19,-34.0,-3.0,-999.0,13:57:50.370182,192.168.0.112
968,-1,-100,-100,-100,"0,0,0",-1,0,1,0,0,0,61,64,10,-20,82,-2.03,19,-30.0,0.0,-1000.0,13:57:50.472199,192.168.0.112
973,-1,-100,-100,-100,"0,0,0",-1,0,1,0,0,0,61,64,10,-20,82,-1.86,19,-30.0,0.0,-1001.0,13:57:50.574604,192.168.0.112
977,-1,-100,-100,-100,"0,0,0",-1,0,1,0,0,0,61,64,10,-20,82,-1.74,19,-27.0,-1.0,-1000.0,13:57:50.624924,192.168.0.112
