,mid,x,y,z,mpry,pitch,roll,yaw,vgx,vgy,vgz,templ,temph,tof,h,bat,baro,time,agx,agy,agz,timestamp,address
3,-2,-200,-200,-200,"0,0,0",0,0,0,0,0,0,72,74,10,0,93,-57.67,0,8.0,-11.0,-1000.0,15:55:03.273864,192.168.0.111
8,-2,-200,-200,-200,"0,0,0",0,0,0,0,0,0,72,75,10,0,93,-57.67,0,9.0,-9.0,-998.0,15:55:03.376606,192.168.0.111
14,-2,-200,-200,-200,"0,0,0",0,0,0,0,0,0,72,75,10,0,93,-57.7,0,7.0,-9.0,-1000.0,15:55:03.477888,192.168.0.111
19,-2,-200,-200,-200,"0,0,0",0,0,0,0,0,0,72,75,10,0,93,-57.69,0,9.0,-11.0,-1000.0,15:55:03.580177,192.168.0.111
24,-2,-200,-200,-200,"0,0,0",0,0,0,0,0,0,72,75,10,0,93,-57.69,0,6.0,-11.0,-999.0,15:55:03.681859,192.168.0.111
29,-2,-200,-200,-200,"0,0,0",0,0,0,0,0,0,72,75,10,0,93,-57.69,0,3.0,-8.0,-997.0,15:55:03.783968,192.168.0.111
34,-2,-200,-200,-200,"0,0,0",0,0,0,0,0,0,72,75,10,0,93,-57.69,0,-8.0,14.0,-997.0,15:55:03.886300,192.168.0.111
35,-2,-200,-200,-200,"0,0,0",0,0,0,0,0,0,72,75,10,0,93,-57.69,0,-9.0,12.0,-1038.0,15:55:03.936799,192.168.0.111
40,-2,-200,-200,-200,"0,0,0",0,0,0,0,0,0,72,75,10,0,93,-57.69,0,-4.0,3.0,-1225.0,15:55:04.038796,192.168.0.111
45,-2,-200,-200,-200,"0,0,0",0,0,0,0,0,2,72,75,10,0,93,-57.69,0,5.0,8.0,-1391.0,15:55:04.140804,192.168.0.111
50,-2,-200,-200,-200,"0,0,0",0,0,0,0,0,5,72,75,12,0,93,-57.69,0,9.0,-12.0,-1184.0,15:55:04.242868,192.168.0.111
56,-2,-200,-200,-200,"0,0,0",0,0,0,0,0,7,72,75,21,10,93,-57.39,0,5.0,3.0,-1056.0,15:55:04.344779,192.168.0.111
61,-2,-200,-200,-200,"0,0,0",0,0,0,0,0,8,72,75,31,10,93,-57.35,0,5.0,-1.0,-998.0,15:55:04.446822,192.168.0.111
66,-2,-200,-200,-200,"0,0,0",0,0,0,0,0,8,72,75,40,20,93,-57.21,0,3.0,8.0,-939.0,15:55:04.548805,192.168.0.111
71,-2,-200,-200,-200,"0,0,0",0,0,0,0,0,7,72,75,46,30,93,-57.12,1,9.0,10.0,-893.0,15:55:04.650849,192.168.0.111
76,-2,-200,-200,-200,"0,0,0",0,0,0,0,0,6,72,75,53,30,93,-57.04,1,15.0,-7.0,-880.0,15:55:04.752286,192.168.0.111
81,-2,-200,-200,-200,"0,0,0",0,0,0,0,0,5,72,75,59,40,93,-57.04,1,16.0,0.0,-883.0,15:55:04.854881,192.168.0.111
86,-2,-200,-200,-200,"0,0,0",0,0,0,0,0,4,72,75,63,40,93,-57.04,1,9.0,5.0,-908.0,15:55:04.956775,192.168.0.111
91,-2,-200,-200,-200,"0,0,0",0,0,0,0,0,3,72,75,66,50,93,-56.95,1,11.0,6.0,-916.0,15:55:05.058812,192.168.0.111
96,-2,-200,-200,-200,"0,0,0",0,0,0,0,0,2,72,75,70,50,93,-56.89,1,14.0,4.0,-941.0,15:55:05.160757,192.168.0.111
101,-2,-200,-200,-200,"0,0,0",0,0,0,0,0,1,72,75,72,50,93,-56.96,1,13.0,8.0,-956.0,15:55:05.262520,192.168.0.111
106,-2,-200,-200,-200,"0,0,0",0,0,0,0,0,1,73,75,74,50,93,-56.88,1,12.0,5.0,-949.0,15:55:05.364769,192.168.0.111
111,1,19,1,67,"-1,4,177",0,0,0,0,0,0,73,75,76,50,93,-56.87,1,13.0,0.0,-962.0,15:55:05.466774,192.168.0.111
117,1,19,1,67,"-1,4,177",0,0,0,0,0,0,73,75,77,50,93,-56.85,1,11.0,11.0,-982.0,15:55:05.569272,192.168.0.111
122,1,19,1,67,"-1,4,177",0,0,0,0,0,0,73,75,80,60,93,-56.83,2,14.0,1.0,-987.0,15:55:05.671134,192.168.0.111
128,1,19,1,67,"-1,4,177",0,0,0,0,0,0,73,75,81,60,93,-56.85,2,7.0,14.0,-990.0,15:55:05.773343,192.168.0.111
133,1,19,1,67,"-1,4,177",0,0,0,0,0,0,73,75,82,60,93,-56.83,2,13.0,7.0,-986.0,15:55:05.874773,192.168.0.111
138,1,16,1,79,"-2,4,177",0,0,0,0,0,0,73,75,84,60,93,-56.81,2,8.0,14.0,-987.0,15:55:05.976843,192.168.0.111
143,1,16,1,79,"-2,4,177",0,0,0,0,0,0,73,75,86,60,93,-56.81,2,2.0,10.0,-987.0,15:55:06.078764,192.168.0.111
148,1,16,1,79,"-2,4,177",0,0,0,0,0,0,73,75,86,60,93,-56.75,2,9.0,12.0,-984.0,15:55:06.182031,192.168.0.111
153,1,16,1,79,"-2,4,177",0,0,0,0,0,0,73,75,87,60,93,-56.73,2,11.0,10.0,-980.0,15:55:06.282711,192.168.0.111
158,1,14,4,87,"-4,4,175",0,0,0,0,0,0,72,75,88,60,93,-56.7,2,6.0,9.0,-981.0,15:55:06.384781,192.168.0.111
163,1,14,4,87,"-4,4,175",0,0,0,0,0,0,72,75,89,70,93,-56.75,2,8.0,11.0,-982.0,15:55:06.486574,192.168.0.111
169,1,14,4,87,"-4,4,175",0,0,0,0,0,0,72,75,89,70,93,-56.7,3,9.0,15.0,-987.0,15:55:06.588744,192.168.0.111
174,1,14,4,87,"-4,4,175",0,0,0,0,0,0,72,75,89,70,93,-56.74,3,28.0,-1.0,-974.0,15:55:06.690748,192.168.0.111
179,1,14,4,87,"-4,4,175",0,0,0,0,0,0,72,75,89,70,93,-56.75,3,5.0,14.0,-989.0,15:55:06.794798,192.168.0.111
184,1,13,5,92,"-4,4,175",1,0,0,0,0,0,72,75,89,70,93,-56.75,3,15.0,9.0,-982.0,15:55:06.901917,192.168.0.111
189,1,13,5,92,"-4,4,175",1,0,0,0,0,0,72,75,89,70,93,-56.72,3,12.0,6.0,-997.0,15:55:06.996692,192.168.0.111
194,1,13,5,92,"-4,4,175",1,0,0,0,0,0,72,75,88,70,93,-56.73,3,10.0,9.0,-990.0,15:55:07.099210,192.168.0.111
199,1,13,5,92,"-4,4,175",1,0,0,0,0,0,72,75,88,70,93,-56.7,3,16.0,11.0,-1003.0,15:55:07.200530,192.168.0.111
204,1,15,6,92,"-4,4,175",0,0,0,0,0,0,72,75,87,70,93,-56.78,3,24.0,8.0,-989.0,15:55:07.302507,192.168.0.111
209,1,15,6,92,"-4,4,175",1,0,0,0,0,0,72,76,86,70,93,-56.81,3,22.0,1.0,-987.0,15:55:07.404746,192.168.0.111
214,1,15,6,92,"-4,4,175",1,0,0,0,0,0,72,76,86,60,93,-56.8,3,11.0,3.0,-1000.0,15:55:07.506691,192.168.0.111
219,1,15,6,92,"-4,4,175",1,0,0,0,0,0,72,76,85,60,93,-56.79,4,10.0,13.0,-1004.0,15:55:07.608799,192.168.0.111
224,1,15,6,92,"-4,4,175",1,0,0,0,0,0,72,76,85,60,93,-56.85,4,24.0,5.0,-1000.0,15:55:07.711192,192.168.0.111
229,1,18,6,90,"-2,4,175",1,0,0,0,0,0,72,76,84,60,93,-56.8,4,13.0,9.0,-1002.0,15:55:07.812672,192.168.0.111
231,1,18,6,90,"-2,4,175",1,0,0,0,0,0,72,76,84,60,93,-56.78,4,25.0,0.0,-1002.0,15:55:07.863894,192.168.0.111
236,1,18,6,90,"-2,4,175",1,0,0,0,0,0,72,76,83,60,93,-56.76,4,10.0,12.0,-998.0,15:55:07.967248,192.168.0.111
241,1,18,6,90,"-2,4,175",1,0,0,0,0,0,72,76,83,60,93,-56.82,4,11.0,11.0,-1001.0,15:55:08.068002,192.168.0.111
246,1,18,6,90,"-2,4,175",1,0,0,0,0,0,72,76,82,60,93,-56.86,4,18.0,6.0,-999.0,15:55:08.169786,192.168.0.111
251,1,21,5,87,"-1,4,176",1,0,0,0,0,0,72,76,82,60,93,-56.79,4,10.0,9.0,-998.0,15:55:08.275964,192.168.0.111
259,1,21,5,87,"-1,4,176",1,0,0,0,0,0,72,75,81,60,93,-56.82,4,8.0,6.0,-1002.0,15:55:08.424618,192.168.0.111
262,1,21,5,87,"-1,4,176",1,0,0,0,0,0,72,75,81,60,93,-56.88,4,13.0,4.0,-1002.0,15:55:08.476058,192.168.0.111
267,1,21,5,87,"-1,4,176",1,0,0,0,0,0,72,75,80,60,93,-56.84,5,18.0,1.0,-1001.0,15:55:08.577895,192.168.0.111
272,1,20,7,85,"-3,5,175",1,0,0,0,0,0,72,75,80,60,93,-56.88,5,10.0,13.0,-1009.0,15:55:08.679888,192.168.0.111
277,1,20,7,85,"-3,5,175",1,0,0,0,0,0,72,75,80,60,93,-56.85,5,6.0,16.0,-1003.0,15:55:08.781896,192.168.0.111
282,1,20,7,85,"-3,5,175",1,0,0,0,0,0,72,75,80,60,93,-56.87,5,14.0,4.0,-1006.0,15:55:08.883961,192.168.0.111
288,1,20,7,85,"-3,5,175",1,0,0,0,0,0,72,75,80,60,93,-56.9,5,9.0,8.0,-1006.0,15:55:08.985981,192.168.0.111
294,1,20,7,85,"-3,5,175",1,0,0,0,0,0,72,75,80,60,93,-56.88,5,13.0,1.0,-994.0,15:55:09.087852,192.168.0.111
299,1,25,6,82,"0,4,176",1,0,0,0,0,0,72,75,80,60,93,-56.84,5,11.0,5.0,-1006.0,15:55:09.189533,192.168.0.111
303,1,25,6,82,"0,4,176",1,0,0,0,0,0,72,75,80,60,93,-56.86,5,6.0,9.0,-1009.0,15:55:09.291946,192.168.0.111
309,1,25,6,82,"0,4,176",1,0,0,0,0,0,72,76,80,60,93,-56.88,5,16.0,14.0,-994.0,15:55:09.393730,192.168.0.111
314,1,25,6,82,"0,4,176",1,0,0,0,0,0,72,76,80,60,93,-56.91,5,6.0,10.0,-992.0,15:55:09.495953,192.168.0.111
319,1,26,5,82,"-1,4,177",1,0,0,0,0,0,72,76,80,60,93,-56.95,6,16.0,3.0,-1005.0,15:55:09.597912,192.168.0.111
324,1,26,5,82,"-1,4,177",1,0,0,0,0,0,72,76,80,60,93,-56.84,6,15.0,3.0,-999.0,15:55:09.700263,192.168.0.111
329,1,26,5,82,"-1,4,177",1,0,0,0,0,0,72,76,80,60,93,-56.91,6,9.0,9.0,-1001.0,15:55:09.801858,192.168.0.111
334,1,26,5,82,"-1,4,177",1,0,0,0,0,0,72,76,81,60,93,-56.88,6,6.0,4.0,-1001.0,15:55:09.903901,192.168.0.111
339,1,26,5,82,"-1,4,177",1,0,0,0,0,0,72,76,80,60,93,-56.93,6,13.0,7.0,-992.0,15:55:10.006055,192.168.0.111
344,1,29,7,80,"0,4,176",1,0,0,0,0,0,72,76,80,60,93,-56.93,6,10.0,9.0,-1001.0,15:55:10.107871,192.168.0.111
349,1,29,7,80,"0,4,176",1,0,0,0,0,0,72,76,81,60,93,-56.92,6,18.0,2.0,-993.0,15:55:10.210087,192.168.0.111
354,1,29,7,80,"0,4,176",1,0,0,0,0,0,72,76,81,60,93,-56.93,6,11.0,10.0,-1008.0,15:55:10.311884,192.168.0.111
359,1,29,7,80,"0,4,176",1,0,0,0,0,0,73,75,81,60,93,-56.89,6,11.0,10.0,-998.0,15:55:10.413778,192.168.0.111
364,1,29,8,82,"0,5,176",1,0,0,0,0,0,73,75,81,60,93,-56.95,6,19.0,-1.0,-972.0,15:55:10.515891,192.168.0.111
369,1,29,8,82,"0,5,176",2,1,0,0,0,0,73,75,80,60,93,-56.91,7,2.0,18.0,-947.0,15:55:10.617679,192.168.0.111
374,1,29,8,82,"0,5,176",2,1,0,0,0,0,73,75,80,60,93,-56.93,7,12.0,4.0,-986.0,15:55:10.719826,192.168.0.111
379,1,29,8,82,"0,5,176",2,0,0,0,0,0,73,75,79,60,93,-56.92,7,9.0,7.0,-993.0,15:55:10.821756,192.168.0.111
384,1,29,8,82,"0,5,176",1,0,0,0,0,-1,73,75,78,60,93,-56.93,7,13.0,8.0,-1003.0,15:55:10.923801,192.168.0.111
389,1,32,7,81,"1,4,176",1,-1,0,0,0,-1,73,75,77,60,93,-57.01,7,0.0,13.0,-998.0,15:55:11.026022,192.168.0.111
394,1,32,7,81,"1,4,176",1,-2,0,0,0,0,73,75,76,60,93,-56.96,7,25.0,-4.0,-1013.0,15:55:11.127898,192.168.0.111
399,1,32,7,81,"1,4,176",1,0,0,0,0,0,73,75,75,50,93,-56.98,7,11.0,8.0,-1005.0,15:55:11.229824,192.168.0.111
404,1,32,7,81,"1,4,176",2,0,0,0,0,0,73,75,74,50,93,-56.98,7,19.0,9.0,-1012.0,15:55:11.332247,192.168.0.111
409,1,32,7,81,"1,4,176",1,0,0,0,0,0,72,75,73,50,93,-56.98,7,20.0,8.0,-1011.0,15:55:11.434843,192.168.0.111
414,1,32,7,81,"1,4,176",1,0,0,0,0,0,72,75,73,50,93,-56.94,7,22.0,8.0,-1007.0,15:55:11.535424,192.168.0.111
419,1,32,7,81,"1,4,176",1,0,0,0,0,0,72,75,72,50,93,-56.93,8,19.0,6.0,-1005.0,15:55:11.637423,192.168.0.111
424,1,29,6,76,"0,5,175",1,0,0,0,0,0,72,75,72,50,93,-56.95,8,13.0,18.0,-1003.0,15:55:11.740356,192.168.0.111
429,1,29,6,76,"0,5,175",2,1,0,0,0,0,72,75,72,50,93,-57.0,8,20.0,6.0,-1003.0,15:55:11.841415,192.168.0.111
434,1,29,6,76,"0,5,175",2,1,0,0,0,0,72,75,73,50,93,-56.92,8,21.0,2.0,-1002.0,15:55:11.943341,192.168.0.111
439,1,29,6,76,"0,5,175",2,0,0,0,0,0,72,75,71,50,93,-56.97,8,18.0,21.0,-991.0,15:55:12.045614,192.168.0.111
442,1,29,6,76,"0,5,175",2,-2,0,0,0,0,72,75,70,50,93,-56.95,8,23.0,14.0,-992.0,15:55:12.096013,192.168.0.111
447,1,29,6,76,"0,5,175",2,-1,0,0,0,0,72,75,70,50,93,-56.98,8,21.0,-9.0,-1023.0,15:55:12.197976,192.168.0.111
452,1,28,0,73,"0,3,-178",1,0,0,0,0,0,72,75,70,50,93,-56.97,8,20.0,9.0,-996.0,15:55:12.304433,192.168.0.111
457,1,28,0,73,"0,3,-178",-1,0,0,0,0,0,71,75,71,50,93,-56.99,8,14.0,12.0,-1013.0,15:55:12.401978,192.168.0.111
463,1,28,0,73,"0,3,-178",-4,0,0,0,0,0,71,75,63,50,93,-56.93,8,18.0,11.0,-991.0,15:55:12.506373,192.168.0.111
467,1,28,0,73,"0,3,-178",-7,0,0,-1,0,0,71,75,69,50,93,-56.93,9,-5.0,6.0,-1013.0,15:55:12.605971,192.168.0.111
472,1,28,0,73,"0,3,-178",-7,0,0,-2,0,0,71,75,70,50,93,-57.02,9,-6.0,11.0,-1012.0,15:55:12.707979,192.168.0.111
477,1,28,0,73,"0,3,-178",-7,0,0,-4,0,0,71,75,69,50,93,-57.03,9,-20.0,9.0,-1015.0,15:55:12.810005,192.168.0.111
482,1,28,0,73,"0,3,-178",-6,0,0,-5,0,0,71,75,70,50,93,-56.99,9,-27.0,14.0,-1002.0,15:55:12.913913,192.168.0.111
487,1,23,3,72,"2,4,176",-5,0,0,-6,0,0,71,75,69,50,93,-56.94,9,-40.0,11.0,-1000.0,15:55:13.013949,192.168.0.111
492,1,23,3,72,"2,4,176",-5,0,0,-6,0,0,71,75,70,50,93,-56.93,9,-30.0,2.0,-997.0,15:55:13.116655,192.168.0.111
498,1,23,3,72,"2,4,176",-5,0,0,-7,0,0,71,75,70,50,93,-57.02,9,-48.0,8.0,-1006.0,15:55:13.220001,192.168.0.111
503,1,23,3,72,"2,4,176",-4,0,0,-8,0,0,71,75,69,50,93,-57.0,9,-38.0,5.0,-998.0,15:55:13.324048,192.168.0.111
509,1,23,3,72,"2,4,176",-4,0,0,-8,0,0,73,76,68,50,93,-56.95,9,-41.0,13.0,-985.0,15:55:13.422094,192.168.0.111
514,1,23,3,72,"2,4,176",-3,0,0,-8,0,0,73,76,70,50,93,-56.87,9,-41.0,82.0,-983.0,15:55:13.523918,192.168.0.111
519,1,23,3,72,"2,4,176",-3,0,0,-9,0,0,73,76,67,50,93,-56.9,10,-37.0,96.0,-1024.0,15:55:13.625950,192.168.0.111
524,1,23,3,72,"2,4,176",-3,-1,0,-9,-1,0,73,76,68,50,93,-57.03,10,-38.0,101.0,-986.0,15:55:13.728304,192.168.0.111
529,1,23,3,72,"2,4,176",-2,-5,0,-10,-2,0,73,76,69,50,93,-57.09,10,-51.0,28.0,-1073.0,15:55:13.830166,192.168.0.111
534,1,23,3,72,"2,4,176",-1,-6,0,-9,-1,0,73,76,69,50,93,-57.09,10,-85.0,-3.0,-1055.0,15:55:13.932158,192.168.0.111
539,1,23,3,72,"2,4,176",-2,-3,0,-9,0,0,73,76,69,50,93,-57.08,10,-85.0,13.0,-1022.0,15:55:14.033828,192.168.0.111
544,1,23,3,72,"2,4,176",-3,0,0,-9,0,0,73,76,69,50,93,-57.03,10,-72.0,8.0,-981.0,15:55:14.135892,192.168.0.111
549,1,23,3,72,"2,4,176",-3,0,0,-9,0,0,73,76,70,50,93,-57.08,10,-89.0,20.0,-984.0,15:55:14.238133,192.168.0.111
554,1,23,3,72,"2,4,176",-2,0,0,-9,0,0,73,76,70,50,93,-57.0,10,-96.0,30.0,-979.0,15:55:14.339872,192.168.0.111
559,1,23,3,72,"2,4,176",0,0,0,-9,0,0,73,75,70,50,93,-57.02,10,-80.0,31.0,-985.0,15:55:14.441961,192.168.0.111
564,1,23,3,72,"2,4,176",2,-1,0,-8,0,0,73,75,71,50,93,-57.02,10,-80.0,27.0,-1003.0,15:55:14.543928,192.168.0.111
569,1,23,3,72,"2,4,176",4,-1,0,-7,0,0,73,75,71,50,93,-57.13,11,-71.0,27.0,-1003.0,15:55:14.645904,192.168.0.111
574,1,23,3,72,"2,4,176",5,-1,0,-5,0,0,73,75,72,50,93,-57.08,11,-70.0,29.0,-1007.0,15:55:14.747932,192.168.0.111
579,1,23,3,72,"2,4,176",4,-1,0,-4,0,0,73,75,72,50,93,-57.05,11,-54.0,20.0,-1013.0,15:55:14.850818,192.168.0.111
584,5,-1,7,74,"-1,3,-177",2,-1,0,-3,0,0,73,75,73,50,93,-56.99,11,-50.0,24.0,-996.0,15:55:14.951904,192.168.0.111
589,5,-1,7,74,"-1,3,-177",1,0,0,-3,0,0,73,75,72,50,93,-56.91,11,-47.0,19.0,-978.0,15:55:15.053920,192.168.0.111
594,5,-1,7,74,"-1,3,-177",2,0,0,-2,0,0,73,75,72,50,93,-56.92,11,-46.0,27.0,-983.0,15:55:15.155930,192.168.0.111
599,5,-1,7,74,"-1,3,-177",5,0,0,-1,0,0,73,75,72,50,93,-56.91,11,-35.0,18.0,-1009.0,15:55:15.257975,192.168.0.111
604,5,-1,7,74,"-1,3,-177",3,0,0,0,0,0,73,75,71,50,93,-56.9,11,-24.0,12.0,-992.0,15:55:15.360351,192.168.0.111
609,5,-1,7,74,"-1,3,-177",1,0,0,0,0,0,72,75,71,50,93,-56.86,11,-30.0,19.0,-994.0,15:55:15.463611,192.168.0.111
614,5,-1,7,74,"-1,3,-177",0,0,0,0,0,0,72,75,71,50,93,-56.92,11,-26.0,16.0,-992.0,15:55:15.563897,192.168.0.111
619,5,-1,7,74,"-1,3,-177",0,0,0,0,0,0,72,75,71,50,93,-56.87,12,-16.0,9.0,-997.0,15:55:15.666087,192.168.0.111
624,5,-1,7,74,"-1,3,-177",0,0,0,0,0,0,72,75,71,50,93,-56.9,12,-31.0,17.0,-991.0,15:55:15.768031,192.168.0.111
629,5,-1,7,74,"-1,3,-177",0,0,0,0,0,0,72,75,71,50,93,-56.93,12,-28.0,16.0,-1027.0,15:55:15.870241,192.168.0.111
634,5,-1,7,74,"-1,3,-177",3,2,0,0,0,0,72,75,71,50,93,-56.93,12,-26.0,21.0,-998.0,15:55:15.976223,192.168.0.111
637,5,-1,7,74,"-1,3,-177",3,3,0,0,0,0,72,75,72,50,93,-56.96,12,-6.0,5.0,-999.0,15:55:16.023349,192.168.0.111
642,5,-1,7,74,"-1,3,-177",2,1,0,1,0,0,72,75,70,50,93,-56.91,12,0.0,2.0,-993.0,15:55:16.125564,192.168.0.111
647,5,-1,7,74,"-1,3,-177",1,0,0,1,0,0,72,75,71,50,93,-56.88,12,-3.0,9.0,-994.0,15:55:16.227480,192.168.0.111
652,5,-1,7,74,"-1,3,-177",0,0,0,1,0,0,72,75,70,50,93,-56.92,12,-4.0,6.0,-996.0,15:55:16.329489,192.168.0.111
657,5,-1,7,74,"-1,3,-177",0,0,0,1,-1,0,71,75,70,50,93,-56.94,12,-1.0,9.0,-989.0,15:55:16.431470,192.168.0.111
662,5,-1,7,74,"-1,3,-177",0,0,0,1,-1,0,71,75,69,50,93,-56.93,12,-2.0,10.0,-997.0,15:55:16.533446,192.168.0.111
667,5,-1,7,74,"-1,3,-177",0,0,0,1,-1,0,71,75,70,50,93,-57.02,13,1.0,11.0,-996.0,15:55:16.635362,192.168.0.111
672,5,-1,7,74,"-1,3,-177",0,0,0,1,-1,0,71,75,70,50,93,-56.93,13,3.0,15.0,-998.0,15:55:16.737434,192.168.0.111
677,5,-1,7,74,"-1,3,-177",0,0,0,1,0,0,71,75,70,50,93,-56.97,13,-3.0,16.0,-1000.0,15:55:16.839408,192.168.0.111
682,5,-1,7,74,"-1,3,-177",0,0,0,1,0,0,71,75,70,50,93,-56.92,13,-5.0,25.0,-1004.0,15:55:16.941501,192.168.0.111
687,5,-1,7,74,"-1,3,-177",1,0,0,1,0,0,71,75,70,50,93,-56.9,13,-5.0,14.0,-995.0,15:55:17.045721,192.168.0.111
692,5,-1,7,74,"-1,3,-177",0,0,0,1,0,0,71,75,70,50,93,-56.86,13,-6.0,17.0,-1003.0,15:55:17.145374,192.168.0.111
698,5,-1,7,74,"-1,3,-177",0,0,0,1,0,0,71,75,70,50,93,-56.94,13,0.0,18.0,-1001.0,15:55:17.247209,192.168.0.111
703,5,-1,7,74,"-1,3,-177",0,-1,0,1,0,0,71,75,69,50,93,-56.89,13,5.0,25.0,-990.0,15:55:17.349319,192.168.0.111
708,5,-1,7,74,"-1,3,-177",0,-1,0,1,0,0,72,75,68,50,93,-56.87,13,-1.0,17.0,-1003.0,15:55:17.451537,192.168.0.111
713,5,-1,7,74,"-1,3,-177",0,-2,0,1,0,0,72,75,69,50,93,-56.82,13,6.0,12.0,-1005.0,15:55:17.553329,192.168.0.111
718,5,-1,7,74,"-1,3,-177",0,-1,0,1,0,0,72,75,69,50,93,-56.84,14,2.0,18.0,-1006.0,15:55:17.655238,192.168.0.111
723,5,-1,7,74,"-1,3,-177",0,-1,0,1,0,0,72,75,69,50,93,-56.9,14,-3.0,22.0,-1002.0,15:55:17.761103,192.168.0.111
728,5,-1,7,74,"-1,3,-177",0,-1,0,0,0,0,72,75,69,50,93,-56.83,14,0.0,15.0,-988.0,15:55:17.859305,192.168.0.111
733,5,-1,7,74,"-1,3,-177",0,-1,0,0,0,0,72,75,69,50,93,-56.87,14,-4.0,23.0,-1008.0,15:55:17.961561,192.168.0.111
739,5,-1,7,74,"-1,3,-177",0,-1,0,0,0,0,72,75,70,50,93,-56.85,14,0.0,17.0,-999.0,15:55:18.063380,192.168.0.111
744,5,-1,7,74,"-1,3,-177",-2,0,0,0,0,0,72,75,70,50,93,-56.86,14,-1.0,19.0,-991.0,15:55:18.165293,192.168.0.111
749,5,38,9,67,"5,2,179",-1,0,0,0,0,0,72,75,70,50,93,-56.87,14,-7.0,17.0,-1004.0,15:55:18.267231,192.168.0.111
754,5,38,9,67,"5,2,179",0,0,0,0,0,0,72,75,70,50,93,-56.85,14,-8.0,15.0,-1006.0,15:55:18.369340,192.168.0.111
758,5,38,9,67,"5,2,179",0,0,0,0,0,0,72,74,69,50,93,-56.91,14,-12.0,17.0,-996.0,15:55:18.471550,192.168.0.111
764,5,38,9,67,"5,2,179",0,0,0,0,0,0,72,74,70,50,93,-56.92,14,-12.0,18.0,-1000.0,15:55:18.573433,192.168.0.111
769,5,38,9,67,"5,2,179",0,0,0,0,0,0,72,74,70,50,93,-56.96,15,-4.0,11.0,-998.0,15:55:18.675572,192.168.0.111
774,5,38,9,67,"5,2,179",0,0,0,0,0,0,72,74,70,50,93,-56.93,15,-23.0,26.0,-999.0,15:55:18.777401,192.168.0.111
779,5,38,9,67,"5,2,179",0,0,0,0,0,0,72,74,70,50,93,-56.85,15,-13.0,28.0,-993.0,15:55:18.879440,192.168.0.111
784,5,36,18,66,"5,5,175",0,0,0,0,0,0,72,74,69,50,93,-56.94,15,-15.0,20.0,-992.0,15:55:18.981308,192.168.0.111
789,5,36,18,66,"5,5,175",0,0,0,0,0,0,72,74,69,50,93,-56.88,15,-13.0,18.0,-961.0,15:55:19.083451,192.168.0.111
794,5,36,18,66,"5,5,175",0,0,0,0,0,-1,72,74,67,50,93,-56.95,15,-6.0,10.0,-947.0,15:55:19.185473,192.168.0.111
799,5,36,18,66,"5,5,175",0,0,0,0,0,-1,72,74,66,50,93,-56.9,15,-3.0,16.0,-921.0,15:55:19.287303,192.168.0.111
804,5,36,18,66,"5,5,175",0,0,0,0,0,-2,72,74,63,40,93,-56.91,15,0.0,8.0,-911.0,15:55:19.389206,192.168.0.111
809,5,36,18,66,"5,5,175",0,0,0,0,0,-3,72,74,59,40,93,-57.02,15,0.0,11.0,-962.0,15:55:19.491344,192.168.0.111
814,5,36,18,66,"5,5,175",0,0,0,0,0,-4,72,74,55,30,93,-57.0,16,6.0,13.0,-976.0,15:55:19.593310,192.168.0.111
819,5,36,18,66,"5,5,175",0,0,0,0,0,-4,72,74,50,30,93,-57.03,16,-5.0,16.0,-989.0,15:55:19.695175,192.168.0.111
824,5,36,18,66,"5,5,175",0,0,0,0,0,-4,72,74,45,30,93,-57.13,16,-4.0,19.0,-994.0,15:55:19.797135,192.168.0.111
829,5,36,18,66,"5,5,175",0,0,0,0,0,-4,72,74,40,20,93,-57.09,16,1.0,8.0,-987.0,15:55:19.900598,192.168.0.111
834,5,36,18,66,"5,5,175",0,0,0,0,0,-4,72,74,35,20,93,-57.14,16,0.0,11.0,-1006.0,15:55:20.001386,192.168.0.111
839,5,36,18,66,"5,5,175",0,0,0,0,0,-4,72,74,31,10,93,-57.16,16,0.0,8.0,-1009.0,15:55:20.103320,192.168.0.111
844,5,36,18,66,"5,5,175",1,0,0,0,0,-4,72,74,26,10,93,-57.23,16,-9.0,3.0,-999.0,15:55:20.205384,192.168.0.111
846,5,36,18,66,"5,5,175",0,0,0,0,0,-4,72,74,21,0,93,-57.3,16,-11.0,6.0,-1013.0,15:55:20.255629,192.168.0.111
852,5,36,18,66,"5,5,175",0,0,0,0,0,-4,72,74,18,0,93,-57.42,16,0.0,1.0,-1014.0,15:55:20.358136,192.168.0.111
857,5,36,18,66,"5,5,175",0,0,0,0,0,-4,72,75,12,0,93,-57.66,16,-1.0,-10.0,-1016.0,15:55:20.459988,192.168.0.111
862,5,36,18,66,"5,5,175",0,0,0,0,0,-3,72,75,10,0,93,-58.16,17,0.0,-6.0,-1026.0,15:55:20.561845,192.168.0.111
867,5,36,18,66,"5,5,175",0,0,0,0,0,-3,72,75,10,0,93,-58.62,17,-11.0,-9.0,-1024.0,15:55:20.663923,192.168.0.111
872,5,36,18,66,"5,5,175",0,0,0,0,0,-3,72,75,10,-10,93,-59.94,17,-8.0,-17.0,-1072.0,15:55:20.765962,192.168.0.111
877,5,36,18,66,"5,5,175",-1,0,0,1,0,0,72,75,10,-10,93,-60.22,17,-8.0,4.0,-1091.0,15:55:20.868022,192.168.0.111
882,5,36,18,66,"5,5,175",-2,-1,0,0,0,0,72,75,10,-10,93,-59.71,17,-39.0,13.0,-773.0,15:55:20.970017,192.168.0.111
888,5,36,18,66,"5,5,175",-1,1,0,1,0,0,72,75,10,-10,93,-59.99,17,22.0,19.0,-922.0,15:55:21.072264,192.168.0.111
893,5,36,18,66,"5,5,175",0,1,-1,1,-1,0,72,75,10,-10,93,-59.54,17,-54.0,-28.0,-1001.0,15:55:21.174016,192.168.0.111
898,5,36,18,66,"5,5,175",0,1,-2,1,-1,0,72,75,10,-10,93,-59.12,17,-1.0,-14.0,-967.0,15:55:21.278207,192.168.0.111
903,5,36,18,66,"5,5,175",1,1,-2,2,-1,0,72,75,10,-10,93,-58.81,17,10.0,-22.0,-997.0,15:55:21.378050,192.168.0.111
908,5,36,18,66,"5,5,175",0,1,-2,2,-1,0,72,73,10,-10,93,-58.7,17,-9.0,-1.0,-999.0,15:55:21.479877,192.168.0.111
913,5,36,18,66,"5,5,175",0,1,-2,2,-1,0,72,73,10,-10,93,-58.69,18,3.0,-21.0,-996.0,15:55:21.581901,192.168.0.111
918,5,36,18,66,"5,5,175",0,1,-2,2,-1,0,72,73,10,-10,93,-58.56,18,8.0,-8.0,-1000.0,15:55:21.683980,192.168.0.111
923,5,36,18,66,"5,5,175",0,1,-2,2,-1,0,72,73,10,0,93,-58.45,18,5.0,-19.0,-997.0,15:55:21.786122,192.168.0.111
928,5,36,18,66,"5,5,175",0,1,-2,2,-1,-2,72,73,10,0,93,-58.06,18,4.0,-11.0,-995.0,15:55:21.888240,192.168.0.111
933,5,36,18,66,"5,5,175",0,1,-2,2,-1,-3,72,73,10,0,93,-57.87,18,1.0,-16.0,-992.0,15:55:21.989723,192.168.0.111
