,mid,x,y,z,mpry,pitch,roll,yaw,vgx,vgy,vgz,templ,temph,tof,h,bat,baro,time,agx,agy,agz,timestamp,address
2,-1,-100,-100,-100,"-1,-1,-1",0,0,0,0,0,0,89,92,10,0,92,-58.08,0,-3.0,5.0,-999.0,15:55:03.271083,192.168.0.114
7,-1,-100,-100,-100,"-1,-1,-1",0,0,0,0,0,0,89,92,10,0,92,-58.04,0,-5.0,6.0,-998.0,15:55:03.373273,192.168.0.114
13,-1,-100,-100,-100,"-1,-1,-1",0,0,0,0,0,0,89,92,10,0,92,-58.07,0,-3.0,4.0,-998.0,15:55:03.474975,192.168.0.114
18,-1,-100,-100,-100,"-1,-1,-1",0,0,0,0,0,0,89,92,10,0,92,-58.08,0,-8.0,2.0,-998.0,15:55:03.577150,192.168.0.114
23,-1,-100,-100,-100,"-1,-1,-1",0,0,0,0,0,0,89,92,10,0,92,-58.08,0,-5.0,1.0,-999.0,15:55:03.678893,192.168.0.114
28,-1,-100,-100,-100,"-1,-1,-1",0,0,0,0,0,0,89,92,10,0,92,-58.08,0,-11.0,-14.0,-1002.0,15:55:03.783761,192.168.0.114
33,-1,-100,-100,-100,"-1,-1,-1",0,0,0,0,0,0,89,92,10,0,92,-58.08,0,-13.0,-1.0,-988.0,15:55:03.883348,192.168.0.114
39,-1,-100,-100,-100,"-1,-1,-1",0,0,0,0,0,0,89,92,10,0,92,-58.08,0,-8.0,0.0,-1093.0,15:55:03.985209,192.168.0.114
44,-1,-100,-100,-100,"-1,-1,-1",0,0,0,0,0,-1,89,92,10,0,92,-58.08,0,-15.0,12.0,-1254.0,15:55:04.087162,192.168.0.114
49,-1,-100,-100,-100,"-1,-1,-1",0,0,0,0,0,-4,89,92,10,0,92,-58.08,0,46.0,-3.0,-1325.0,15:55:04.189082,192.168.0.114
54,-1,-100,-100,-100,"-1,-1,-1",0,0,1,0,0,-6,89,92,14,0,92,-58.05,0,-6.0,0.0,-1157.0,15:55:04.291257,192.168.0.114
55,-1,-100,-100,-100,"-1,-1,-1",0,0,0,0,0,-7,89,92,22,10,92,-57.81,0,-6.0,4.0,-1053.0,15:55:04.342020,192.168.0.114
60,-1,-100,-100,-100,"-1,-1,-1",0,0,0,0,0,-7,89,92,30,20,92,-57.72,0,18.0,13.0,-991.0,15:55:04.444068,192.168.0.114
65,-1,-100,-100,-100,"-1,-1,-1",0,0,0,0,0,-7,89,92,35,20,92,-57.59,1,5.0,14.0,-971.0,15:55:04.546375,192.168.0.114
70,4,19,-1,39,"0,0,-179",0,0,0,0,0,-7,89,92,44,30,92,-57.5,1,0.0,13.0,-934.0,15:55:04.648174,192.168.0.114
75,4,20,-1,43,"0,0,179",0,0,0,0,0,-6,89,93,51,30,92,-57.48,1,15.0,7.0,-898.0,15:55:04.749934,192.168.0.114
80,4,21,-4,53,"0,0,-178",0,0,0,0,0,-5,89,93,57,40,92,-57.45,1,10.0,5.0,-888.0,15:55:04.852171,192.168.0.114
85,4,21,-5,56,"1,0,-177",0,-1,0,0,0,-3,89,93,62,40,92,-57.43,1,-3.0,8.0,-903.0,15:55:04.954110,192.168.0.114
90,4,22,-5,63,"1,0,-177",0,-1,0,0,0,-2,89,93,66,50,92,-57.39,1,8.0,9.0,-910.0,15:55:05.056098,192.168.0.114
95,4,22,-6,65,"1,0,-177",0,-1,0,0,0,-2,89,93,70,50,92,-57.38,1,9.0,11.0,-922.0,15:55:05.158195,192.168.0.114
100,4,22,-7,69,"1,0,-176",0,0,0,0,0,-1,89,93,72,50,92,-57.35,1,-8.0,17.0,-956.0,15:55:05.259831,192.168.0.114
105,4,20,-8,71,"0,0,-176",0,0,1,0,0,-1,89,93,74,50,92,-57.33,1,5.0,17.0,-966.0,15:55:05.362045,192.168.0.114
110,4,20,-8,73,"0,0,-176",0,0,1,0,0,0,89,93,76,50,92,-57.29,1,1.0,13.0,-978.0,15:55:05.464027,192.168.0.114
116,4,21,-8,75,"0,0,-176",0,0,1,0,0,0,89,93,77,60,92,-57.24,2,16.0,10.0,-988.0,15:55:05.566034,192.168.0.114
121,4,20,-6,76,"0,0,-177",0,0,1,0,0,0,89,93,79,60,92,-57.15,2,-3.0,2.0,-977.0,15:55:05.668154,192.168.0.114
127,4,20,-6,78,"0,0,-177",0,0,1,0,0,0,90,92,80,60,92,-57.15,2,6.0,1.0,-993.0,15:55:05.769971,192.168.0.114
132,4,18,-4,79,"0,0,-178",0,0,1,0,0,0,90,92,81,60,92,-57.21,2,-2.0,6.0,-989.0,15:55:05.872101,192.168.0.114
137,4,19,-6,80,"0,0,-176",0,0,1,0,0,0,90,92,83,60,92,-57.11,2,15.0,16.0,-984.0,15:55:05.974419,192.168.0.114
142,4,18,-7,81,"0,0,-176",0,0,1,0,0,0,90,92,83,60,92,-57.16,2,-11.0,19.0,-971.0,15:55:06.076119,192.168.0.114
147,4,18,-7,82,"0,0,-176",0,0,1,0,0,0,90,92,84,60,92,-57.15,2,8.0,16.0,-972.0,15:55:06.178052,192.168.0.114
152,4,17,-7,83,"0,0,-176",0,0,1,0,0,0,90,92,84,60,92,-57.11,2,15.0,4.0,-984.0,15:55:06.280100,192.168.0.114
157,4,17,-7,83,"0,0,-176",0,0,0,0,0,0,90,92,84,60,92,-57.11,2,16.0,3.0,-988.0,15:55:06.381972,192.168.0.114
162,4,22,-15,80,"2,-1,-171",0,0,0,0,0,0,90,92,84,60,92,-57.12,2,9.0,6.0,-987.0,15:55:06.484050,192.168.0.114
168,4,19,-6,83,"0,0,-177",0,0,0,0,0,0,90,92,84,60,92,-57.08,3,-10.0,15.0,-988.0,15:55:06.585849,192.168.0.114
173,4,18,-6,84,"-1,0,-176",0,0,0,0,0,0,90,92,85,60,92,-57.11,3,0.0,23.0,-999.0,15:55:06.688125,192.168.0.114
178,4,19,-7,84,"0,0,-176",0,0,0,0,0,0,89,92,85,70,92,-57.18,3,4.0,20.0,-989.0,15:55:06.794555,192.168.0.114
183,4,20,-5,84,"0,0,-177",0,0,0,0,0,0,89,92,85,70,92,-57.14,3,9.0,10.0,-1005.0,15:55:06.901610,192.168.0.114
188,4,20,-6,84,"0,0,-176",0,0,0,0,0,0,89,92,85,70,92,-57.17,3,2.0,7.0,-1007.0,15:55:06.994785,192.168.0.114
190,4,22,-6,83,"1,0,-176",0,0,0,0,0,0,89,92,85,70,92,-57.08,3,5.0,4.0,-978.0,15:55:07.044990,192.168.0.114
195,4,22,-6,84,"0,0,-176",0,0,0,0,0,0,89,92,85,70,92,-57.2,3,-5.0,15.0,-994.0,15:55:07.146560,192.168.0.114
200,4,21,-5,84,"0,0,-177",0,0,0,0,0,0,89,92,85,70,92,-57.18,3,0.0,4.0,-990.0,15:55:07.248814,192.168.0.114
205,4,22,-5,84,"0,0,-177",0,0,0,0,0,0,89,92,85,70,92,-57.18,3,-16.0,2.0,-1004.0,15:55:07.354846,192.168.0.114
210,4,24,-6,83,"1,0,-176",0,0,0,0,0,0,89,92,85,70,92,-57.15,3,8.0,13.0,-1014.0,15:55:07.453663,192.168.0.114
215,4,22,-4,84,"0,0,-178",0,0,0,0,0,0,89,92,86,70,92,-57.14,4,15.0,5.0,-1001.0,15:55:07.555098,192.168.0.114
220,4,22,-7,84,"0,0,-175",0,0,0,0,0,0,89,92,85,70,92,-57.14,4,13.0,4.0,-1007.0,15:55:07.656928,192.168.0.114
225,4,21,-4,84,"0,0,-176",0,0,0,0,0,0,89,92,85,70,92,-57.18,4,1.0,-4.0,-990.0,15:55:07.759490,192.168.0.114
230,4,21,-4,84,"0,0,-176",0,0,0,0,0,0,89,92,85,70,92,-57.18,4,18.0,-7.0,-988.0,15:55:07.860961,192.168.0.114
235,4,21,-6,83,"0,0,-175",0,0,0,0,0,0,89,92,84,70,92,-57.17,4,6.0,14.0,-984.0,15:55:07.966068,192.168.0.114
240,4,20,-4,84,"-1,0,-176",0,0,0,0,0,0,89,92,83,60,92,-57.07,4,-11.0,18.0,-1000.0,15:55:08.064915,192.168.0.114
245,4,21,-7,82,"0,0,-174",0,0,0,0,0,0,89,92,83,60,92,-57.17,4,21.0,9.0,-1029.0,15:55:08.166957,192.168.0.114
252,4,21,-3,82,"0,0,-177",0,0,0,0,0,0,89,92,82,60,92,-57.18,4,-5.0,3.0,-996.0,15:55:08.276290,192.168.0.114
256,4,28,-2,78,"5,0,-177",0,0,0,0,0,0,89,92,82,60,92,-57.27,4,-1.0,4.0,-988.0,15:55:08.371176,192.168.0.114
261,4,19,-3,81,"0,0,-177",0,0,0,0,0,0,89,92,81,60,92,-57.19,4,-6.0,8.0,-1005.0,15:55:08.474853,192.168.0.114
266,4,20,-2,81,"0,0,-177",0,0,0,0,0,0,89,92,81,60,92,-57.13,5,8.0,4.0,-998.0,15:55:08.574998,192.168.0.114
271,4,19,-3,80,"0,0,-177",0,0,0,0,0,0,89,92,80,60,92,-57.16,5,0.0,4.0,-1018.0,15:55:08.676799,192.168.0.114
276,4,19,-3,80,"0,0,-177",0,0,0,0,0,0,89,92,80,60,92,-57.18,5,-6.0,11.0,-1008.0,15:55:08.778860,192.168.0.114
281,4,19,-3,80,"0,0,-176",0,0,0,0,0,0,89,92,80,60,92,-57.16,5,-7.0,-1.0,-1004.0,15:55:08.880941,192.168.0.114
287,4,20,-4,79,"0,0,-176",0,0,0,0,0,0,89,92,80,60,92,-57.19,5,3.0,6.0,-991.0,15:55:08.985748,192.168.0.114
293,4,20,-4,79,"0,0,-175",0,0,0,0,0,0,89,92,80,60,92,-57.22,5,-9.0,5.0,-1005.0,15:55:09.084705,192.168.0.114
298,4,21,-4,78,"0,0,-176",0,0,0,0,0,0,89,92,79,60,92,-57.2,5,1.0,6.0,-1005.0,15:55:09.186700,192.168.0.114
304,4,21,-4,78,"0,0,-175",0,0,0,0,0,0,89,92,79,60,92,-57.26,5,12.0,4.0,-1020.0,15:55:09.292151,192.168.0.114
308,4,19,-3,79,"0,0,-177",0,0,0,0,0,0,89,92,79,60,92,-57.22,5,14.0,0.0,-1011.0,15:55:09.390803,192.168.0.114
313,4,22,-4,77,"1,0,-175",0,0,0,0,0,0,89,92,79,60,92,-57.2,5,11.0,-3.0,-998.0,15:55:09.492632,192.168.0.114
318,4,21,-3,78,"0,0,-176",0,0,0,0,0,0,89,92,79,60,92,-57.21,6,-3.0,0.0,-1019.0,15:55:09.594919,192.168.0.114
320,4,19,-2,79,"0,0,-177",0,0,0,0,0,0,89,92,79,60,92,-57.22,6,3.0,4.0,-998.0,15:55:09.645882,192.168.0.114
325,4,19,-2,79,"0,0,-176",0,0,0,0,0,0,89,91,79,60,92,-57.2,6,-12.0,-5.0,-1002.0,15:55:09.747964,192.168.0.114
330,4,19,-1,79,"0,0,-177",0,0,0,0,0,0,89,91,80,60,92,-57.24,6,16.0,10.0,-1028.0,15:55:09.849787,192.168.0.114
335,4,20,-3,79,"0,0,-176",0,0,0,0,0,0,89,91,79,60,92,-57.2,6,-5.0,2.0,-1005.0,15:55:09.951648,192.168.0.114
340,4,20,-3,79,"0,0,-176",0,0,0,0,0,0,89,91,80,60,92,-57.2,6,-9.0,7.0,-1005.0,15:55:10.053853,192.168.0.114
345,4,25,-13,75,"3,-2,-169",0,0,0,0,0,0,89,91,80,60,92,-57.25,6,3.0,3.0,-996.0,15:55:10.155999,192.168.0.114
350,4,18,-2,80,"-1,0,-177",0,0,0,0,0,0,89,91,79,60,92,-57.21,6,8.0,2.0,-1012.0,15:55:10.257648,192.168.0.114
355,4,19,-1,79,"0,0,-177",0,0,0,0,0,0,89,91,80,60,92,-57.23,6,-1.0,-4.0,-993.0,15:55:10.359713,192.168.0.114
360,4,19,-1,79,"0,0,-177",0,0,0,0,0,0,89,91,80,60,92,-57.22,6,17.0,0.0,-1021.0,15:55:10.468447,192.168.0.114
365,4,18,-1,80,"0,0,-177",0,0,0,0,0,0,89,91,79,60,92,-57.3,7,-18.0,5.0,-917.0,15:55:10.563751,192.168.0.114
370,4,18,-1,80,"0,0,-177",0,0,0,0,0,0,89,91,79,60,92,-57.21,7,-6.0,7.0,-983.0,15:55:10.665858,192.168.0.114
376,4,18,-1,80,"0,0,-177",0,0,0,0,0,0,89,92,78,60,92,-57.19,7,0.0,6.0,-977.0,15:55:10.768089,192.168.0.114
381,4,16,0,79,"0,0,-177",0,0,0,0,0,1,89,92,77,60,92,-57.22,7,0.0,3.0,-1009.0,15:55:10.870099,192.168.0.114
386,4,16,0,79,"0,0,-177",0,0,0,0,0,1,89,92,76,60,92,-57.3,7,-3.0,-3.0,-990.0,15:55:10.971847,192.168.0.114
390,4,15,-1,76,"0,0,-177",0,0,0,0,0,0,89,92,75,60,92,-57.26,7,-13.0,7.0,-1012.0,15:55:11.073698,192.168.0.114
396,4,15,-1,76,"0,0,-177",0,0,0,0,0,0,89,92,74,60,92,-57.31,7,7.0,2.0,-1021.0,15:55:11.175946,192.168.0.114
401,4,19,-11,72,"2,-2,-170",0,0,0,0,0,0,89,92,73,50,92,-57.29,7,9.0,13.0,-1030.0,15:55:11.277465,192.168.0.114
406,4,19,-11,72,"2,-2,-170",0,0,0,0,0,0,89,92,72,50,92,-57.28,7,-1.0,9.0,-1016.0,15:55:11.379359,192.168.0.114
411,4,15,0,73,"0,0,-177",0,0,0,0,0,0,89,92,72,50,92,-57.31,7,-1.0,-3.0,-1030.0,15:55:11.482300,192.168.0.114
416,4,15,0,73,"0,0,-177",0,0,0,0,0,0,89,92,71,50,92,-57.3,8,-16.0,20.0,-999.0,15:55:11.583788,192.168.0.114
421,4,15,0,73,"0,0,-177",0,0,0,0,0,0,89,92,71,50,92,-57.28,8,-8.0,2.0,-1005.0,15:55:11.685310,192.168.0.114
426,4,15,0,72,"-1,0,-178",0,0,0,0,0,0,89,91,71,50,92,-57.29,8,-4.0,1.0,-1011.0,15:55:11.788055,192.168.0.114
431,4,15,0,72,"-1,0,-178",0,0,0,0,0,0,89,91,71,50,92,-57.26,8,-9.0,9.0,-1006.0,15:55:11.889338,192.168.0.114
436,4,17,-2,71,"0,0,-175",0,0,0,0,0,0,89,91,72,50,92,-57.24,8,1.0,19.0,-998.0,15:55:11.993747,192.168.0.114
441,4,17,-2,71,"0,0,-175",0,0,0,0,0,0,89,91,71,50,92,-57.23,8,10.0,30.0,-1008.0,15:55:12.093304,192.168.0.114
446,4,17,-1,71,"0,0,-177",0,0,0,0,0,0,89,91,71,50,92,-57.23,8,14.0,18.0,-991.0,15:55:12.195410,192.168.0.114
451,4,17,-1,71,"0,0,-177",0,0,0,0,0,0,89,91,71,50,92,-57.23,8,14.0,26.0,-1007.0,15:55:12.303844,192.168.0.114
456,4,18,-1,71,"0,0,-177",0,0,0,0,0,0,89,91,71,50,92,-57.35,8,-7.0,28.0,-1018.0,15:55:12.399877,192.168.0.114
462,4,18,-1,71,"0,0,-177",-2,0,0,0,0,0,89,91,71,50,92,-57.28,8,6.0,14.0,-1002.0,15:55:12.501905,192.168.0.114
466,4,18,-1,71,"0,0,-177",-7,0,0,1,0,0,89,91,72,50,92,-57.28,9,2.0,17.0,-995.0,15:55:12.603312,192.168.0.114
471,4,17,0,73,"5,0,-178",-8,0,0,2,0,0,89,91,72,50,92,-57.24,9,-20.0,15.0,-1011.0,15:55:12.705311,192.168.0.114
476,4,17,0,73,"5,0,-178",-8,-1,0,3,0,0,88,92,73,50,92,-57.27,9,-25.0,7.0,-996.0,15:55:12.807554,192.168.0.114
481,4,22,-1,73,"7,0,-178",-8,-1,0,4,0,0,88,92,72,50,92,-57.23,9,-38.0,2.0,-997.0,15:55:12.910745,192.168.0.114
486,4,22,-1,73,"7,0,-178",-7,0,0,5,0,0,88,92,72,50,92,-57.37,9,-43.0,-9.0,-1012.0,15:55:13.011321,192.168.0.114
491,4,42,-3,68,"10,0,-176",-6,0,0,6,0,0,88,92,72,50,92,-57.36,9,-54.0,-9.0,-993.0,15:55:13.113435,192.168.0.114
497,4,42,-3,68,"10,0,-176",-6,0,0,7,0,0,88,92,73,50,92,-57.35,9,-66.0,1.0,-1005.0,15:55:13.215254,192.168.0.114
502,4,42,-3,68,"10,0,-176",-6,0,0,7,0,0,88,92,73,50,92,-57.4,9,-75.0,-2.0,-983.0,15:55:13.323869,192.168.0.114
508,4,42,-3,68,"10,0,-176",-5,0,0,7,0,0,88,92,73,50,92,-57.49,9,-99.0,10.0,-1003.0,15:55:13.419872,192.168.0.114
513,4,42,-3,68,"10,0,-176",-5,0,0,8,0,0,88,92,73,50,92,-57.45,9,-86.0,13.0,-977.0,15:55:13.521203,192.168.0.114
518,4,42,-3,68,"10,0,-176",-6,0,0,8,0,0,88,92,74,50,92,-57.44,10,-96.0,10.0,-984.0,15:55:13.623253,192.168.0.114
523,4,42,-3,68,"10,0,-176",-6,0,0,8,0,0,88,92,75,50,92,-57.48,10,-108.0,8.0,-989.0,15:55:13.725148,192.168.0.114
528,4,42,-3,68,"10,0,-176",-6,0,0,8,0,0,88,92,75,50,92,-57.41,10,-81.0,15.0,-1017.0,15:55:13.827554,192.168.0.114
533,4,42,-3,68,"10,0,-176",-6,0,1,8,0,0,88,92,75,50,92,-57.49,10,-71.0,12.0,-973.0,15:55:13.929157,192.168.0.114
538,4,42,-3,68,"10,0,-176",-5,-1,1,9,0,0,88,92,75,50,92,-57.52,10,-68.0,11.0,-983.0,15:55:14.031175,192.168.0.114
543,4,42,-3,68,"10,0,-176",-4,0,1,9,0,0,88,92,74,50,92,-57.41,10,-78.0,-3.0,-958.0,15:55:14.133771,192.168.0.114
548,4,42,-3,68,"10,0,-176",-4,0,0,9,0,0,88,92,75,50,92,-57.4,10,-65.0,-2.0,-999.0,15:55:14.235574,192.168.0.114
553,4,42,-3,68,"10,0,-176",-4,0,0,9,0,0,88,92,76,60,92,-57.42,10,-80.0,-10.0,-995.0,15:55:14.337183,192.168.0.114
558,4,42,-3,68,"10,0,-176",-3,0,0,9,0,0,88,92,76,60,92,-57.43,10,-66.0,-12.0,-995.0,15:55:14.439191,192.168.0.114
563,4,42,-3,68,"10,0,-176",-1,1,0,9,0,0,88,92,76,60,92,-57.36,10,-61.0,-3.0,-996.0,15:55:14.541274,192.168.0.114
568,8,-31,1,77,"1,3,-173",1,2,0,9,0,0,88,92,76,60,92,-57.31,11,-35.0,-1.0,-984.0,15:55:14.643272,192.168.0.114
573,8,-31,1,77,"1,3,-173",4,2,1,8,0,0,88,92,75,60,92,-57.34,11,-50.0,0.0,-1012.0,15:55:14.745238,192.168.0.114
578,8,-4,5,77,"-3,0,-172",5,2,0,7,0,0,88,92,76,60,92,-57.29,11,-62.0,-15.0,-1011.0,15:55:14.847344,192.168.0.114
580,8,-4,5,77,"-3,0,-172",5,0,0,5,0,0,88,92,76,60,92,-57.23,11,-38.0,-8.0,-1027.0,15:55:14.898072,192.168.0.114
585,8,10,7,75,"-3,0,-178",4,-2,0,4,0,0,88,92,75,60,92,-57.31,11,-32.0,-11.0,-985.0,15:55:15.000244,192.168.0.114
590,8,10,7,75,"-3,0,-178",3,-1,0,3,0,0,88,92,75,60,92,-57.19,11,-81.0,99.0,-942.0,15:55:15.102236,192.168.0.114
598,8,20,6,74,"-2,0,-178",3,-1,0,3,0,0,88,92,75,60,92,-57.18,11,-23.0,21.0,-991.0,15:55:15.255128,192.168.0.114
600,8,20,6,74,"-2,0,-178",4,0,0,2,0,0,88,92,74,60,92,-57.21,11,-75.0,68.0,-922.0,15:55:15.306167,192.168.0.114
606,8,20,6,74,"-2,0,-178",3,0,0,1,0,0,88,92,74,60,92,-57.23,11,-42.0,51.0,-968.0,15:55:15.408150,192.168.0.114
611,8,26,6,73,"0,0,-176",1,0,0,0,0,0,88,92,74,60,92,-57.24,11,-17.0,-9.0,-1034.0,15:55:15.510542,192.168.0.114
616,8,26,6,73,"0,0,-176",0,0,0,0,0,0,88,92,73,60,92,-57.24,12,-2.0,-4.0,-991.0,15:55:15.612139,192.168.0.114
621,8,29,6,71,"3,0,-177",0,0,0,0,0,0,88,92,73,50,92,-57.12,12,-21.0,-2.0,-1005.0,15:55:15.714017,192.168.0.114
626,8,29,6,71,"3,0,-177",0,0,0,0,0,0,88,92,73,50,92,-57.23,12,-18.0,14.0,-997.0,15:55:15.816315,192.168.0.114
631,8,28,7,72,"2,0,-176",1,1,0,0,0,0,88,92,73,50,92,-57.19,12,-35.0,11.0,-996.0,15:55:15.918506,192.168.0.114
636,8,28,7,72,"2,0,-176",1,1,0,0,0,0,88,92,73,50,92,-57.16,12,-16.0,-13.0,-1006.0,15:55:16.020327,192.168.0.114
641,8,27,7,71,"2,0,-175",0,2,0,0,0,0,88,92,72,50,92,-57.2,12,-19.0,25.0,-878.0,15:55:16.122474,192.168.0.114
646,8,27,7,71,"2,0,-175",0,2,0,-1,0,0,88,92,72,50,92,-57.19,12,-37.0,19.0,-930.0,15:55:16.224496,192.168.0.114
651,8,27,7,71,"2,0,-175",0,1,0,-1,0,0,88,92,72,50,92,-57.21,12,-2.0,-10.0,-994.0,15:55:16.326446,192.168.0.114
656,8,24,6,71,"3,0,-176",-1,0,0,0,0,0,88,92,72,50,92,-57.26,12,-4.0,-15.0,-1006.0,15:55:16.428510,192.168.0.114
661,8,24,6,71,"3,0,-176",-2,0,0,0,0,0,88,92,72,50,92,-57.27,12,-21.0,1.0,-990.0,15:55:16.530314,192.168.0.114
666,8,21,3,71,"3,0,-177",-1,-1,0,0,0,0,88,92,71,50,92,-57.18,13,-7.0,-5.0,-1001.0,15:55:16.632905,192.168.0.114
671,8,21,3,71,"3,0,-177",-1,-1,0,0,0,0,88,92,71,50,92,-57.19,13,-28.0,-9.0,-1015.0,15:55:16.734586,192.168.0.114
676,8,20,2,71,"2,0,-177",0,0,0,0,0,0,88,91,71,50,92,-57.14,13,-3.0,4.0,-1009.0,15:55:16.836489,192.168.0.114
681,8,20,2,71,"2,0,-177",0,0,0,0,0,0,88,91,71,50,92,-57.22,13,-14.0,5.0,-1014.0,15:55:16.938497,192.168.0.114
686,8,20,2,71,"2,0,-177",0,0,0,0,0,0,88,91,71,50,92,-57.21,13,-12.0,-4.0,-1006.0,15:55:17.045519,192.168.0.114
691,8,21,1,70,"1,0,-177",0,0,0,0,0,0,88,91,70,50,92,-57.26,13,9.0,-10.0,-1005.0,15:55:17.142375,192.168.0.114
697,8,21,1,70,"1,0,-177",0,0,0,0,0,0,88,91,70,50,92,-57.09,13,-8.0,11.0,-969.0,15:55:17.244280,192.168.0.114
702,8,20,2,70,"1,0,-177",0,0,0,0,0,0,88,91,70,50,92,-57.17,13,1.0,-6.0,-999.0,15:55:17.346418,192.168.0.114
707,8,20,2,70,"1,0,-177",0,0,0,0,0,0,88,91,69,50,92,-57.18,13,-28.0,-8.0,-976.0,15:55:17.448351,192.168.0.114
712,8,21,2,69,"2,0,-176",0,0,0,0,0,0,88,91,70,50,92,-57.2,13,-12.0,6.0,-989.0,15:55:17.550461,192.168.0.114
717,8,21,2,69,"2,0,-176",0,0,0,0,0,0,88,91,69,50,92,-57.12,14,-17.0,12.0,-1004.0,15:55:17.651963,192.168.0.114
722,8,21,4,69,"2,0,-177",0,0,0,0,0,0,88,91,70,50,92,-57.14,14,2.0,-1.0,-1005.0,15:55:17.754520,192.168.0.114
727,8,21,4,69,"2,0,-177",0,0,0,0,0,0,88,92,69,50,92,-57.17,14,-13.0,-1.0,-990.0,15:55:17.856979,192.168.0.114
732,8,21,4,69,"2,0,-177",0,0,0,0,0,0,88,92,70,50,92,-57.15,14,-17.0,4.0,-996.0,15:55:17.959848,192.168.0.114
738,8,22,4,69,"1,0,-177",0,0,0,0,0,0,88,92,70,50,92,-57.26,14,-4.0,-1.0,-999.0,15:55:18.061230,192.168.0.114
743,8,22,4,69,"1,0,-177",0,0,0,0,0,0,88,92,70,50,92,-57.24,14,11.0,-9.0,-998.0,15:55:18.164131,192.168.0.114
748,8,23,3,69,"2,0,-176",0,0,0,0,0,0,88,92,70,50,92,-57.23,14,-3.0,-4.0,-1013.0,15:55:18.264568,192.168.0.114
753,8,23,3,69,"2,0,-176",0,0,0,0,0,0,88,92,70,50,92,-57.22,14,1.0,-7.0,-995.0,15:55:18.366202,192.168.0.114
759,8,23,4,70,"2,0,-176",0,0,0,0,0,0,88,92,71,50,92,-57.17,14,4.0,-7.0,-991.0,15:55:18.471803,192.168.0.114
760,8,23,4,70,"2,0,-176",0,0,0,0,0,0,88,92,71,50,92,-57.19,15,-2.0,1.0,-994.0,15:55:18.519356,192.168.0.114
768,8,23,5,70,"1,0,-176",0,0,0,0,0,0,88,92,71,50,92,-57.15,15,-16.0,8.0,-1014.0,15:55:18.672362,192.168.0.114
773,8,23,5,70,"1,0,-176",0,0,0,0,0,0,88,92,72,50,92,-57.15,15,2.0,0.0,-1005.0,15:55:18.774450,192.168.0.114
775,8,23,5,70,"1,0,-176",0,0,0,0,0,0,88,91,71,50,92,-57.18,15,6.0,-11.0,-985.0,15:55:18.825369,192.168.0.114
781,8,27,4,69,"3,0,-175",1,0,0,0,0,0,88,91,71,50,92,-57.21,15,6.0,0.0,-951.0,15:55:18.927701,192.168.0.114
786,8,27,4,69,"3,0,-175",1,0,0,0,0,0,88,91,72,50,92,-57.23,15,-3.0,14.0,-965.0,15:55:19.029425,192.168.0.114
791,8,27,6,69,"2,0,-177",1,0,0,0,0,1,88,91,71,50,92,-57.14,15,10.0,-16.0,-919.0,15:55:19.131223,192.168.0.114
796,8,27,6,69,"2,0,-177",0,0,0,0,0,2,88,91,69,50,92,-57.21,15,0.0,-10.0,-884.0,15:55:19.233331,192.168.0.114
801,8,26,6,66,"1,0,-177",0,0,0,0,0,3,88,91,66,50,92,-57.25,15,0.0,-13.0,-913.0,15:55:19.335352,192.168.0.114
806,8,26,6,66,"1,0,-177",0,0,0,0,0,3,88,91,63,40,92,-57.24,15,-15.0,-5.0,-948.0,15:55:19.438344,192.168.0.114
813,8,27,7,58,"1,0,-177",0,0,0,0,0,4,88,91,56,40,92,-57.21,16,4.0,0.0,-976.0,15:55:19.591079,192.168.0.114
818,8,27,7,58,"1,0,-177",0,0,0,0,0,4,88,91,52,40,92,-57.31,16,13.0,-22.0,-990.0,15:55:19.694928,192.168.0.114
823,8,27,7,58,"1,0,-177",0,0,0,0,0,4,88,91,47,30,92,-57.4,16,-12.0,11.0,-980.0,15:55:19.794242,192.168.0.114
826,8,27,7,58,"1,0,-177",0,0,0,0,0,4,88,91,42,30,92,-57.47,16,-9.0,-10.0,-981.0,15:55:19.845354,192.168.0.114
833,8,27,7,58,"1,0,-177",0,0,0,0,0,4,88,91,37,20,92,-57.51,16,-11.0,-3.0,-1002.0,15:55:19.998313,192.168.0.114
838,8,27,7,58,"1,0,-177",0,0,0,0,0,4,88,91,33,20,92,-57.54,16,-7.0,1.0,-997.0,15:55:20.100287,192.168.0.114
843,8,27,7,58,"1,0,-177",0,0,1,0,0,4,88,91,28,10,92,-57.6,16,-32.0,13.0,-972.0,15:55:20.202231,192.168.0.114
849,8,27,7,58,"1,0,-177",0,0,1,0,0,4,88,91,27,10,92,-57.49,16,-2.0,13.0,-1023.0,15:55:20.304219,192.168.0.114
854,8,27,7,58,"1,0,-177",0,0,1,0,0,4,88,91,21,0,92,-57.59,16,-4.0,2.0,-1001.0,15:55:20.406133,192.168.0.114
859,8,27,7,58,"1,0,-177",0,0,0,0,0,4,88,91,16,0,92,-57.67,16,-13.0,26.0,-1032.0,15:55:20.508211,192.168.0.114
864,8,27,7,58,"1,0,-177",0,0,0,0,0,4,88,91,10,0,92,-58.01,17,-19.0,48.0,-1040.0,15:55:20.610399,192.168.0.114
869,8,27,7,58,"1,0,-177",0,0,1,0,0,4,88,91,10,0,92,-59.16,17,-45.0,39.0,-1101.0,15:55:20.712232,192.168.0.114
871,8,27,7,58,"1,0,-177",-1,-1,0,0,0,3,88,91,10,-10,92,-60.99,17,4.0,17.0,-1142.0,15:55:20.763136,192.168.0.114
876,8,27,7,58,"1,0,-177",0,1,1,0,0,0,86,91,10,-10,92,-60.33,17,1.0,19.0,-813.0,15:55:20.865218,192.168.0.114
881,8,27,7,58,"1,0,-177",0,0,1,0,0,0,86,91,10,-10,92,-60.39,17,-115.0,-415.0,-2701.0,15:55:20.967389,192.168.0.114
887,8,27,7,58,"1,0,-177",0,0,1,0,0,0,86,91,10,-10,92,-60.05,17,1.0,19.0,-813.0,15:55:21.069279,192.168.0.114
892,8,27,7,58,"1,0,-177",0,0,1,0,0,0,86,91,10,-10,92,-59.69,17,-115.0,-415.0,-2701.0,15:55:21.171675,192.168.0.114
897,8,27,7,58,"1,0,-177",0,0,1,0,0,0,86,91,10,-10,92,-59.2,17,-42.0,23.0,-877.0,15:55:21.273156,192.168.0.114
902,8,27,7,58,"1,0,-177",0,0,1,0,0,0,86,91,10,-10,92,-58.83,17,-8.0,34.0,-1001.0,15:55:21.375253,192.168.0.114
907,8,27,7,58,"1,0,-177",0,0,1,0,0,0,86,91,10,-10,92,-58.71,17,-18.0,12.0,-996.0,15:55:21.477116,192.168.0.114
912,8,27,7,58,"1,0,-177",0,0,1,0,0,0,86,91,10,-10,92,-58.64,18,4.0,0.0,-997.0,15:55:21.579223,192.168.0.114
917,8,27,7,58,"1,0,-177",0,0,1,0,0,0,86,91,10,-10,92,-58.62,18,-8.0,2.0,-1003.0,15:55:21.681176,192.168.0.114
922,8,27,7,58,"1,0,-177",0,0,1,0,0,0,86,91,10,-10,92,-58.54,18,-3.0,6.0,-997.0,15:55:21.783244,192.168.0.114
927,8,27,7,58,"1,0,-177",0,0,1,0,0,0,87,91,10,0,92,-58.35,18,-6.0,17.0,-997.0,15:55:21.885149,192.168.0.114
932,-2,-200,-200,-200,"-1,-1,-1",0,0,1,-1,0,1,87,91,10,0,92,-58.25,18,-4.0,12.0,-1003.0,15:55:21.989514,192.168.0.114
