,mid,x,y,z,mpry,pitch,roll,yaw,vgx,vgy,vgz,templ,temph,tof,h,bat,baro,time,agx,agy,agz,timestamp,address
0,-1,-100,-100,-100,"-1,-1,-1",0,0,-6,0,0,0,69,71,10,0,100,-21.92,0,7.0,0.0,-999.0,11:56:13.806676,192.168.0.114
5,-1,-100,-100,-100,"-1,-1,-1",0,0,-6,0,0,0,69,71,10,0,100,-21.92,0,3.0,0.0,-1000.0,11:56:13.831158,192.168.0.114
11,-1,-100,-100,-100,"-1,-1,-1",0,0,-6,0,0,0,69,71,10,0,100,-21.96,0,4.0,-1.0,-1000.0,11:56:14.015013,192.168.0.114
17,-1,-100,-100,-100,"-1,-1,-1",0,0,-6,0,0,0,69,71,10,0,100,-21.98,0,4.0,2.0,-1000.0,11:56:14.034718,192.168.0.114
22,-1,-100,-100,-100,"-1,-1,-1",0,0,-6,0,0,0,69,71,10,0,100,-21.97,0,5.0,4.0,-999.0,11:56:14.223243,192.168.0.114
27,-1,-100,-100,-100,"-1,-1,-1",0,0,-6,0,0,0,69,71,10,0,100,-21.97,0,6.0,0.0,-1001.0,11:56:14.238267,192.168.0.114
32,-1,-100,-100,-100,"-1,-1,-1",0,0,-6,0,0,0,69,71,10,0,100,-21.97,0,8.0,9.0,-1007.0,11:56:14.429763,192.168.0.114
38,-1,-100,-100,-100,"-1,-1,-1",0,0,-6,0,0,0,69,71,10,0,100,-21.97,0,13.0,-13.0,-1005.0,11:56:14.442187,192.168.0.114
43,-1,-100,-100,-100,"-1,-1,-1",0,0,-6,0,0,0,69,71,10,0,100,-21.97,0,-17.0,16.0,-1029.0,11:56:14.637005,192.168.0.114
48,-1,-100,-100,-100,"-1,-1,-1",0,0,-6,0,0,0,70,72,10,0,100,-21.97,0,6.0,6.0,-1191.0,11:56:14.646449,192.168.0.114
53,-1,-100,-100,-100,"-1,-1,-1",0,1,-6,0,0,-1,70,72,10,-10,100,-21.97,0,6.0,32.0,-1376.0,11:56:14.844449,192.168.0.114
58,-1,-100,-100,-100,"-1,-1,-1",0,0,-6,0,0,-4,70,72,10,-10,100,-21.94,0,-9.0,4.0,-1242.0,11:56:14.850064,192.168.0.114
63,-1,-100,-100,-100,"-1,-1,-1",0,-1,-6,0,0,-6,70,72,19,0,100,-21.58,0,-12.0,-8.0,-1056.0,11:56:15.050636,192.168.0.114
68,-1,-100,-100,-100,"-1,-1,-1",0,0,-6,0,0,-6,70,72,28,0,100,-21.53,0,0.0,14.0,-1032.0,11:56:15.054271,192.168.0.114
74,-1,-100,-100,-100,"-1,-1,-1",0,0,-6,0,0,-6,70,72,37,0,100,-21.46,1,7.0,12.0,-1006.0,11:56:15.257871,192.168.0.114
78,-1,-100,-100,-100,"-1,-1,-1",0,0,-6,0,0,-5,70,72,47,0,100,-21.43,1,-7.0,3.0,-964.0,11:56:15.258495,192.168.0.114
83,4,19,-5,46,"1,1,-177",0,0,-6,0,0,-5,70,72,57,0,100,-21.26,1,12.0,-7.0,-942.0,11:56:15.359604,192.168.0.114
89,4,19,-5,56,"1,1,-178",0,0,-6,0,0,-4,70,72,67,0,100,-21.27,1,9.0,-2.0,-933.0,11:56:15.461917,192.168.0.114
94,4,18,-7,70,"0,1,-176",0,0,-6,0,0,-3,70,72,75,0,100,-21.12,1,-6.0,2.0,-887.0,11:56:15.564147,192.168.0.114
99,4,18,-8,74,"0,1,-176",0,0,-6,0,0,-2,70,72,82,10,100,-21.06,1,7.0,8.0,-922.0,11:56:15.666315,192.168.0.114
104,4,16,-7,82,"0,2,-178",0,0,-6,0,0,-1,70,72,89,10,100,-21.02,1,10.0,0.0,-906.0,11:56:15.768950,192.168.0.114
109,4,15,-9,86,"0,1,-177",0,0,-6,0,0,-1,70,72,94,10,100,-20.93,1,13.0,4.0,-919.0,11:56:15.870127,192.168.0.114
114,4,17,-9,92,"0,2,-177",0,0,-6,0,0,0,70,72,99,20,100,-20.79,1,15.0,0.0,-913.0,11:56:15.972095,192.168.0.114
119,4,12,-10,101,"-1,2,-177",0,0,-6,0,0,0,70,72,104,20,100,-20.79,1,-4.0,0.0,-913.0,11:56:16.074146,192.168.0.114
124,4,19,-12,102,"2,2,-176",0,0,-6,0,0,0,70,72,107,20,100,-20.69,2,11.0,4.0,-916.0,11:56:16.175974,192.168.0.114
129,4,13,-12,107,"0,2,-176",0,0,-6,0,0,0,70,72,109,20,100,-20.71,2,28.0,-12.0,-949.0,11:56:16.278640,192.168.0.114
134,4,13,-11,110,"0,2,-177",0,0,-6,0,0,1,70,72,111,30,100,-20.68,2,-3.0,4.0,-925.0,11:56:16.380203,192.168.0.114
139,4,22,-11,110,"5,2,-176",0,0,-6,0,0,1,70,72,112,30,100,-20.65,2,15.0,6.0,-945.0,11:56:16.482086,192.168.0.114
144,4,14,-13,113,"1,2,-176",0,0,-6,0,0,1,70,72,114,30,100,-20.66,2,22.0,7.0,-959.0,11:56:16.584352,192.168.0.114
149,4,11,-9,115,"0,2,-178",0,0,-6,0,0,1,70,72,113,30,100,-20.69,2,0.0,7.0,-966.0,11:56:16.686317,192.168.0.114
154,4,11,-10,116,"0,2,-177",0,0,-6,0,0,2,70,72,115,30,100,-20.72,2,3.0,-2.0,-965.0,11:56:16.787895,192.168.0.114
159,4,10,-9,116,"0,2,-178",0,0,-6,0,0,2,70,72,114,30,100,-20.68,2,8.0,4.0,-961.0,11:56:16.892184,192.168.0.114
164,4,13,-10,115,"2,2,-177",0,0,-6,0,0,2,70,72,114,30,100,-20.7,2,4.0,-2.0,-955.0,11:56:16.994191,192.168.0.114
169,4,7,-12,115,"0,2,-176",0,0,-6,0,0,2,70,72,113,30,100,-20.69,2,8.0,-2.0,-965.0,11:56:17.093999,192.168.0.114
174,4,8,1,116,"0,2,176",0,0,-6,0,0,2,70,72,111,30,100,-20.68,3,4.0,1.0,-971.0,11:56:17.196242,192.168.0.114
179,4,14,-4,114,"2,2,179",0,0,-6,0,0,2,70,72,110,30,100,-20.74,3,0.0,9.0,-972.0,11:56:17.298062,192.168.0.114
184,4,12,-9,112,"2,2,-178",0,0,-6,0,0,2,70,72,109,30,100,-20.65,3,13.0,6.0,-975.0,11:56:17.400335,192.168.0.114
188,4,9,-8,111,"1,2,-178",0,0,-6,0,0,2,70,72,107,30,100,-20.68,3,17.0,12.0,-986.0,11:56:17.451048,192.168.0.114
193,4,7,-7,109,"0,2,-179",0,0,-6,0,0,2,70,72,105,30,100,-20.7,3,23.0,0.0,-995.0,11:56:17.553033,192.168.0.114
198,4,10,-7,107,"1,2,-179",0,0,-6,0,0,2,69,73,102,30,100,-20.76,3,5.0,0.0,-983.0,11:56:17.654826,192.168.0.114
203,4,9,-9,105,"1,2,-178",0,0,-6,0,0,2,69,73,100,30,100,-20.76,3,0.0,3.0,-998.0,11:56:17.756871,192.168.0.114
209,4,8,-7,104,"0,2,-179",0,0,-6,0,0,2,69,73,98,30,100,-20.82,3,12.0,9.0,-999.0,11:56:17.859772,192.168.0.114
213,4,7,-7,102,"0,2,-179",0,0,-6,0,0,2,69,73,95,30,100,-20.74,3,19.0,6.0,-1009.0,11:56:17.961442,192.168.0.114
219,4,9,-10,98,"0,2,-177",0,0,-6,0,0,2,69,73,93,20,100,-20.88,3,21.0,9.0,-1020.0,11:56:18.063165,192.168.0.114
223,4,8,-9,94,"0,2,-178",0,0,-6,0,0,2,69,73,90,20,100,-20.88,4,3.0,7.0,-1016.0,11:56:18.165218,192.168.0.114
229,4,11,-9,92,"1,2,-177",0,0,-6,0,0,2,69,73,88,20,100,-20.95,4,-8.0,4.0,-1000.0,11:56:18.267153,192.168.0.114
234,4,8,-7,90,"0,2,-178",0,0,-6,0,0,1,69,73,86,20,100,-20.93,4,1.0,4.0,-1002.0,11:56:18.369609,192.168.0.114
239,4,8,-8,88,"0,2,-178",0,0,-6,0,0,1,69,73,84,20,100,-20.87,4,16.0,4.0,-1026.0,11:56:18.477045,192.168.0.114
244,4,8,-8,85,"0,2,-178",0,0,-6,0,0,1,69,73,83,10,100,-20.97,4,5.0,3.0,-1037.0,11:56:18.573082,192.168.0.114
249,4,8,-7,84,"0,2,-178",0,0,-6,0,0,1,70,73,81,10,100,-20.97,4,8.0,-4.0,-1002.0,11:56:18.676593,192.168.0.114
254,4,8,-7,83,"0,2,-178",0,0,-6,0,0,1,70,73,80,10,100,-21.0,4,7.0,2.0,-1009.0,11:56:18.777176,192.168.0.114
259,4,8,-8,80,"0,2,-178",0,0,-6,0,0,1,70,73,78,10,100,-21.03,4,11.0,6.0,-1008.0,11:56:18.878917,192.168.0.114
264,4,8,-7,80,"0,2,-178",0,0,-6,0,0,0,70,73,77,10,100,-21.02,4,4.0,2.0,-1023.0,11:56:18.980960,192.168.0.114
269,4,8,-8,78,"0,2,-178",0,0,-6,0,0,0,70,73,76,10,100,-21.02,4,0.0,-5.0,-1013.0,11:56:19.083075,192.168.0.114
274,4,8,-6,77,"0,2,-179",0,0,-6,0,0,0,70,73,75,10,100,-21.02,5,8.0,-6.0,-1002.0,11:56:19.184858,192.168.0.114
279,4,7,-7,76,"0,2,-179",0,0,-6,0,0,0,70,73,73,10,100,-21.06,5,7.0,-7.0,-1021.0,11:56:19.287050,192.168.0.114
284,4,8,-7,74,"0,2,-179",0,0,-6,0,0,0,70,73,73,10,100,-21.01,5,9.0,-5.0,-1006.0,11:56:19.394083,192.168.0.114
289,4,7,-7,74,"0,2,-178",0,0,-6,0,0,0,70,73,72,10,100,-21.09,5,10.0,-4.0,-1003.0,11:56:19.491099,192.168.0.114
294,4,7,-7,73,"0,2,-178",0,0,-6,0,0,0,70,73,71,0,100,-21.1,5,8.0,-1.0,-990.0,11:56:19.592825,192.168.0.114
299,4,7,-8,72,"0,2,-178",0,0,-6,0,0,0,69,72,71,0,100,-21.1,5,9.0,0.0,-1013.0,11:56:19.694913,192.168.0.114
304,4,7,-7,72,"0,2,-178",0,0,-6,0,0,0,69,72,71,0,100,-21.09,5,21.0,6.0,-1027.0,11:56:19.797224,192.168.0.114
309,4,7,-7,72,"0,2,-178",0,0,-6,0,0,0,69,72,70,0,100,-21.09,5,6.0,-1.0,-1000.0,11:56:19.898879,192.168.0.114
314,4,8,-7,71,"0,2,-179",0,0,-6,0,0,0,69,72,70,0,100,-21.09,5,4.0,3.0,-1011.0,11:56:20.001020,192.168.0.114
319,4,7,-6,71,"0,2,-178",0,0,-6,0,0,0,69,72,70,0,100,-21.12,5,12.0,-3.0,-1008.0,11:56:20.102800,192.168.0.114
324,4,7,-7,71,"0,2,-178",0,0,-6,0,0,0,69,72,70,0,100,-21.04,6,4.0,0.0,-994.0,11:56:20.204766,192.168.0.114
329,4,7,-6,71,"-1,2,-178",0,0,-6,0,0,0,69,72,70,0,100,-21.09,6,1.0,6.0,-1011.0,11:56:20.306771,192.168.0.114
334,4,7,-7,71,"0,2,-178",0,0,-6,0,0,0,69,72,70,0,100,-21.13,6,17.0,0.0,-1013.0,11:56:20.408801,192.168.0.114
339,4,7,-6,71,"0,2,-178",0,0,-6,0,0,0,69,72,69,0,100,-21.07,6,14.0,-5.0,-1001.0,11:56:20.510981,192.168.0.114
344,4,8,-6,71,"0,2,-178",0,0,-6,0,0,0,69,72,70,0,100,-21.12,6,17.0,0.0,-1007.0,11:56:20.612838,192.168.0.114
349,4,7,-6,71,"0,2,-178",0,0,-6,0,0,0,69,73,70,0,100,-21.05,6,13.0,11.0,-996.0,11:56:20.714907,192.168.0.114
354,4,7,-6,71,"0,2,-178",0,0,-6,0,0,0,69,73,70,0,100,-21.1,6,8.0,-3.0,-1006.0,11:56:20.816941,192.168.0.114
359,4,7,-6,71,"0,2,-178",0,0,-6,0,0,0,69,73,71,0,100,-21.06,6,4.0,7.0,-991.0,11:56:20.918933,192.168.0.114
364,4,7,-6,72,"0,2,-179",0,0,-6,0,0,0,69,73,71,0,100,-21.07,6,13.0,9.0,-1006.0,11:56:21.021056,192.168.0.114
369,4,8,-7,72,"0,2,-178",0,0,-6,0,0,0,69,73,71,0,100,-21.06,6,3.0,2.0,-1008.0,11:56:21.122977,192.168.0.114
374,4,8,-6,73,"0,2,-179",0,0,-6,0,0,0,69,73,72,0,100,-21.04,7,2.0,2.0,-998.0,11:56:21.225069,192.168.0.114
379,4,8,-7,73,"0,2,-178",0,0,-6,0,0,0,69,73,72,0,100,-21.03,7,3.0,1.0,-991.0,11:56:21.327055,192.168.0.114
384,4,9,-8,73,"0,2,-177",0,0,-6,0,0,0,69,73,72,0,100,-21.02,7,2.0,4.0,-999.0,11:56:21.428974,192.168.0.114
389,4,9,-7,74,"0,2,-178",0,0,-6,0,0,0,69,73,73,0,100,-21.03,7,16.0,-2.0,-998.0,11:56:21.531024,192.168.0.114
394,4,9,-7,74,"0,2,-178",0,0,-6,0,0,0,69,73,73,0,100,-21.05,7,8.0,-5.0,-992.0,11:56:21.632940,192.168.0.114
399,4,9,-8,75,"0,2,-177",0,0,-6,0,0,0,69,72,74,0,100,-21.12,7,21.0,6.0,-998.0,11:56:21.734977,192.168.0.114
404,4,11,-8,74,"0,2,-177",0,0,-6,0,0,0,69,72,74,10,100,-21.06,7,6.0,4.0,-987.0,11:56:21.837012,192.168.0.114
409,4,9,-7,76,"0,2,-178",0,0,-6,0,0,0,69,72,75,10,100,-21.07,7,18.0,3.0,-988.0,11:56:21.939021,192.168.0.114
414,4,9,-7,76,"0,2,-178",0,0,-6,0,0,0,69,72,75,10,100,-20.99,7,6.0,3.0,-993.0,11:56:22.040596,192.168.0.114
421,4,8,-7,76,"-1,2,-178",0,0,-6,0,0,0,69,72,75,10,100,-21.03,8,8.0,-1.0,-1003.0,11:56:22.143158,192.168.0.114
424,4,9,-7,76,"0,2,-178",0,0,-6,0,0,0,69,72,75,10,100,-21.04,8,7.0,8.0,-980.0,11:56:22.194006,192.168.0.114
429,4,9,-7,76,"0,2,-178",0,0,-6,0,0,0,69,72,75,10,100,-20.98,8,19.0,0.0,-995.0,11:56:22.295850,192.168.0.114
434,4,10,-6,77,"0,2,-179",0,0,-6,0,0,0,69,72,75,10,100,-21.03,8,5.0,-1.0,-979.0,11:56:22.397835,192.168.0.114
439,4,9,-8,76,"0,2,-177",0,0,-6,0,0,0,69,72,75,10,100,-21.02,8,7.0,0.0,-994.0,11:56:22.499901,192.168.0.114
444,4,9,-7,76,"0,2,-178",0,0,-6,0,0,0,69,72,76,10,100,-20.99,8,0.0,-2.0,-983.0,11:56:22.601808,192.168.0.114
449,4,9,-6,77,"0,2,-178",0,0,-6,0,0,0,70,72,75,10,100,-20.99,8,16.0,-8.0,-1010.0,11:56:22.704232,192.168.0.114
454,4,8,-6,77,"0,2,-178",0,0,-6,0,0,0,70,72,75,10,100,-20.98,8,-1.0,0.0,-997.0,11:56:22.805487,192.168.0.114
459,4,9,-7,77,"0,2,-178",0,0,-6,0,0,0,70,72,75,10,100,-21.03,8,14.0,-3.0,-1000.0,11:56:22.907932,192.168.0.114
464,4,9,-7,77,"0,2,-178",0,0,-6,0,0,0,70,72,76,10,100,-20.98,8,7.0,-4.0,-1002.0,11:56:23.009617,192.168.0.114
469,4,9,-7,77,"0,2,-178",0,0,-6,0,0,0,70,72,76,10,100,-21.04,9,17.0,0.0,-992.0,11:56:23.111928,192.168.0.114
474,4,9,-7,77,"0,2,-178",0,0,-6,0,0,0,70,72,75,10,100,-21.03,9,0.0,1.0,-999.0,11:56:23.213624,192.168.0.114
479,4,9,-7,76,"0,2,-178",0,0,-6,0,0,0,70,72,75,10,100,-21.04,9,5.0,-5.0,-1010.0,11:56:23.315486,192.168.0.114
484,4,9,-7,76,"0,2,-178",0,0,-6,0,0,0,70,72,75,10,100,-20.98,9,1.0,-6.0,-987.0,11:56:23.417677,192.168.0.114
489,4,10,-8,76,"0,2,-177",-1,-1,-6,0,0,0,70,72,75,10,100,-21.02,9,-14.0,8.0,-965.0,11:56:23.519702,192.168.0.114
494,4,10,-8,76,"0,2,-177",-3,-2,-6,0,0,0,70,72,75,10,100,-21.08,9,15.0,-4.0,-996.0,11:56:23.621638,192.168.0.114
499,4,11,-6,76,"3,2,178",-2,-1,-6,1,0,0,69,73,74,10,100,-21.07,9,-3.0,-4.0,-987.0,11:56:23.723654,192.168.0.114
504,4,11,-6,76,"3,2,178",0,0,-6,1,0,0,69,73,74,10,100,-21.06,9,-5.0,4.0,-992.0,11:56:23.825688,192.168.0.114
509,4,11,-6,76,"3,2,178",0,0,-6,1,0,0,69,73,73,0,100,-21.04,9,1.0,7.0,-1005.0,11:56:23.927893,192.168.0.114
514,4,12,-7,75,"0,2,-177",0,0,-6,0,0,0,69,73,73,0,100,-21.08,9,4.0,1.0,-992.0,11:56:24.029839,192.168.0.114
519,4,12,-7,75,"0,2,-177",0,0,-6,0,0,0,69,73,73,0,100,-21.1,10,-8.0,6.0,-1023.0,11:56:24.131781,192.168.0.114
524,4,12,-5,75,"-1,2,-177",0,0,-6,0,0,0,69,73,72,0,100,-21.09,10,1.0,0.0,-991.0,11:56:24.233722,192.168.0.114
529,4,12,-5,75,"-1,2,-177",0,1,-6,0,0,0,69,73,72,0,100,-21.15,10,-4.0,3.0,-994.0,11:56:24.335994,192.168.0.114
535,4,20,-6,72,"2,1,-174",1,0,-6,0,0,0,69,73,72,0,100,-21.07,10,5.0,-4.0,-1017.0,11:56:24.438632,192.168.0.114
539,4,20,-6,72,"2,1,-174",1,0,-6,0,0,0,69,73,72,0,100,-21.02,10,7.0,-5.0,-1002.0,11:56:24.539707,192.168.0.114
544,4,19,-6,72,"0,1,-175",1,0,-6,0,0,0,69,73,72,0,100,-21.01,10,-8.0,-5.0,-1011.0,11:56:24.641695,192.168.0.114
549,4,19,-6,72,"0,1,-175",0,0,-6,0,0,0,71,73,71,0,100,-21.08,10,14.0,-2.0,-1004.0,11:56:24.743727,192.168.0.114
555,4,19,-6,72,"0,1,-175",0,0,-6,0,0,0,71,73,72,0,100,-21.1,10,0.0,-2.0,-991.0,11:56:24.845585,192.168.0.114
560,4,19,-3,72,"0,2,-178",0,0,-6,0,0,0,71,73,72,0,100,-21.11,10,-3.0,-3.0,-997.0,11:56:24.947608,192.168.0.114
565,4,19,-3,72,"0,2,-178",0,0,-6,0,0,0,71,73,72,0,100,-21.08,10,0.0,-1.0,-1003.0,11:56:25.049194,192.168.0.114
570,4,19,-4,72,"0,2,-177",0,0,-6,0,0,0,71,73,72,0,100,-21.12,11,14.0,-4.0,-1004.0,11:56:25.151823,192.168.0.114
576,4,19,-4,72,"0,2,-177",-1,0,-6,0,0,0,71,73,72,0,100,-21.11,11,22.0,-11.0,-1002.0,11:56:25.255606,192.168.0.114
581,4,15,-4,74,"0,2,-177",-1,0,-6,0,0,0,71,73,72,0,100,-21.12,11,19.0,8.0,-1016.0,11:56:25.357274,192.168.0.114
585,4,15,-4,74,"0,2,-177",-1,0,-6,0,0,0,71,73,72,0,100,-21.12,11,8.0,-2.0,-993.0,11:56:25.459128,192.168.0.114
590,4,15,-4,74,"0,2,-177",-1,0,-6,0,0,0,71,73,73,0,100,-21.13,11,2.0,-10.0,-1000.0,11:56:25.561018,192.168.0.114
596,4,16,-6,74,"0,1,-177",-1,0,-6,0,0,0,71,73,73,0,100,-21.11,11,5.0,0.0,-1013.0,11:56:25.663704,192.168.0.114
601,4,16,-6,74,"0,1,-177",-1,0,-6,1,0,0,70,73,72,0,100,-21.03,11,-5.0,-2.0,-981.0,11:56:25.766838,192.168.0.114
606,4,20,-5,73,"1,2,-178",-1,0,-6,1,0,0,70,73,72,0,100,-21.13,11,18.0,-3.0,-1009.0,11:56:25.868664,192.168.0.114
610,4,20,-5,73,"1,2,-178",-1,0,-6,1,0,0,70,73,73,0,100,-21.09,11,-9.0,-12.0,-985.0,11:56:25.967764,192.168.0.114
615,4,24,-8,72,"2,1,-176",-1,0,-6,1,0,0,70,73,73,0,100,-21.09,11,-9.0,-6.0,-986.0,11:56:26.069678,192.168.0.114
620,4,24,-8,72,"2,1,-176",-1,0,-6,1,0,0,70,73,72,0,100,-21.07,12,-2.0,6.0,-1004.0,11:56:26.171811,192.168.0.114
625,4,33,-8,68,"6,1,-176",-1,0,-6,1,0,0,70,73,73,0,100,-21.09,12,-4.0,2.0,-998.0,11:56:26.273650,192.168.0.114
630,4,33,-8,68,"6,1,-176",0,0,-6,1,0,0,70,73,72,0,100,-21.05,12,-4.0,3.0,-1009.0,11:56:26.375863,192.168.0.114
636,4,33,-8,68,"6,1,-176",0,0,-6,1,0,0,70,73,73,0,100,-21.09,12,7.0,-1.0,-1014.0,11:56:26.477662,192.168.0.114
641,4,36,-11,69,"5,0,-175",0,0,-6,1,0,0,70,73,73,0,100,-21.11,12,-13.0,12.0,-1015.0,11:56:26.579677,192.168.0.114
646,4,36,-11,69,"5,0,-175",0,0,-6,1,0,0,70,73,73,0,100,-21.13,12,-17.0,9.0,-990.0,11:56:26.682894,192.168.0.114
651,4,41,-21,64,"6,-3,-169",0,0,-6,1,0,0,70,73,73,0,100,-21.11,12,-12.0,14.0,-1018.0,11:56:26.783648,192.168.0.114
656,4,41,-21,64,"6,-3,-169",0,0,-6,1,0,0,70,73,73,0,100,-21.1,12,-9.0,10.0,-1008.0,11:56:26.885739,192.168.0.114
661,4,40,-12,72,"2,0,-175",0,0,-6,1,0,0,70,73,73,0,100,-21.05,12,-11.0,-1.0,-981.0,11:56:26.987910,192.168.0.114
666,4,40,-12,72,"2,0,-175",0,0,-6,1,0,0,70,73,73,0,100,-21.05,12,-2.0,0.0,-1010.0,11:56:27.089461,192.168.0.114
671,4,40,-12,72,"2,0,-175",0,0,-6,1,0,0,70,73,73,0,100,-21.08,13,-11.0,0.0,-992.0,11:56:27.191677,192.168.0.114
676,4,40,-12,72,"2,0,-175",0,0,-6,1,0,0,70,73,73,0,100,-21.08,13,-12.0,2.0,-979.0,11:56:27.293488,192.168.0.114
681,4,40,-12,72,"2,0,-175",0,0,-6,2,0,0,70,73,73,0,100,-21.06,13,-8.0,3.0,-994.0,11:56:27.395739,192.168.0.114
686,4,40,-12,72,"2,0,-175",0,0,-6,2,0,0,70,73,73,0,100,-21.06,13,-2.0,8.0,-988.0,11:56:27.498581,192.168.0.114
691,4,40,-12,72,"2,0,-175",0,0,-6,2,0,0,70,73,73,0,100,-21.1,13,1.0,9.0,-1004.0,11:56:27.600565,192.168.0.114
697,4,40,-12,72,"2,0,-175",0,0,-6,2,0,0,70,73,73,0,100,-21.02,13,3.0,16.0,-1000.0,11:56:27.702609,192.168.0.114
701,4,40,-12,72,"2,0,-175",0,0,-6,2,0,0,69,73,73,0,100,-21.09,13,-11.0,10.0,-992.0,11:56:27.805182,192.168.0.114
706,4,40,-12,72,"2,0,-175",0,0,-6,2,0,0,69,73,73,0,100,-21.07,13,-18.0,7.0,-985.0,11:56:27.906441,192.168.0.114
711,4,40,-12,72,"2,0,-175",0,0,-6,2,0,0,69,73,72,0,100,-21.11,13,-13.0,4.0,-1006.0,11:56:28.008550,192.168.0.114
716,4,40,-12,72,"2,0,-175",0,0,-6,2,0,0,69,73,72,0,100,-21.1,13,-4.0,12.0,-1006.0,11:56:28.110647,192.168.0.114
721,4,40,-12,72,"2,0,-175",0,0,-6,1,0,0,69,73,72,0,100,-21.09,14,-4.0,6.0,-991.0,11:56:28.161216,192.168.0.114
726,4,40,-12,72,"2,0,-175",0,0,-6,1,0,0,69,73,72,0,100,-21.21,14,-1.0,4.0,-992.0,11:56:28.263417,192.168.0.114
731,4,40,-12,72,"2,0,-175",0,0,-6,1,0,0,69,73,72,0,100,-21.18,14,-32.0,15.0,-991.0,11:56:28.365733,192.168.0.114
736,4,40,-12,72,"2,0,-175",0,0,-6,1,0,0,69,73,72,0,100,-21.1,14,-2.0,10.0,-1021.0,11:56:28.467104,192.168.0.114
741,4,40,-12,72,"2,0,-175",0,0,-6,1,0,0,69,73,72,0,100,-21.14,14,-8.0,7.0,-1002.0,11:56:28.569242,192.168.0.114
746,4,40,-12,72,"2,0,-175",0,0,-6,1,0,0,69,73,72,0,100,-21.18,14,-4.0,5.0,-993.0,11:56:28.671396,192.168.0.114
751,4,40,-12,72,"2,0,-175",0,0,-6,1,0,0,71,73,72,0,100,-21.13,14,-5.0,17.0,-996.0,11:56:28.773292,192.168.0.114
756,4,40,-12,72,"2,0,-175",0,-1,-6,1,0,0,71,73,72,0,100,-21.22,14,-9.0,6.0,-1001.0,11:56:28.876023,192.168.0.114
761,4,40,-12,72,"2,0,-175",0,-1,-6,1,0,0,71,73,72,0,100,-21.15,14,-6.0,19.0,-995.0,11:56:28.978169,192.168.0.114
766,4,40,-12,72,"2,0,-175",0,-1,-6,1,0,0,71,73,72,0,100,-21.14,14,-17.0,17.0,-978.0,11:56:29.079446,192.168.0.114
771,4,40,-12,72,"2,0,-175",0,-1,-6,1,0,0,71,73,72,0,100,-21.15,15,-14.0,7.0,-1019.0,11:56:29.181225,192.168.0.114
776,4,40,-12,72,"2,0,-175",0,-1,-6,1,0,0,71,73,72,0,100,-21.16,15,1.0,14.0,-1009.0,11:56:29.283490,192.168.0.114
781,4,40,-12,72,"2,0,-175",0,-1,-6,1,0,0,71,73,72,0,100,-21.11,15,5.0,30.0,-1003.0,11:56:29.385454,192.168.0.114
786,4,40,-12,72,"2,0,-175",0,-1,-6,2,0,0,71,73,72,0,100,-21.14,15,-2.0,34.0,-1009.0,11:56:29.487128,192.168.0.114
791,4,40,-12,72,"2,0,-175",0,-1,-6,2,0,0,71,73,72,0,100,-21.1,15,-7.0,15.0,-988.0,11:56:29.590535,192.168.0.114
796,4,40,-12,72,"2,0,-175",0,-1,-6,2,0,0,71,73,71,0,100,-21.1,15,5.0,31.0,-995.0,11:56:29.692076,192.168.0.114
800,4,40,-12,72,"2,0,-175",0,-1,-6,2,0,0,71,74,71,0,100,-21.07,15,-1.0,20.0,-987.0,11:56:29.798397,192.168.0.114
805,4,40,-12,72,"2,0,-175",0,-1,-6,2,0,0,71,74,71,0,100,-21.14,15,-6.0,16.0,-992.0,11:56:29.896995,192.168.0.114
811,4,40,-12,72,"2,0,-175",0,-2,-6,2,0,0,71,74,71,0,100,-21.17,15,-2.0,-10.0,-977.0,11:56:29.998567,192.168.0.114
816,4,40,-12,72,"2,0,-175",0,-1,-6,1,0,0,71,74,71,0,100,-21.12,15,20.0,10.0,-1010.0,11:56:30.102025,192.168.0.114
821,4,40,-12,72,"2,0,-175",0,0,-6,2,0,0,71,74,72,0,100,-21.08,16,13.0,13.0,-976.0,11:56:30.201097,192.168.0.114
826,4,40,-12,72,"2,0,-175",0,0,-6,2,0,0,71,74,71,0,100,-21.08,16,3.0,19.0,-979.0,11:56:30.303038,192.168.0.114
831,4,40,-12,72,"2,0,-175",0,0,-6,2,0,0,71,74,71,0,100,-21.06,16,18.0,-2.0,-1012.0,11:56:30.405338,192.168.0.114
836,4,40,-12,72,"2,0,-175",0,0,-6,1,0,0,71,74,71,0,100,-21.1,16,-59.0,-106.0,-1018.0,11:56:30.507221,192.168.0.114
841,4,40,-12,72,"2,0,-175",0,0,-6,1,0,0,71,74,72,0,100,-21.13,16,1.0,-15.0,-982.0,11:56:30.609245,192.168.0.114
846,4,40,-12,72,"2,0,-175",0,0,-6,2,0,0,71,74,72,0,100,-21.12,16,1.0,-8.0,-1015.0,11:56:30.711215,192.168.0.114
851,4,40,-12,72,"2,0,-175",0,0,-6,2,0,0,71,74,72,0,100,-21.09,16,-10.0,-21.0,-986.0,11:56:30.813117,192.168.0.114
856,4,40,-12,72,"2,0,-175",0,0,-6,2,0,0,71,74,72,0,100,-21.08,16,13.0,-11.0,-970.0,11:56:30.919722,192.168.0.114
861,4,40,-12,72,"2,0,-175",0,0,-6,2,0,0,71,74,72,0,100,-21.18,16,27.0,8.0,-996.0,11:56:31.017090,192.168.0.114
866,4,40,-12,72,"2,0,-175",0,0,-6,1,0,0,71,74,72,0,100,-21.14,16,28.0,13.0,-1000.0,11:56:31.119039,192.168.0.114
871,4,40,-12,72,"2,0,-175",0,0,-6,2,0,0,71,74,72,0,100,-20.99,17,31.0,15.0,-985.0,11:56:31.221399,192.168.0.114
875,4,40,-12,72,"2,0,-175",0,0,-6,2,0,0,71,74,72,0,100,-21.06,17,-5.0,-25.0,-1001.0,11:56:31.272711,192.168.0.114
880,4,40,-12,72,"2,0,-175",0,0,-6,2,0,0,71,74,72,0,100,-21.04,17,30.0,-28.0,-1021.0,11:56:31.375396,192.168.0.114
886,4,40,-12,72,"2,0,-175",0,0,-6,2,0,0,71,74,71,0,100,-21.04,17,-11.0,27.0,-1003.0,11:56:31.476261,192.168.0.114
890,4,40,-12,72,"2,0,-175",0,-1,-6,1,0,0,71,74,71,0,100,-21.09,17,21.0,23.0,-983.0,11:56:31.578744,192.168.0.114
895,4,40,-12,72,"2,0,-175",0,-1,-6,1,0,0,71,74,71,0,100,-21.11,17,-11.0,-1.0,-984.0,11:56:31.680046,192.168.0.114
900,4,40,-12,72,"2,0,-175",0,-1,-6,1,0,0,71,74,72,0,100,-21.01,17,-12.0,-4.0,-1000.0,11:56:31.783495,192.168.0.114
905,4,40,-12,72,"2,0,-175",0,-1,-6,1,0,0,71,74,71,0,100,-21.09,17,-1.0,32.0,-985.0,11:56:31.884020,192.168.0.114
911,-1,-100,-100,-100,"-1,-1,-1",-1,-1,-6,1,0,0,71,74,71,0,100,-21.02,17,-15.0,24.0,-985.0,11:56:31.987183,192.168.0.114
916,-1,-100,-100,-100,"-1,-1,-1",0,-1,-6,1,0,0,71,74,71,0,100,-21.04,17,-12.0,-9.0,-996.0,11:56:32.088143,192.168.0.114
921,-1,-100,-100,-100,"-1,-1,-1",0,-1,-6,1,0,0,71,74,71,0,100,-21.08,18,3.0,-2.0,-1032.0,11:56:32.190060,192.168.0.114
926,-1,-100,-100,-100,"-1,-1,-1",0,-2,-7,2,0,0,71,74,72,0,100,-21.13,18,25.0,-1.0,-989.0,11:56:32.292071,192.168.0.114
931,-1,-100,-100,-100,"-1,-1,-1",0,-1,-6,2,0,0,71,74,72,0,100,-21.14,18,-35.0,-8.0,-975.0,11:56:32.394120,192.168.0.114
936,-1,-100,-100,-100,"-1,-1,-1",0,0,-6,1,0,0,71,74,72,0,100,-21.11,18,-43.0,-33.0,-1051.0,11:56:32.496028,192.168.0.114
941,-1,-100,-100,-100,"-1,-1,-1",0,0,-6,1,0,0,71,74,73,0,100,-21.1,18,-32.0,-9.0,-975.0,11:56:32.599253,192.168.0.114
946,-1,-100,-100,-100,"-1,-1,-1",0,0,-6,1,0,0,71,74,73,0,100,-21.08,18,22.0,30.0,-1009.0,11:56:32.700145,192.168.0.114
951,-1,-100,-100,-100,"-1,-1,-1",0,-1,-6,1,0,0,70,74,73,0,100,-21.11,18,-6.0,6.0,-957.0,11:56:32.802098,192.168.0.114
956,-1,-100,-100,-100,"-1,-1,-1",0,-1,-6,1,0,0,70,74,73,0,100,-21.25,18,19.0,36.0,-993.0,11:56:32.904045,192.168.0.114
961,-1,-100,-100,-100,"-1,-1,-1",-1,0,-6,1,0,0,70,74,72,0,100,-21.07,18,18.0,27.0,-1001.0,11:56:33.006042,192.168.0.114
965,-1,-100,-100,-100,"-1,-1,-1",0,0,-6,1,0,0,70,74,71,0,100,-21.05,18,13.0,-12.0,-1026.0,11:56:33.108493,192.168.0.114
971,-1,-100,-100,-100,"-1,-1,-1",0,-1,-6,1,0,0,70,74,71,0,100,-21.14,19,-1.0,13.0,-1003.0,11:56:33.210092,192.168.0.114
976,-1,-100,-100,-100,"-1,-1,-1",0,-1,-6,1,0,0,70,74,71,0,100,-21.15,19,-1.0,42.0,-995.0,11:56:33.312040,192.168.0.114
981,-1,-100,-100,-100,"-1,-1,-1",0,-1,-6,1,0,0,70,74,71,0,100,-21.09,19,-14.0,32.0,-1005.0,11:56:33.414026,192.168.0.114
986,-1,-100,-100,-100,"-1,-1,-1",0,-1,-6,1,0,0,70,74,71,0,100,-21.12,19,21.0,38.0,-997.0,11:56:33.516024,192.168.0.114
991,-1,-100,-100,-100,"-1,-1,-1",0,-1,-6,1,0,0,70,74,70,0,100,-21.13,19,19.0,3.0,-1001.0,11:56:33.618108,192.168.0.114
996,-1,-100,-100,-100,"-1,-1,-1",0,-1,-6,1,0,0,70,74,70,0,100,-20.98,19,-36.0,-29.0,-1402.0,11:56:33.719998,192.168.0.114
1001,-1,-100,-100,-100,"-1,-1,-1",0,-2,0,2,0,1,72,73,71,0,100,-21.02,19,28.0,66.0,-1134.0,11:56:33.821885,192.168.0.114
1006,-1,-100,-100,-100,"-1,-1,-1",1,-3,-5,2,0,0,72,73,73,0,100,-20.85,19,18.0,58.0,-1037.0,11:56:33.924208,192.168.0.114
1011,-1,-100,-100,-100,"-1,-1,-1",1,-4,-7,2,0,0,72,73,71,0,100,-20.61,19,-5.0,2.0,-1015.0,11:56:34.026076,192.168.0.114
1016,-1,-100,-100,-100,"-1,-1,-1",1,-3,-7,1,0,0,72,73,50,0,100,-20.95,20,-17.0,22.0,-1063.0,11:56:34.128192,192.168.0.114
1021,-1,-100,-100,-100,"-1,-1,-1",0,-2,-7,1,0,-1,72,73,62,0,100,-21.03,20,-21.0,20.0,-1039.0,11:56:34.230094,192.168.0.114
1026,-1,-100,-100,-100,"-1,-1,-1",0,-1,-7,1,0,-1,72,73,84,0,100,-21.1,20,-8.0,6.0,-990.0,11:56:34.332034,192.168.0.114
1031,-1,-100,-100,-100,"-1,-1,-1",-1,-1,-7,1,0,-1,72,73,87,10,100,-21.03,20,-6.0,3.0,-963.0,11:56:34.434038,192.168.0.114
1036,-1,-100,-100,-100,"-1,-1,-1",-1,-1,-7,1,0,-1,72,73,89,10,100,-21.05,20,-7.0,6.0,-952.0,11:56:34.535956,192.168.0.114
1041,-1,-100,-100,-100,"-1,-1,-1",0,0,-7,1,0,-1,72,73,93,10,100,-21.02,20,19.0,-4.0,-933.0,11:56:34.638079,192.168.0.114
1046,-1,-100,-100,-100,"-1,-1,-1",0,0,-7,1,0,0,72,73,94,10,100,-20.99,20,14.0,27.0,-937.0,11:56:34.740262,192.168.0.114
1051,-1,-100,-100,-100,"-1,-1,-1",0,0,-6,1,0,0,71,75,95,10,100,-20.96,20,18.0,10.0,-956.0,11:56:34.842326,192.168.0.114
1056,-1,-100,-100,-100,"-1,-1,-1",0,-1,-6,1,0,0,71,75,96,10,100,-20.97,20,-3.0,19.0,-940.0,11:56:34.944090,192.168.0.114
1060,-1,-100,-100,-100,"-1,-1,-1",0,-1,-7,1,0,0,71,75,97,10,100,-20.94,20,-2.0,9.0,-959.0,11:56:34.994970,192.168.0.114
1064,-1,-100,-100,-100,"-1,-1,-1",0,-1,-7,1,0,0,71,75,96,10,100,-20.95,21,8.0,6.0,-979.0,11:56:35.096871,192.168.0.114
1069,-1,-100,-100,-100,"-1,-1,-1",0,-1,-7,1,0,0,71,75,94,10,100,-21.01,21,12.0,9.0,-987.0,11:56:35.198897,192.168.0.114
1074,-1,-100,-100,-100,"-1,-1,-1",0,-1,-7,1,0,0,71,75,94,10,100,-21.08,21,-13.0,12.0,-987.0,11:56:35.300944,192.168.0.114
1079,-1,-100,-100,-100,"-1,-1,-1",0,-1,-7,1,0,0,71,75,92,10,100,-20.93,21,6.0,14.0,-984.0,11:56:35.403654,192.168.0.114
1084,-1,-100,-100,-100,"-1,-1,-1",0,-1,-7,1,0,1,71,75,92,10,100,-21.02,21,9.0,9.0,-1007.0,11:56:35.505246,192.168.0.114
1089,-1,-100,-100,-100,"-1,-1,-1",0,0,-7,1,0,1,71,75,90,10,100,-20.98,21,-5.0,22.0,-1025.0,11:56:35.606879,192.168.0.114
1094,-1,-100,-100,-100,"-1,-1,-1",0,0,-7,1,0,0,71,75,89,10,100,-21.02,21,-2.0,4.0,-1026.0,11:56:35.708819,192.168.0.114
1099,-1,-100,-100,-100,"-1,-1,-1",0,0,-7,1,0,0,71,75,87,10,100,-21.0,21,12.0,0.0,-999.0,11:56:35.810901,192.168.0.114
1105,-1,-100,-100,-100,"-1,-1,-1",0,0,-7,1,0,0,71,75,86,10,100,-20.95,21,0.0,1.0,-1012.0,11:56:35.913087,192.168.0.114
1110,-1,-100,-100,-100,"-1,-1,-1",0,0,-6,1,0,0,71,75,86,10,100,-21.01,21,-12.0,6.0,-1027.0,11:56:36.014836,192.168.0.114
1115,-1,-100,-100,-100,"-1,-1,-1",0,0,-6,1,0,0,71,75,84,10,100,-21.03,22,10.0,2.0,-995.0,11:56:36.118126,192.168.0.114
1120,-1,-100,-100,-100,"-1,-1,-1",0,0,-6,1,0,0,71,75,83,0,100,-21.05,22,10.0,4.0,-1014.0,11:56:36.219573,192.168.0.114
1125,-1,-100,-100,-100,"-1,-1,-1",0,0,-6,2,0,0,71,75,82,0,100,-21.1,22,7.0,10.0,-1019.0,11:56:36.320955,192.168.0.114
1131,-1,-100,-100,-100,"-1,-1,-1",0,0,-6,2,0,0,71,75,82,0,100,-21.06,22,13.0,19.0,-1014.0,11:56:36.422961,192.168.0.114
1136,-1,-100,-100,-100,"-1,-1,-1",0,-1,-6,2,0,0,71,75,80,0,100,-21.06,22,7.0,21.0,-1013.0,11:56:36.525204,192.168.0.114
1141,-1,-100,-100,-100,"-1,-1,-1",0,-1,-6,2,0,0,71,75,79,0,100,-21.05,22,22.0,11.0,-996.0,11:56:36.626796,192.168.0.114
1146,-1,-100,-100,-100,"-1,-1,-1",0,-1,-6,2,0,0,71,75,79,0,100,-21.01,22,10.0,25.0,-1014.0,11:56:36.729611,192.168.0.114
1151,-1,-100,-100,-100,"-1,-1,-1",0,-1,-6,2,0,0,72,74,78,0,100,-21.06,22,8.0,6.0,-1020.0,11:56:36.830808,192.168.0.114
1156,-1,-100,-100,-100,"-1,-1,-1",0,-1,-6,2,0,0,72,74,78,0,100,-20.95,22,-3.0,10.0,-1010.0,11:56:36.933048,192.168.0.114
1161,-1,-100,-100,-100,"-1,-1,-1",0,-1,-6,1,0,0,72,74,78,0,100,-20.97,22,-3.0,-3.0,-1013.0,11:56:37.034965,192.168.0.114
1166,-1,-100,-100,-100,"-1,-1,-1",0,-1,-6,1,0,0,72,74,78,0,100,-21.08,23,-15.0,8.0,-1006.0,11:56:37.136839,192.168.0.114
1171,-1,-100,-100,-100,"-1,-1,-1",0,-1,-6,1,0,0,72,74,77,0,100,-21.1,23,-23.0,10.0,-1028.0,11:56:37.239100,192.168.0.114
1176,-1,-100,-100,-100,"-1,-1,-1",0,0,-6,1,0,0,72,74,77,0,100,-21.07,23,0.0,-8.0,-999.0,11:56:37.341034,192.168.0.114
1181,-1,-100,-100,-100,"-1,-1,-1",0,0,-6,1,0,0,72,74,78,0,100,-21.0,23,-14.0,1.0,-1003.0,11:56:37.442978,192.168.0.114
1186,-1,-100,-100,-100,"-1,-1,-1",0,0,-6,1,0,0,72,74,77,0,100,-21.12,23,3.0,-4.0,-991.0,11:56:37.545439,192.168.0.114
1191,-1,-100,-100,-100,"-1,-1,-1",0,0,-6,1,0,0,72,74,78,0,100,-21.08,23,-11.0,-4.0,-991.0,11:56:37.646934,192.168.0.114
1196,-1,-100,-100,-100,"-1,-1,-1",0,0,-6,1,0,0,72,74,77,0,100,-21.04,23,3.0,5.0,-992.0,11:56:37.748805,192.168.0.114
1201,-1,-100,-100,-100,"-1,-1,-1",0,0,-6,1,0,0,71,75,78,0,100,-21.11,23,-15.0,8.0,-990.0,11:56:37.851041,192.168.0.114
1206,-1,-100,-100,-100,"-1,-1,-1",0,0,-6,1,0,0,71,75,77,0,100,-20.98,23,-20.0,2.0,-990.0,11:56:37.952823,192.168.0.114
1211,-1,-100,-100,-100,"-1,-1,-1",0,0,-6,1,0,0,71,75,77,0,100,-21.02,23,-1.0,19.0,-1006.0,11:56:38.054954,192.168.0.114
1216,-1,-100,-100,-100,"-1,-1,-1",0,0,-6,1,0,0,71,75,77,0,100,-21.09,24,-7.0,14.0,-1006.0,11:56:38.156704,192.168.0.114
1221,-1,-100,-100,-100,"-1,-1,-1",0,-1,-6,1,0,0,71,75,77,0,100,-21.08,24,26.0,3.0,-1006.0,11:56:38.258957,192.168.0.114
1226,-1,-100,-100,-100,"-1,-1,-1",0,-1,-6,1,0,0,71,75,77,0,100,-21.08,24,-7.0,8.0,-1004.0,11:56:38.367495,192.168.0.114
1231,-1,-100,-100,-100,"-1,-1,-1",0,-1,-6,1,0,0,71,75,76,0,100,-21.06,24,0.0,4.0,-1004.0,11:56:38.470395,192.168.0.114
1236,-1,-100,-100,-100,"-1,-1,-1",0,-1,-6,1,0,0,71,75,76,0,100,-21.12,24,-7.0,6.0,-1004.0,11:56:38.572953,192.168.0.114
1241,-1,-100,-100,-100,"-1,-1,-1",0,0,-6,1,0,0,71,75,76,0,100,-21.06,24,-9.0,9.0,-1006.0,11:56:38.668071,192.168.0.114
1244,-1,-100,-100,-100,"-1,-1,-1",0,-1,-6,1,0,0,71,75,76,0,100,-21.07,24,3.0,-3.0,-984.0,11:56:38.778205,192.168.0.114
1251,-1,-100,-100,-100,"-1,-1,-1",0,-1,-6,1,0,0,72,75,75,0,100,-21.04,24,-19.0,18.0,-1023.0,11:56:38.881269,192.168.0.114
1254,-1,-100,-100,-100,"-1,-1,-1",0,-1,-6,1,0,0,72,75,75,0,100,-21.02,24,11.0,2.0,-1004.0,11:56:38.983693,192.168.0.114
1259,-1,-100,-100,-100,"-1,-1,-1",0,-1,-6,1,0,0,72,75,76,0,100,-21.08,24,-9.0,-7.0,-1017.0,11:56:39.086568,192.168.0.114
1266,-1,-100,-100,-100,"-1,-1,-1",0,-1,-6,1,0,0,72,75,75,0,100,-21.05,25,-1.0,10.0,-1003.0,11:56:39.189301,192.168.0.114
1271,-1,-100,-100,-100,"-1,-1,-1",0,0,-6,1,0,0,72,75,75,0,100,-21.14,25,-4.0,-8.0,-988.0,11:56:39.292518,192.168.0.114
1276,-1,-100,-100,-100,"-1,-1,-1",0,0,-6,1,0,0,72,75,75,0,100,-21.07,25,-13.0,-3.0,-997.0,11:56:39.394868,192.168.0.114
1281,-1,-100,-100,-100,"-1,-1,-1",0,0,-6,1,0,0,72,75,76,0,100,-21.08,25,-15.0,-17.0,-1003.0,11:56:39.586113,192.168.0.114
1286,-1,-100,-100,-100,"-1,-1,-1",0,0,-6,1,-1,0,72,75,76,0,100,-21.09,25,-18.0,8.0,-1017.0,11:56:39.586949,192.168.0.114
1291,-1,-100,-100,-100,"-1,-1,-1",-1,0,-6,1,-1,0,72,75,76,0,100,-21.12,25,-4.0,-2.0,-1005.0,11:56:39.795081,192.168.0.114
1295,-1,-100,-100,-100,"-1,-1,-1",-1,0,-6,1,0,0,72,75,76,0,100,-21.02,25,-17.0,5.0,-998.0,11:56:39.795796,192.168.0.114
1300,-1,-100,-100,-100,"-1,-1,-1",-1,0,-6,1,0,0,72,75,76,0,100,-21.08,25,1.0,0.0,-1013.0,11:56:39.840380,192.168.0.114
1305,-1,-100,-100,-100,"-1,-1,-1",-1,0,-6,1,0,0,72,75,76,0,100,-21.15,25,-8.0,-1.0,-1002.0,11:56:40.066042,192.168.0.114
1310,-1,-100,-100,-100,"-1,-1,-1",-1,0,-6,1,0,0,72,75,76,0,100,-21.02,25,-19.0,-2.0,-1012.0,11:56:40.066854,192.168.0.114
1316,-1,-100,-100,-100,"-1,-1,-1",-1,0,-6,1,0,0,72,75,77,0,100,-21.01,26,-20.0,-11.0,-974.0,11:56:40.272571,192.168.0.114
1321,8,-38,-32,74,"2,5,-172",-1,0,-6,1,0,0,72,75,77,0,100,-21.02,26,-19.0,-5.0,-999.0,11:56:40.273340,192.168.0.114
1326,8,-38,-32,74,"2,5,-172",-1,0,-6,1,0,0,72,75,77,0,100,-20.96,26,2.0,5.0,-1014.0,11:56:40.479045,192.168.0.114
1331,8,-38,-32,74,"2,5,-172",-1,0,-6,1,0,0,72,75,77,0,100,-21.04,26,-3.0,1.0,-1012.0,11:56:40.479960,192.168.0.114
1335,8,-37,-30,74,"1,5,-172",-1,0,-6,1,0,0,72,75,77,0,100,-21.03,26,-8.0,11.0,-994.0,11:56:40.685596,192.168.0.114
1341,8,-37,-30,74,"1,5,-172",-1,0,-6,1,0,0,72,75,77,0,100,-21.0,26,-12.0,-1.0,-993.0,11:56:40.686532,192.168.0.114
1346,8,-32,-21,79,"3,2,-177",-1,-1,-6,1,0,0,72,75,77,0,100,-20.97,26,-33.0,-3.0,-999.0,11:56:40.892050,192.168.0.114
1349,8,-32,-21,79,"3,2,-177",-1,0,-6,1,-1,0,72,75,77,0,100,-20.99,26,6.0,6.0,-1015.0,11:56:40.892518,192.168.0.114
1356,8,-30,-21,77,"1,3,-176",-1,0,-6,1,-1,0,72,75,77,0,100,-20.92,26,0.0,7.0,-1007.0,11:56:41.098076,192.168.0.114
1361,8,-30,-21,77,"1,3,-176",-1,0,-6,2,-1,0,72,75,77,0,100,-21.06,26,-15.0,6.0,-990.0,11:56:41.099255,192.168.0.114
1366,8,-27,-21,76,"0,3,-175",0,0,-6,2,-1,0,72,75,77,0,100,-21.02,27,-15.0,0.0,-999.0,11:56:41.304455,192.168.0.114
1371,8,-27,-21,76,"0,3,-175",0,0,-6,2,-1,0,72,75,77,0,100,-21.02,27,-11.0,10.0,-993.0,11:56:41.305790,192.168.0.114
1376,8,-23,-19,76,"0,2,-176",-1,0,-6,2,0,0,72,75,77,0,100,-20.93,27,20.0,0.0,-996.0,11:56:41.510986,192.168.0.114
1381,8,-23,-19,76,"0,2,-176",0,0,-6,2,0,0,72,75,77,0,100,-21.0,27,-10.0,0.0,-994.0,11:56:41.511866,192.168.0.114
1386,8,-23,-19,76,"0,2,-176",0,-1,-6,2,0,0,72,75,77,0,100,-21.01,27,-4.0,-1.0,-1000.0,11:56:41.718374,192.168.0.114
1391,8,-17,-19,76,"1,3,-175",0,-1,-6,2,-1,0,72,75,77,0,100,-20.99,27,-4.0,12.0,-1013.0,11:56:41.719218,192.168.0.114
1396,8,-17,-19,76,"1,3,-175",0,-1,-6,2,-1,0,72,75,77,0,100,-21.06,27,-9.0,-9.0,-1005.0,11:56:41.924521,192.168.0.114
1401,8,-13,-16,77,"1,2,-177",0,-1,-6,1,-1,0,72,75,77,0,100,-21.01,27,-11.0,-18.0,-980.0,11:56:41.925339,192.168.0.114
1406,8,-13,-16,77,"1,2,-177",-1,0,-6,1,-1,0,72,75,77,0,100,-21.03,27,0.0,-12.0,-995.0,11:56:42.130820,192.168.0.114
1411,8,-6,-14,78,"3,2,-176",-1,0,-6,1,-1,0,72,75,78,0,100,-20.99,27,-15.0,1.0,-1014.0,11:56:42.131798,192.168.0.114
1416,8,-6,-14,78,"3,2,-176",-1,0,-6,1,-1,0,72,75,78,0,100,-21.0,28,-21.0,-1.0,-989.0,11:56:42.337543,192.168.0.114
1421,8,-2,-11,78,"3,2,-178",-1,0,-6,1,-1,0,72,75,78,0,100,-20.98,28,9.0,-17.0,-984.0,11:56:42.338309,192.168.0.114
1425,8,-2,-11,78,"3,2,-178",-1,0,-6,1,-1,0,72,75,78,0,100,-21.0,28,-2.0,0.0,-1005.0,11:56:42.545433,192.168.0.114
1430,8,1,-8,79,"3,1,-177",-1,0,-6,1,-1,0,72,75,78,0,100,-20.95,28,-6.0,17.0,-1017.0,11:56:42.546340,192.168.0.114
1435,8,1,-8,79,"3,1,-177",-1,0,-6,1,-1,0,72,75,78,0,100,-20.91,28,-9.0,-5.0,-957.0,11:56:42.751913,192.168.0.114
1440,8,3,-7,78,"2,1,-176",-1,0,-6,1,-1,0,72,75,78,0,100,-21.0,28,-3.0,-5.0,-1039.0,11:56:42.752769,192.168.0.114
1446,8,3,-7,78,"2,1,-176",0,1,-6,2,-1,0,72,75,77,0,100,-20.87,28,7.0,17.0,-989.0,11:56:42.958412,192.168.0.114
1454,8,5,-8,77,"-1,1,-173",4,0,-6,1,0,0,71,75,78,0,100,-20.95,28,2.0,33.0,-988.0,11:56:42.959832,192.168.0.114
1456,8,5,-8,77,"-1,1,-173",2,0,-6,1,0,0,71,75,77,0,100,-20.89,28,9.0,2.0,-989.0,11:56:43.001879,192.168.0.114
1461,8,8,-8,76,"-3,0,-175",1,-1,-6,0,0,0,71,75,76,0,100,-20.93,29,-12.0,2.0,-994.0,11:56:43.165349,192.168.0.114
1466,8,8,-8,76,"-3,0,-175",1,-1,-6,0,0,0,71,75,75,0,100,-20.94,29,1.0,30.0,-996.0,11:56:43.205725,192.168.0.114
1471,8,8,-8,76,"-3,0,-175",0,-1,-6,0,0,0,71,75,75,0,100,-20.97,29,2.0,-4.0,-1061.0,11:56:43.371731,192.168.0.114
1475,8,9,-10,75,"-1,0,-176",0,-1,-6,0,0,0,71,75,75,0,100,-20.99,29,4.0,-2.0,-989.0,11:56:43.411012,192.168.0.114
1480,8,9,-10,75,"-1,0,-176",0,0,-6,0,0,0,71,75,75,0,100,-20.96,29,2.0,15.0,-1028.0,11:56:43.577995,192.168.0.114
1485,8,10,-10,75,"0,0,-176",0,0,-6,0,0,0,71,75,75,0,100,-20.91,29,8.0,0.0,-1017.0,11:56:43.613822,192.168.0.114
1490,8,10,-10,75,"0,0,-176",0,0,-6,0,0,0,71,75,76,0,100,-20.94,29,22.0,-2.0,-1001.0,11:56:43.784535,192.168.0.114
1495,8,8,-9,76,"-1,0,-176",0,0,-6,0,0,0,71,75,75,0,100,-21.0,29,-3.0,-9.0,-983.0,11:56:43.817393,192.168.0.114
1500,8,8,-9,76,"-1,0,-176",0,0,-6,0,0,0,72,75,76,0,100,-20.96,29,8.0,0.0,-988.0,11:56:43.990614,192.168.0.114
1505,8,8,-10,76,"0,1,-176",0,0,-6,0,0,0,72,75,75,0,100,-20.94,29,16.0,-7.0,-1007.0,11:56:44.021860,192.168.0.114
1510,8,8,-10,76,"0,1,-176",0,0,-6,0,0,0,72,75,76,0,100,-20.93,30,8.0,-5.0,-1024.0,11:56:44.199048,192.168.0.114
1515,8,8,-11,76,"0,1,-176",0,0,-6,0,0,0,72,75,76,0,100,-20.92,30,0.0,-1.0,-1001.0,11:56:44.225805,192.168.0.114
1520,8,8,-11,76,"0,1,-176",0,0,-6,0,0,0,72,75,76,0,100,-20.94,30,-2.0,-2.0,-998.0,11:56:44.405405,192.168.0.114
1525,8,9,-11,76,"1,1,-175",0,0,-6,0,0,0,72,75,77,0,100,-20.87,30,11.0,-4.0,-1012.0,11:56:44.429866,192.168.0.114
1531,8,9,-11,76,"1,1,-175",0,0,-6,0,0,0,72,75,77,0,100,-21.02,30,15.0,-9.0,-995.0,11:56:44.610703,192.168.0.114
1536,8,7,-11,77,"0,1,-176",0,0,-6,0,0,0,72,75,78,0,100,-20.94,30,-2.0,15.0,-995.0,11:56:44.633886,192.168.0.114
1541,8,7,-11,77,"0,1,-176",0,0,-6,0,0,0,72,75,78,0,100,-20.87,30,-9.0,1.0,-971.0,11:56:44.815635,192.168.0.114
1549,8,8,-11,78,"1,1,-176",0,0,-6,0,0,0,72,75,78,0,100,-20.98,30,14.0,-11.0,-981.0,11:56:45.023886,192.168.0.114
1554,8,8,-11,78,"1,1,-176",0,0,-6,0,0,0,72,75,78,0,100,-20.96,30,5.0,-6.0,-986.0,11:56:45.024647,192.168.0.114
1559,8,9,-10,78,"1,1,-177",0,0,-6,0,0,0,72,75,79,0,100,-20.87,30,7.0,-11.0,-995.0,11:56:45.228338,192.168.0.114
1564,8,9,-10,78,"1,1,-177",0,0,-6,0,0,0,72,75,79,0,100,-20.85,31,-9.0,11.0,-1002.0,11:56:45.229165,192.168.0.114
1569,8,9,-12,78,"1,1,-175",0,0,-6,0,0,0,72,75,79,0,100,-20.89,31,6.0,5.0,-985.0,11:56:45.296339,192.168.0.114
1574,8,9,-12,78,"1,1,-175",0,0,-6,0,0,0,72,75,78,0,100,-20.94,31,7.0,0.0,-1008.0,11:56:45.399269,192.168.0.114
1578,8,9,-12,78,"1,1,-175",0,0,-6,0,0,0,72,75,79,0,100,-20.93,31,-2.0,4.0,-1022.0,11:56:45.507971,192.168.0.114
1584,8,8,-13,78,"1,1,-176",0,0,-6,0,0,0,72,75,79,0,100,-20.94,31,8.0,0.0,-1000.0,11:56:45.602502,192.168.0.114
1589,8,8,-13,78,"1,1,-176",0,0,-6,0,0,0,72,75,79,0,100,-20.89,31,9.0,-1.0,-1001.0,11:56:45.704783,192.168.0.114
1594,8,7,-13,78,"0,1,-176",0,0,-6,0,0,0,72,75,79,0,100,-20.97,31,21.0,-13.0,-1018.0,11:56:45.806840,192.168.0.114
1599,8,7,-13,78,"0,1,-176",0,0,-6,0,0,0,72,75,79,0,100,-20.91,31,8.0,-3.0,-993.0,11:56:45.909392,192.168.0.114
1604,8,6,-12,79,"0,1,-177",0,0,-6,0,0,0,72,75,79,0,100,-20.94,31,-20.0,-14.0,-985.0,11:56:46.010822,192.168.0.114
1608,8,6,-12,79,"0,1,-177",0,0,-6,0,0,0,72,75,80,0,100,-20.93,31,1.0,-4.0,-988.0,11:56:46.061544,192.168.0.114
1613,8,7,-11,79,"1,1,-178",0,0,-6,0,0,0,72,75,79,0,100,-20.94,32,0.0,-8.0,-1008.0,11:56:46.163968,192.168.0.114
1617,8,7,-11,79,"1,1,-178",0,0,-6,0,0,0,72,75,79,0,100,-20.96,32,6.0,-4.0,-995.0,11:56:46.265557,192.168.0.114
1624,8,7,-12,79,"1,1,-177",0,0,-6,0,0,0,72,75,80,0,100,-20.86,32,6.0,6.0,-997.0,11:56:46.418596,192.168.0.114
1629,8,7,-12,79,"1,1,-177",0,0,-6,0,0,0,72,75,79,0,100,-20.88,32,10.0,11.0,-987.0,11:56:46.520849,192.168.0.114
1634,8,7,-13,79,"0,1,-177",0,0,-6,0,0,0,72,75,79,0,100,-20.85,32,0.0,1.0,-1005.0,11:56:46.623113,192.168.0.114
1639,8,7,-13,79,"0,1,-177",0,0,-6,0,0,0,72,75,79,0,100,-20.87,32,10.0,-9.0,-983.0,11:56:46.724974,192.168.0.114
1644,8,8,-13,78,"0,1,-177",0,0,-6,0,0,0,72,75,79,0,100,-20.91,32,16.0,-7.0,-979.0,11:56:46.826769,192.168.0.114
1649,8,8,-13,78,"0,1,-177",0,0,-6,0,0,0,73,75,79,0,100,-20.89,32,22.0,3.0,-1012.0,11:56:46.928804,192.168.0.114
1654,8,8,-13,78,"1,1,-177",0,0,-6,0,0,0,73,75,78,0,100,-20.93,32,8.0,3.0,-998.0,11:56:47.030551,192.168.0.114
1659,8,8,-13,78,"1,1,-177",0,0,-6,0,0,0,73,75,79,0,100,-20.93,33,1.0,-16.0,-1011.0,11:56:47.132860,192.168.0.114
1664,8,8,-12,78,"1,1,-177",0,0,-6,0,0,0,73,75,79,0,100,-20.88,33,13.0,-1.0,-1004.0,11:56:47.234856,192.168.0.114
1669,8,8,-12,78,"1,1,-177",0,0,-6,0,0,0,73,75,78,0,100,-20.89,33,10.0,2.0,-1004.0,11:56:47.336732,192.168.0.114
1674,8,8,-12,78,"1,1,-177",0,0,-6,0,0,0,73,75,79,0,100,-20.85,33,10.0,-5.0,-997.0,11:56:47.439219,192.168.0.114
1679,8,7,-13,78,"0,1,-177",0,0,-6,0,0,0,73,75,79,0,100,-20.88,33,-4.0,-1.0,-996.0,11:56:47.540716,192.168.0.114
1684,8,7,-13,78,"0,1,-177",0,0,-6,0,0,0,73,75,79,0,100,-20.85,33,5.0,13.0,-1020.0,11:56:47.642942,192.168.0.114
1689,8,8,-13,78,"1,1,-176",0,0,-6,0,0,0,73,75,78,0,100,-20.84,33,-2.0,9.0,-1003.0,11:56:47.744918,192.168.0.114
1694,8,8,-13,78,"1,1,-176",0,0,-6,0,0,0,73,75,79,0,100,-20.88,33,9.0,8.0,-1005.0,11:56:47.846590,192.168.0.114
1699,8,8,-13,78,"1,1,-177",0,0,-6,0,0,0,72,75,78,0,100,-20.84,33,4.0,4.0,-1002.0,11:56:47.948609,192.168.0.114
1705,8,8,-13,78,"1,1,-177",0,0,-6,0,0,0,72,75,78,0,100,-20.86,33,0.0,3.0,-1007.0,11:56:48.050675,192.168.0.114
1710,8,8,-14,78,"0,1,-176",0,0,-6,0,0,0,72,75,79,0,100,-20.83,34,14.0,4.0,-986.0,11:56:48.152692,192.168.0.114
1715,8,8,-14,78,"0,1,-176",0,0,-6,0,0,0,72,75,79,0,100,-20.86,34,-2.0,7.0,-1003.0,11:56:48.254637,192.168.0.114
1720,8,8,-13,78,"0,1,-177",0,0,-6,0,0,0,72,75,79,0,100,-20.89,34,12.0,5.0,-1008.0,11:56:48.356460,192.168.0.114
1725,8,8,-13,78,"0,1,-177",0,0,-6,0,0,0,72,75,79,0,100,-20.88,34,7.0,-2.0,-1014.0,11:56:48.458775,192.168.0.114
1730,8,10,-14,78,"1,1,-176",0,0,-6,0,0,0,72,75,80,0,100,-20.94,34,2.0,12.0,-1001.0,11:56:48.560659,192.168.0.114
1735,8,10,-14,78,"1,1,-176",0,0,-6,0,0,0,72,75,79,0,100,-20.95,34,1.0,5.0,-1013.0,11:56:48.662607,192.168.0.114
1740,8,9,-14,79,"0,1,-177",0,-1,-6,0,0,0,72,75,80,0,100,-20.94,34,-5.0,18.0,-1002.0,11:56:48.764838,192.168.0.114
1745,8,9,-14,79,"0,1,-177",0,-1,-6,0,0,0,72,75,79,0,100,-20.88,34,6.0,8.0,-995.0,11:56:48.866691,192.168.0.114
1750,8,9,-14,79,"0,1,-177",0,-1,-6,0,0,0,72,75,80,0,100,-20.87,34,11.0,0.0,-993.0,11:56:48.968646,192.168.0.114
1755,8,9,-14,79,"0,1,-177",0,0,-6,0,0,0,72,75,79,0,100,-20.89,34,7.0,3.0,-997.0,11:56:49.070678,192.168.0.114
1760,8,9,-14,79,"0,1,-177",0,0,-6,0,0,0,72,75,80,0,100,-20.87,35,5.0,6.0,-995.0,11:56:49.172651,192.168.0.114
1765,8,9,-15,79,"0,0,-176",0,0,-6,0,0,0,72,75,80,0,100,-20.88,35,0.0,-1.0,-982.0,11:56:49.274770,192.168.0.114
1770,8,9,-15,79,"0,0,-176",0,0,-6,0,0,0,72,75,80,0,100,-20.89,35,8.0,11.0,-1009.0,11:56:49.377601,192.168.0.114
1775,8,10,-14,79,"1,0,-177",0,0,-6,0,0,0,72,75,80,0,100,-20.89,35,-7.0,1.0,-983.0,11:56:49.478763,192.168.0.114
1780,8,10,-14,79,"1,0,-177",0,0,-6,0,0,0,72,75,79,0,100,-20.89,35,22.0,-3.0,-978.0,11:56:49.580511,192.168.0.114
1785,8,8,-13,80,"0,1,-177",0,0,-6,0,0,0,72,75,80,0,100,-20.85,35,4.0,4.0,-990.0,11:56:49.682530,192.168.0.114
1790,8,8,-13,80,"0,1,-177",0,0,-6,0,0,0,72,75,80,0,100,-20.93,35,2.0,3.0,-992.0,11:56:49.784599,192.168.0.114
1795,8,8,-14,80,"0,0,-176",0,0,-6,0,0,0,72,75,79,0,100,-20.87,35,4.0,12.0,-1018.0,11:56:49.886595,192.168.0.114
1801,8,8,-14,80,"0,0,-176",0,0,-6,0,0,0,72,76,80,0,100,-20.84,35,13.0,9.0,-1005.0,11:56:49.988610,192.168.0.114
1806,8,10,-15,79,"2,0,-176",0,0,-6,0,0,0,72,76,80,0,100,-20.92,35,13.0,0.0,-1006.0,11:56:50.090558,192.168.0.114
1811,8,10,-15,79,"2,0,-176",0,0,-6,0,0,0,72,76,80,0,100,-20.88,36,8.0,19.0,-1011.0,11:56:50.192311,192.168.0.114
1817,8,9,-15,80,"1,0,-176",0,0,-6,0,0,0,72,76,80,0,100,-20.85,36,6.0,9.0,-1009.0,11:56:50.294421,192.168.0.114
1822,8,9,-15,80,"1,0,-176",0,-1,-6,0,0,0,72,76,80,0,100,-20.99,36,-2.0,17.0,-996.0,11:56:50.396145,192.168.0.114
1826,8,10,-16,79,"2,1,-176",0,-1,-6,0,0,0,72,76,80,0,100,-20.95,36,0.0,14.0,-997.0,11:56:50.498185,192.168.0.114
1832,8,10,-16,79,"2,1,-176",0,-1,-6,0,0,0,72,76,80,0,100,-20.91,36,7.0,2.0,-993.0,11:56:50.600216,192.168.0.114
1835,8,10,-16,79,"2,1,-176",0,-1,-6,0,0,0,72,76,80,0,100,-20.94,36,33.0,-12.0,-1023.0,11:56:50.702909,192.168.0.114
1841,8,9,-14,80,"1,1,-177",0,0,-6,0,0,0,72,76,80,0,100,-20.93,36,-3.0,7.0,-995.0,11:56:50.805200,192.168.0.114
1846,8,9,-14,80,"1,1,-177",0,0,-6,0,0,0,72,76,80,0,100,-20.95,36,4.0,0.0,-1006.0,11:56:50.906275,192.168.0.114
1852,8,7,-13,80,"0,1,-177",0,0,-6,0,0,0,73,76,80,0,100,-20.9,36,13.0,-6.0,-997.0,11:56:51.008209,192.168.0.114
1857,8,7,-13,80,"0,1,-177",0,0,-6,0,0,0,73,76,80,0,100,-20.96,36,0.0,17.0,-950.0,11:56:51.110254,192.168.0.114
1862,8,11,-13,79,"3,1,-177",-1,-1,-6,0,0,0,73,76,79,0,100,-21.01,37,37.0,2.0,-995.0,11:56:51.212338,192.168.0.114
1867,8,11,-13,79,"3,1,-177",-2,-2,-6,0,0,0,73,76,79,0,100,-21.03,37,28.0,5.0,-1005.0,11:56:51.314251,192.168.0.114
1872,8,9,-13,78,"2,0,-178",-1,-1,-6,1,0,0,73,76,78,0,100,-21.01,37,17.0,24.0,-989.0,11:56:51.416241,192.168.0.114
1877,8,9,-13,78,"2,0,-178",0,-1,-6,1,0,0,73,76,77,0,100,-21.09,37,-16.0,11.0,-999.0,11:56:51.518116,192.168.0.114
1882,8,10,-11,77,"0,0,-177",0,-1,-6,1,0,0,73,76,76,0,100,-20.95,37,10.0,11.0,-1007.0,11:56:51.620285,192.168.0.114
1886,8,10,-11,77,"0,0,-177",0,-1,-6,0,0,0,73,76,75,0,100,-20.91,37,12.0,21.0,-975.0,11:56:51.722184,192.168.0.114
1891,8,10,-11,77,"0,0,-177",0,-2,-6,1,0,0,73,76,74,0,100,-20.92,37,19.0,0.0,-1024.0,11:56:51.824912,192.168.0.114
1896,8,13,-10,75,"1,0,-179",0,-2,-6,1,-1,0,73,76,73,0,100,-20.92,37,40.0,-10.0,-1026.0,11:56:51.926257,192.168.0.114
1901,8,13,-10,75,"1,0,-179",1,-1,-6,1,-1,0,73,76,72,0,100,-20.99,37,32.0,6.0,-1026.0,11:56:52.028324,192.168.0.114
1905,8,16,-10,71,"0,0,-176",2,0,-6,1,-1,0,73,76,71,0,100,-20.95,37,-2.0,13.0,-1004.0,11:56:52.130667,192.168.0.114
1909,8,16,-10,71,"0,0,-176",2,0,-6,0,-1,0,73,76,70,0,100,-20.98,38,1.0,7.0,-1016.0,11:56:52.181623,192.168.0.114
1914,8,18,-6,70,"-1,0,-176",1,0,-6,0,-1,0,73,76,69,0,100,-20.97,38,8.0,14.0,-1023.0,11:56:52.283409,192.168.0.114
1919,8,18,-6,70,"-1,0,-176",1,0,-6,0,0,0,73,76,68,0,100,-21.05,38,0.0,20.0,-1018.0,11:56:52.385778,192.168.0.114
1924,8,18,-3,68,"0,0,-176",0,0,-6,0,0,0,73,76,68,0,100,-20.97,38,10.0,16.0,-1028.0,11:56:52.488342,192.168.0.114
1929,8,18,-3,68,"0,0,-176",0,0,-6,0,0,0,73,76,67,0,100,-20.94,38,4.0,12.0,-1018.0,11:56:52.590566,192.168.0.114
1934,8,17,-3,68,"0,0,-176",0,0,-6,0,0,0,73,76,67,0,100,-20.97,38,20.0,11.0,-1039.0,11:56:52.692542,192.168.0.114
1939,8,17,-3,68,"0,0,-176",0,0,-6,0,0,0,73,76,67,0,100,-20.96,38,21.0,8.0,-1035.0,11:56:52.795233,192.168.0.114
1946,8,17,-4,68,"0,0,-176",0,-1,-6,0,0,0,73,76,67,0,100,-20.88,38,9.0,2.0,-1013.0,11:56:52.947488,192.168.0.114
1951,8,17,-4,68,"0,0,-176",0,-1,-6,0,0,0,72,75,67,0,100,-20.98,38,8.0,14.0,-996.0,11:56:53.049434,192.168.0.114
1956,8,18,-6,67,"0,0,-176",0,0,-6,0,0,0,72,75,67,0,100,-21.0,39,9.0,7.0,-996.0,11:56:53.151506,192.168.0.114
1959,8,18,-6,67,"0,0,-176",0,0,-6,0,0,0,72,75,68,0,100,-20.98,39,15.0,-6.0,-1031.0,11:56:53.205231,192.168.0.114
1964,8,18,-6,67,"0,0,-176",0,0,-6,0,0,0,72,75,68,0,100,-21.02,39,3.0,21.0,-981.0,11:56:53.304546,192.168.0.114
1969,8,17,-7,68,"0,0,-176",0,-1,-6,0,0,0,72,75,68,0,100,-20.99,39,27.0,23.0,-999.0,11:56:53.406714,192.168.0.114
1974,8,17,-7,68,"0,0,-176",0,-1,-6,0,0,0,72,75,68,0,100,-20.99,39,14.0,10.0,-1002.0,11:56:53.508350,192.168.0.114
1979,8,16,-7,68,"0,0,-176",0,-1,-6,0,0,0,72,75,68,0,100,-21.03,39,11.0,7.0,-1010.0,11:56:53.610528,192.168.0.114
1984,8,16,-7,68,"0,0,-176",0,-1,-6,0,0,0,72,75,68,0,100,-21.01,39,2.0,5.0,-1001.0,11:56:53.712151,192.168.0.114
1989,8,16,-7,68,"0,0,-177",0,0,-6,0,0,0,72,75,68,0,100,-21.03,39,-17.0,-8.0,-997.0,11:56:53.814236,192.168.0.114
1994,8,16,-7,68,"0,0,-177",0,0,-6,0,0,0,72,75,69,0,100,-21.06,39,-3.0,8.0,-987.0,11:56:53.916336,192.168.0.114
1999,8,12,-7,69,"0,0,-176",0,0,-6,0,0,0,72,75,69,0,100,-21.02,39,7.0,20.0,-1003.0,11:56:54.018399,192.168.0.114
2004,8,12,-7,69,"0,0,-176",0,-1,-6,0,0,0,72,75,69,0,100,-21.01,40,9.0,8.0,-1015.0,11:56:54.120305,192.168.0.114
2009,8,13,-8,69,"0,1,-177",0,-1,-7,0,0,0,72,75,69,0,100,-20.98,40,-14.0,9.0,-977.0,11:56:54.222417,192.168.0.114
2014,8,13,-8,69,"0,1,-177",0,-1,-7,0,0,0,72,75,68,0,100,-20.93,40,-5.0,13.0,-998.0,11:56:54.324750,192.168.0.114
2019,8,11,-6,70,"0,1,-178",0,0,-7,0,0,0,72,75,69,0,100,-20.95,40,-3.0,16.0,-999.0,11:56:54.426410,192.168.0.114
2024,8,11,-6,70,"0,1,-178",0,0,-7,0,0,0,72,75,69,0,100,-20.93,40,-6.0,-8.0,-987.0,11:56:54.528322,192.168.0.114
2030,8,12,-7,69,"0,1,-176",-1,0,-7,0,0,0,72,75,69,0,100,-21.06,40,-19.0,31.0,-1004.0,11:56:54.630480,192.168.0.114
2034,8,12,-7,69,"0,1,-176",-1,0,-7,0,0,0,72,75,69,0,100,-21.01,40,-25.0,17.0,-1015.0,11:56:54.732380,192.168.0.114
2040,8,12,-7,69,"1,1,-177",0,-1,-6,0,0,0,72,75,69,0,100,-21.0,40,-9.0,2.0,-1012.0,11:56:54.834051,192.168.0.114
2046,8,12,-7,69,"1,1,-177",0,-1,-6,0,0,0,72,75,69,0,100,-21.03,40,13.0,6.0,-993.0,11:56:54.936535,192.168.0.114
2049,8,11,-7,69,"0,1,-177",0,0,-6,0,0,0,73,75,69,0,100,-21.02,40,12.0,4.0,-1000.0,11:56:55.038583,192.168.0.114
2054,8,11,-7,69,"0,1,-177",0,0,-6,0,0,0,73,75,70,0,100,-20.97,41,8.0,20.0,-1020.0,11:56:55.140478,192.168.0.114
2062,8,12,-7,70,"0,0,-177",0,-1,-6,0,0,0,73,75,70,0,100,-21.04,41,-5.0,-2.0,-1007.0,11:56:55.293228,192.168.0.114
2067,8,12,-7,70,"0,0,-177",0,-1,-6,0,0,0,73,75,70,0,100,-21.02,41,4.0,15.0,-995.0,11:56:55.399299,192.168.0.114
2072,8,12,-8,69,"0,0,-177",0,-1,-6,0,0,0,73,75,68,0,100,-20.97,41,-18.0,25.0,-925.0,11:56:55.497394,192.168.0.114
2077,8,12,-8,69,"0,0,-177",0,-1,-6,0,0,1,73,75,67,0,100,-21.01,41,25.0,0.0,-924.0,11:56:55.599376,192.168.0.114
2082,8,14,-8,66,"0,0,-177",0,-1,-6,0,0,2,73,75,65,0,100,-21.05,41,7.0,21.0,-924.0,11:56:55.701408,192.168.0.114
2087,8,14,-8,66,"0,0,-177",0,-1,-6,0,0,3,73,75,62,-10,100,-21.05,41,21.0,32.0,-950.0,11:56:55.803321,192.168.0.114
2092,8,16,-7,59,"0,0,-178",0,-1,-6,0,0,3,73,75,58,-10,100,-21.1,41,11.0,18.0,-953.0,11:56:55.905426,192.168.0.114
2097,8,16,-7,59,"0,0,-178",0,-1,-6,0,0,4,73,75,54,-10,100,-21.2,41,24.0,-7.0,-979.0,11:56:56.007423,192.168.0.114
2102,8,16,-7,59,"0,0,-178",1,-1,-6,0,0,4,73,75,47,-20,100,-21.15,41,25.0,17.0,-994.0,11:56:56.109622,192.168.0.114
2107,8,17,-6,50,"0,0,-178",1,0,-6,0,0,4,73,75,42,-20,100,-21.21,42,30.0,7.0,-1003.0,11:56:56.211326,192.168.0.114
2112,8,17,-6,50,"0,0,-178",1,0,-6,0,0,4,73,75,38,-30,100,-21.19,42,28.0,18.0,-983.0,11:56:56.313211,192.168.0.114
2117,8,17,-6,41,"0,0,-178",1,0,-6,0,0,4,73,75,33,-30,100,-21.29,42,5.0,-7.0,-983.0,11:56:56.415885,192.168.0.114
2122,8,17,-6,41,"0,0,-178",1,0,-6,0,0,4,73,75,28,-40,100,-21.36,42,31.0,-7.0,-1013.0,11:56:56.517802,192.168.0.114
2127,8,17,-6,41,"0,0,-178",1,0,-6,0,0,4,73,75,23,-40,100,-21.37,42,10.0,-6.0,-1016.0,11:56:56.619305,192.168.0.114
2132,8,17,-6,41,"0,0,-178",2,0,-6,0,0,4,73,75,21,-40,100,-21.54,42,-8.0,17.0,-978.0,11:56:56.721419,192.168.0.114
2137,8,17,-6,41,"0,0,-178",1,0,-6,0,0,4,73,75,15,-50,100,-21.47,42,28.0,-3.0,-975.0,11:56:56.823340,192.168.0.114
2142,8,17,-6,41,"0,0,-178",0,0,-6,0,0,4,73,75,10,-50,100,-21.82,42,-16.0,-50.0,-1006.0,11:56:56.924877,192.168.0.114
2147,8,17,-6,41,"0,0,-178",0,0,-6,0,-1,4,73,76,10,-60,100,-22.32,42,31.0,-29.0,-1009.0,11:56:57.027412,192.168.0.114
2152,8,17,-6,41,"0,0,-178",0,2,-6,0,-1,4,73,76,10,-60,100,-24.02,42,17.0,9.0,-1122.0,11:56:57.130548,192.168.0.114
2157,8,17,-6,41,"0,0,-178",0,2,-6,0,0,3,73,76,10,-70,100,-24.31,43,64.0,-46.0,-968.0,11:56:57.231716,192.168.0.114
2161,8,17,-6,41,"0,0,-178",-3,1,-10,0,0,-1,73,76,10,0,100,-23.13,43,-125.0,-64.0,-542.0,11:56:57.282909,192.168.0.114
2166,8,17,-6,41,"0,0,-178",-1,0,-15,0,0,1,73,76,10,0,100,-22.49,43,54.0,70.0,-1168.0,11:56:57.384628,192.168.0.114
2171,8,17,-6,41,"0,0,-178",1,0,-16,0,0,0,73,76,10,0,100,-22.23,43,31.0,13.0,-1008.0,11:56:57.486293,192.168.0.114
2176,8,17,-6,41,"0,0,-178",1,0,-16,0,0,0,73,76,10,0,100,-22.1,43,34.0,5.0,-999.0,11:56:57.588536,192.168.0.114
2181,8,17,-6,41,"0,0,-178",1,0,-16,0,0,0,73,76,10,0,100,-22.05,43,38.0,1.0,-1000.0,11:56:57.690810,192.168.0.114
2187,8,17,-6,41,"0,0,-178",1,0,-16,0,0,0,73,76,10,0,100,-22.0,43,33.0,8.0,-999.0,11:56:57.793662,192.168.0.114
2192,8,17,-6,41,"0,0,-178",1,0,-16,0,0,0,73,76,10,0,100,-21.95,43,26.0,-2.0,-997.0,11:56:57.894016,192.168.0.114
2197,8,17,-6,41,"0,0,-178",1,0,-16,0,0,1,72,75,10,0,100,-21.96,43,38.0,4.0,-995.0,11:56:57.996243,192.168.0.114
2202,8,17,-6,41,"0,0,-178",1,0,-16,0,0,1,72,75,10,0,100,-21.93,43,32.0,10.0,-996.0,11:56:58.098746,192.168.0.114
2207,8,17,-6,41,"0,0,-178",1,0,-16,0,0,1,72,75,10,0,100,-21.93,43,35.0,7.0,-996.0,11:56:58.200983,192.168.0.114
2212,-2,-200,-200,-200,"-1,-1,-1",1,0,-16,0,0,1,72,75,10,0,100,-21.89,43,36.0,8.0,-994.0,11:56:58.302001,192.168.0.114
