,mid,x,y,z,mpry,pitch,roll,yaw,vgx,vgy,vgz,templ,temph,tof,h,bat,baro,time,agx,agy,agz,timestamp,address
2,-2,-200,-200,-200,"0,0,0",0,0,0,0,0,0,58,59,10,0,100,-21.63,0,5.0,-14.0,-998.0,11:56:13.807037,192.168.0.111
7,-2,-200,-200,-200,"0,0,0",0,0,0,0,0,0,58,59,10,0,100,-21.64,0,6.0,-12.0,-999.0,11:56:14.014722,192.168.0.111
13,-2,-200,-200,-200,"0,0,0",0,0,0,0,0,0,58,59,10,0,100,-21.65,0,6.0,-14.0,-999.0,11:56:14.015139,192.168.0.111
18,-2,-200,-200,-200,"0,0,0",0,0,0,0,0,0,58,59,10,0,100,-21.65,0,6.0,-13.0,-999.0,11:56:14.060061,192.168.0.111
24,-2,-200,-200,-200,"0,0,0",0,0,0,0,0,0,58,59,10,0,100,-21.65,0,4.0,-13.0,-998.0,11:56:14.223622,192.168.0.111
29,-2,-200,-200,-200,"0,0,0",0,0,0,0,0,0,58,59,10,0,100,-21.65,0,3.0,-10.0,-1001.0,11:56:14.264008,192.168.0.111
34,-2,-200,-200,-200,"0,0,0",0,0,0,0,0,0,58,59,10,0,100,-21.65,0,7.0,-21.0,-1004.0,11:56:14.430076,192.168.0.111
35,-2,-200,-200,-200,"0,0,0",0,0,0,0,0,0,58,59,10,0,100,-21.65,0,0.0,-7.0,-1001.0,11:56:14.430231,192.168.0.111
40,-2,-200,-200,-200,"0,0,0",0,0,0,0,0,0,57,59,10,0,100,-21.65,0,25.0,-11.0,-1029.0,11:56:14.636434,192.168.0.111
45,-2,-200,-200,-200,"0,0,0",0,0,-1,0,0,0,57,59,10,0,100,-21.65,0,-11.0,0.0,-1188.0,11:56:14.637308,192.168.0.111
50,-2,-200,-200,-200,"0,0,0",0,0,0,0,0,1,57,59,12,0,100,-21.65,0,12.0,-22.0,-1359.0,11:56:14.843776,192.168.0.111
55,-2,-200,-200,-200,"0,0,0",0,0,0,0,0,4,57,59,11,0,100,-21.65,0,18.0,9.0,-1213.0,11:56:14.844754,192.168.0.111
60,-2,-200,-200,-200,"0,0,0",1,0,0,0,0,6,57,59,19,0,100,-21.28,0,-8.0,17.0,-1080.0,11:56:15.050070,192.168.0.111
65,-2,-200,-200,-200,"0,0,0",1,0,0,0,0,6,57,59,25,0,100,-21.28,0,1.0,3.0,-1022.0,11:56:15.050947,192.168.0.111
70,-2,-200,-200,-200,"0,0,0",0,0,0,0,0,6,57,59,34,0,100,-21.16,0,0.0,-2.0,-987.0,11:56:15.257115,192.168.0.111
75,-2,-200,-200,-200,"0,0,0",0,0,0,0,0,6,57,59,45,0,100,-21.09,1,-3.0,0.0,-956.0,11:56:15.258029,192.168.0.111
80,-2,-200,-200,-200,"0,0,0",0,0,0,0,0,5,57,59,54,0,100,-20.96,1,8.0,-8.0,-932.0,11:56:15.334598,192.168.0.111
86,-2,-200,-200,-200,"0,0,0",0,0,0,0,0,4,57,59,62,0,100,-20.89,1,3.0,-5.0,-926.0,11:56:15.436699,192.168.0.111
91,-2,-200,-200,-200,"0,0,0",0,0,0,0,0,3,57,61,70,10,100,-20.84,1,6.0,-7.0,-939.0,11:56:15.538881,192.168.0.111
96,-2,-200,-200,-200,"0,0,0",0,0,0,0,0,2,57,61,77,10,100,-20.77,1,1.0,0.0,-937.0,11:56:15.640773,192.168.0.111
101,-2,-200,-200,-200,"0,0,0",0,0,0,0,0,1,57,61,84,10,100,-20.67,1,0.0,0.0,-928.0,11:56:15.745022,192.168.0.111
106,-2,-200,-200,-200,"0,0,0",0,0,0,0,0,1,57,61,89,10,100,-20.61,1,6.0,-2.0,-935.0,11:56:15.844804,192.168.0.111
111,1,22,0,64,"0,1,178",0,0,0,0,0,0,57,61,94,20,100,-20.61,1,-12.0,7.0,-940.0,11:56:15.946457,192.168.0.111
116,1,22,0,64,"0,1,178",0,0,0,0,0,0,57,61,97,20,100,-20.54,1,5.0,-5.0,-931.0,11:56:16.048716,192.168.0.111
121,1,22,0,64,"0,1,178",0,0,0,0,0,0,57,61,102,20,100,-20.53,1,6.0,2.0,-939.0,11:56:16.150611,192.168.0.111
126,1,22,0,64,"0,1,178",0,0,0,0,0,0,57,61,105,30,100,-20.52,2,21.0,-7.0,-928.0,11:56:16.252785,192.168.0.111
131,1,20,3,93,"-2,1,176",0,0,0,0,0,0,57,61,108,30,100,-20.49,2,16.0,-9.0,-931.0,11:56:16.354942,192.168.0.111
136,1,20,3,93,"-2,1,176",0,0,0,0,0,0,57,61,110,30,100,-20.41,2,5.0,2.0,-934.0,11:56:16.457086,192.168.0.111
141,1,20,3,93,"-2,1,176",0,0,0,0,0,-1,58,61,110,30,100,-20.48,2,1.0,-7.0,-937.0,11:56:16.558769,192.168.0.111
146,1,20,3,93,"-2,1,176",0,0,0,0,0,-1,58,61,112,30,100,-20.45,2,7.0,-9.0,-943.0,11:56:16.660670,192.168.0.111
151,1,20,3,93,"-2,1,176",0,0,0,0,0,-1,58,61,111,40,100,-20.45,2,2.0,13.0,-952.0,11:56:16.762653,192.168.0.111
156,1,21,9,109,"-2,1,173",0,0,0,0,0,-2,58,61,112,40,100,-20.38,2,11.0,-5.0,-952.0,11:56:16.864537,192.168.0.111
161,1,21,9,109,"-2,1,173",0,0,0,0,0,-2,58,61,111,40,100,-20.42,2,13.0,-11.0,-960.0,11:56:16.966738,192.168.0.111
165,1,21,9,109,"-2,1,173",0,0,0,0,0,-2,58,61,110,40,100,-20.43,2,8.0,-2.0,-970.0,11:56:17.017944,192.168.0.111
170,1,21,9,109,"-2,1,173",0,0,0,0,0,-2,58,61,108,40,100,-20.44,2,24.0,-5.0,-971.0,11:56:17.120280,192.168.0.111
175,1,16,11,115,"-5,2,173",0,0,0,0,0,-2,58,61,107,40,100,-20.52,3,-5.0,2.0,-966.0,11:56:17.222145,192.168.0.111
180,1,16,11,115,"-5,2,173",0,0,0,0,0,-2,58,61,104,40,100,-20.55,3,8.0,16.0,-984.0,11:56:17.323934,192.168.0.111
185,1,16,11,115,"-5,2,173",0,0,0,0,0,-2,58,61,102,30,100,-20.56,3,11.0,0.0,-976.0,11:56:17.426199,192.168.0.111
190,1,16,11,115,"-5,2,173",0,0,0,0,0,-2,58,60,100,30,100,-20.53,3,13.0,-3.0,-986.0,11:56:17.527809,192.168.0.111
195,1,21,6,111,"-3,1,176",0,0,0,0,0,-2,58,60,98,30,100,-20.6,3,-1.0,3.0,-1003.0,11:56:17.629937,192.168.0.111
200,1,21,6,111,"-3,1,176",0,0,0,0,0,-2,58,60,95,30,100,-20.57,3,13.0,-1.0,-1003.0,11:56:17.731956,192.168.0.111
205,1,21,6,111,"-3,1,176",0,0,0,0,0,-2,58,60,93,30,100,-20.57,3,0.0,8.0,-1019.0,11:56:17.833753,192.168.0.111
210,1,21,6,111,"-3,1,176",0,0,0,0,0,-2,58,60,90,30,100,-20.66,3,8.0,-3.0,-1010.0,11:56:17.936671,192.168.0.111
216,1,24,6,101,"-2,1,175",0,0,0,0,0,-2,58,60,89,30,100,-20.63,3,5.0,8.0,-1015.0,11:56:18.037896,192.168.0.111
221,1,24,6,101,"-2,1,175",0,0,0,0,0,-2,58,60,86,20,100,-20.71,3,12.0,-2.0,-1004.0,11:56:18.145654,192.168.0.111
226,1,24,6,101,"-2,1,175",0,0,0,0,0,-1,58,60,83,20,100,-20.7,4,16.0,0.0,-1015.0,11:56:18.242070,192.168.0.111
231,1,24,6,101,"-2,1,175",0,0,0,0,0,-1,58,60,81,20,100,-20.71,4,5.0,5.0,-1023.0,11:56:18.343906,192.168.0.111
236,1,24,6,101,"-2,1,175",0,0,0,0,0,-1,58,60,80,20,100,-20.74,4,3.0,-4.0,-1018.0,11:56:18.446052,192.168.0.111
241,1,26,2,91,"-1,1,176",0,0,0,0,0,-1,58,61,78,20,100,-20.76,4,8.0,0.0,-1012.0,11:56:18.547951,192.168.0.111
246,1,26,2,91,"-1,1,176",0,0,0,0,0,-1,58,61,77,20,100,-20.71,4,0.0,3.0,-1014.0,11:56:18.649817,192.168.0.111
251,1,26,2,91,"-1,1,176",0,0,0,0,0,-1,58,61,75,10,100,-20.83,4,7.0,0.0,-1018.0,11:56:18.752037,192.168.0.111
256,1,26,2,91,"-1,1,176",0,0,0,0,0,0,58,61,74,10,100,-20.79,4,9.0,-10.0,-1016.0,11:56:18.853854,192.168.0.111
261,1,26,2,91,"-1,1,176",0,0,0,0,0,0,58,61,73,10,100,-20.75,4,12.0,8.0,-1012.0,11:56:18.955980,192.168.0.111
266,1,29,-3,80,"0,0,179",0,0,-1,0,0,0,58,61,72,10,100,-20.78,4,-4.0,5.0,-1026.0,11:56:19.057997,192.168.0.111
271,1,29,-3,80,"0,0,179",0,0,-1,0,0,0,58,61,72,10,100,-20.81,4,10.0,-2.0,-1004.0,11:56:19.159910,192.168.0.111
276,1,29,-3,80,"0,0,179",0,0,-1,0,0,0,58,61,71,10,100,-20.83,5,-2.0,0.0,-1005.0,11:56:19.261716,192.168.0.111
281,1,29,-3,80,"0,0,179",0,0,-1,0,0,0,58,61,71,10,100,-20.83,5,7.0,0.0,-1019.0,11:56:19.364576,192.168.0.111
286,1,29,-4,74,"0,0,179",0,0,-1,0,0,0,58,61,70,10,100,-20.81,5,11.0,0.0,-1001.0,11:56:19.465774,192.168.0.111
290,1,29,-4,74,"0,0,179",0,0,-1,0,0,0,58,60,70,10,100,-20.78,5,-2.0,11.0,-1017.0,11:56:19.516585,192.168.0.111
295,1,29,-4,74,"0,0,179",0,0,-1,0,0,0,58,60,70,10,100,-20.83,5,-3.0,0.0,-998.0,11:56:19.618736,192.168.0.111
300,1,29,-4,74,"0,0,179",0,0,-1,0,0,0,58,60,70,10,100,-20.79,5,9.0,-5.0,-1006.0,11:56:19.720901,192.168.0.111
305,1,29,-4,74,"0,0,179",0,0,-1,0,0,0,58,60,69,10,100,-20.81,5,12.0,2.0,-999.0,11:56:19.822681,192.168.0.111
310,1,29,-7,71,"0,0,-178",0,0,-1,0,0,0,58,60,69,10,100,-20.84,5,-6.0,10.0,-1014.0,11:56:19.924622,192.168.0.111
315,1,29,-7,71,"0,0,-178",0,0,-1,0,0,0,58,60,69,10,100,-20.76,5,11.0,-1.0,-998.0,11:56:20.026696,192.168.0.111
320,1,29,-7,71,"0,0,-178",0,0,-1,0,0,0,58,60,69,10,100,-20.83,5,9.0,-6.0,-997.0,11:56:20.128738,192.168.0.111
325,1,29,-7,71,"0,0,-178",0,0,-1,0,0,0,58,60,69,10,100,-20.83,6,4.0,0.0,-1002.0,11:56:20.230631,192.168.0.111
330,1,28,-6,71,"0,0,179",0,0,-1,0,0,0,58,60,70,10,100,-20.76,6,-3.0,0.0,-1004.0,11:56:20.332269,192.168.0.111
335,1,28,-6,71,"0,0,179",0,0,-1,0,0,0,58,60,70,10,100,-20.86,6,-4.0,-3.0,-989.0,11:56:20.435849,192.168.0.111
340,1,28,-6,71,"0,0,179",0,0,-1,0,0,0,57,61,70,10,100,-20.79,6,6.0,-5.0,-1009.0,11:56:20.536549,192.168.0.111
346,1,28,-6,71,"0,0,179",0,0,0,0,0,0,57,61,70,10,100,-20.77,6,19.0,-6.0,-985.0,11:56:20.639033,192.168.0.111
351,1,28,-6,71,"0,0,179",0,0,-1,0,0,0,57,61,70,10,100,-20.79,6,-10.0,7.0,-1012.0,11:56:20.740546,192.168.0.111
356,1,29,-6,70,"0,0,179",0,0,-1,0,0,0,57,61,70,10,100,-20.79,6,7.0,-1.0,-999.0,11:56:20.842389,192.168.0.111
361,1,29,-6,70,"0,0,179",0,0,-1,0,0,0,57,61,71,10,100,-20.84,6,11.0,-18.0,-1002.0,11:56:20.945663,192.168.0.111
366,1,29,-6,70,"0,0,179",0,0,-1,0,0,0,57,61,71,10,100,-20.83,6,-4.0,12.0,-1002.0,11:56:21.046628,192.168.0.111
371,1,29,-6,70,"0,0,179",0,0,-1,0,0,0,57,61,71,10,100,-20.79,6,3.0,-2.0,-1001.0,11:56:21.148696,192.168.0.111
376,1,26,-2,73,"-1,1,177",0,0,-1,0,0,0,57,61,71,10,100,-20.71,7,7.0,0.0,-994.0,11:56:21.255097,192.168.0.111
381,1,26,-2,73,"-1,1,177",0,0,-1,0,0,0,57,61,72,10,100,-20.74,7,-2.0,6.0,-1013.0,11:56:21.352334,192.168.0.111
386,1,26,-2,73,"-1,1,177",0,0,-1,0,0,0,57,61,72,10,100,-20.76,7,6.0,-2.0,-1004.0,11:56:21.454344,192.168.0.111
391,1,26,-2,73,"-1,1,177",0,0,-1,0,0,0,59,62,72,10,100,-20.73,7,13.0,-11.0,-997.0,11:56:21.556425,192.168.0.111
396,1,26,-2,73,"-1,1,177",0,0,-1,0,0,0,59,62,72,10,100,-20.72,7,-4.0,0.0,-993.0,11:56:21.658236,192.168.0.111
401,1,27,0,74,"0,2,176",0,0,-1,0,0,0,59,62,73,10,100,-20.74,7,2.0,-10.0,-997.0,11:56:21.760482,192.168.0.111
406,1,27,0,74,"0,2,176",0,0,-1,0,0,0,59,62,73,10,100,-20.7,7,0.0,-5.0,-991.0,11:56:21.862577,192.168.0.111
411,1,27,0,74,"0,2,176",0,0,-1,0,0,0,59,62,73,10,100,-20.72,7,1.0,-7.0,-1005.0,11:56:21.964572,192.168.0.111
416,1,27,0,74,"0,2,176",0,0,-1,0,0,0,59,62,74,10,100,-20.88,7,-5.0,-2.0,-1001.0,11:56:22.066691,192.168.0.111
419,1,29,-3,74,"0,0,178",0,0,-1,0,0,0,59,62,74,10,100,-20.73,7,7.0,-16.0,-994.0,11:56:22.117991,192.168.0.111
425,1,29,-3,74,"0,0,178",0,0,-1,0,0,0,59,62,74,10,100,-20.73,8,-5.0,-7.0,-991.0,11:56:22.219916,192.168.0.111
430,1,29,-3,74,"0,0,178",0,0,-1,0,0,0,59,62,74,10,100,-20.74,8,8.0,-13.0,-1006.0,11:56:22.322919,192.168.0.111
435,1,29,-3,74,"0,0,178",0,0,-1,0,0,0,59,62,74,10,100,-20.71,8,-5.0,3.0,-1003.0,11:56:22.423965,192.168.0.111
440,1,29,-4,75,"0,0,179",0,0,-1,0,0,0,59,61,73,10,100,-20.74,8,-12.0,3.0,-996.0,11:56:22.525784,192.168.0.111
445,1,29,-4,75,"0,0,179",0,0,-1,0,0,0,59,61,73,10,100,-20.73,8,3.0,-12.0,-1006.0,11:56:22.627735,192.168.0.111
450,1,29,-4,75,"0,0,179",0,0,-1,0,0,0,59,61,74,10,100,-20.76,8,-3.0,-7.0,-1001.0,11:56:22.729772,192.168.0.111
455,1,29,-4,75,"0,0,179",0,0,-1,0,0,0,59,61,73,10,100,-20.73,8,11.0,-20.0,-1009.0,11:56:22.831628,192.168.0.111
460,1,29,-4,75,"0,0,179",0,0,-1,0,0,0,59,61,74,10,100,-20.73,8,-8.0,4.0,-999.0,11:56:22.933438,192.168.0.111
465,1,27,1,76,"0,2,176",0,0,-1,0,0,0,59,61,74,10,100,-20.79,8,9.0,-18.0,-998.0,11:56:23.036083,192.168.0.111
471,1,27,1,76,"0,2,176",0,0,-1,0,0,0,59,61,74,10,100,-20.75,8,-11.0,7.0,-999.0,11:56:23.137759,192.168.0.111
476,1,27,1,76,"0,2,176",0,0,-1,0,0,0,59,61,74,10,100,-20.74,9,10.0,-23.0,-1010.0,11:56:23.239773,192.168.0.111
481,1,27,1,76,"0,2,176",0,0,-1,0,0,0,59,61,75,10,100,-20.8,9,-10.0,-6.0,-1003.0,11:56:23.341509,192.168.0.111
486,1,28,0,76,"0,1,177",0,0,-1,0,0,0,59,61,75,10,100,-20.75,9,17.0,-15.0,-993.0,11:56:23.443669,192.168.0.111
491,1,28,0,76,"0,1,177",0,0,-1,0,0,0,59,62,74,10,100,-20.69,9,-6.0,-6.0,-981.0,11:56:23.545262,192.168.0.111
496,1,28,0,76,"0,1,177",1,0,-1,0,0,0,59,62,74,10,100,-20.7,9,-4.0,-9.0,-987.0,11:56:23.647870,192.168.0.111
501,1,28,0,76,"0,1,177",1,0,-1,0,0,0,59,62,74,10,100,-20.69,9,4.0,-13.0,-987.0,11:56:23.749673,192.168.0.111
506,1,28,0,76,"0,1,177",1,0,-1,0,0,0,59,62,74,10,100,-20.78,9,9.0,-16.0,-997.0,11:56:23.851400,192.168.0.111
511,1,28,0,76,"0,1,177",0,0,-1,0,0,0,59,62,73,10,100,-20.71,9,0.0,-11.0,-1002.0,11:56:23.953742,192.168.0.111
516,1,28,0,76,"0,1,177",0,0,-1,0,0,0,59,62,73,10,100,-20.8,9,-7.0,-8.0,-1009.0,11:56:24.055805,192.168.0.111
521,1,29,-1,76,"-1,1,178",0,0,-1,0,0,0,59,62,73,10,100,-20.78,9,5.0,-15.0,-1001.0,11:56:24.157422,192.168.0.111
526,1,29,-1,76,"-1,1,178",0,0,-1,0,0,0,59,62,72,10,100,-20.71,10,-2.0,0.0,-1009.0,11:56:24.259786,192.168.0.111
531,1,29,-1,76,"-1,1,178",0,0,-1,0,0,0,59,62,72,10,100,-20.76,10,-2.0,-4.0,-996.0,11:56:24.361669,192.168.0.111
536,1,29,-1,76,"-1,1,178",-1,0,-1,0,0,0,59,62,73,10,100,-20.67,10,-5.0,-3.0,-1002.0,11:56:24.463665,192.168.0.111
541,1,29,-1,76,"-1,1,178",0,0,-1,0,0,0,59,61,72,10,100,-20.73,10,-3.0,-11.0,-1009.0,11:56:24.565839,192.168.0.111
546,1,29,-1,76,"-1,1,178",0,0,-1,0,0,0,59,61,73,10,100,-20.77,10,10.0,-11.0,-992.0,11:56:24.667668,192.168.0.111
551,1,29,-1,76,"-1,1,178",0,0,0,0,0,0,59,61,73,10,100,-20.77,10,9.0,-23.0,-1001.0,11:56:24.769691,192.168.0.111
553,1,25,2,74,"0,1,176",0,0,0,0,0,0,59,61,73,10,100,-20.79,10,-10.0,-16.0,-998.0,11:56:24.820971,192.168.0.111
558,1,25,2,74,"0,1,176",0,0,0,0,0,0,59,61,73,10,100,-20.79,10,8.0,-22.0,-988.0,11:56:24.922504,192.168.0.111
563,1,25,2,74,"0,1,176",0,0,0,0,0,0,59,61,73,10,100,-20.78,10,-16.0,0.0,-999.0,11:56:25.023953,192.168.0.111
568,1,25,2,74,"0,1,176",0,0,0,0,0,0,59,61,73,10,100,-20.73,10,-5.0,-6.0,-1006.0,11:56:25.126242,192.168.0.111
573,1,25,2,74,"0,1,176",0,0,0,0,0,0,59,61,74,10,100,-20.82,11,0.0,-8.0,-984.0,11:56:25.228341,192.168.0.111
578,1,25,2,74,"0,1,176",-1,0,0,0,0,0,59,61,74,10,100,-20.79,11,2.0,-17.0,-1000.0,11:56:25.330139,192.168.0.111
583,1,25,2,74,"0,1,176",-1,0,0,0,0,0,59,61,74,10,100,-20.84,11,-3.0,-13.0,-995.0,11:56:25.432314,192.168.0.111
588,1,28,-5,74,"0,0,-179",-1,0,0,0,0,0,59,61,74,10,100,-20.78,11,-8.0,-4.0,-1001.0,11:56:25.534507,192.168.0.111
593,1,28,-5,74,"0,0,-179",-1,0,0,-1,0,0,59,61,74,10,100,-20.85,11,-12.0,-7.0,-1000.0,11:56:25.636313,192.168.0.111
598,1,28,-5,74,"0,0,-179",0,0,0,-1,0,0,59,61,74,10,100,-20.78,11,-11.0,3.0,-992.0,11:56:25.738219,192.168.0.111
603,1,28,-5,74,"0,0,-179",0,0,0,-1,0,0,59,61,74,10,100,-20.79,11,-18.0,-3.0,-995.0,11:56:25.840221,192.168.0.111
608,1,28,-5,74,"0,0,-179",0,0,0,-1,0,0,59,61,74,10,100,-20.76,11,-14.0,-6.0,-1002.0,11:56:25.942326,192.168.0.111
613,1,28,-5,74,"0,0,-179",0,0,0,-1,0,0,59,61,73,10,100,-20.79,11,-24.0,-11.0,-1001.0,11:56:26.044283,192.168.0.111
618,1,32,-3,77,"0,1,178",0,0,0,-1,0,0,59,61,74,10,100,-20.76,11,-22.0,-3.0,-997.0,11:56:26.146325,192.168.0.111
623,1,32,-3,77,"0,1,178",0,0,0,-1,0,0,59,61,74,10,100,-20.74,12,-27.0,-13.0,-991.0,11:56:26.248215,192.168.0.111
628,1,32,-3,77,"0,1,178",0,0,0,-1,0,0,59,61,73,10,100,-20.79,12,-20.0,-2.0,-1006.0,11:56:26.350444,192.168.0.111
634,1,32,-3,77,"0,1,178",0,0,0,-1,0,0,59,61,73,10,100,-20.78,12,-13.0,-1.0,-994.0,11:56:26.452271,192.168.0.111
639,1,32,-3,77,"0,1,178",0,0,0,-2,0,0,60,61,73,10,100,-20.75,12,-31.0,3.0,-1010.0,11:56:26.554083,192.168.0.111
644,1,32,-3,77,"0,1,178",0,0,0,-2,0,0,60,61,72,10,100,-20.77,12,-14.0,-17.0,-993.0,11:56:26.656283,192.168.0.111
649,1,32,-3,77,"0,1,178",0,0,0,-2,0,0,60,61,71,10,100,-20.78,12,-35.0,-4.0,-995.0,11:56:26.758442,192.168.0.111
654,1,32,-3,77,"0,1,178",0,0,0,-2,0,0,60,61,71,10,100,-20.77,12,-19.0,-6.0,-993.0,11:56:26.860218,192.168.0.111
659,1,32,-3,77,"0,1,178",0,0,0,-2,0,0,60,61,71,10,100,-20.8,12,-18.0,-9.0,-995.0,11:56:26.962310,192.168.0.111
664,1,32,-3,77,"0,1,178",0,0,0,-2,0,0,60,61,70,10,100,-20.77,12,-17.0,-10.0,-1001.0,11:56:27.064252,192.168.0.111
669,1,32,-3,77,"0,1,178",0,0,0,-2,0,0,60,61,70,10,100,-20.76,12,-20.0,0.0,-1010.0,11:56:27.166355,192.168.0.111
674,1,32,-3,77,"0,1,178",0,0,0,-2,0,0,60,61,70,10,100,-20.68,13,-21.0,-9.0,-983.0,11:56:27.268268,192.168.0.111
679,1,32,-3,77,"0,1,178",0,0,0,-2,0,0,60,61,69,10,100,-20.78,13,-12.0,-3.0,-1013.0,11:56:27.370392,192.168.0.111
682,1,32,-3,77,"0,1,178",0,0,0,-2,0,0,60,61,69,10,100,-20.78,13,-9.0,5.0,-1020.0,11:56:27.421452,192.168.0.111
689,1,32,-3,77,"0,1,178",0,0,0,-2,0,0,59,62,69,10,100,-20.8,13,-10.0,-7.0,-1001.0,11:56:27.574198,192.168.0.111
695,1,32,-3,77,"0,1,178",0,0,0,-2,0,0,59,62,69,10,100,-20.76,13,-19.0,-12.0,-1002.0,11:56:27.676244,192.168.0.111
698,1,32,-3,77,"0,1,178",0,0,0,-2,0,0,59,62,69,10,100,-20.81,13,-10.0,-10.0,-1013.0,11:56:27.727461,192.168.0.111
702,1,32,-3,77,"0,1,178",0,0,0,-2,0,0,59,62,69,10,100,-20.68,13,-33.0,-1.0,-990.0,11:56:27.829222,192.168.0.111
707,1,32,-3,77,"0,1,178",0,0,0,-2,0,0,59,62,69,10,100,-20.8,13,-25.0,10.0,-1014.0,11:56:27.930998,192.168.0.111
712,1,32,-3,77,"0,1,178",0,0,0,-2,0,0,59,62,69,10,100,-20.82,13,-14.0,0.0,-1008.0,11:56:28.033156,192.168.0.111
717,1,32,-3,77,"0,1,178",0,0,0,-2,0,0,59,62,69,10,100,-20.77,13,-8.0,-7.0,-990.0,11:56:28.135557,192.168.0.111
722,1,32,-3,77,"0,1,178",0,0,0,-2,0,0,59,62,69,10,100,-20.67,14,-21.0,-1.0,-1005.0,11:56:28.237490,192.168.0.111
727,1,32,-3,77,"0,1,178",0,0,0,-2,0,0,59,62,69,10,100,-20.75,14,-8.0,-5.0,-1004.0,11:56:28.339676,192.168.0.111
732,1,32,-3,77,"0,1,178",0,0,0,-2,0,0,59,62,68,10,100,-20.68,14,-3.0,-1.0,-999.0,11:56:28.441383,192.168.0.111
737,1,32,-3,77,"0,1,178",0,0,0,-2,0,0,60,62,69,10,100,-20.78,14,-9.0,1.0,-1000.0,11:56:28.543478,192.168.0.111
742,1,32,-3,77,"0,1,178",0,0,0,-2,0,0,60,62,69,10,100,-20.76,14,-3.0,0.0,-993.0,11:56:28.645481,192.168.0.111
747,1,32,-3,77,"0,1,178",0,0,0,-2,0,0,60,62,69,10,100,-20.72,14,-3.0,16.0,-1017.0,11:56:28.747478,192.168.0.111
752,1,32,-3,77,"0,1,178",0,0,0,-2,0,0,60,62,68,10,100,-20.72,14,-2.0,15.0,-995.0,11:56:28.849006,192.168.0.111
757,1,32,-3,77,"0,1,178",0,0,0,-2,0,0,60,62,68,10,100,-20.72,14,-10.0,16.0,-994.0,11:56:28.951682,192.168.0.111
763,1,32,-3,77,"0,1,178",0,-1,0,-2,0,0,60,62,68,10,100,-20.75,14,-13.0,22.0,-1013.0,11:56:29.053581,192.168.0.111
768,1,32,-3,77,"0,1,178",0,-1,0,-2,0,0,60,62,68,10,100,-20.76,15,-7.0,15.0,-1002.0,11:56:29.155429,192.168.0.111
773,1,32,-3,77,"0,1,178",0,-1,0,-2,0,0,60,62,69,10,100,-20.79,15,-4.0,27.0,-1008.0,11:56:29.257367,192.168.0.111
778,1,32,-3,77,"0,1,178",0,-1,0,-2,0,0,60,62,69,10,100,-20.7,15,-11.0,23.0,-998.0,11:56:29.361227,192.168.0.111
783,1,32,-3,77,"0,1,178",0,-1,0,-2,0,0,60,62,69,10,100,-20.74,15,4.0,10.0,-990.0,11:56:29.461426,192.168.0.111
788,1,32,-3,77,"0,1,178",0,-1,0,-2,0,0,60,62,70,10,100,-20.73,15,-1.0,18.0,-996.0,11:56:29.563056,192.168.0.111
793,1,32,-3,77,"0,1,178",0,-1,0,-2,0,0,60,62,70,10,100,-20.81,15,-14.0,27.0,-992.0,11:56:29.664840,192.168.0.111
798,1,32,-3,77,"0,1,178",0,-1,0,-2,0,0,60,62,69,10,100,-20.8,15,-14.0,18.0,-1005.0,11:56:29.767501,192.168.0.111
803,1,32,-3,77,"0,1,178",0,-1,-1,-2,0,0,60,62,69,10,100,-20.83,15,-11.0,25.0,-997.0,11:56:29.871890,192.168.0.111
808,1,32,-3,77,"0,1,178",0,-1,-1,-2,0,0,60,62,68,10,100,-20.8,15,-15.0,31.0,-1009.0,11:56:29.972928,192.168.0.111
813,1,32,-3,77,"0,1,178",0,-1,-1,-2,0,0,60,62,68,10,100,-20.76,15,-4.0,18.0,-1002.0,11:56:30.073831,192.168.0.111
818,1,32,-3,77,"0,1,178",0,-1,-1,-2,0,0,60,62,68,10,100,-20.78,16,-9.0,21.0,-997.0,11:56:30.175454,192.168.0.111
823,1,32,-3,77,"0,1,178",0,-1,-1,-2,0,0,60,62,69,10,100,-20.82,16,5.0,11.0,-1003.0,11:56:30.277495,192.168.0.111
828,1,32,-3,77,"0,1,178",0,-1,-1,-2,0,0,60,62,69,10,100,-20.84,16,-5.0,13.0,-997.0,11:56:30.379469,192.168.0.111
833,1,32,-3,77,"0,1,178",0,-1,-1,-2,0,0,60,62,69,10,100,-20.82,16,-2.0,25.0,-1001.0,11:56:30.481486,192.168.0.111
838,1,32,-3,77,"0,1,178",0,-1,-1,-2,0,0,60,62,69,10,100,-20.83,16,-1.0,15.0,-996.0,11:56:30.583358,192.168.0.111
843,1,32,-3,77,"0,1,178",0,-1,-1,-2,0,0,60,62,69,10,100,-20.87,16,-12.0,23.0,-997.0,11:56:30.685471,192.168.0.111
848,1,32,-3,77,"0,1,178",0,-1,-1,-2,0,0,60,62,69,10,100,-20.87,16,-17.0,27.0,-1017.0,11:56:30.787337,192.168.0.111
853,1,32,-3,77,"0,1,178",0,-1,-1,-2,0,0,60,62,69,10,100,-20.8,16,-18.0,30.0,-1012.0,11:56:30.889404,192.168.0.111
858,1,32,-3,77,"0,1,178",0,-1,-1,-2,0,0,60,62,69,10,100,-20.77,16,-10.0,19.0,-975.0,11:56:30.991385,192.168.0.111
863,1,32,-3,77,"0,1,178",0,-1,-1,-2,0,0,60,62,69,10,100,-20.85,16,-16.0,19.0,-998.0,11:56:31.093159,192.168.0.111
869,1,32,-3,77,"0,1,178",0,-1,-1,-2,0,0,60,62,70,10,100,-20.79,17,-16.0,16.0,-987.0,11:56:31.195447,192.168.0.111
872,1,32,-3,77,"0,1,178",0,-1,-1,-2,0,0,60,62,69,10,100,-20.8,17,1.0,-7.0,-1006.0,11:56:31.246104,192.168.0.111
877,1,32,-3,77,"0,1,178",0,-1,-1,-2,0,0,60,62,70,10,100,-20.87,17,-22.0,14.0,-1009.0,11:56:31.348222,192.168.0.111
882,1,32,-3,77,"0,1,178",0,-1,-1,-2,0,0,60,62,70,10,100,-20.81,17,-14.0,7.0,-1002.0,11:56:31.450014,192.168.0.111
891,1,32,-3,77,"0,1,178",0,0,-1,-2,0,0,60,63,70,10,100,-20.93,17,-4.0,-4.0,-991.0,11:56:31.603006,192.168.0.111
896,1,32,-3,77,"0,1,178",0,0,-1,-2,0,0,60,63,70,10,100,-20.83,17,-28.0,18.0,-996.0,11:56:31.705981,192.168.0.111
901,1,32,-3,77,"0,1,178",0,0,-1,-2,0,0,60,63,70,10,100,-20.82,17,-10.0,-5.0,-1005.0,11:56:31.807330,192.168.0.111
906,1,32,-3,77,"0,1,178",0,0,-1,-2,0,0,60,63,70,10,100,-20.83,17,-18.0,7.0,-1000.0,11:56:31.909875,192.168.0.111
908,1,32,-3,77,"0,1,178",0,0,-1,-1,0,0,60,63,71,10,100,-20.8,17,-12.0,7.0,-1000.0,11:56:31.960105,192.168.0.111
913,1,32,-3,77,"0,1,178",0,0,-1,-1,0,0,60,63,71,10,100,-20.77,17,-19.0,2.0,-997.0,11:56:32.062064,192.168.0.111
918,1,32,-3,77,"0,1,178",0,0,-1,-1,0,0,60,63,71,10,100,-20.77,18,-24.0,11.0,-1004.0,11:56:32.164258,192.168.0.111
923,1,32,-3,77,"0,1,178",0,0,-1,-1,0,0,60,63,70,10,100,-20.82,18,-19.0,11.0,-996.0,11:56:32.266069,192.168.0.111
928,1,32,-3,77,"0,1,178",0,0,-1,-1,0,0,60,63,70,10,100,-20.85,18,-11.0,9.0,-998.0,11:56:32.368133,192.168.0.111
933,1,32,-3,77,"0,1,178",0,0,-1,-2,0,0,60,63,71,10,100,-20.84,18,-15.0,0.0,-998.0,11:56:32.469962,192.168.0.111
938,1,32,-3,77,"0,1,178",0,0,-1,-2,0,0,60,63,71,10,100,-20.81,18,-4.0,2.0,-993.0,11:56:32.571954,192.168.0.111
943,1,32,-3,77,"0,1,178",0,0,0,-2,0,0,60,63,71,10,100,-20.85,18,-22.0,11.0,-991.0,11:56:32.674185,192.168.0.111
948,1,32,-3,77,"0,1,178",0,0,0,-2,0,0,60,63,71,10,100,-20.81,18,-23.0,9.0,-988.0,11:56:32.776001,192.168.0.111
953,1,32,-3,77,"0,1,178",0,0,0,-2,0,0,60,63,72,10,100,-20.86,18,-27.0,9.0,-995.0,11:56:32.878177,192.168.0.111
958,1,32,-3,77,"0,1,178",0,0,0,-1,0,0,60,63,72,10,100,-20.8,18,-16.0,-1.0,-994.0,11:56:32.980070,192.168.0.111
963,1,32,-3,77,"0,1,178",0,0,-1,-1,0,0,60,63,73,10,100,-20.84,18,-39.0,9.0,-1007.0,11:56:33.082162,192.168.0.111
968,1,32,-3,77,"0,1,178",0,0,-1,-1,0,0,60,63,74,10,100,-20.81,19,-19.0,3.0,-998.0,11:56:33.184119,192.168.0.111
973,1,32,-3,77,"0,1,178",0,0,-1,-1,0,0,60,63,74,10,100,-20.81,19,-8.0,-1.0,-996.0,11:56:33.285817,192.168.0.111
978,1,32,-3,77,"0,1,178",0,0,-1,-1,0,0,60,63,73,10,100,-20.85,19,-12.0,-6.0,-997.0,11:56:33.388101,192.168.0.111
983,1,32,-3,77,"0,1,178",0,0,-1,-2,0,0,60,63,73,10,100,-20.84,19,-26.0,11.0,-998.0,11:56:33.490052,192.168.0.111
988,1,32,-3,77,"0,1,178",0,0,-1,-1,0,0,61,63,72,10,100,-20.87,19,-20.0,-2.0,-989.0,11:56:33.591969,192.168.0.111
993,1,32,-3,77,"0,1,178",0,0,-1,-1,0,0,61,63,72,10,100,-20.85,19,-9.0,-6.0,-1002.0,11:56:33.693786,192.168.0.111
998,1,32,-3,77,"0,1,178",0,0,0,-1,0,0,61,63,72,10,100,-20.84,19,-8.0,1.0,-991.0,11:56:33.796081,192.168.0.111
1003,1,32,-3,77,"0,1,178",0,0,0,-1,0,0,61,63,72,10,100,-20.83,19,-31.0,0.0,-999.0,11:56:33.898069,192.168.0.111
1008,1,32,-3,77,"0,1,178",0,0,0,-2,0,0,61,63,72,10,100,-20.86,19,-23.0,4.0,-998.0,11:56:33.999960,192.168.0.111
1013,1,32,-3,77,"0,1,178",0,0,0,-1,0,0,61,63,72,10,100,-20.83,19,-25.0,5.0,-990.0,11:56:34.101919,192.168.0.111
1018,1,32,-3,77,"0,1,178",0,0,0,-1,0,0,61,63,72,10,100,-20.82,20,-31.0,8.0,-994.0,11:56:34.203968,192.168.0.111
1023,1,32,-3,77,"0,1,178",0,0,0,-2,0,0,61,63,72,10,100,-20.87,20,-21.0,-3.0,-981.0,11:56:34.306004,192.168.0.111
1028,1,32,-3,77,"0,1,178",0,0,0,-2,0,0,61,63,73,10,100,-20.84,20,-16.0,3.0,-997.0,11:56:34.407996,192.168.0.111
1033,1,32,-3,77,"0,1,178",0,0,0,-2,0,0,61,63,72,10,100,-20.81,20,-15.0,5.0,-985.0,11:56:34.510040,192.168.0.111
1038,1,32,-3,77,"0,1,178",0,0,0,-2,0,0,60,63,72,10,100,-20.79,20,-9.0,-1.0,-995.0,11:56:34.611997,192.168.0.111
1044,1,32,-3,77,"0,1,178",0,0,0,-2,0,0,60,63,72,10,100,-20.84,20,-23.0,12.0,-997.0,11:56:34.714009,192.168.0.111
1049,1,32,-3,77,"0,1,178",0,0,0,-2,0,0,60,63,72,10,100,-20.85,20,-23.0,12.0,-986.0,11:56:34.816032,192.168.0.111
1054,1,32,-3,77,"0,1,178",0,0,0,-2,0,0,60,63,72,10,100,-20.81,20,-12.0,4.0,-993.0,11:56:34.917999,192.168.0.111
1061,1,32,-3,77,"0,1,178",0,0,0,-2,0,0,60,63,71,10,100,-20.81,20,-20.0,12.0,-989.0,11:56:35.019905,192.168.0.111
1065,1,32,-3,77,"0,1,178",0,0,0,-2,0,0,60,63,71,10,100,-20.85,20,-8.0,9.0,-1002.0,11:56:35.121960,192.168.0.111
1070,6,-26,24,73,"-1,0,178",0,0,0,-2,0,0,60,63,72,10,100,-20.88,21,-12.0,8.0,-1000.0,11:56:35.223851,192.168.0.111
1075,6,-26,24,73,"-1,0,178",0,0,0,-2,0,0,60,63,71,10,100,-20.88,21,-9.0,6.0,-1010.0,11:56:35.325913,192.168.0.111
1080,6,-26,24,73,"-1,0,178",0,0,0,-2,0,0,60,63,71,10,100,-20.88,21,-11.0,4.0,-1006.0,11:56:35.428001,192.168.0.111
1085,6,-26,24,73,"-1,0,178",0,0,0,-2,0,0,60,63,71,10,100,-20.89,21,-14.0,9.0,-1006.0,11:56:35.529687,192.168.0.111
1090,6,-26,24,73,"-1,0,178",0,0,0,-2,0,0,60,64,71,10,100,-20.85,21,-22.0,6.0,-990.0,11:56:35.631968,192.168.0.111
1095,6,-26,24,73,"-1,0,178",0,0,0,-2,0,0,60,64,70,10,100,-20.94,21,-12.0,4.0,-1003.0,11:56:35.733879,192.168.0.111
1100,6,-26,24,73,"-1,0,178",0,0,0,-2,0,0,60,64,70,10,100,-20.91,21,-28.0,18.0,-1000.0,11:56:35.838315,192.168.0.111
1106,5,-2,-22,73,"1,-2,178",0,0,0,-2,0,0,60,64,70,10,100,-20.97,21,-24.0,4.0,-996.0,11:56:35.937685,192.168.0.111
1111,5,-2,-22,73,"1,-2,178",0,0,0,-2,0,0,60,64,69,10,100,-20.96,21,-15.0,4.0,-1007.0,11:56:36.039978,192.168.0.111
1116,5,-2,-22,73,"1,-2,178",0,0,0,-2,0,0,60,64,69,10,100,-20.94,21,-12.0,6.0,-1009.0,11:56:36.141830,192.168.0.111
1121,5,-2,-22,73,"1,-2,178",0,0,-1,-2,0,0,60,64,69,10,100,-20.87,22,-30.0,2.0,-995.0,11:56:36.244288,192.168.0.111
1126,5,-2,-22,73,"1,-2,178",0,0,-1,-2,0,0,60,64,69,10,100,-20.94,22,-11.0,-9.0,-987.0,11:56:36.346106,192.168.0.111
1128,5,-2,-22,73,"1,-2,178",0,0,0,-2,0,0,60,64,68,10,100,-20.94,22,-20.0,0.0,-1011.0,11:56:36.397937,192.168.0.111
1133,5,-2,-22,73,"1,-2,178",0,0,0,-2,0,0,60,64,68,10,100,-21.04,22,-27.0,-4.0,-1007.0,11:56:36.499410,192.168.0.111
1138,5,-2,-22,73,"1,-2,178",0,0,0,-2,0,0,62,64,67,10,100,-20.97,22,-19.0,3.0,-998.0,11:56:36.600946,192.168.0.111
1143,5,20,-19,70,"3,-2,178",0,0,0,-2,0,0,62,64,68,10,100,-20.91,22,-20.0,4.0,-1013.0,11:56:36.702648,192.168.0.111
1148,5,20,-19,70,"3,-2,178",0,0,0,-2,0,0,62,64,67,10,100,-20.9,22,-17.0,12.0,-1004.0,11:56:36.805693,192.168.0.111
1152,5,20,-19,70,"3,-2,178",1,0,0,-2,0,0,62,64,68,10,100,-20.87,22,-22.0,12.0,-1008.0,11:56:36.907229,192.168.0.111
1157,5,20,-19,70,"3,-2,178",2,0,0,-1,0,0,62,64,68,10,100,-20.95,22,-26.0,15.0,-1002.0,11:56:37.009218,192.168.0.111
1163,5,20,-19,70,"3,-2,178",4,0,0,-1,0,0,62,64,67,10,100,-20.97,22,-8.0,6.0,-1007.0,11:56:37.116359,192.168.0.111
1167,5,20,-19,70,"3,-2,178",2,0,0,0,0,0,62,64,68,10,100,-20.86,23,0.0,4.0,-994.0,11:56:37.213367,192.168.0.111
1172,5,20,-19,70,"3,-2,178",1,0,0,0,0,0,62,64,68,10,100,-20.82,23,-12.0,10.0,-999.0,11:56:37.315785,192.168.0.111
1177,5,20,-19,70,"3,-2,178",0,0,0,0,0,0,62,64,68,10,100,-20.86,23,8.0,-4.0,-1005.0,11:56:37.417858,192.168.0.111
1182,5,20,-19,70,"3,-2,178",0,0,0,0,0,0,62,64,68,10,100,-20.88,23,-17.0,23.0,-1017.0,11:56:37.519963,192.168.0.111
1187,5,20,-19,70,"3,-2,178",0,0,0,0,0,0,60,63,68,10,100,-20.94,23,-15.0,11.0,-998.0,11:56:37.621811,192.168.0.111
1192,5,20,-19,70,"3,-2,178",0,0,0,0,0,0,60,63,68,10,100,-20.91,23,-7.0,17.0,-1007.0,11:56:37.723843,192.168.0.111
1198,5,20,-19,70,"3,-2,178",0,0,0,0,0,0,60,63,68,10,100,-20.92,23,-5.0,12.0,-1011.0,11:56:37.825944,192.168.0.111
1203,5,20,-19,70,"3,-2,178",0,0,0,0,0,0,60,63,67,10,100,-20.84,23,1.0,8.0,-994.0,11:56:37.927804,192.168.0.111
1208,5,20,-19,70,"3,-2,178",0,0,0,0,0,0,60,63,68,10,100,-20.85,23,-7.0,12.0,-1007.0,11:56:38.029864,192.168.0.111
1213,5,20,-19,70,"3,-2,178",0,0,0,0,0,0,60,63,68,10,100,-20.88,23,5.0,13.0,-1000.0,11:56:38.132214,192.168.0.111
1218,5,20,-19,70,"3,-2,178",0,0,0,0,0,0,60,63,68,10,100,-20.84,24,0.0,6.0,-1011.0,11:56:38.233902,192.168.0.111
1223,5,20,-19,70,"3,-2,178",0,0,0,0,0,0,60,63,68,10,100,-20.84,24,-3.0,12.0,-1009.0,11:56:38.366851,192.168.0.111
1229,5,20,-19,70,"3,-2,178",0,0,0,0,0,0,60,63,68,10,100,-20.89,24,-2.0,5.0,-995.0,11:56:38.470006,192.168.0.111
1234,5,20,-19,70,"3,-2,178",0,0,0,0,0,0,60,63,69,10,100,-20.87,24,-12.0,21.0,-1012.0,11:56:38.572605,192.168.0.111
1239,5,20,-19,70,"3,-2,178",0,0,0,0,0,0,61,63,69,10,100,-20.86,24,3.0,4.0,-1002.0,11:56:38.641731,192.168.0.111
1245,5,20,-19,70,"3,-2,178",0,0,0,0,0,0,61,63,69,10,100,-20.85,24,9.0,11.0,-991.0,11:56:38.778367,192.168.0.111
1249,5,20,-19,70,"3,-2,178",0,0,0,0,0,0,61,63,69,10,100,-20.86,24,6.0,16.0,-1003.0,11:56:38.880954,192.168.0.111
1255,5,20,-19,70,"3,-2,178",0,0,0,0,0,0,61,63,70,10,100,-20.77,24,0.0,11.0,-1003.0,11:56:38.983916,192.168.0.111
1260,5,20,-19,70,"3,-2,178",0,0,0,0,0,0,61,63,70,10,100,-20.8,24,-1.0,13.0,-996.0,11:56:39.086732,192.168.0.111
1262,5,20,-19,70,"3,-2,178",0,0,0,0,0,0,61,63,70,10,100,-20.74,24,0.0,10.0,-1003.0,11:56:39.100659,192.168.0.111
1267,5,20,-19,70,"3,-2,178",0,0,0,0,0,0,61,63,70,10,100,-20.8,25,5.0,17.0,-1002.0,11:56:39.202720,192.168.0.111
1272,5,20,-19,70,"3,-2,178",0,0,0,0,0,0,61,63,70,10,100,-20.76,25,-8.0,12.0,-1002.0,11:56:39.304860,192.168.0.111
1277,5,20,-19,70,"3,-2,178",0,0,0,0,0,0,61,63,70,10,100,-20.72,25,-5.0,21.0,-1002.0,11:56:39.406864,192.168.0.111
1282,5,20,-19,70,"3,-2,178",0,0,0,0,0,0,61,63,70,10,100,-20.75,25,2.0,9.0,-999.0,11:56:39.586273,192.168.0.111
1287,5,20,-19,70,"3,-2,178",0,0,0,0,0,0,61,65,70,10,100,-20.74,25,4.0,-6.0,-997.0,11:56:39.611160,192.168.0.111
1292,5,20,-19,70,"3,-2,178",0,0,0,0,0,0,61,65,70,10,100,-20.69,25,6.0,4.0,-996.0,11:56:39.795246,192.168.0.111
1297,5,20,-19,70,"3,-2,178",0,0,0,0,0,0,61,65,71,10,100,-20.75,25,0.0,15.0,-1008.0,11:56:39.814943,192.168.0.111
1302,5,20,-19,70,"3,-2,178",0,0,0,0,0,0,61,65,71,10,100,-20.76,25,-5.0,8.0,-997.0,11:56:40.065397,192.168.0.111
1307,5,20,-19,70,"3,-2,178",0,0,0,0,0,0,61,65,71,10,100,-20.75,25,2.0,8.0,-996.0,11:56:40.066372,192.168.0.111
1312,5,20,-19,70,"3,-2,178",0,0,0,0,0,0,61,65,72,10,100,-20.78,25,-6.0,8.0,-1000.0,11:56:40.271829,192.168.0.111
1317,5,20,-19,70,"3,-2,178",0,0,0,0,0,0,61,65,72,10,100,-20.67,26,5.0,4.0,-984.0,11:56:40.272719,192.168.0.111
1322,5,20,-19,70,"3,-2,178",0,0,0,0,0,0,61,65,72,10,100,-20.65,26,-4.0,6.0,-993.0,11:56:40.478284,192.168.0.111
1327,5,20,-19,70,"3,-2,178",0,0,0,0,0,0,61,65,72,10,100,-20.74,26,-9.0,16.0,-1008.0,11:56:40.479212,192.168.0.111
1332,5,20,-19,70,"3,-2,178",0,0,0,0,0,0,61,65,72,10,100,-20.76,26,-4.0,6.0,-988.0,11:56:40.684880,192.168.0.111
1337,5,20,-19,70,"3,-2,178",0,0,0,0,0,0,61,64,72,10,100,-20.69,26,0.0,9.0,-1000.0,11:56:40.685919,192.168.0.111
1342,5,20,-19,70,"3,-2,178",0,0,0,0,0,0,61,64,72,10,100,-20.66,26,-8.0,13.0,-989.0,11:56:40.891260,192.168.0.111
1348,5,20,-19,70,"3,-2,178",0,0,0,0,0,0,61,64,72,10,100,-20.76,26,-6.0,13.0,-995.0,11:56:40.892354,192.168.0.111
1353,5,20,-19,70,"3,-2,178",0,0,0,0,0,0,61,64,72,10,100,-20.72,26,1.0,3.0,-1001.0,11:56:40.937021,192.168.0.111
1358,5,20,-19,70,"3,-2,178",0,0,0,0,0,0,61,64,71,10,100,-20.73,26,-4.0,5.0,-996.0,11:56:41.098590,192.168.0.111
1363,5,20,-19,70,"3,-2,178",0,0,0,0,0,0,61,64,72,10,100,-20.68,26,-7.0,11.0,-1000.0,11:56:41.140904,192.168.0.111
1367,5,20,-19,70,"3,-2,178",0,0,0,0,0,0,61,64,71,10,100,-20.71,27,2.0,-6.0,-990.0,11:56:41.304637,192.168.0.111
1372,5,20,-19,70,"3,-2,178",0,0,0,0,0,0,61,64,72,10,100,-20.7,27,1.0,15.0,-1004.0,11:56:41.345059,192.168.0.111
1377,5,20,-19,70,"3,-2,178",0,0,-1,0,0,0,61,64,72,10,100,-20.73,27,5.0,13.0,-1000.0,11:56:41.511138,192.168.0.111
1382,5,20,-19,70,"3,-2,178",0,0,0,0,0,0,61,64,72,10,100,-20.73,27,9.0,4.0,-995.0,11:56:41.548983,192.168.0.111
1388,5,20,-19,70,"3,-2,178",0,0,-1,0,0,0,62,65,72,10,100,-20.71,27,-8.0,20.0,-1010.0,11:56:41.718711,192.168.0.111
1393,5,20,-19,70,"3,-2,178",0,0,-1,0,0,0,62,65,73,10,100,-20.76,27,2.0,15.0,-1003.0,11:56:41.752724,192.168.0.111
1398,5,20,-19,70,"3,-2,178",0,0,-1,0,0,0,62,65,73,10,100,-20.68,27,0.0,18.0,-1003.0,11:56:41.924873,192.168.0.111
1403,5,20,-19,70,"3,-2,178",0,0,-1,0,0,0,62,65,73,10,100,-20.7,27,9.0,-2.0,-993.0,11:56:41.956844,192.168.0.111
1408,5,20,-19,70,"3,-2,178",0,0,-1,0,0,0,62,65,73,10,100,-20.74,27,1.0,3.0,-1001.0,11:56:42.131280,192.168.0.111
1413,5,20,-19,70,"3,-2,178",0,0,-1,0,0,0,62,65,73,10,100,-20.76,27,1.0,-3.0,-993.0,11:56:42.160751,192.168.0.111
1418,5,20,-19,70,"3,-2,178",0,0,-1,0,0,0,62,65,73,10,100,-20.71,28,11.0,0.0,-988.0,11:56:42.337841,192.168.0.111
1423,5,20,-19,70,"3,-2,178",0,0,-1,0,0,0,62,65,73,10,100,-20.71,28,10.0,0.0,-998.0,11:56:42.364510,192.168.0.111
1428,5,20,-19,70,"3,-2,178",0,0,-1,0,0,0,62,65,72,10,100,-20.62,28,12.0,1.0,-991.0,11:56:42.546009,192.168.0.111
1433,5,20,-19,70,"3,-2,178",0,0,0,0,0,0,62,65,72,10,100,-20.65,28,3.0,8.0,-995.0,11:56:42.568545,192.168.0.111
1438,5,20,-19,70,"3,-2,178",0,0,0,0,0,0,62,65,72,10,100,-20.73,28,-1.0,5.0,-991.0,11:56:42.752469,192.168.0.111
1444,5,20,-19,70,"3,-2,178",0,0,0,0,0,0,62,65,72,10,100,-20.68,28,-1.0,12.0,-1009.0,11:56:42.772460,192.168.0.111
1449,5,20,-19,70,"3,-2,178",0,0,0,0,0,0,62,65,73,10,100,-20.69,28,10.0,5.0,-1000.0,11:56:42.958969,192.168.0.111
1451,5,20,-19,70,"3,-2,178",0,0,0,0,0,0,62,65,73,10,100,-20.6,28,11.0,-1.0,-992.0,11:56:42.959311,192.168.0.111
1457,5,20,-19,70,"3,-2,178",0,0,0,0,0,0,62,65,72,10,100,-20.72,28,0.0,14.0,-1007.0,11:56:43.164515,192.168.0.111
1462,5,20,-19,70,"3,-2,178",0,0,0,0,0,0,62,65,73,10,100,-20.63,28,1.0,4.0,-998.0,11:56:43.165585,192.168.0.111
1467,5,20,-19,70,"3,-2,178",0,0,0,0,0,0,62,65,72,10,100,-20.65,29,9.0,1.0,-999.0,11:56:43.370972,192.168.0.111
1472,5,20,-19,70,"3,-2,178",0,0,0,0,0,0,62,65,73,10,100,-20.73,29,-5.0,3.0,-991.0,11:56:43.371898,192.168.0.111
1476,5,20,-19,70,"3,-2,178",0,0,0,0,0,0,62,65,73,10,100,-20.66,29,0.0,-2.0,-1010.0,11:56:43.577280,192.168.0.111
1481,5,20,-19,70,"3,-2,178",0,0,0,0,0,0,62,65,72,10,100,-20.7,29,-2.0,3.0,-996.0,11:56:43.578140,192.168.0.111
1486,5,20,-19,70,"3,-2,178",0,0,0,0,0,0,62,65,72,10,100,-20.71,29,8.0,0.0,-1010.0,11:56:43.783689,192.168.0.111
1491,5,20,-19,70,"3,-2,178",0,0,0,0,0,0,62,65,73,10,100,-20.7,29,2.0,11.0,-1010.0,11:56:43.784682,192.168.0.111
1496,5,20,-19,70,"3,-2,178",0,0,0,0,0,0,62,65,72,10,100,-20.65,29,6.0,-2.0,-996.0,11:56:43.989832,192.168.0.111
1501,5,20,-19,70,"3,-2,178",0,0,0,0,0,0,62,65,73,10,100,-20.68,29,4.0,-2.0,-1000.0,11:56:43.990792,192.168.0.111
1506,5,20,-19,70,"3,-2,178",0,0,0,0,0,0,62,65,73,10,100,-20.65,29,6.0,0.0,-1013.0,11:56:44.198295,192.168.0.111
1511,5,20,-19,70,"3,-2,178",0,0,0,0,0,0,62,65,73,10,100,-20.68,30,2.0,7.0,-1002.0,11:56:44.199207,192.168.0.111
1516,5,20,-19,70,"3,-2,178",0,0,0,0,0,0,62,65,73,10,100,-20.63,30,-12.0,5.0,-975.0,11:56:44.404652,192.168.0.111
1521,5,20,-19,70,"3,-2,178",0,0,0,0,0,0,62,65,73,10,100,-20.55,30,-4.0,-2.0,-978.0,11:56:44.405555,192.168.0.111
1526,5,20,-19,70,"3,-2,178",0,0,0,0,0,0,62,65,73,10,100,-20.63,30,-19.0,12.0,-982.0,11:56:44.609791,192.168.0.111
1532,5,20,-19,70,"3,-2,178",0,0,0,0,0,0,62,65,72,10,100,-20.64,30,-10.0,21.0,-977.0,11:56:44.610851,192.168.0.111
1537,5,20,-19,70,"3,-2,178",0,0,0,0,0,0,62,64,72,10,100,-20.59,30,4.0,1.0,-1021.0,11:56:44.814840,192.168.0.111
1542,5,20,-19,70,"3,-2,178",0,0,0,0,0,0,62,64,72,10,100,-20.61,30,-3.0,1.0,-1012.0,11:56:44.815804,192.168.0.111
1546,5,20,-19,70,"3,-2,178",0,0,0,0,0,0,62,64,72,10,100,-20.66,30,-9.0,5.0,-1000.0,11:56:45.023234,192.168.0.111
1550,5,20,-19,70,"3,-2,178",0,0,0,0,0,0,62,64,72,10,100,-20.56,30,8.0,3.0,-1009.0,11:56:45.024035,192.168.0.111
1555,5,20,-19,70,"3,-2,178",0,0,0,0,0,0,62,64,72,10,100,-20.61,30,-9.0,9.0,-996.0,11:56:45.227372,192.168.0.111
1560,5,20,-19,70,"3,-2,178",0,0,0,0,0,0,62,64,72,10,100,-20.6,31,-18.0,17.0,-986.0,11:56:45.228524,192.168.0.111
1566,5,20,-19,70,"3,-2,178",0,0,0,0,0,0,62,64,72,10,100,-20.56,31,-15.0,13.0,-999.0,11:56:45.271487,192.168.0.111
1571,5,20,-19,70,"3,-2,178",0,0,0,0,0,0,62,64,72,10,100,-20.69,31,14.0,-5.0,-1022.0,11:56:45.373369,192.168.0.111
1576,5,20,-19,70,"3,-2,178",0,0,0,0,0,0,62,64,72,10,100,-20.68,31,-18.0,12.0,-1019.0,11:56:45.480725,192.168.0.111
1581,5,20,-19,70,"3,-2,178",0,0,0,0,0,0,62,64,72,10,100,-20.65,31,-6.0,6.0,-998.0,11:56:45.577541,192.168.0.111
1587,5,20,-19,70,"3,-2,178",0,0,-1,0,0,0,62,65,73,10,100,-20.66,31,-12.0,8.0,-994.0,11:56:45.679332,192.168.0.111
1592,5,20,-19,70,"3,-2,178",0,0,-1,0,0,0,62,65,73,10,100,-20.69,31,-11.0,12.0,-1003.0,11:56:45.781312,192.168.0.111
1597,5,20,-19,70,"3,-2,178",0,0,-1,0,0,0,62,65,73,10,100,-20.63,31,-17.0,11.0,-998.0,11:56:45.883431,192.168.0.111
1602,5,20,-19,70,"3,-2,178",0,0,-1,0,0,0,62,65,73,10,100,-20.69,31,-2.0,13.0,-1004.0,11:56:45.985470,192.168.0.111
1609,5,20,-19,70,"3,-2,178",0,0,-1,0,0,0,62,65,73,10,100,-20.66,31,-1.0,8.0,-1002.0,11:56:46.087717,192.168.0.111
1614,5,20,-19,70,"3,-2,178",0,0,-1,0,0,0,62,65,73,10,100,-20.67,32,-2.0,10.0,-986.0,11:56:46.189404,192.168.0.111
1618,5,20,-19,70,"3,-2,178",0,0,-1,0,0,0,62,65,73,10,100,-20.6,32,-7.0,19.0,-1002.0,11:56:46.291467,192.168.0.111
1622,5,20,-19,70,"3,-2,178",0,0,-1,0,0,0,62,65,72,10,100,-20.65,32,-8.0,9.0,-1007.0,11:56:46.395385,192.168.0.111
1627,5,20,-19,70,"3,-2,178",0,0,-1,0,0,0,62,65,72,10,100,-20.67,32,-9.0,17.0,-1009.0,11:56:46.496295,192.168.0.111
1630,5,20,-19,70,"3,-2,178",0,0,-1,0,0,0,62,65,72,10,100,-20.63,32,-12.0,8.0,-990.0,11:56:46.546737,192.168.0.111
1638,5,20,-19,70,"3,-2,178",0,0,-1,0,0,0,62,65,72,10,100,-20.6,32,-15.0,14.0,-1005.0,11:56:46.699410,192.168.0.111
1643,5,20,-19,70,"3,-2,178",0,0,-1,0,0,0,62,65,72,10,100,-20.7,32,0.0,4.0,-993.0,11:56:46.802425,192.168.0.111
1648,5,20,-19,70,"3,-2,178",0,0,-1,0,0,0,62,65,72,10,100,-20.63,32,-12.0,3.0,-992.0,11:56:46.903288,192.168.0.111
1653,5,20,-19,70,"3,-2,178",0,0,-1,0,0,0,62,65,72,10,100,-20.58,32,-7.0,8.0,-1009.0,11:56:47.005383,192.168.0.111
1658,5,20,-19,70,"3,-2,178",0,0,-1,0,0,0,62,65,72,10,100,-20.63,32,-1.0,-3.0,-999.0,11:56:47.107466,192.168.0.111
1660,5,20,-19,70,"3,-2,178",0,0,-1,0,0,0,62,65,72,10,100,-20.64,33,1.0,1.0,-1006.0,11:56:47.158783,192.168.0.111
1665,5,20,-19,70,"3,-2,178",0,0,-1,0,0,0,62,65,72,10,100,-20.69,33,-7.0,8.0,-1006.0,11:56:47.260727,192.168.0.111
1670,5,20,-19,70,"3,-2,178",0,0,-1,0,0,0,62,65,73,10,100,-20.67,33,-8.0,4.0,-1006.0,11:56:47.362425,192.168.0.111
1675,5,20,-19,70,"3,-2,178",0,0,-1,0,0,0,62,65,72,10,100,-20.63,33,-4.0,8.0,-1006.0,11:56:47.464256,192.168.0.111
1680,5,20,-19,70,"3,-2,178",0,0,-1,0,0,0,62,65,72,10,100,-20.62,33,5.0,-5.0,-992.0,11:56:47.566659,192.168.0.111
1685,5,20,-19,70,"3,-2,178",0,0,0,0,0,0,62,65,72,10,100,-20.58,33,-1.0,-4.0,-998.0,11:56:47.668459,192.168.0.111
1690,5,20,-19,70,"3,-2,178",0,0,-1,0,0,0,62,65,72,10,100,-20.63,33,-7.0,4.0,-998.0,11:56:47.770462,192.168.0.111
1695,5,20,-19,70,"3,-2,178",0,0,0,0,0,0,62,65,72,10,100,-20.62,33,-10.0,6.0,-1004.0,11:56:47.872367,192.168.0.111
1700,5,20,-19,70,"3,-2,178",0,0,-1,0,0,0,62,65,72,10,100,-20.61,33,-3.0,7.0,-1000.0,11:56:47.974758,192.168.0.111
1706,5,20,-19,70,"3,-2,178",0,0,-1,0,0,0,62,65,72,10,100,-20.58,33,-3.0,2.0,-1004.0,11:56:48.076656,192.168.0.111
1711,5,20,-19,70,"3,-2,178",0,0,0,0,0,0,62,65,72,10,100,-20.62,34,-1.0,-2.0,-993.0,11:56:48.178692,192.168.0.111
1716,5,20,-19,70,"3,-2,178",0,0,0,0,0,0,62,65,72,10,100,-20.6,34,-7.0,0.0,-997.0,11:56:48.280448,192.168.0.111
1721,5,20,-19,70,"3,-2,178",0,0,0,0,0,0,62,65,72,10,100,-20.63,34,-5.0,3.0,-998.0,11:56:48.382970,192.168.0.111
1726,5,20,-19,70,"3,-2,178",0,0,0,0,0,0,62,65,72,10,100,-20.65,34,-3.0,2.0,-1002.0,11:56:48.484500,192.168.0.111
1731,5,20,-19,70,"3,-2,178",0,0,0,0,0,0,62,65,72,10,100,-20.61,34,5.0,10.0,-1003.0,11:56:48.586556,192.168.0.111
1736,5,20,-19,70,"3,-2,178",0,0,0,0,0,0,62,65,72,10,100,-20.67,34,9.0,-2.0,-995.0,11:56:48.688594,192.168.0.111
1741,5,20,-19,70,"3,-2,178",0,0,-1,0,0,0,62,65,73,10,100,-20.64,34,-12.0,11.0,-993.0,11:56:48.790385,192.168.0.111
1746,5,20,-19,70,"3,-2,178",0,0,-1,0,0,0,62,65,72,10,100,-20.62,34,2.0,2.0,-998.0,11:56:48.892292,192.168.0.111
1751,5,20,-19,70,"3,-2,178",0,0,-1,0,0,0,62,65,72,10,100,-20.64,34,-6.0,10.0,-1006.0,11:56:48.994344,192.168.0.111
1756,5,20,-19,70,"3,-2,178",0,0,0,0,0,0,62,65,72,10,100,-20.6,34,-11.0,20.0,-1001.0,11:56:49.096284,192.168.0.111
1761,5,20,-19,70,"3,-2,178",0,0,0,0,0,0,62,65,72,10,100,-20.64,35,-11.0,8.0,-1003.0,11:56:49.198719,192.168.0.111
1766,5,20,-19,70,"3,-2,178",0,0,0,0,0,0,62,65,72,10,100,-20.65,35,-4.0,10.0,-1004.0,11:56:49.300560,192.168.0.111
1771,5,20,-19,70,"3,-2,178",0,0,0,0,0,0,62,65,72,10,100,-20.69,35,-1.0,5.0,-999.0,11:56:49.402450,192.168.0.111
1776,5,20,-19,70,"3,-2,178",0,0,0,0,0,0,62,65,71,10,100,-20.62,35,-7.0,2.0,-1000.0,11:56:49.508141,192.168.0.111
1781,5,20,-19,70,"3,-2,178",0,0,0,0,0,0,62,65,72,10,100,-20.67,35,-4.0,4.0,-989.0,11:56:49.606537,192.168.0.111
1786,5,20,-19,70,"3,-2,178",0,0,0,0,0,0,62,65,72,10,100,-20.58,35,-3.0,15.0,-1013.0,11:56:49.708316,192.168.0.111
1791,5,20,-19,70,"3,-2,178",0,0,0,0,0,0,62,65,72,10,100,-20.68,35,-1.0,7.0,-1011.0,11:56:49.810756,192.168.0.111
1796,5,20,-19,70,"3,-2,178",0,0,-1,0,0,0,62,65,72,10,100,-20.7,35,1.0,12.0,-1005.0,11:56:49.912518,192.168.0.111
1802,5,20,-19,70,"3,-2,178",0,0,-1,0,0,0,62,65,72,10,100,-20.64,35,1.0,13.0,-1006.0,11:56:50.014522,192.168.0.111
1807,5,20,-19,70,"3,-2,178",0,0,0,0,0,0,62,65,72,10,100,-20.64,35,-4.0,13.0,-994.0,11:56:50.116697,192.168.0.111
1812,5,20,-19,70,"3,-2,178",0,0,0,0,0,0,62,65,72,10,100,-20.76,36,-13.0,16.0,-1010.0,11:56:50.218665,192.168.0.111
1818,5,20,-19,70,"3,-2,178",0,0,0,0,0,0,62,65,72,10,100,-20.67,36,-7.0,9.0,-999.0,11:56:50.320486,192.168.0.111
1823,5,20,-19,70,"3,-2,178",0,0,0,0,0,0,62,65,72,10,100,-20.69,36,-3.0,9.0,-999.0,11:56:50.422272,192.168.0.111
1827,5,20,-19,70,"3,-2,178",0,0,0,0,0,0,62,65,72,10,100,-20.61,36,4.0,3.0,-1009.0,11:56:50.524526,192.168.0.111
1829,5,20,-19,70,"3,-2,178",0,0,0,0,0,0,62,65,71,10,100,-20.62,36,-7.0,13.0,-1007.0,11:56:50.577266,192.168.0.111
1837,5,20,-19,70,"3,-2,178",0,0,0,0,0,0,62,65,72,10,100,-20.67,36,-10.0,8.0,-999.0,11:56:50.728339,192.168.0.111
1842,5,20,-19,70,"3,-2,178",0,0,0,0,0,0,62,65,71,10,100,-20.68,36,3.0,2.0,-1005.0,11:56:50.831949,192.168.0.111
1847,5,20,-19,70,"3,-2,178",0,0,0,0,0,0,62,65,71,10,100,-20.67,36,1.0,2.0,-997.0,11:56:50.931793,192.168.0.111
1849,5,20,-19,70,"3,-2,178",0,0,0,0,0,0,62,65,71,10,100,-20.73,36,-6.0,13.0,-1007.0,11:56:50.983084,192.168.0.111
1854,5,20,-19,70,"3,-2,178",0,0,0,0,0,0,62,65,71,10,100,-20.69,36,1.0,24.0,-977.0,11:56:51.085081,192.168.0.111
1859,5,20,-19,70,"3,-2,178",2,-2,0,0,0,0,62,65,72,10,100,-20.71,37,6.0,-8.0,-1023.0,11:56:51.188286,192.168.0.111
1864,5,20,-19,70,"3,-2,178",3,-2,0,0,0,0,62,65,71,10,100,-20.62,37,4.0,16.0,-1000.0,11:56:51.289076,192.168.0.111
1869,5,20,-19,70,"3,-2,178",2,-1,0,1,0,0,62,65,71,10,100,-20.66,37,18.0,2.0,-987.0,11:56:51.391102,192.168.0.111
1874,5,20,-19,70,"3,-2,178",1,-1,0,1,0,0,62,65,71,10,100,-20.68,37,12.0,16.0,-1000.0,11:56:51.493276,192.168.0.111
1879,5,20,-19,70,"3,-2,178",1,-1,0,1,0,0,62,65,71,10,100,-20.67,37,9.0,19.0,-1008.0,11:56:51.594924,192.168.0.111
1884,5,20,-19,70,"3,-2,178",1,-1,0,1,0,0,63,66,70,10,100,-20.69,37,24.0,8.0,-994.0,11:56:51.702535,192.168.0.111
1889,5,20,-19,70,"3,-2,178",1,-1,0,1,1,0,63,66,70,10,100,-20.67,37,15.0,11.0,-1013.0,11:56:51.799263,192.168.0.111
1894,5,20,-19,70,"3,-2,178",1,-1,0,1,1,0,63,66,69,10,100,-20.73,37,11.0,15.0,-1004.0,11:56:51.900880,192.168.0.111
1899,5,20,-19,70,"3,-2,178",1,-1,0,1,1,0,63,66,69,10,100,-20.69,37,22.0,6.0,-1007.0,11:56:52.003123,192.168.0.111
1904,-1,-100,-100,-100,"-1,-1,-1",1,-1,0,1,1,0,63,66,69,10,100,-20.73,37,24.0,10.0,-999.0,11:56:52.105133,192.168.0.111
1910,-1,-100,-100,-100,"-1,-1,-1",1,0,0,1,1,0,63,66,68,10,100,-20.71,38,24.0,20.0,-997.0,11:56:52.207843,192.168.0.111
1915,-1,-100,-100,-100,"-1,-1,-1",0,0,0,1,1,0,63,66,68,10,100,-20.68,38,14.0,17.0,-1019.0,11:56:52.309162,192.168.0.111
1920,-1,-100,-100,-100,"-1,-1,-1",0,0,0,1,1,0,63,66,69,10,100,-20.77,38,15.0,4.0,-997.0,11:56:52.411111,192.168.0.111
1925,-1,-100,-100,-100,"-1,-1,-1",0,0,0,1,1,0,63,66,68,10,100,-20.76,38,14.0,12.0,-992.0,11:56:52.513232,192.168.0.111
1930,-1,-100,-100,-100,"-1,-1,-1",0,0,0,1,1,0,63,66,69,10,100,-20.74,38,24.0,1.0,-1009.0,11:56:52.615211,192.168.0.111
1935,-1,-100,-100,-100,"-1,-1,-1",1,0,0,1,1,0,62,66,69,10,100,-20.76,38,8.0,4.0,-1006.0,11:56:52.717269,192.168.0.111
1940,5,37,-7,69,"2,0,176",0,0,0,1,0,0,62,66,69,10,100,-20.73,38,20.0,0.0,-995.0,11:56:52.823990,192.168.0.111
1944,5,37,-7,69,"2,0,176",0,1,0,1,0,0,62,66,69,10,100,-20.7,38,20.0,1.0,-996.0,11:56:52.921059,192.168.0.111
1949,5,37,-7,69,"2,0,176",0,0,0,1,0,0,62,66,69,10,100,-20.71,38,7.0,5.0,-1011.0,11:56:53.023220,192.168.0.111
1954,5,37,-7,69,"2,0,176",0,0,0,1,0,0,62,66,69,10,100,-20.69,38,18.0,-5.0,-1000.0,11:56:53.125788,192.168.0.111
1960,5,37,-7,69,"2,0,176",0,0,0,0,0,0,62,66,69,10,100,-20.69,39,7.0,8.0,-1010.0,11:56:53.228086,192.168.0.111
1965,5,37,-7,69,"2,0,176",-1,0,0,0,0,0,62,66,68,10,100,-20.65,39,4.0,0.0,-1000.0,11:56:53.329957,192.168.0.111
1970,5,37,-7,69,"2,0,176",0,0,-1,0,0,0,62,66,68,10,100,-20.67,39,8.0,-12.0,-1000.0,11:56:53.432184,192.168.0.111
1975,5,29,-3,67,"4,-1,-179",0,0,-1,0,0,0,62,66,68,10,100,-20.66,39,6.0,-6.0,-991.0,11:56:53.535926,192.168.0.111
1980,5,29,-3,67,"4,-1,-179",0,0,0,0,0,0,62,66,68,10,100,-20.68,39,3.0,0.0,-1006.0,11:56:53.636374,192.168.0.111
1985,5,29,-3,67,"4,-1,-179",0,0,0,0,0,0,63,65,69,10,100,-20.68,39,1.0,4.0,-1003.0,11:56:53.738358,192.168.0.111
1990,5,29,-3,67,"4,-1,-179",0,0,-1,0,0,0,63,65,68,10,100,-20.74,39,0.0,1.0,-997.0,11:56:53.840324,192.168.0.111
1995,5,29,-3,67,"4,-1,-179",0,0,0,0,0,0,63,65,68,10,100,-20.69,39,18.0,-8.0,-1007.0,11:56:53.942172,192.168.0.111
2000,5,29,-3,67,"4,-1,-179",0,0,0,0,0,0,63,65,69,10,100,-20.72,39,1.0,-2.0,-993.0,11:56:54.044420,192.168.0.111
2005,5,22,-5,70,"2,-2,-178",0,0,0,0,0,0,63,65,69,10,100,-20.68,39,16.0,6.0,-1005.0,11:56:54.146227,192.168.0.111
2010,5,22,-5,70,"2,-2,-178",0,0,0,0,0,0,63,65,69,10,100,-20.64,40,7.0,0.0,-995.0,11:56:54.248176,192.168.0.111
2015,5,22,-5,70,"2,-2,-178",0,0,0,0,0,0,63,65,69,10,100,-20.62,40,8.0,8.0,-1001.0,11:56:54.350152,192.168.0.111
2020,5,22,-5,70,"2,-2,-178",0,0,0,0,0,0,63,65,69,10,100,-20.63,40,1.0,2.0,-1003.0,11:56:54.452285,192.168.0.111
2025,5,22,-5,70,"2,-2,-178",0,0,0,0,0,0,63,65,69,10,100,-20.67,40,9.0,-6.0,-1003.0,11:56:54.553906,192.168.0.111
2027,5,22,-5,70,"2,-2,-178",0,0,0,0,0,0,63,65,68,10,100,-20.65,40,2.0,7.0,-999.0,11:56:54.605082,192.168.0.111
2035,5,22,-5,70,"2,-2,-178",0,0,0,0,0,0,62,65,68,10,100,-20.68,40,-1.0,7.0,-987.0,11:56:54.758558,192.168.0.111
2037,5,24,-2,69,"2,-1,178",0,0,0,0,0,0,62,65,69,10,100,-20.71,40,3.0,-5.0,-993.0,11:56:54.809501,192.168.0.111
2042,5,24,-2,69,"2,-1,178",0,0,0,0,0,0,62,65,68,10,100,-20.63,40,-5.0,6.0,-1005.0,11:56:54.911089,192.168.0.111
2047,5,24,-2,69,"2,-1,178",0,0,0,0,0,0,62,65,68,10,100,-20.61,40,6.0,1.0,-997.0,11:56:55.013022,192.168.0.111
2052,5,24,-2,69,"2,-1,178",0,0,0,0,0,0,62,65,68,10,100,-20.64,40,-2.0,5.0,-997.0,11:56:55.115156,192.168.0.111
2057,5,24,-2,69,"2,-1,178",0,0,0,0,0,0,62,65,68,10,100,-20.67,41,3.0,9.0,-988.0,11:56:55.217163,192.168.0.111
2063,5,24,-2,69,"2,-1,178",0,0,-1,0,0,0,62,65,68,10,100,-20.7,41,-2.0,3.0,-953.0,11:56:55.322591,192.168.0.111
2068,5,24,-2,69,"2,-1,178",0,0,-1,0,0,0,62,65,67,10,99,-20.65,41,-2.0,11.0,-944.0,11:56:55.421094,192.168.0.111
2073,5,24,-2,68,"2,-1,178",0,0,-1,0,0,-1,62,65,66,0,99,-20.71,41,6.0,3.0,-917.0,11:56:55.523008,192.168.0.111
2078,5,24,-2,68,"2,-1,178",0,0,-1,0,0,-1,62,65,64,0,99,-20.69,41,-5.0,16.0,-924.0,11:56:55.624981,192.168.0.111
2083,5,24,-2,68,"2,-1,178",0,0,-1,0,0,-2,63,66,60,0,99,-20.75,41,4.0,2.0,-923.0,11:56:55.727037,192.168.0.111
2088,5,24,-2,68,"2,-1,178",0,0,0,0,0,-3,63,66,56,0,99,-20.84,41,8.0,8.0,-947.0,11:56:55.829260,192.168.0.111
2093,5,24,-2,68,"2,-1,178",0,0,0,0,0,-3,63,66,52,0,99,-20.87,41,-5.0,24.0,-976.0,11:56:55.931140,192.168.0.111
2098,5,24,-2,68,"2,-1,178",0,0,0,0,0,-4,63,66,47,0,99,-20.87,41,14.0,5.0,-990.0,11:56:56.032923,192.168.0.111
2103,5,24,-5,63,"3,-2,-179",0,0,0,0,0,-4,63,66,43,0,99,-20.95,41,19.0,6.0,-993.0,11:56:56.134994,192.168.0.111
2108,5,24,-5,63,"3,-2,-179",0,0,0,0,0,-4,63,66,38,-10,99,-20.94,42,13.0,4.0,-991.0,11:56:56.236939,192.168.0.111
2113,5,24,-5,63,"3,-2,-179",0,0,0,0,0,-4,63,66,33,-10,99,-21.06,42,18.0,5.0,-1005.0,11:56:56.339067,192.168.0.111
2118,5,24,-5,63,"3,-2,-179",0,0,-1,0,0,-4,63,66,28,-20,99,-21.08,42,-1.0,10.0,-1014.0,11:56:56.440988,192.168.0.111
2123,5,24,-5,63,"3,-2,-179",0,0,-1,0,0,-4,63,66,23,-20,99,-21.15,42,-13.0,13.0,-992.0,11:56:56.542945,192.168.0.111
2128,5,24,-5,63,"3,-2,-179",0,0,0,0,0,-4,63,66,18,-30,99,-21.23,42,1.0,14.0,-1003.0,11:56:56.644999,192.168.0.111
2133,5,24,-5,63,"3,-2,-179",0,0,0,0,0,-4,63,65,13,-40,99,-21.45,42,11.0,16.0,-1028.0,11:56:56.747761,192.168.0.111
2138,5,24,-5,63,"3,-2,-179",0,0,0,0,0,-4,63,65,10,-40,99,-22.2,42,-1.0,12.0,-1051.0,11:56:56.849101,192.168.0.111
2143,5,24,-5,63,"3,-2,-179",0,0,-1,0,0,-3,63,65,10,-50,99,-23.0,42,7.0,19.0,-1045.0,11:56:56.952110,192.168.0.111
2148,5,24,-5,63,"3,-2,-179",0,0,-1,0,0,-3,63,65,10,-50,99,-24.13,42,0.0,9.0,-1078.0,11:56:57.052918,192.168.0.111
2153,5,24,-5,63,"3,-2,-179",0,0,0,0,0,0,63,65,10,-50,99,-24.28,43,17.0,-11.0,-1109.0,11:56:57.155353,192.168.0.111
2158,5,24,-5,63,"3,-2,-179",1,3,4,0,0,0,63,65,10,0,99,-22.78,43,31.0,-3.0,-475.0,11:56:57.256809,192.168.0.111
2163,5,24,-5,63,"3,-2,-179",0,-2,5,0,0,0,63,65,10,0,99,-22.17,43,-176.0,106.0,-783.0,11:56:57.358800,192.168.0.111
2168,5,24,-5,63,"3,-2,-179",0,-2,5,0,0,0,63,65,10,0,98,-21.93,43,0.0,47.0,-1001.0,11:56:57.460932,192.168.0.111
2173,5,24,-5,63,"3,-2,-179",0,-2,5,0,0,0,63,65,10,0,98,-21.78,43,15.0,36.0,-1003.0,11:56:57.564918,192.168.0.111
2178,5,24,-5,63,"3,-2,-179",0,-2,5,0,0,0,63,65,10,0,98,-21.71,43,15.0,29.0,-1000.0,11:56:57.664934,192.168.0.111
2183,5,24,-5,63,"3,-2,-179",0,-2,5,0,0,0,62,65,10,0,98,-21.66,43,20.0,32.0,-999.0,11:56:57.767042,192.168.0.111
2188,5,24,-5,63,"3,-2,-179",0,-2,5,0,0,0,62,65,10,0,98,-21.57,43,20.0,33.0,-999.0,11:56:57.869025,192.168.0.111
2193,5,24,-5,63,"3,-2,-179",0,-2,5,0,0,0,62,65,10,0,98,-21.64,43,10.0,35.0,-994.0,11:56:57.970806,192.168.0.111
2198,5,24,-5,63,"3,-2,-179",0,-2,5,0,0,0,62,65,10,0,98,-21.54,43,14.0,36.0,-1000.0,11:56:58.072947,192.168.0.111
2203,5,24,-5,63,"3,-2,-179",0,-2,5,0,0,0,62,65,10,0,98,-21.52,43,16.0,35.0,-998.0,11:56:58.174943,192.168.0.111
2208,5,24,-5,63,"3,-2,-179",0,-2,5,0,0,0,62,65,10,0,98,-21.54,43,15.0,33.0,-1001.0,11:56:58.276644,192.168.0.111
