,mid,x,y,z,mpry,pitch,roll,yaw,vgx,vgy,vgz,templ,temph,tof,h,bat,baro,time,agx,agy,agz,timestamp,address
0,-2,-200,-200,-200,"0,0,0",0,0,-2,0,0,0,54,57,10,0,100,-105.19,0,2.0,1.0,-999.0,16:00:57.217011,192.168.0.111
1,-2,-200,-200,-200,"0,0,0",0,0,-2,0,0,0,54,57,10,0,100,-105.2,0,2.0,0.0,-1000.0,16:00:57.319207,192.168.0.111
2,-2,-200,-200,-200,"0,0,0",0,0,-2,0,0,0,54,57,10,0,100,-105.21,0,2.0,2.0,-998.0,16:00:57.420815,192.168.0.111
3,-2,-200,-200,-200,"0,0,0",0,0,-2,0,0,0,54,57,10,0,100,-105.21,0,-9.0,9.0,-1000.0,16:00:57.523081,192.168.0.111
4,-2,-200,-200,-200,"0,0,0",0,0,-2,0,0,0,54,57,10,0,100,-105.21,0,12.0,0.0,-999.0,16:00:57.721858,192.168.0.111
5,-2,-200,-200,-200,"0,0,0",0,0,-2,0,0,0,54,57,10,0,100,-105.21,0,-1.0,2.0,-1001.0,16:00:57.726895,192.168.0.111
6,-2,-200,-200,-200,"0,0,0",0,0,-2,0,0,0,54,57,10,0,100,-105.21,0,6.0,-1.0,-1006.0,16:00:57.828982,192.168.0.111
7,-2,-200,-200,-200,"0,0,0",0,0,-2,0,0,0,54,57,10,0,100,-105.21,0,-2.0,12.0,-1144.0,16:00:57.931329,192.168.0.111
8,-2,-200,-200,-200,"0,0,0",0,0,-2,0,0,2,56,57,14,0,100,-105.21,0,15.0,-10.0,-1242.0,16:00:58.032940,192.168.0.111
9,-2,-200,-200,-200,"0,0,0",0,0,-2,0,0,5,56,57,14,0,100,-105.21,0,26.0,1.0,-1299.0,16:00:58.134976,192.168.0.111
10,-2,-200,-200,-200,"0,0,0",0,0,-2,0,0,7,56,57,14,10,100,-105.07,0,9.0,-3.0,-1389.0,16:00:58.237018,192.168.0.111
11,-2,-200,-200,-200,"0,0,0",0,0,-2,0,0,8,56,57,20,10,100,-104.89,0,7.0,-9.0,-1230.0,16:00:58.339073,192.168.0.111
12,-2,-200,-200,-200,"0,0,0",0,0,-2,0,0,8,56,57,29,20,100,-104.82,0,-15.0,2.0,-1069.0,16:00:58.441178,192.168.0.111
13,-2,-200,-200,-200,"0,0,0",0,0,-2,0,0,7,56,57,39,30,100,-104.77,1,6.0,-12.0,-992.0,16:00:58.543292,192.168.0.111
14,-2,-200,-200,-200,"0,0,0",0,0,-2,0,0,6,56,57,46,40,100,-104.67,1,-8.0,-2.0,-937.0,16:00:58.645897,192.168.0.111
15,-2,-200,-200,-200,"0,0,0",0,0,-2,0,0,5,56,57,53,40,100,-104.59,1,-16.0,4.0,-898.0,16:00:58.747845,192.168.0.111
16,-2,-200,-200,-200,"0,0,0",0,0,-2,0,0,4,56,57,58,50,100,-104.48,1,7.0,-12.0,-887.0,16:00:58.850192,192.168.0.111
17,-2,-200,-200,-200,"0,0,0",1,0,-2,0,0,3,56,57,62,50,100,-104.39,1,-5.0,-11.0,-874.0,16:00:58.951917,192.168.0.111
18,-2,-200,-200,-200,"0,0,0",0,0,-2,0,0,2,55,59,66,50,100,-104.4,1,-2.0,-8.0,-895.0,16:00:59.053897,192.168.0.111
19,-2,-200,-200,-200,"0,0,0",0,0,-2,0,0,1,55,59,68,60,100,-104.39,1,-1.0,-2.0,-919.0,16:00:59.155916,192.168.0.111
20,-2,-200,-200,-200,"0,0,0",0,0,-2,0,0,1,55,59,70,60,100,-104.43,1,-6.0,1.0,-938.0,16:00:59.257912,192.168.0.111
21,2,27,0,60,"2,0,179",0,0,-2,0,0,1,55,59,71,60,100,-104.41,1,-1.0,1.0,-958.0,16:00:59.359906,192.168.0.111
22,2,27,0,60,"2,0,179",0,0,-2,0,0,1,55,59,73,60,100,-104.39,1,2.0,-2.0,-971.0,16:00:59.412332,192.168.0.111
23,2,27,0,60,"2,0,179",0,0,-2,0,0,1,55,59,75,60,100,-104.29,2,0.0,-3.0,-979.0,16:00:59.512964,192.168.0.111
24,2,27,0,60,"2,0,179",0,0,-2,0,0,1,55,59,76,60,100,-104.3,2,7.0,-1.0,-989.0,16:00:59.615005,192.168.0.111
25,2,27,0,60,"2,0,179",0,0,-2,0,0,0,55,59,77,60,100,-104.27,2,6.0,-18.0,-988.0,16:00:59.717207,192.168.0.111
26,2,32,-1,70,"4,0,-179",0,0,-2,0,0,0,55,59,78,70,100,-104.31,2,-1.0,-2.0,-984.0,16:00:59.819032,192.168.0.111
27,2,32,-1,70,"4,0,-179",0,0,-2,0,0,0,55,59,79,70,100,-104.24,2,-2.0,10.0,-991.0,16:00:59.920951,192.168.0.111
28,2,32,-1,70,"4,0,-179",0,0,-2,0,0,0,55,59,80,70,100,-104.23,2,10.0,-7.0,-988.0,16:01:00.022922,192.168.0.111
29,2,32,-1,70,"4,0,-179",0,0,-2,0,0,0,55,59,81,70,100,-104.29,2,5.0,5.0,-983.0,16:01:00.124908,192.168.0.111
30,2,33,-1,77,"3,0,-179",0,0,-2,0,0,0,55,59,82,70,100,-104.28,2,-4.0,7.0,-982.0,16:01:00.226875,192.168.0.111
31,2,33,-1,77,"3,0,-179",0,0,-2,0,0,0,55,59,82,70,100,-104.27,2,0.0,5.0,-982.0,16:01:00.329454,192.168.0.111
32,2,33,-1,77,"3,0,-179",0,0,-2,0,0,0,55,59,83,70,100,-104.26,2,8.0,0.0,-985.0,16:01:00.484298,192.168.0.111
33,2,33,-1,77,"3,0,-179",0,0,-2,0,0,0,55,59,83,70,100,-104.28,3,11.0,-8.0,-988.0,16:01:00.536619,192.168.0.111
34,2,33,-1,77,"3,0,-179",0,0,-2,0,0,0,55,59,84,70,100,-104.29,3,-5.0,4.0,-991.0,16:01:00.635627,192.168.0.111
35,2,36,-2,79,"5,0,-178",0,0,-2,0,0,0,55,59,84,70,100,-104.27,3,1.0,3.0,-982.0,16:01:00.736980,192.168.0.111
36,2,36,-2,79,"5,0,-178",0,0,-2,0,0,0,55,59,84,70,100,-104.21,3,15.0,0.0,-1001.0,16:01:00.839064,192.168.0.111
37,2,36,-2,79,"5,0,-178",0,0,-2,0,0,0,55,59,84,70,100,-104.26,3,1.0,4.0,-991.0,16:01:00.941010,192.168.0.111
38,2,36,-2,79,"5,0,-178",0,0,-2,0,0,0,56,58,84,70,100,-104.24,3,3.0,2.0,-999.0,16:01:01.042979,192.168.0.111
39,2,37,-3,81,"4,0,-178",0,0,-2,0,0,0,56,58,83,70,100,-104.19,3,8.0,1.0,-987.0,16:01:01.145025,192.168.0.111
40,2,37,-3,81,"4,0,-178",0,0,-2,0,0,0,56,58,83,70,100,-104.28,3,5.0,1.0,-1002.0,16:01:01.247109,192.168.0.111
41,2,37,-3,81,"4,0,-178",0,0,-2,0,0,0,56,58,83,70,100,-104.24,3,9.0,9.0,-1006.0,16:01:01.349395,192.168.0.111
42,2,37,-3,81,"4,0,-178",0,0,-2,0,0,0,56,58,83,70,100,-104.26,3,1.0,6.0,-1003.0,16:01:01.451013,192.168.0.111
43,2,37,-3,81,"4,0,-178",0,0,-2,0,0,0,56,58,83,70,100,-104.22,4,13.0,0.0,-1003.0,16:01:01.552753,192.168.0.111
44,2,39,-2,81,"5,0,-178",0,0,-2,0,0,0,56,58,82,70,100,-104.27,4,-3.0,3.0,-1000.0,16:01:01.654800,192.168.0.111
45,2,39,-2,81,"5,0,-178",0,0,-2,0,0,0,56,58,82,70,100,-104.24,4,1.0,3.0,-1005.0,16:01:01.756989,192.168.0.111
46,2,39,-2,81,"5,0,-178",0,0,-2,0,0,0,56,58,83,70,100,-104.26,4,-1.0,0.0,-999.0,16:01:01.858910,192.168.0.111
47,2,39,-2,81,"5,0,-178",0,0,-2,0,0,0,56,58,83,70,100,-104.19,4,4.0,5.0,-1002.0,16:01:01.960961,192.168.0.111
48,2,39,-5,81,"5,-1,-176",0,0,-2,0,0,0,56,59,83,70,100,-104.22,4,1.0,5.0,-1006.0,16:01:02.062913,192.168.0.111
49,2,39,-5,81,"5,-1,-176",0,0,-2,0,0,0,56,59,83,70,100,-104.21,4,0.0,-2.0,-993.0,16:01:02.164749,192.168.0.111
50,2,39,-5,81,"5,-1,-176",0,0,-2,0,0,0,56,59,83,70,100,-104.2,4,-2.0,9.0,-1014.0,16:01:02.215703,192.168.0.111
51,2,39,-5,81,"5,-1,-176",0,0,-2,0,0,0,56,59,83,70,100,-104.22,4,9.0,-8.0,-1000.0,16:01:02.317726,192.168.0.111
52,2,39,-5,81,"5,-1,-176",0,0,-2,0,0,0,56,59,82,70,100,-104.21,4,2.0,-1.0,-1012.0,16:01:02.419690,192.168.0.111
53,2,39,-3,81,"4,0,-177",1,0,-2,0,0,0,56,59,82,70,100,-104.23,5,1.0,-1.0,-1003.0,16:01:02.521982,192.168.0.111
54,2,39,-3,81,"4,0,-177",1,0,-2,0,0,0,56,59,82,70,100,-104.22,5,9.0,-2.0,-1001.0,16:01:02.623930,192.168.0.111
55,2,39,-3,81,"4,0,-177",0,0,-2,0,0,0,56,59,83,70,100,-104.19,5,-5.0,3.0,-1005.0,16:01:02.725674,192.168.0.111
56,2,39,-3,81,"4,0,-177",0,0,-2,0,0,0,56,59,83,70,100,-104.23,5,6.0,-4.0,-1000.0,16:01:02.827747,192.168.0.111
57,2,39,-1,82,"3,0,-179",0,0,-2,0,0,0,56,59,82,70,100,-104.17,5,-1.0,7.0,-998.0,16:01:02.929787,192.168.0.111
58,2,39,-1,82,"3,0,-179",1,0,-2,0,0,0,56,59,83,70,100,-104.19,5,-7.0,-1.0,-1001.0,16:01:03.031762,192.168.0.111
59,2,39,-1,82,"3,0,-179",1,0,-2,0,0,0,56,59,82,70,100,-104.17,5,9.0,-5.0,-998.0,16:01:03.133735,192.168.0.111
60,2,39,-1,82,"3,0,-179",0,0,-2,0,0,0,56,59,82,70,100,-104.19,5,1.0,0.0,-1004.0,16:01:03.235524,192.168.0.111
61,2,39,-1,82,"3,0,-179",0,0,-2,0,0,0,56,59,82,70,100,-104.29,5,10.0,-7.0,-1000.0,16:01:03.338913,192.168.0.111
62,2,39,-2,82,"3,0,-178",0,0,-2,0,0,0,56,59,82,70,100,-104.22,5,3.0,2.0,-1004.0,16:01:03.439770,192.168.0.111
63,2,39,-2,82,"3,0,-178",0,0,-2,0,0,0,56,59,82,70,100,-104.21,6,2.0,-1.0,-996.0,16:01:03.543694,192.168.0.111
64,2,39,-2,82,"3,0,-178",0,0,-2,0,0,0,56,59,82,70,100,-104.21,6,-6.0,6.0,-995.0,16:01:03.643925,192.168.0.111
65,2,39,-2,82,"3,0,-178",0,0,-2,0,0,0,56,59,82,70,100,-104.2,6,0.0,5.0,-992.0,16:01:03.745785,192.168.0.111
66,2,41,0,81,"4,0,-179",0,0,-2,0,0,0,56,59,82,70,100,-104.26,6,-4.0,13.0,-995.0,16:01:03.847854,192.168.0.111
67,2,41,0,81,"4,0,-179",0,0,-2,0,0,0,56,59,82,70,100,-104.16,6,-7.0,2.0,-995.0,16:01:03.949739,192.168.0.111
68,2,41,0,81,"4,0,-179",0,0,-2,0,0,0,57,59,82,70,100,-104.18,6,5.0,-2.0,-997.0,16:01:04.051757,192.168.0.111
69,2,41,0,81,"4,0,-179",0,0,-2,0,0,0,57,59,82,70,100,-104.25,6,-2.0,9.0,-993.0,16:01:04.153711,192.168.0.111
70,2,41,0,81,"4,0,-179",1,0,-2,0,0,0,57,59,82,70,100,-104.21,6,8.0,-5.0,-991.0,16:01:04.255729,192.168.0.111
71,2,42,-1,80,"4,0,-179",1,0,-2,0,0,0,57,59,82,70,100,-104.22,6,2.0,-1.0,-1006.0,16:01:04.357624,192.168.0.111
72,2,42,-1,80,"4,0,-179",1,0,-2,0,0,0,57,59,82,70,100,-104.19,6,7.0,4.0,-1007.0,16:01:04.459617,192.168.0.111
73,2,42,-1,80,"4,0,-179",1,0,-2,0,0,0,57,59,82,70,100,-104.22,7,-4.0,5.0,-1002.0,16:01:04.561704,192.168.0.111
74,2,42,-1,80,"4,0,-179",1,0,-2,0,0,0,57,59,82,70,100,-104.2,7,4.0,2.0,-1002.0,16:01:04.664056,192.168.0.111
75,2,44,-4,79,"5,0,-177",1,0,-2,0,0,0,57,59,82,70,100,-104.22,7,-2.0,0.0,-990.0,16:01:04.765642,192.168.0.111
76,2,44,-4,79,"5,0,-177",1,0,-2,0,0,0,57,59,82,70,100,-104.21,7,-3.0,-14.0,-984.0,16:01:04.867640,192.168.0.111
77,2,44,-4,79,"5,0,-177",0,0,-2,0,0,0,57,59,82,70,100,-104.19,7,-4.0,2.0,-1001.0,16:01:04.918747,192.168.0.111
78,2,44,-4,79,"5,0,-177",0,0,-2,0,0,0,56,58,82,70,100,-104.24,7,4.0,-9.0,-1005.0,16:01:05.096137,192.168.0.111
79,2,44,-1,80,"4,0,-179",0,0,-2,0,0,0,56,58,82,70,100,-104.21,7,2.0,-8.0,-1010.0,16:01:05.173752,192.168.0.111
80,2,44,-1,80,"4,0,-179",0,0,-2,0,0,0,56,58,81,70,100,-104.26,7,7.0,-4.0,-1003.0,16:01:05.275656,192.168.0.111
81,2,44,-1,80,"4,0,-179",0,0,-2,0,0,0,56,58,82,70,100,-104.25,7,-5.0,-2.0,-994.0,16:01:05.377680,192.168.0.111
82,2,44,-1,80,"4,0,-179",0,0,-2,0,0,0,56,58,82,70,100,-104.22,7,-2.0,-3.0,-1012.0,16:01:05.428423,192.168.0.111
83,2,44,-1,80,"4,0,-179",0,0,-2,0,0,0,56,58,82,70,100,-104.17,8,-8.0,4.0,-1011.0,16:01:05.530991,192.168.0.111
84,2,44,0,80,"4,0,179",0,0,-2,0,0,0,56,58,82,70,100,-104.21,8,4.0,-6.0,-1005.0,16:01:05.632703,192.168.0.111
85,2,44,0,80,"4,0,179",0,0,-2,0,0,0,56,58,82,70,100,-104.26,8,-4.0,-8.0,-998.0,16:01:05.734628,192.168.0.111
86,2,44,0,80,"4,0,179",0,0,-2,0,0,0,56,58,82,70,100,-104.23,8,0.0,1.0,-1011.0,16:01:05.836613,192.168.0.111
87,2,44,0,80,"4,0,179",0,0,-2,0,0,0,56,58,82,70,100,-104.24,8,-4.0,-4.0,-996.0,16:01:05.938910,192.168.0.111
88,2,46,-1,79,"4,0,-178",0,0,-2,0,0,0,57,60,83,70,100,-104.15,8,12.0,-21.0,-1002.0,16:01:06.040844,192.168.0.111
89,2,46,-1,79,"4,0,-178",0,0,-2,0,0,0,57,60,83,70,100,-104.21,8,3.0,0.0,-999.0,16:01:06.156260,192.168.0.111
90,2,46,-1,79,"4,0,-178",1,0,-2,0,0,0,57,60,83,70,100,-104.16,8,-5.0,2.0,-1009.0,16:01:06.245485,192.168.0.111
91,2,46,-1,79,"4,0,-178",0,0,-2,0,0,0,57,60,83,70,100,-104.2,8,-1.0,-12.0,-1001.0,16:01:06.348000,192.168.0.111
92,2,46,-1,79,"4,0,-178",0,0,-2,0,0,0,57,60,83,70,100,-104.21,8,-1.0,-1.0,-923.0,16:01:06.449830,192.168.0.111
93,2,46,-4,80,"4,0,-177",2,0,-2,0,0,0,57,60,82,70,100,-104.23,9,-8.0,5.0,-964.0,16:01:06.551919,192.168.0.111
94,2,46,-4,80,"4,0,-177",3,0,-2,0,0,0,57,60,81,70,100,-104.23,9,3.0,-4.0,-987.0,16:01:06.653607,192.168.0.111
95,2,46,-4,80,"4,0,-177",2,0,-2,1,0,-1,57,60,80,70,100,-104.26,9,2.0,-1.0,-1001.0,16:01:06.755978,192.168.0.111
96,2,46,-4,80,"4,0,-177",1,0,-2,1,0,-1,57,60,79,70,100,-104.29,9,1.0,4.0,-1006.0,16:01:06.857637,192.168.0.111
97,2,44,-3,82,"2,0,-177",1,0,-2,1,0,-1,57,60,78,70,100,-104.28,9,8.0,-1.0,-1002.0,16:01:07.241954,192.168.0.111
98,2,44,-3,82,"2,0,-177",1,0,-2,1,0,-1,57,59,76,70,100,-104.26,9,10.0,-7.0,-1003.0,16:01:07.242123,192.168.0.111
99,2,44,-3,82,"2,0,-177",1,0,-2,1,0,-1,57,59,76,70,100,-104.31,9,-1.0,0.0,-1005.0,16:01:07.242241,192.168.0.111
100,2,44,-3,82,"2,0,-177",1,0,-2,1,0,-1,57,59,75,60,100,-104.27,9,9.0,0.0,-1004.0,16:01:07.265573,192.168.0.111
101,2,44,-3,82,"2,0,-177",1,0,-2,1,0,0,57,59,74,60,100,-104.24,9,1.0,4.0,-1011.0,16:01:07.367550,192.168.0.111
102,2,44,-3,82,"2,0,-177",1,0,-2,1,0,0,57,59,74,60,100,-104.22,9,7.0,3.0,-1011.0,16:01:07.469513,192.168.0.111
103,2,44,-3,82,"2,0,-177",0,0,-2,1,0,0,57,59,73,60,100,-104.25,10,7.0,-6.0,-1001.0,16:01:07.571491,192.168.0.111
104,2,40,0,74,"3,0,-179",0,0,-2,1,0,0,57,59,72,60,100,-104.27,10,-2.0,0.0,-1008.0,16:01:07.766929,192.168.0.111
105,2,40,0,74,"3,0,-179",0,0,-2,1,0,0,57,59,72,60,100,-104.17,10,0.0,-4.0,-1003.0,16:01:07.775512,192.168.0.111
106,2,40,0,74,"3,0,-179",0,0,-2,1,0,0,57,59,72,60,100,-104.3,10,16.0,-12.0,-1003.0,16:01:07.877456,192.168.0.111
107,2,40,0,74,"3,0,-179",1,0,-2,1,0,0,57,59,71,60,100,-104.3,10,12.0,-6.0,-1004.0,16:01:07.979514,192.168.0.111
108,2,40,0,74,"3,0,-179",1,0,-2,1,0,0,57,60,71,60,100,-104.3,10,4.0,-1.0,-1010.0,16:01:08.081270,192.168.0.111
109,2,40,0,74,"3,0,-179",0,0,-2,1,0,0,57,60,70,60,100,-104.26,10,3.0,10.0,-999.0,16:01:08.183424,192.168.0.111
110,2,40,0,74,"3,0,-179",0,0,-2,1,0,0,57,60,70,60,100,-104.3,10,-3.0,-9.0,-998.0,16:01:08.286360,192.168.0.111
111,2,33,0,70,"4,0,-179",0,0,-2,1,0,0,57,60,70,60,100,-104.31,10,1.0,-1.0,-1003.0,16:01:08.387509,192.168.0.111
112,2,33,0,70,"4,0,-179",0,0,-2,1,0,0,57,60,69,60,100,-104.28,10,1.0,0.0,-1002.0,16:01:08.489475,192.168.0.111
113,2,33,0,70,"4,0,-179",0,0,-2,1,0,0,57,60,69,60,100,-104.31,11,17.0,-3.0,-1004.0,16:01:08.591466,192.168.0.111
114,2,33,0,70,"4,0,-179",1,0,-2,0,0,0,57,60,69,60,100,-104.36,11,0.0,0.0,-998.0,16:01:08.693521,192.168.0.111
115,2,33,0,70,"4,0,-179",1,0,-2,0,0,0,57,60,69,60,100,-104.28,11,2.0,0.0,-1008.0,16:01:08.795493,192.168.0.111
116,2,33,0,70,"4,0,-179",1,0,-2,0,0,0,57,60,68,60,100,-104.28,11,-1.0,3.0,-1004.0,16:01:08.897503,192.168.0.111
117,2,26,-1,69,"2,0,-178",1,0,-2,0,0,0,57,60,68,60,100,-104.28,11,6.0,-3.0,-994.0,16:01:08.999493,192.168.0.111
118,2,26,-1,69,"2,0,-178",1,0,-2,0,0,0,58,60,67,60,100,-104.26,11,6.0,-1.0,-1003.0,16:01:09.101414,192.168.0.111
119,2,26,-1,69,"2,0,-178",0,0,-2,0,0,0,58,60,67,60,100,-104.41,11,0.0,0.0,-1011.0,16:01:09.203557,192.168.0.111
120,2,26,-1,69,"2,0,-178",0,0,-2,0,0,0,58,60,68,60,100,-104.28,11,-9.0,5.0,-1006.0,16:01:09.305765,192.168.0.111
121,2,26,-1,69,"2,0,-178",-1,0,-2,0,0,0,58,60,67,60,100,-104.31,11,4.0,0.0,-998.0,16:01:09.407494,192.168.0.111
122,2,26,-1,69,"2,0,-178",0,0,-2,0,0,0,58,60,67,60,100,-104.32,12,-8.0,4.0,-1006.0,16:01:09.509424,192.168.0.111
123,2,26,-1,69,"2,0,-178",0,0,-2,0,0,0,58,60,67,60,100,-104.32,12,-2.0,2.0,-1013.0,16:01:09.611450,192.168.0.111
124,2,24,0,68,"3,0,179",0,0,-2,0,0,0,58,60,67,60,100,-104.32,12,-1.0,5.0,-1000.0,16:01:09.713282,192.168.0.111
125,2,24,0,68,"3,0,179",0,0,-2,0,0,0,58,60,67,60,100,-104.33,12,-8.0,8.0,-985.0,16:01:09.815424,192.168.0.111
126,2,24,0,68,"3,0,179",0,0,-2,0,0,0,58,60,67,60,100,-104.32,12,-10.0,0.0,-1003.0,16:01:09.917410,192.168.0.111
127,2,24,0,68,"3,0,179",1,0,-2,0,0,0,58,60,67,60,100,-104.31,12,-4.0,-1.0,-998.0,16:01:09.968382,192.168.0.111
128,2,24,0,68,"3,0,179",1,0,-2,0,0,0,58,60,67,60,100,-104.29,12,-5.0,-1.0,-1002.0,16:01:10.070925,192.168.0.111
129,2,24,0,68,"3,0,179",1,0,-2,0,0,0,58,60,67,60,100,-104.36,12,-4.0,0.0,-991.0,16:01:10.172447,192.168.0.111
130,2,24,0,68,"3,0,179",1,0,-2,0,0,0,58,60,67,60,100,-104.29,12,-7.0,2.0,-1008.0,16:01:10.274641,192.168.0.111
131,2,27,-2,68,"2,0,-179",1,0,-2,0,0,0,58,60,68,60,100,-104.29,12,-11.0,10.0,-1009.0,16:01:10.376662,192.168.0.111
132,2,27,-2,68,"2,0,-179",1,0,-2,0,0,0,58,60,68,60,100,-104.31,13,-3.0,4.0,-988.0,16:01:10.479180,192.168.0.111
133,2,27,-2,68,"2,0,-179",1,0,-2,0,0,0,58,60,68,60,100,-104.28,13,0.0,4.0,-996.0,16:01:10.580592,192.168.0.111
134,2,27,-2,68,"2,0,-179",1,0,-2,0,0,0,58,60,68,60,100,-104.26,13,-4.0,2.0,-985.0,16:01:10.682659,192.168.0.111
135,2,27,-2,68,"2,0,-179",1,0,-2,0,0,0,58,60,68,60,100,-104.29,13,-3.0,1.0,-992.0,16:01:10.784485,192.168.0.111
136,2,27,-2,68,"2,0,-179",1,0,-2,0,0,0,58,60,68,60,100,-104.29,13,0.0,0.0,-1005.0,16:01:10.887263,192.168.0.111
137,2,34,-3,68,"3,0,-178",1,0,-2,0,0,0,58,60,68,60,100,-104.34,13,7.0,2.0,-991.0,16:01:10.988621,192.168.0.111
138,2,34,-3,68,"3,0,-178",1,0,-2,0,0,0,58,61,68,60,100,-104.37,13,-15.0,0.0,-1003.0,16:01:11.090705,192.168.0.111
139,2,34,-3,68,"3,0,-178",1,0,-2,0,0,0,58,61,68,60,100,-104.34,13,-15.0,8.0,-998.0,16:01:11.192516,192.168.0.111
140,2,34,-3,68,"3,0,-178",1,0,-2,0,0,0,58,61,68,60,100,-104.29,13,-7.0,5.0,-994.0,16:01:11.294562,192.168.0.111
141,2,34,-3,68,"3,0,-178",1,0,-2,0,0,0,58,61,68,60,100,-104.29,13,1.0,2.0,-992.0,16:01:11.396591,192.168.0.111
142,2,34,-3,68,"3,0,-178",1,0,-2,0,0,0,58,61,68,60,100,-104.3,14,3.0,0.0,-997.0,16:01:11.509795,192.168.0.111
143,2,34,-3,68,"3,0,-178",1,0,-2,0,0,0,58,61,69,60,100,-104.34,14,-1.0,-1.0,-990.0,16:01:11.603744,192.168.0.111
144,2,37,-3,69,"2,0,-179",1,0,-2,0,0,0,58,61,69,60,100,-104.34,14,9.0,-7.0,-994.0,16:01:11.702643,192.168.0.111
145,2,37,-3,69,"2,0,-179",1,0,-2,0,0,0,58,61,68,60,100,-104.34,14,12.0,-3.0,-992.0,16:01:11.877032,192.168.0.111
146,2,37,-3,69,"2,0,-179",1,0,-2,0,0,0,58,61,69,60,100,-104.3,14,12.0,-2.0,-995.0,16:01:11.906521,192.168.0.111
147,2,37,-3,69,"2,0,-179",1,0,-2,0,0,0,58,61,68,60,100,-104.4,14,-11.0,2.0,-1003.0,16:01:12.009161,192.168.0.111
148,2,37,-3,69,"2,0,-179",1,0,-2,0,0,0,58,61,69,60,100,-104.31,14,13.0,-4.0,-994.0,16:01:12.110709,192.168.0.111
149,2,37,-3,69,"2,0,-179",1,0,-2,0,0,0,58,61,68,60,100,-104.35,14,11.0,-9.0,-997.0,16:01:12.212442,192.168.0.111
150,2,40,-3,67,"3,0,-179",1,0,-2,0,0,0,58,61,68,60,100,-104.29,14,1.0,-3.0,-997.0,16:01:12.314279,192.168.0.111
151,2,40,-3,67,"3,0,-179",1,0,-2,0,0,0,58,61,68,60,100,-104.36,14,-2.0,3.0,-999.0,16:01:12.416526,192.168.0.111
152,2,40,-3,67,"3,0,-179",1,0,-2,0,0,0,58,61,68,60,100,-104.4,15,8.0,3.0,-990.0,16:01:12.518962,192.168.0.111
153,2,40,-3,67,"3,0,-179",1,0,-2,0,0,0,58,61,68,60,100,-104.36,15,5.0,2.0,-997.0,16:01:12.620596,192.168.0.111
154,2,40,-3,67,"3,0,-179",1,0,-2,0,0,0,58,61,68,60,100,-104.38,15,-12.0,4.0,-998.0,16:01:12.722509,192.168.0.111
155,2,40,-3,67,"3,0,-179",1,0,-2,0,0,0,58,61,68,60,100,-104.25,15,-3.0,6.0,-998.0,16:01:12.978555,192.168.0.111
156,2,40,-3,67,"3,0,-179",1,0,-2,0,0,0,58,61,68,60,100,-104.26,15,2.0,1.0,-995.0,16:01:12.978769,192.168.0.111
157,2,40,0,68,"3,1,178",1,0,-2,0,0,0,58,61,68,60,100,-104.27,15,-4.0,4.0,-1004.0,16:01:13.028409,192.168.0.111
158,2,40,0,68,"3,1,178",0,0,-2,0,0,0,59,61,68,60,100,-104.28,15,3.0,-2.0,-1004.0,16:01:13.130511,192.168.0.111
159,2,40,0,68,"3,1,178",1,0,-2,0,0,0,59,61,68,60,100,-104.31,15,-1.0,7.0,-1011.0,16:01:13.315680,192.168.0.111
160,2,40,0,68,"3,1,178",0,0,-2,0,0,0,59,61,68,60,100,-104.34,15,2.0,5.0,-1007.0,16:01:13.337860,192.168.0.111
161,2,40,0,68,"3,1,178",0,0,-2,0,0,0,59,61,68,60,100,-104.32,15,-4.0,3.0,-996.0,16:01:13.436270,192.168.0.111
162,2,40,0,68,"3,1,178",0,0,-2,0,0,0,59,61,68,60,100,-104.37,16,3.0,-1.0,-1009.0,16:01:13.538506,192.168.0.111
163,2,40,0,68,"3,1,178",0,0,-2,0,0,0,59,61,68,60,100,-104.3,16,-1.0,-5.0,-1001.0,16:01:13.640448,192.168.0.111
164,2,39,-3,68,"3,0,-179",1,0,-2,0,0,0,59,61,67,60,100,-104.31,16,4.0,-2.0,-1005.0,16:01:13.742721,192.168.0.111
165,2,39,-3,68,"3,0,-179",1,0,-2,0,0,0,59,61,68,60,100,-104.34,16,5.0,-9.0,-995.0,16:01:13.844582,192.168.0.111
166,2,39,-3,68,"3,0,-179",1,0,-2,0,0,0,59,61,67,60,100,-104.31,16,-1.0,5.0,-1000.0,16:01:13.896725,192.168.0.111
167,2,39,-3,68,"3,0,-179",1,0,-2,0,0,0,59,61,67,60,100,-104.28,16,1.0,-1.0,-999.0,16:01:13.998829,192.168.0.111
168,2,39,-3,68,"3,0,-179",1,0,-2,0,0,0,58,62,67,60,100,-104.28,16,1.0,0.0,-1007.0,16:01:14.101348,192.168.0.111
169,2,39,-3,68,"3,0,-179",1,0,-2,0,0,0,58,62,67,60,100,-104.32,16,0.0,14.0,-1001.0,16:01:14.203430,192.168.0.111
170,2,38,-4,68,"1,0,-179",1,0,-2,0,0,0,58,62,67,60,100,-104.28,16,-10.0,7.0,-1003.0,16:01:14.303005,192.168.0.111
171,2,38,-4,68,"1,0,-179",1,0,-2,0,0,0,58,62,68,60,100,-104.35,16,0.0,6.0,-1008.0,16:01:14.405384,192.168.0.111
172,2,38,-4,68,"1,0,-179",1,0,-2,0,0,0,58,62,68,60,100,-104.32,17,3.0,1.0,-1010.0,16:01:14.507368,192.168.0.111
173,2,38,-4,68,"1,0,-179",1,0,-2,0,0,0,58,62,67,60,100,-104.37,17,-4.0,0.0,-996.0,16:01:14.609326,192.168.0.111
174,2,38,-4,68,"1,0,-179",1,0,-2,0,0,0,58,62,67,60,100,-104.36,17,-1.0,4.0,-1000.0,16:01:14.711199,192.168.0.111
175,2,38,-4,68,"1,0,-179",1,0,-2,0,0,0,58,62,67,60,100,-104.3,17,0.0,-5.0,-997.0,16:01:14.812991,192.168.0.111
176,2,38,-4,68,"1,0,-179",1,0,-2,0,0,0,58,62,67,60,100,-104.29,17,7.0,-1.0,-998.0,16:01:14.915146,192.168.0.111
177,2,38,-4,68,"1,0,179",1,0,-2,0,0,0,58,62,66,60,100,-104.36,17,0.0,0.0,-996.0,16:01:15.017340,192.168.0.111
178,2,38,-4,68,"1,0,179",1,0,-2,0,0,0,59,61,67,60,100,-104.36,17,1.0,-2.0,-999.0,16:01:15.119304,192.168.0.111
179,2,38,-4,68,"1,0,179",1,0,-2,0,0,0,59,61,67,60,100,-104.36,17,-5.0,0.0,-1002.0,16:01:15.221439,192.168.0.111
180,2,38,-4,68,"1,0,179",1,0,-2,0,0,0,59,61,67,60,100,-104.28,17,6.0,-4.0,-997.0,16:01:15.323331,192.168.0.111
181,2,38,-4,68,"1,0,179",1,0,-2,0,0,0,59,61,66,60,100,-104.34,17,6.0,-6.0,-1009.0,16:01:15.425556,192.168.0.111
182,2,38,-4,68,"1,0,179",1,0,-2,0,0,0,59,61,66,60,100,-104.39,18,0.0,-9.0,-1002.0,16:01:15.527223,192.168.0.111
183,2,38,-4,68,"1,0,179",1,0,-2,0,0,0,59,61,66,60,100,-104.34,18,7.0,-9.0,-999.0,16:01:15.629308,192.168.0.111
184,2,39,-4,67,"1,0,-178",1,0,-2,0,0,0,59,61,67,60,100,-104.3,18,1.0,-6.0,-1009.0,16:01:15.731236,192.168.0.111
185,2,39,-4,67,"1,0,-178",1,0,-2,0,0,0,59,61,67,60,100,-104.43,18,8.0,-2.0,-1004.0,16:01:15.833343,192.168.0.111
186,2,39,-4,67,"1,0,-178",1,0,-2,0,0,0,59,61,66,60,100,-104.33,18,-2.0,-3.0,-1005.0,16:01:15.935266,192.168.0.111
187,2,39,-4,67,"1,0,-178",1,0,-2,0,0,0,59,61,67,60,100,-104.42,18,-7.0,-1.0,-1006.0,16:01:16.037274,192.168.0.111
188,2,39,-4,67,"1,0,-178",1,0,-2,0,0,0,59,62,66,60,100,-104.42,18,-11.0,-1.0,-1007.0,16:01:16.139324,192.168.0.111
189,2,39,-4,67,"1,0,-178",1,0,-2,0,0,0,59,62,67,60,100,-104.32,18,2.0,-6.0,-1000.0,16:01:16.461756,192.168.0.111
190,2,41,-4,65,"3,0,-178",1,0,-2,0,0,0,59,62,67,60,100,-104.31,18,1.0,-5.0,-999.0,16:01:16.461960,192.168.0.111
191,2,41,-4,65,"3,0,-178",1,0,-2,0,0,0,59,62,67,60,100,-104.31,18,-2.0,-1.0,-997.0,16:01:16.462108,192.168.0.111
192,2,41,-4,65,"3,0,-178",1,0,-2,0,0,0,59,62,67,60,100,-104.37,19,-7.0,4.0,-989.0,16:01:16.547647,192.168.0.111
193,2,41,-4,65,"3,0,-178",1,0,-2,0,0,0,59,62,66,60,100,-104.43,19,-2.0,3.0,-1000.0,16:01:16.649369,192.168.0.111
194,2,41,-4,65,"3,0,-178",1,0,-2,0,0,0,59,62,67,60,100,-104.28,19,-1.0,-6.0,-995.0,16:01:16.751239,192.168.0.111
195,2,41,-4,65,"3,0,-178",0,0,-2,0,0,0,59,62,67,60,100,-104.28,19,19.0,-13.0,-988.0,16:01:16.853219,192.168.0.111
196,2,41,-4,65,"3,0,-178",1,0,-2,0,0,0,59,62,67,60,100,-104.36,19,5.0,-3.0,-1000.0,16:01:17.076135,192.168.0.111
197,2,40,-2,67,"2,0,-179",0,0,-2,0,0,0,59,62,67,60,100,-104.37,19,-8.0,-1.0,-1001.0,16:01:17.076342,192.168.0.111
198,2,40,-2,67,"2,0,-179",0,0,-2,0,0,0,59,62,67,60,100,-104.36,19,0.0,-8.0,-999.0,16:01:17.159212,192.168.0.111
199,2,40,-2,67,"2,0,-179",0,0,-2,0,0,0,59,62,67,60,100,-104.31,19,0.0,-6.0,-1005.0,16:01:17.261248,192.168.0.111
200,2,40,-2,67,"2,0,-179",0,0,-2,0,0,0,59,62,67,60,100,-104.34,19,-4.0,-5.0,-1006.0,16:01:17.363102,192.168.0.111
201,2,40,-2,67,"2,0,-179",0,0,-2,0,0,0,59,62,67,60,100,-104.34,19,-6.0,-3.0,-1003.0,16:01:17.465014,192.168.0.111
202,2,40,-2,67,"2,0,-179",1,0,-2,0,0,0,59,62,67,60,100,-104.34,20,-8.0,-8.0,-992.0,16:01:17.516449,192.168.0.111
203,2,38,-2,68,"1,0,-179",0,0,-2,0,0,0,59,62,67,60,100,-104.26,20,-9.0,-8.0,-995.0,16:01:17.794099,192.168.0.111
204,2,38,-2,68,"1,0,-179",0,0,-2,0,0,0,59,62,67,60,100,-104.33,20,-10.0,7.0,-1008.0,16:01:17.794276,192.168.0.111
205,2,38,-2,68,"1,0,-179",0,0,-2,0,0,0,59,62,67,60,100,-104.34,20,1.0,-6.0,-1007.0,16:01:17.873112,192.168.0.111
206,2,38,-2,68,"1,0,-179",0,0,-2,0,0,0,59,62,67,60,100,-104.26,20,1.0,-10.0,-1004.0,16:01:17.975135,192.168.0.111
207,2,38,-2,68,"1,0,-179",0,0,-2,0,0,0,59,62,67,60,100,-104.3,20,-4.0,-4.0,-997.0,16:01:18.026377,192.168.0.111
208,2,38,-2,68,"1,0,-179",0,0,-2,0,0,0,60,62,67,60,100,-104.33,20,-8.0,-5.0,-992.0,16:01:18.128322,192.168.0.111
209,2,38,-2,68,"1,0,-179",0,0,-2,0,0,0,60,62,67,60,100,-104.35,20,-2.0,-4.0,-1005.0,16:01:18.230621,192.168.0.111
210,2,38,-3,68,"1,0,-178",0,0,-2,0,0,0,60,62,67,60,100,-104.27,20,-8.0,0.0,-996.0,16:01:18.332289,192.168.0.111
211,2,38,-3,68,"1,0,-178",0,0,-2,0,0,0,60,62,67,60,100,-104.29,20,-7.0,-8.0,-1003.0,16:01:18.434762,192.168.0.111
212,2,38,-3,68,"1,0,-178",0,0,-2,0,0,0,60,62,67,60,100,-104.29,21,-10.0,4.0,-1008.0,16:01:18.536769,192.168.0.111
213,2,38,-3,68,"1,0,-178",0,0,-2,0,0,0,60,62,67,60,100,-104.31,21,1.0,-8.0,-998.0,16:01:18.638548,192.168.0.111
214,2,38,-3,68,"1,0,-178",0,0,-2,0,0,0,60,62,67,60,100,-104.31,21,1.0,-4.0,-1000.0,16:01:18.740509,192.168.0.111
215,2,38,-3,68,"1,0,-178",0,0,-2,0,0,0,60,62,67,60,100,-104.3,21,-6.0,-1.0,-1003.0,16:01:18.842760,192.168.0.111
216,2,39,-4,67,"3,0,-178",0,0,-2,0,0,0,60,62,67,60,100,-104.33,21,-5.0,0.0,-992.0,16:01:18.944474,192.168.0.111
217,2,39,-4,67,"3,0,-178",0,0,-2,0,0,0,60,62,67,60,100,-104.32,21,-7.0,-2.0,-990.0,16:01:19.046487,192.168.0.111
218,2,39,-4,67,"3,0,-178",0,0,-2,0,0,0,60,62,67,60,100,-104.33,21,3.0,-13.0,-1003.0,16:01:19.148413,192.168.0.111
219,2,39,-4,67,"3,0,-178",0,0,-2,0,0,0,60,62,67,60,100,-104.33,21,-9.0,-6.0,-998.0,16:01:19.250674,192.168.0.111
220,2,39,-4,67,"3,0,-178",0,0,-2,0,0,0,60,62,67,60,100,-104.32,21,-14.0,-4.0,-1009.0,16:01:19.352002,192.168.0.111
221,2,39,-4,67,"3,0,-178",0,0,-2,0,0,0,60,62,67,60,100,-104.38,21,-16.0,-2.0,-1011.0,16:01:19.454375,192.168.0.111
222,2,39,-4,67,"3,0,-178",0,0,-2,0,0,0,60,62,67,60,100,-104.35,22,2.0,-22.0,-994.0,16:01:19.557046,192.168.0.111
223,2,39,-5,68,"2,0,-178",1,0,-2,0,0,0,60,62,67,60,100,-104.31,22,-16.0,2.0,-1003.0,16:01:19.658335,192.168.0.111
224,2,39,-5,68,"2,0,-178",3,0,-2,0,0,0,60,62,67,60,100,-104.33,22,-1.0,-11.0,-1012.0,16:01:19.760434,192.168.0.111
225,2,39,-5,68,"2,0,-178",2,0,-2,1,0,0,60,62,67,60,100,-104.36,22,4.0,-8.0,-1002.0,16:01:19.862174,192.168.0.111
226,2,39,-5,68,"2,0,-178",1,0,-2,1,0,0,60,62,67,60,100,-104.36,22,-4.0,-6.0,-994.0,16:01:19.964434,192.168.0.111
227,2,39,-5,68,"2,0,-178",1,0,-2,1,0,0,60,62,68,60,100,-104.33,22,-2.0,-12.0,-1002.0,16:01:20.067621,192.168.0.111
228,2,39,-5,68,"2,0,-178",0,0,-2,1,0,0,59,63,68,60,100,-104.36,22,3.0,-7.0,-993.0,16:01:20.168209,192.168.0.111
229,2,39,-5,68,"2,0,-178",0,0,-2,1,0,0,59,63,68,60,100,-104.31,22,-6.0,-1.0,-1006.0,16:01:20.270585,192.168.0.111
230,2,39,-5,68,"2,0,-178",0,0,-2,1,0,0,59,63,68,60,100,-104.4,22,5.0,-11.0,-995.0,16:01:20.371751,192.168.0.111
231,2,39,-5,68,"2,0,-178",0,0,-2,1,0,0,59,63,68,60,100,-104.29,22,-12.0,-7.0,-996.0,16:01:20.474355,192.168.0.111
232,2,39,-5,68,"2,0,-178",1,0,-2,1,0,0,59,63,68,60,100,-104.34,23,-5.0,-11.0,-1003.0,16:01:20.576522,192.168.0.111
233,2,39,-5,68,"2,0,-178",0,0,-2,1,0,0,59,63,67,60,100,-104.34,23,6.0,-8.0,-1006.0,16:01:20.678275,192.168.0.111
234,2,39,-5,68,"2,0,-178",0,0,-2,1,0,0,59,63,68,60,100,-104.38,23,8.0,-11.0,-993.0,16:01:20.780375,192.168.0.111
235,2,39,-5,68,"2,0,-178",0,0,-2,1,0,0,59,63,68,60,100,-104.37,23,-5.0,-12.0,-994.0,16:01:20.882293,192.168.0.111
236,2,35,-3,67,"3,0,-178",0,0,-2,1,0,0,59,63,67,60,100,-104.35,23,-7.0,-4.0,-993.0,16:01:20.984233,192.168.0.111
237,2,35,-3,67,"3,0,-178",0,0,-2,1,0,0,59,63,67,60,100,-104.37,23,-5.0,-16.0,-996.0,16:01:21.037820,192.168.0.111
238,2,35,-3,67,"3,0,-178",0,0,-2,1,0,0,60,62,68,60,100,-104.43,23,-2.0,-13.0,-1005.0,16:01:21.137093,192.168.0.111
239,2,35,-3,67,"3,0,-178",0,0,-2,1,0,0,60,62,68,60,100,-104.39,23,-3.0,-5.0,-1000.0,16:01:21.239059,192.168.0.111
240,2,35,-3,67,"3,0,-178",0,0,-2,1,0,0,60,62,68,60,100,-104.38,23,-3.0,-11.0,-1001.0,16:01:21.341342,192.168.0.111
241,2,35,-3,67,"3,0,-178",0,0,-2,1,0,0,60,62,68,60,100,-104.41,23,-3.0,-10.0,-992.0,16:01:21.443363,192.168.0.111
242,2,35,-3,67,"3,0,-178",0,0,-2,1,0,0,60,62,69,60,100,-104.4,24,-3.0,-10.0,-995.0,16:01:21.545142,192.168.0.111
243,2,28,-5,68,"3,0,-177",-2,0,-2,0,0,0,60,62,69,60,100,-104.38,24,-5.0,-13.0,-1003.0,16:01:21.647239,192.168.0.111
244,2,28,-5,68,"3,0,-177",-1,0,-2,0,0,0,60,62,68,60,100,-104.39,24,-10.0,-5.0,-992.0,16:01:21.749244,192.168.0.111
245,2,28,-5,68,"3,0,-177",0,0,-2,0,0,0,60,62,68,60,100,-104.39,24,-13.0,-4.0,-1007.0,16:01:21.851131,192.168.0.111
246,2,28,-5,68,"3,0,-177",0,0,-2,0,0,0,60,62,68,60,100,-104.36,24,-10.0,-14.0,-996.0,16:01:21.952717,192.168.0.111
247,2,28,-5,68,"3,0,-177",0,0,-2,0,0,0,60,62,68,60,100,-104.38,24,-17.0,-15.0,-985.0,16:01:22.055172,192.168.0.111
248,2,28,-5,68,"3,0,-177",0,0,-2,0,0,0,60,63,68,60,100,-104.4,24,-16.0,-2.0,-1007.0,16:01:22.156999,192.168.0.111
249,2,25,-3,69,"4,0,-179",0,0,-2,0,0,0,60,63,68,60,100,-104.44,24,-5.0,-18.0,-1003.0,16:01:22.356347,192.168.0.111
250,2,25,-3,69,"4,0,-179",0,0,-2,0,0,0,60,63,68,60,100,-104.39,24,-7.0,-22.0,-996.0,16:01:22.361110,192.168.0.111
251,2,25,-3,69,"4,0,-179",0,0,-2,0,0,0,60,63,68,60,100,-104.46,24,-15.0,-10.0,-996.0,16:01:22.463067,192.168.0.111
252,2,25,-3,69,"4,0,-179",0,0,-2,0,0,0,60,63,68,60,100,-104.41,25,-16.0,-16.0,-992.0,16:01:22.565007,192.168.0.111
253,2,25,-3,69,"4,0,-179",0,0,-2,0,0,0,60,63,69,60,100,-104.42,25,-10.0,-18.0,-998.0,16:01:22.667043,192.168.0.111
254,2,25,-3,69,"4,0,-179",0,0,-2,0,0,0,60,63,69,60,100,-104.39,25,-19.0,-6.0,-999.0,16:01:22.870016,192.168.0.111
255,2,25,-3,69,"4,0,-179",0,0,-2,0,0,0,60,63,69,60,100,-104.37,25,-19.0,-4.0,-1007.0,16:01:22.871098,192.168.0.111
256,2,30,-5,68,"4,0,-179",0,0,-2,0,0,0,60,63,69,60,100,-104.4,25,-4.0,-13.0,-1001.0,16:01:22.973389,192.168.0.111
257,2,30,-5,68,"4,0,-179",0,0,-2,0,0,0,60,63,69,60,100,-104.32,25,-9.0,-16.0,-998.0,16:01:23.075182,192.168.0.111
258,2,30,-5,68,"4,0,-179",0,0,-2,0,0,0,61,63,69,60,100,-104.33,25,-10.0,-9.0,-1005.0,16:01:23.177005,192.168.0.111
259,2,30,-5,68,"4,0,-179",0,0,-2,0,0,0,61,63,69,60,100,-104.33,25,0.0,-17.0,-1006.0,16:01:23.279942,192.168.0.111
260,2,30,-5,68,"4,0,-179",0,0,-2,0,0,0,61,63,68,60,100,-104.4,25,-2.0,-11.0,-1007.0,16:01:23.381095,192.168.0.111
261,2,30,-5,68,"4,0,-179",0,0,-2,0,0,0,61,63,69,60,100,-104.31,25,-9.0,-6.0,-988.0,16:01:23.482974,192.168.0.111
262,2,30,-5,68,"4,0,-179",0,0,-2,0,0,0,61,63,69,60,100,-104.34,26,-12.0,0.0,-994.0,16:01:23.585044,192.168.0.111
263,2,33,-8,68,"3,0,-177",0,0,-2,0,0,0,61,63,68,60,100,-104.34,26,-15.0,-9.0,-992.0,16:01:23.686980,192.168.0.111
264,2,33,-8,68,"3,0,-177",0,0,-2,0,0,0,61,63,69,60,100,-104.27,26,5.0,-30.0,-999.0,16:01:23.788915,192.168.0.111
265,2,33,-8,68,"3,0,-177",0,0,-2,0,0,0,61,63,68,60,100,-104.37,26,-17.0,-10.0,-1004.0,16:01:23.891775,192.168.0.111
266,2,33,-8,68,"3,0,-177",0,0,-2,0,0,0,61,63,69,60,100,-104.35,26,0.0,-8.0,-1011.0,16:01:23.992999,192.168.0.111
267,2,33,-8,68,"3,0,-177",0,0,-2,0,0,0,61,63,69,60,100,-104.32,26,-16.0,-3.0,-996.0,16:01:24.094979,192.168.0.111
268,2,33,-8,68,"3,0,-177",0,0,-2,0,0,0,61,63,69,60,100,-104.3,26,-12.0,-8.0,-995.0,16:01:24.196751,192.168.0.111
269,2,36,-6,68,"4,0,-178",0,0,-2,0,0,0,61,63,69,60,100,-104.32,26,-2.0,-9.0,-995.0,16:01:24.411046,192.168.0.111
270,2,36,-6,68,"4,0,-178",0,0,-2,0,0,0,61,63,69,60,100,-104.34,26,-19.0,-3.0,-1005.0,16:01:24.411270,192.168.0.111
271,2,36,-6,68,"4,0,-178",0,0,-2,0,0,0,61,63,69,60,100,-104.3,26,-13.0,-2.0,-1007.0,16:01:24.502946,192.168.0.111
272,2,36,-6,68,"4,0,-178",0,0,-2,0,0,0,61,63,69,60,100,-104.35,27,-12.0,-4.0,-999.0,16:01:24.604940,192.168.0.111
273,2,36,-6,68,"4,0,-178",0,0,-2,0,0,0,61,63,69,60,100,-104.32,27,0.0,-17.0,-992.0,16:01:24.706946,192.168.0.111
274,2,36,-6,68,"4,0,-178",0,0,-2,0,0,0,61,63,69,60,100,-104.35,27,-9.0,-4.0,-995.0,16:01:24.757745,192.168.0.111
275,2,36,-6,68,"4,0,-178",0,0,-2,0,0,0,61,63,69,60,100,-104.34,27,-3.0,-7.0,-991.0,16:01:24.860254,192.168.0.111
276,2,36,-10,68,"3,0,-177",0,0,-2,0,0,0,61,63,69,60,100,-104.37,27,-10.0,0.0,-1004.0,16:01:24.962051,192.168.0.111
277,2,36,-10,68,"3,0,-177",0,0,-2,0,0,0,61,63,69,60,100,-104.3,27,-11.0,3.0,-1014.0,16:01:25.064341,192.168.0.111
278,2,36,-10,68,"3,0,-177",0,0,-2,0,0,0,61,63,69,60,100,-104.33,27,-13.0,6.0,-1000.0,16:01:25.166413,192.168.0.111
279,2,36,-10,68,"3,0,-177",0,0,-2,0,0,0,61,63,69,60,100,-104.33,27,-14.0,-4.0,-994.0,16:01:25.268123,192.168.0.111
280,2,36,-10,68,"3,0,-177",0,0,-2,0,0,0,61,63,69,60,100,-104.29,27,-5.0,-6.0,-994.0,16:01:25.369774,192.168.0.111
281,2,36,-10,68,"3,0,-177",0,0,-2,0,0,0,61,63,69,60,100,-104.3,27,-4.0,5.0,-1003.0,16:01:25.472002,192.168.0.111
282,2,36,-10,68,"3,0,-177",0,0,-2,0,0,0,61,63,69,60,100,-104.32,28,-5.0,-4.0,-1008.0,16:01:25.574127,192.168.0.111
283,2,38,-11,67,"4,0,-177",0,0,-2,0,0,0,61,63,70,60,100,-104.26,28,-5.0,-9.0,-984.0,16:01:25.676146,192.168.0.111
284,2,38,-11,67,"4,0,-177",0,0,-2,0,0,0,61,63,69,60,100,-104.33,28,-6.0,-2.0,-1001.0,16:01:25.778134,192.168.0.111
285,2,38,-11,67,"4,0,-177",0,0,-2,0,0,0,61,63,70,60,100,-104.33,28,-5.0,-11.0,-993.0,16:01:25.880153,192.168.0.111
286,2,38,-11,67,"4,0,-177",0,0,-2,0,0,0,61,63,69,60,100,-104.29,28,-5.0,0.0,-991.0,16:01:25.982256,192.168.0.111
287,2,38,-11,67,"4,0,-177",0,0,-2,0,0,0,61,63,69,60,100,-104.28,28,-7.0,2.0,-994.0,16:01:26.084274,192.168.0.111
288,2,38,-11,67,"4,0,-177",0,0,-2,0,0,0,61,64,69,60,100,-104.29,28,-17.0,0.0,-983.0,16:01:26.186364,192.168.0.111
289,2,37,-11,68,"4,0,-178",0,0,-2,0,0,0,61,64,69,60,100,-104.36,28,-8.0,10.0,-1000.0,16:01:26.288208,192.168.0.111
290,2,37,-11,68,"4,0,-178",0,0,-2,0,0,0,61,64,69,60,100,-104.28,28,-15.0,-3.0,-986.0,16:01:26.494815,192.168.0.111
291,2,37,-11,68,"4,0,-178",0,0,-2,0,0,0,61,64,69,60,100,-104.28,29,3.0,-10.0,-1008.0,16:01:26.495052,192.168.0.111
292,2,37,-11,68,"4,0,-178",0,0,-2,0,0,0,61,64,68,60,100,-104.34,29,3.0,-1.0,-990.0,16:01:26.595432,192.168.0.111
293,2,37,-11,68,"4,0,-178",0,0,-2,0,0,0,61,64,68,60,100,-104.3,29,-11.0,1.0,-1004.0,16:01:26.696671,192.168.0.111
294,2,37,-11,68,"4,0,-178",0,0,-2,0,0,0,61,64,69,60,100,-104.31,29,4.0,-5.0,-1001.0,16:01:26.799075,192.168.0.111
295,2,37,-11,68,"4,0,-178",0,0,-2,0,0,0,61,64,69,60,100,-104.31,29,-7.0,-4.0,-992.0,16:01:26.901420,192.168.0.111
296,2,35,-10,69,"3,0,-179",0,0,-2,0,0,0,61,64,69,60,100,-104.29,29,-5.0,-3.0,-992.0,16:01:27.003887,192.168.0.111
297,2,35,-10,69,"3,0,-179",0,0,-2,0,0,0,61,64,69,60,100,-104.26,29,3.0,-15.0,-1000.0,16:01:27.106246,192.168.0.111
298,2,35,-10,69,"3,0,-179",0,0,-2,0,0,0,61,64,68,60,100,-104.26,29,-4.0,0.0,-1006.0,16:01:27.208643,192.168.0.111
299,2,35,-10,69,"3,0,-179",0,0,-2,0,0,0,61,64,68,60,100,-104.28,29,0.0,-4.0,-1005.0,16:01:27.308173,192.168.0.111
300,2,35,-10,69,"3,0,-179",0,0,-2,0,0,0,61,64,69,60,100,-104.34,29,0.0,-4.0,-993.0,16:01:27.410198,192.168.0.111
301,2,35,-10,69,"3,0,-179",0,0,-2,0,0,0,61,64,68,60,100,-104.31,30,-8.0,5.0,-1005.0,16:01:27.512048,192.168.0.111
302,2,36,-11,68,"3,0,-178",0,0,-2,0,0,0,61,64,68,60,100,-104.25,30,-5.0,-5.0,-1007.0,16:01:27.614104,192.168.0.111
303,2,36,-11,68,"3,0,-178",0,0,-2,0,0,0,61,64,68,60,100,-104.33,30,6.0,-8.0,-990.0,16:01:27.717032,192.168.0.111
304,2,36,-11,68,"3,0,-178",0,0,-2,0,0,0,61,64,67,60,100,-104.37,30,1.0,-9.0,-997.0,16:01:27.818082,192.168.0.111
305,2,36,-11,68,"3,0,-178",0,0,-2,0,0,0,61,64,68,60,100,-104.41,30,2.0,-20.0,-1001.0,16:01:27.920085,192.168.0.111
306,2,36,-11,68,"3,0,-178",0,0,-2,0,0,0,61,64,68,60,100,-104.37,30,-1.0,-9.0,-1007.0,16:01:28.022192,192.168.0.111
307,2,36,-11,68,"3,0,-178",0,0,-2,0,0,0,61,64,68,60,100,-104.41,30,2.0,-10.0,-996.0,16:01:28.124061,192.168.0.111
308,2,36,-11,68,"3,0,-178",0,0,-2,0,0,0,61,64,68,60,100,-104.33,30,-1.0,-6.0,-996.0,16:01:28.314979,192.168.0.111
309,2,37,-10,67,"3,0,-178",0,0,-2,0,0,0,61,64,69,60,100,-104.34,30,0.0,-6.0,-995.0,16:01:28.328031,192.168.0.111
310,2,37,-10,67,"3,0,-178",0,0,-2,0,0,0,61,64,69,60,100,-104.4,30,-2.0,-10.0,-1002.0,16:01:28.430074,192.168.0.111
311,2,37,-10,67,"3,0,-178",0,0,-2,0,0,0,61,64,69,60,100,-104.39,31,-3.0,0.0,-1004.0,16:01:28.532093,192.168.0.111
312,2,37,-10,67,"3,0,-178",0,0,-2,0,0,0,61,64,69,60,100,-104.42,31,3.0,-16.0,-997.0,16:01:28.634153,192.168.0.111
313,2,37,-10,67,"3,0,-178",0,0,-2,0,0,0,61,64,69,60,100,-104.4,31,-14.0,-7.0,-995.0,16:01:28.736132,192.168.0.111
314,2,37,-10,67,"3,0,-178",0,0,-2,0,0,0,61,64,69,60,100,-104.37,31,1.0,-4.0,-1003.0,16:01:28.838289,192.168.0.111
315,2,37,-10,67,"3,0,-178",0,0,-2,0,0,0,61,64,69,60,100,-104.36,31,-2.0,-8.0,-1005.0,16:01:28.940366,192.168.0.111
316,2,37,-8,68,"4,0,-178",0,0,-2,0,0,0,61,64,69,60,100,-104.38,31,-3.0,-13.0,-990.0,16:01:28.990895,192.168.0.111
317,2,37,-8,68,"4,0,-178",0,0,-2,0,0,0,61,64,69,60,100,-104.35,31,-10.0,-5.0,-995.0,16:01:29.092801,192.168.0.111
318,2,37,-8,68,"4,0,-178",0,0,-2,0,0,0,62,65,69,60,100,-104.34,31,-7.0,2.0,-996.0,16:01:29.194858,192.168.0.111
319,2,37,-8,68,"4,0,-178",0,0,-2,0,0,0,62,65,69,60,100,-104.32,31,-5.0,-3.0,-994.0,16:01:29.296958,192.168.0.111
320,2,37,-8,68,"4,0,-178",0,0,-2,0,0,0,62,65,70,60,100,-104.37,31,-10.0,0.0,-1016.0,16:01:29.463959,192.168.0.111
321,2,37,-8,68,"4,0,-178",0,0,-2,0,0,0,62,65,69,60,100,-104.39,32,0.0,-8.0,-1000.0,16:01:29.500906,192.168.0.111
322,2,38,-10,68,"4,0,-177",0,0,-2,0,0,0,62,65,69,60,100,-104.35,32,-3.0,-4.0,-1005.0,16:01:29.602806,192.168.0.111
323,2,38,-10,68,"4,0,-177",0,0,-2,0,0,0,62,65,69,60,100,-104.32,32,5.0,-12.0,-995.0,16:01:29.704745,192.168.0.111
324,2,38,-10,68,"4,0,-177",0,0,-2,0,0,0,62,65,69,60,100,-104.32,32,5.0,-15.0,-999.0,16:01:29.806670,192.168.0.111
325,2,38,-10,68,"4,0,-177",0,0,-2,0,0,0,62,65,69,60,100,-104.35,32,3.0,-13.0,-989.0,16:01:29.910264,192.168.0.111
326,2,38,-10,68,"4,0,-177",0,0,-2,0,0,0,62,65,69,60,100,-104.37,32,4.0,-10.0,-1008.0,16:01:30.010952,192.168.0.111
327,2,38,-10,68,"4,0,-177",0,0,-2,0,0,0,62,65,69,60,100,-104.38,32,-8.0,-7.0,-986.0,16:01:30.112920,192.168.0.111
328,2,38,-10,68,"4,0,-177",0,0,-2,0,0,0,61,63,69,60,100,-104.35,32,2.0,-6.0,-995.0,16:01:30.214816,192.168.0.111
329,2,37,-10,68,"3,0,-177",0,0,-2,0,0,0,61,63,69,60,100,-104.34,32,14.0,-18.0,-995.0,16:01:30.316736,192.168.0.111
330,2,37,-10,68,"3,0,-177",0,0,-2,0,0,0,61,63,68,60,100,-104.32,32,-2.0,-8.0,-988.0,16:01:30.418862,192.168.0.111
331,2,37,-10,68,"3,0,-177",0,0,-2,0,0,0,61,63,69,60,100,-104.35,33,7.0,-9.0,-999.0,16:01:30.520824,192.168.0.111
332,2,37,-10,68,"3,0,-177",0,0,-2,0,0,0,61,63,68,60,100,-104.26,33,-16.0,0.0,-1004.0,16:01:30.622837,192.168.0.111
333,2,37,-10,68,"3,0,-177",0,0,-2,0,0,0,61,63,68,60,100,-104.29,33,0.0,-2.0,-1005.0,16:01:30.731927,192.168.0.111
334,2,37,-10,68,"3,0,-177",0,0,-2,0,0,0,61,63,68,60,100,-104.38,33,0.0,-5.0,-1003.0,16:01:30.826870,192.168.0.111
335,2,37,-10,68,"3,0,-177",0,0,-2,0,0,0,61,63,68,60,100,-104.38,33,-1.0,-8.0,-1003.0,16:01:30.928820,192.168.0.111
336,2,37,-10,67,"3,0,-176",0,0,-2,0,0,0,61,63,68,60,100,-104.38,33,5.0,-15.0,-997.0,16:01:31.030764,192.168.0.111
337,2,37,-10,67,"3,0,-176",0,0,-2,0,0,0,61,63,69,60,100,-104.45,33,3.0,-15.0,-1008.0,16:01:31.133932,192.168.0.111
338,2,37,-10,67,"3,0,-176",0,0,-2,0,0,0,62,64,68,60,100,-104.31,33,-2.0,-17.0,-1006.0,16:01:31.234856,192.168.0.111
339,2,37,-10,67,"3,0,-176",0,0,-2,0,0,0,62,64,69,60,100,-104.37,33,-3.0,-6.0,-993.0,16:01:31.336771,192.168.0.111
340,2,37,-10,67,"3,0,-176",0,0,-2,0,0,0,62,64,69,60,100,-104.3,33,-6.0,-6.0,-1007.0,16:01:31.438774,192.168.0.111
341,2,37,-10,67,"3,0,-176",0,0,-2,0,0,0,62,64,69,60,100,-104.3,34,0.0,-9.0,-996.0,16:01:31.540833,192.168.0.111
342,2,37,-10,67,"3,0,-178",0,0,-2,0,0,0,62,64,69,60,100,-104.32,34,4.0,-6.0,-1008.0,16:01:31.642775,192.168.0.111
343,2,37,-10,67,"3,0,-178",1,0,-2,0,0,0,62,64,69,60,100,-104.33,34,-4.0,-3.0,-990.0,16:01:31.744862,192.168.0.111
344,2,37,-10,67,"3,0,-178",2,-2,-2,0,0,0,62,64,69,60,100,-104.35,34,5.0,-21.0,-1015.0,16:01:31.846992,192.168.0.111
345,2,37,-10,67,"3,0,-178",2,-1,-2,0,0,0,62,64,69,60,100,-104.37,34,-4.0,-9.0,-1000.0,16:01:31.948830,192.168.0.111
346,2,37,-10,67,"3,0,-178",1,0,-2,1,0,0,62,64,69,60,100,-104.33,34,13.0,-3.0,-991.0,16:01:32.051076,192.168.0.111
347,2,37,-10,67,"3,0,-178",0,0,-2,1,0,0,62,64,69,60,100,-104.41,34,0.0,5.0,-1001.0,16:01:32.152708,192.168.0.111
348,2,37,-10,67,"3,0,-178",0,0,-2,1,0,0,62,64,69,60,100,-104.35,34,-4.0,3.0,-993.0,16:01:32.254664,192.168.0.111
349,2,36,-9,68,"1,0,178",0,0,-2,1,0,0,62,64,68,60,100,-104.37,34,7.0,-1.0,-983.0,16:01:32.356707,192.168.0.111
350,2,36,-9,68,"1,0,178",1,0,-2,1,0,0,62,64,68,60,100,-104.28,34,9.0,-3.0,-1006.0,16:01:32.459121,192.168.0.111
351,2,36,-9,68,"1,0,178",1,0,-2,1,0,0,62,64,69,60,100,-104.32,35,7.0,-4.0,-1005.0,16:01:32.560772,192.168.0.111
352,2,36,-9,68,"1,0,178",1,0,-2,1,0,0,62,64,69,60,100,-104.34,35,3.0,2.0,-1000.0,16:01:32.662771,192.168.0.111
353,2,36,-9,68,"1,0,178",0,0,-2,1,0,0,62,64,69,60,100,-104.29,35,-2.0,10.0,-997.0,16:01:32.764754,192.168.0.111
354,2,36,-9,68,"1,0,178",0,0,-2,1,0,0,62,64,69,60,100,-104.36,35,12.0,-19.0,-1015.0,16:01:32.816152,192.168.0.111
355,2,36,-9,68,"1,0,178",0,1,-2,1,0,0,62,64,69,60,100,-104.34,35,-3.0,3.0,-995.0,16:01:32.917891,192.168.0.111
356,2,31,-5,68,"2,0,-178",0,1,-2,1,0,0,62,64,69,60,100,-104.36,35,4.0,-5.0,-1007.0,16:01:33.019991,192.168.0.111
357,2,31,-5,68,"2,0,-178",0,0,-2,1,0,0,62,64,70,60,100,-104.36,35,0.0,-14.0,-1005.0,16:01:33.121791,192.168.0.111
358,2,31,-5,68,"2,0,-178",0,0,-2,0,0,0,63,65,69,60,100,-104.29,35,-9.0,3.0,-1006.0,16:01:33.356588,192.168.0.111
359,2,31,-5,68,"2,0,-178",0,0,-2,0,0,0,63,65,69,60,100,-104.38,35,6.0,-8.0,-993.0,16:01:33.356803,192.168.0.111
360,2,31,-5,68,"2,0,-178",-1,0,-2,0,0,0,63,65,69,60,100,-104.4,35,12.0,-10.0,-1006.0,16:01:33.427876,192.168.0.111
361,2,31,-5,68,"2,0,-178",0,0,-2,0,0,0,63,65,68,60,100,-104.32,36,-12.0,-10.0,-1002.0,16:01:33.530300,192.168.0.111
362,2,25,0,70,"2,0,-179",0,0,-2,0,0,0,63,65,69,60,100,-104.24,36,-3.0,-7.0,-997.0,16:01:33.631993,192.168.0.111
363,2,25,0,70,"2,0,-179",0,0,-2,0,0,0,63,65,69,60,100,-104.32,36,13.0,-9.0,-1000.0,16:01:33.733950,192.168.0.111
364,2,25,0,70,"2,0,-179",0,0,-2,0,0,0,63,65,69,60,100,-104.26,36,-1.0,-10.0,-1006.0,16:01:33.835933,192.168.0.111
365,2,25,0,70,"2,0,-179",0,0,-2,0,0,0,63,65,69,60,100,-104.29,36,-9.0,-7.0,-990.0,16:01:34.073990,192.168.0.111
366,2,25,0,70,"2,0,-179",0,0,-2,0,0,0,63,65,70,60,100,-104.28,36,-5.0,-4.0,-998.0,16:01:34.074214,192.168.0.111
367,2,25,0,70,"2,0,-179",0,0,-2,0,0,0,63,65,70,60,100,-104.26,36,-10.0,6.0,-1000.0,16:01:34.142275,192.168.0.111
368,2,25,0,70,"2,0,-179",0,0,-2,0,0,0,62,64,69,60,100,-104.29,36,4.0,-15.0,-993.0,16:01:34.244001,192.168.0.111
369,2,25,1,69,"3,1,179",0,0,-2,0,0,0,62,64,70,60,100,-104.34,36,-2.0,1.0,-1012.0,16:01:34.346009,192.168.0.111
370,2,25,1,69,"3,1,179",0,0,-2,0,0,0,62,64,69,60,100,-104.32,36,4.0,-11.0,-1000.0,16:01:34.447984,192.168.0.111
371,2,25,1,69,"3,1,179",0,0,-2,0,0,0,62,64,69,60,100,-104.33,37,9.0,-10.0,-1001.0,16:01:34.582521,192.168.0.111
372,2,25,1,69,"3,1,179",0,0,-2,0,0,0,62,64,69,60,100,-104.36,37,5.0,-2.0,-1004.0,16:01:34.652643,192.168.0.111
373,2,25,1,69,"3,1,179",0,0,-2,0,0,0,62,64,69,60,100,-104.4,37,10.0,-20.0,-999.0,16:01:34.754623,192.168.0.111
374,2,25,1,69,"3,1,179",0,0,-2,0,0,0,62,64,69,60,100,-104.37,37,-1.0,-4.0,-1000.0,16:01:34.856449,192.168.0.111
375,2,30,-4,68,"3,0,-178",0,0,-2,0,0,0,62,64,68,60,100,-104.34,37,-3.0,-6.0,-991.0,16:01:34.958575,192.168.0.111
376,2,30,-4,68,"3,0,-178",0,0,-2,0,0,0,62,64,69,60,100,-104.31,37,5.0,-12.0,-996.0,16:01:35.060534,192.168.0.111
377,2,30,-4,68,"3,0,-178",0,0,-2,0,0,0,62,64,69,60,100,-104.4,37,3.0,-11.0,-1000.0,16:01:35.162677,192.168.0.111
378,2,30,-4,68,"3,0,-178",0,0,-2,0,0,0,62,65,69,60,100,-104.35,37,-15.0,3.0,-1000.0,16:01:35.264622,192.168.0.111
379,2,30,-4,68,"3,0,-178",0,0,-2,0,0,0,62,65,69,60,100,-104.3,37,21.0,-14.0,-996.0,16:01:35.472446,192.168.0.111
380,2,30,-4,68,"3,0,-178",0,0,-2,0,0,0,62,65,69,60,100,-104.35,37,-4.0,-11.0,-999.0,16:01:35.472638,192.168.0.111
381,2,30,-4,68,"3,0,-178",0,0,-2,0,0,0,62,65,69,60,100,-104.35,38,0.0,-6.0,-1007.0,16:01:35.570703,192.168.0.111
382,2,31,-4,68,"3,0,-179",0,0,-2,0,0,0,62,65,69,60,100,-104.33,38,0.0,-15.0,-1001.0,16:01:35.672673,192.168.0.111
383,2,31,-4,68,"3,0,-179",0,0,-2,0,0,0,62,65,69,60,100,-104.33,38,2.0,-9.0,-1001.0,16:01:35.774581,192.168.0.111
384,2,31,-4,68,"3,0,-179",0,0,-2,0,0,0,62,65,68,60,100,-104.33,38,2.0,-9.0,-1000.0,16:01:35.876366,192.168.0.111
385,2,31,-4,68,"3,0,-179",0,0,-2,0,0,0,62,65,68,60,100,-104.26,38,8.0,-16.0,-988.0,16:01:35.978654,192.168.0.111
386,2,31,-4,68,"3,0,-179",1,0,-2,0,0,0,62,65,68,60,100,-104.32,38,3.0,-8.0,-995.0,16:01:36.080801,192.168.0.111
387,2,31,-4,68,"3,0,-179",1,0,-2,0,0,0,62,65,68,60,100,-104.43,38,3.0,-11.0,-1004.0,16:01:36.183064,192.168.0.111
388,2,31,-4,68,"3,0,-179",1,0,-2,0,0,0,62,65,68,60,100,-104.37,38,7.0,-17.0,-992.0,16:01:36.284896,192.168.0.111
389,2,32,-4,68,"3,0,-178",0,0,-2,0,0,0,62,65,68,60,100,-104.36,38,4.0,-5.0,-990.0,16:01:36.386647,192.168.0.111
390,2,32,-4,68,"3,0,-178",0,0,-2,0,0,0,62,65,68,60,100,-104.36,38,9.0,-18.0,-996.0,16:01:36.488672,192.168.0.111
391,2,32,-4,68,"3,0,-178",0,0,-2,0,0,0,62,65,68,60,100,-104.38,39,7.0,-10.0,-1000.0,16:01:36.540311,192.168.0.111
392,2,32,-4,68,"3,0,-178",0,0,-2,0,0,0,62,65,69,60,100,-104.43,39,17.0,-12.0,-1009.0,16:01:36.642628,192.168.0.111
393,2,32,-4,68,"3,0,-178",0,0,-2,0,0,0,62,65,69,60,100,-104.39,39,15.0,-17.0,-1000.0,16:01:36.744615,192.168.0.111
394,2,32,-4,68,"3,0,-178",0,0,-2,0,0,0,62,65,69,60,100,-104.38,39,3.0,-12.0,-985.0,16:01:36.846717,192.168.0.111
395,2,32,-5,68,"2,0,-177",1,0,-2,0,0,0,62,65,69,60,100,-104.42,39,12.0,-2.0,-995.0,16:01:37.145229,192.168.0.111
396,2,32,-5,68,"2,0,-177",1,0,-2,0,0,0,62,65,68,60,100,-104.45,39,-3.0,-12.0,-1003.0,16:01:37.145409,192.168.0.111
397,2,32,-5,68,"2,0,-177",0,0,-2,0,0,0,62,65,69,60,100,-104.4,39,8.0,-22.0,-994.0,16:01:37.153755,192.168.0.111
398,2,32,-5,68,"2,0,-177",0,0,-2,0,0,0,63,65,69,60,100,-104.4,39,8.0,-16.0,-999.0,16:01:37.254567,192.168.0.111
399,2,32,-5,68,"2,0,-177",0,0,-2,0,0,0,63,65,69,60,100,-104.3,39,1.0,-1.0,-1013.0,16:01:37.356773,192.168.0.111
400,2,32,-5,68,"2,0,-177",0,0,-2,0,0,0,63,65,69,60,100,-104.37,39,1.0,-3.0,-995.0,16:01:37.458369,192.168.0.111
401,2,32,-5,68,"2,0,-177",0,0,-2,0,0,0,63,65,69,60,100,-104.36,40,0.0,-3.0,-994.0,16:01:37.560544,192.168.0.111
402,2,32,-2,68,"3,0,-179",0,0,-2,0,0,0,63,65,68,60,100,-104.35,40,10.0,-17.0,-998.0,16:01:37.662728,192.168.0.111
403,2,32,-2,68,"3,0,-179",0,0,-2,0,0,0,63,65,69,60,100,-104.39,40,7.0,-18.0,-1000.0,16:01:37.869948,192.168.0.111
404,2,32,-2,68,"3,0,-179",0,0,-2,0,0,0,63,65,69,60,100,-104.38,40,7.0,-9.0,-994.0,16:01:37.870189,192.168.0.111
405,2,32,-2,68,"3,0,-179",1,0,-2,0,0,0,63,65,69,60,100,-104.36,40,12.0,-20.0,-982.0,16:01:37.968415,192.168.0.111
406,2,32,-2,68,"3,0,-179",1,0,-2,0,0,0,63,65,69,60,100,-104.38,40,14.0,-6.0,-1003.0,16:01:38.070504,192.168.0.111
407,2,32,-2,68,"3,0,-179",1,0,-2,0,0,0,63,65,69,60,100,-104.34,40,14.0,-9.0,-993.0,16:01:38.172505,192.168.0.111
408,2,31,-4,69,"2,0,-178",1,0,-2,0,0,0,63,65,69,60,100,-104.33,40,-3.0,-12.0,-1000.0,16:01:38.274511,192.168.0.111
409,2,31,-4,69,"2,0,-178",1,0,-2,0,0,0,63,65,69,60,100,-104.38,40,21.0,-19.0,-1012.0,16:01:38.376795,192.168.0.111
410,2,31,-4,69,"2,0,-178",1,0,-2,0,0,0,63,65,69,60,100,-104.42,41,10.0,-11.0,-998.0,16:01:38.478544,192.168.0.111
411,2,31,-4,69,"2,0,-178",1,0,-2,0,0,0,63,65,69,60,100,-104.36,41,12.0,-7.0,-997.0,16:01:38.580473,192.168.0.111
412,2,31,-4,69,"2,0,-178",1,0,-2,0,0,0,63,65,69,60,100,-104.3,41,6.0,-10.0,-983.0,16:01:38.682452,192.168.0.111
413,2,31,-4,69,"2,0,-178",1,0,-2,0,0,0,63,65,69,60,100,-104.38,41,8.0,-1.0,-1002.0,16:01:38.784350,192.168.0.111
414,2,31,-4,69,"2,0,-178",1,0,-2,0,0,0,63,65,68,60,100,-104.41,41,10.0,-9.0,-984.0,16:01:38.886479,192.168.0.111
415,2,33,-6,68,"3,0,-177",1,0,-2,0,0,0,63,65,68,60,100,-104.35,41,13.0,2.0,-990.0,16:01:38.988493,192.168.0.111
416,2,33,-6,68,"3,0,-177",1,0,-2,0,0,0,63,65,68,60,100,-104.46,41,15.0,-5.0,-990.0,16:01:39.090498,192.168.0.111
417,2,33,-6,68,"3,0,-177",1,0,-2,0,0,0,63,65,68,60,100,-104.44,41,0.0,-7.0,-988.0,16:01:39.192491,192.168.0.111
418,2,33,-6,68,"3,0,-177",1,0,-2,0,0,0,63,65,68,60,100,-104.44,41,0.0,0.0,-992.0,16:01:39.294675,192.168.0.111
419,2,33,-6,68,"3,0,-177",1,0,-2,0,0,0,63,65,68,60,100,-104.4,41,14.0,-13.0,-1003.0,16:01:39.499207,192.168.0.111
420,2,33,-6,68,"3,0,-177",1,0,-2,0,0,0,63,65,68,60,100,-104.37,42,8.0,-3.0,-1005.0,16:01:39.500088,192.168.0.111
421,2,32,-4,69,"2,0,-179",1,0,-2,0,0,0,63,65,68,60,100,-104.37,42,13.0,3.0,-1006.0,16:01:39.600477,192.168.0.111
422,2,32,-4,69,"2,0,-179",1,0,-2,0,0,0,63,65,68,60,100,-104.35,42,19.0,-9.0,-995.0,16:01:39.702551,192.168.0.111
423,2,32,-4,69,"2,0,-179",1,0,-2,0,0,0,63,65,68,60,100,-104.35,42,2.0,2.0,-994.0,16:01:39.804243,192.168.0.111
424,2,32,-4,69,"2,0,-179",1,0,-2,0,0,0,63,65,68,60,100,-104.32,42,6.0,-4.0,-1001.0,16:01:39.906546,192.168.0.111
425,2,32,-4,69,"2,0,-179",1,0,-2,0,0,0,63,65,68,60,100,-104.4,42,17.0,-14.0,-998.0,16:01:40.008973,192.168.0.111
426,2,32,-4,69,"2,0,-179",1,0,-2,0,0,0,63,65,68,60,100,-104.34,42,2.0,-1.0,-994.0,16:01:40.111227,192.168.0.111
427,2,32,-4,69,"2,0,-179",1,0,-2,0,0,0,63,65,67,60,100,-104.32,42,14.0,-8.0,-997.0,16:01:40.213739,192.168.0.111
428,2,33,-4,68,"2,0,-179",1,0,-2,0,0,0,63,65,67,60,100,-104.37,42,7.0,-9.0,-1002.0,16:01:40.316079,192.168.0.111
429,2,33,-4,68,"2,0,-179",0,0,-2,0,0,0,63,65,67,60,100,-104.35,42,8.0,-1.0,-1019.0,16:01:40.418488,192.168.0.111
430,2,33,-4,68,"2,0,-179",0,0,-2,0,0,0,63,65,67,60,100,-104.33,43,6.0,-15.0,-1009.0,16:01:40.520809,192.168.0.111
431,2,33,-4,68,"2,0,-179",0,0,-2,0,0,0,63,65,67,60,100,-104.37,43,5.0,-8.0,-992.0,16:01:40.623270,192.168.0.111
432,2,33,-4,68,"2,0,-179",0,0,-2,0,0,0,63,65,67,60,100,-104.33,43,4.0,-10.0,-998.0,16:01:40.722456,192.168.0.111
433,2,33,-4,68,"2,0,-179",0,0,-2,0,0,0,63,65,67,60,100,-104.35,43,7.0,-4.0,-1001.0,16:01:40.951905,192.168.0.111
434,2,33,-4,68,"2,0,-179",0,0,-2,0,0,0,63,65,68,60,100,-104.38,43,11.0,-8.0,-1007.0,16:01:40.952088,192.168.0.111
435,2,33,-3,67,"2,0,-179",0,0,-2,0,0,0,63,65,68,60,100,-104.36,43,13.0,-18.0,-997.0,16:01:41.028440,192.168.0.111
436,2,33,-3,67,"2,0,-179",0,0,-2,0,0,0,63,65,68,60,100,-104.36,43,2.0,-9.0,-1007.0,16:01:41.130460,192.168.0.111
437,2,33,-3,67,"2,0,-179",0,0,-2,0,0,0,63,65,68,60,100,-104.33,43,4.0,-8.0,-993.0,16:01:41.232928,192.168.0.111
438,2,33,-3,67,"2,0,-179",0,0,-2,0,0,0,63,66,68,60,100,-104.35,43,1.0,-6.0,-989.0,16:01:41.334458,192.168.0.111
439,2,33,-3,67,"2,0,-179",0,0,-2,0,0,0,63,66,69,60,100,-104.34,43,12.0,-17.0,-1006.0,16:01:41.436388,192.168.0.111
440,2,33,-3,67,"2,0,-179",0,0,-2,0,0,0,63,66,69,60,100,-104.38,44,6.0,-6.0,-1012.0,16:01:41.538445,192.168.0.111
441,2,32,-5,67,"3,0,-177",0,0,-2,0,0,0,63,66,68,60,100,-104.31,44,10.0,-18.0,-989.0,16:01:41.640498,192.168.0.111
442,2,32,-5,67,"3,0,-177",0,0,-2,0,0,0,63,66,69,60,100,-104.34,44,5.0,-11.0,-998.0,16:01:41.742454,192.168.0.111
443,2,32,-5,67,"3,0,-177",0,0,-2,0,0,0,63,66,69,60,100,-104.31,44,1.0,-6.0,-989.0,16:01:41.844722,192.168.0.111
444,2,32,-5,67,"3,0,-177",0,0,-2,0,0,0,63,66,69,60,100,-104.27,44,16.0,-8.0,-1012.0,16:01:41.947180,192.168.0.111
445,2,32,-5,67,"3,0,-177",1,0,-2,0,0,0,63,66,69,60,100,-104.31,44,7.0,-2.0,-990.0,16:01:42.048470,192.168.0.111
446,2,32,-5,67,"3,0,-177",1,0,-2,0,0,0,63,66,68,60,99,-104.36,44,15.0,-28.0,-993.0,16:01:42.150414,192.168.0.111
447,2,32,-5,67,"3,0,-177",1,0,-2,0,0,0,63,66,68,60,99,-104.34,44,15.0,-6.0,-1009.0,16:01:42.252482,192.168.0.111
448,2,31,-4,69,"2,0,-177",1,0,-2,0,0,0,63,66,69,60,99,-104.35,44,13.0,-7.0,-996.0,16:01:42.354454,192.168.0.111
449,2,31,-4,69,"2,0,-177",1,0,-2,0,0,0,63,66,69,60,99,-104.33,44,13.0,-6.0,-1002.0,16:01:42.405708,192.168.0.111
450,2,31,-4,69,"2,0,-177",1,0,-2,0,0,0,63,66,69,60,99,-104.32,45,13.0,-20.0,-993.0,16:01:42.570493,192.168.0.111
451,2,31,-4,69,"2,0,-177",1,0,-2,0,0,0,63,66,68,60,99,-104.31,45,18.0,-14.0,-995.0,16:01:42.610370,192.168.0.111
452,2,31,-4,69,"2,0,-177",1,0,-2,0,0,0,63,66,68,60,99,-104.29,45,7.0,-7.0,-992.0,16:01:42.712448,192.168.0.111
453,2,31,-4,69,"2,0,-177",1,0,-2,0,0,0,63,66,69,60,99,-104.33,45,11.0,-4.0,-1007.0,16:01:42.814363,192.168.0.111
454,2,31,-4,69,"2,0,-177",1,0,-2,0,0,0,63,66,68,60,99,-104.32,45,15.0,-14.0,-1001.0,16:01:42.916404,192.168.0.111
455,2,33,-4,68,"3,0,-177",1,0,-2,0,0,0,63,66,68,60,99,-104.33,45,10.0,-1.0,-999.0,16:01:43.018348,192.168.0.111
456,2,33,-4,68,"3,0,-177",1,0,-2,0,0,0,63,66,68,60,99,-104.37,45,21.0,-11.0,-1003.0,16:01:43.120446,192.168.0.111
457,2,33,-4,68,"3,0,-177",1,0,-2,0,0,0,63,66,68,60,99,-104.29,45,20.0,-20.0,-1000.0,16:01:43.222360,192.168.0.111
458,2,33,-4,68,"3,0,-177",1,0,-2,0,0,0,63,66,68,60,99,-104.3,45,20.0,-16.0,-998.0,16:01:43.324408,192.168.0.111
459,2,33,-4,68,"3,0,-177",1,0,-2,0,0,0,63,66,68,60,99,-104.29,45,10.0,-9.0,-1002.0,16:01:43.426669,192.168.0.111
460,2,33,-4,68,"3,0,-177",1,0,-2,0,0,0,63,66,68,60,99,-104.23,46,11.0,-15.0,-994.0,16:01:43.528371,192.168.0.111
461,2,32,-4,68,"2,0,-177",1,0,-2,0,0,0,63,66,68,60,99,-104.32,46,10.0,-5.0,-997.0,16:01:43.630323,192.168.0.111
462,2,32,-4,68,"2,0,-177",4,0,-2,0,0,0,63,66,68,60,99,-104.35,46,20.0,-20.0,-1014.0,16:01:43.732324,192.168.0.111
463,2,32,-4,68,"2,0,-177",3,0,-2,1,0,0,63,66,68,60,99,-104.25,46,10.0,-12.0,-1002.0,16:01:43.834333,192.168.0.111
464,2,32,-4,68,"2,0,-177",2,0,-2,1,0,0,63,66,68,60,99,-104.29,46,20.0,-14.0,-995.0,16:01:43.936371,192.168.0.111
465,2,32,-4,68,"2,0,-177",1,0,-2,1,0,0,63,66,68,60,99,-104.25,46,25.0,-17.0,-1002.0,16:01:44.038314,192.168.0.111
466,2,32,-4,68,"2,0,-177",0,0,-2,1,0,0,63,66,69,60,98,-104.27,46,18.0,-5.0,-1002.0,16:01:44.140596,192.168.0.111
467,2,32,-4,68,"2,0,-177",1,0,-2,1,0,0,63,66,68,60,98,-104.18,46,14.0,-12.0,-1006.0,16:01:44.242368,192.168.0.111
468,2,31,-4,68,"0,0,-178",1,0,-2,1,0,0,63,66,68,60,98,-104.21,46,4.0,-16.0,-1006.0,16:01:44.344354,192.168.0.111
469,2,31,-4,68,"0,0,-178",1,0,-2,1,0,0,63,66,68,60,98,-104.26,46,4.0,-9.0,-1009.0,16:01:44.445979,192.168.0.111
470,2,31,-4,68,"0,0,-178",0,0,-2,0,0,0,63,66,68,60,98,-104.29,47,-1.0,-10.0,-1034.0,16:01:44.549509,192.168.0.111
471,2,31,-4,68,"0,0,-178",0,0,-2,0,0,0,63,66,68,60,98,-104.32,47,5.0,-13.0,-986.0,16:01:44.752908,192.168.0.111
472,2,31,-4,68,"0,0,-178",0,0,-2,0,0,0,63,66,68,60,98,-104.26,47,12.0,-6.0,-992.0,16:01:44.753302,192.168.0.111
473,2,31,-4,68,"0,0,-178",0,0,-2,0,0,0,63,66,68,60,98,-104.3,47,13.0,-9.0,-994.0,16:01:45.029965,192.168.0.111
474,2,31,-4,68,"0,0,-178",0,0,-2,0,0,0,63,66,68,60,98,-104.35,47,9.0,-10.0,-997.0,16:01:45.030147,192.168.0.111
475,2,25,-4,69,"2,0,-177",0,0,-2,0,0,0,63,66,68,60,98,-104.31,47,0.0,-8.0,-996.0,16:01:45.058244,192.168.0.111
476,2,25,-4,69,"2,0,-177",0,0,-2,0,0,0,63,66,68,60,98,-104.28,47,10.0,-21.0,-999.0,16:01:45.160052,192.168.0.111
477,2,25,-4,69,"2,0,-177",0,0,-2,0,0,0,63,66,68,60,98,-104.15,47,10.0,-4.0,-1002.0,16:01:45.262247,192.168.0.111
478,2,25,-4,69,"2,0,-177",0,0,-2,0,0,0,63,67,68,60,98,-104.32,47,8.0,-18.0,-1008.0,16:01:45.364318,192.168.0.111
479,2,25,-4,69,"2,0,-177",0,0,-2,0,0,0,63,67,68,60,98,-104.34,47,10.0,-14.0,-993.0,16:01:45.466151,192.168.0.111
480,2,25,-4,69,"2,0,-177",1,0,-2,0,0,0,63,67,68,60,98,-104.24,48,6.0,-16.0,-1000.0,16:01:45.517686,192.168.0.111
481,2,25,-4,69,"2,0,-177",1,0,-2,0,0,0,63,67,68,60,98,-104.25,48,11.0,-8.0,-1006.0,16:01:45.619606,192.168.0.111
482,2,25,-4,69,"2,0,-177",1,0,-2,0,0,0,63,67,68,60,98,-104.23,48,1.0,-13.0,-997.0,16:01:45.721525,192.168.0.111
483,2,25,-4,69,"2,0,-177",1,0,-2,0,0,0,63,67,68,60,98,-104.26,48,15.0,-8.0,-1007.0,16:01:45.883247,192.168.0.111
484,2,25,-4,69,"2,0,-177",1,0,-2,0,0,0,63,67,68,60,98,-104.32,48,0.0,-17.0,-991.0,16:01:45.925626,192.168.0.111
485,2,25,-4,69,"2,0,-177",1,0,-2,0,0,0,63,67,68,60,98,-104.31,48,0.0,-8.0,-987.0,16:01:46.027638,192.168.0.111
486,2,25,-4,69,"2,0,-177",1,0,-2,0,0,0,63,67,68,60,97,-104.33,48,4.0,-13.0,-991.0,16:01:46.129674,192.168.0.111
487,2,25,-4,69,"2,0,-177",1,0,-2,0,0,0,63,67,68,60,97,-104.28,48,13.0,-8.0,-1003.0,16:01:46.231413,192.168.0.111
488,2,29,-4,68,"3,0,-178",1,0,-2,0,0,0,65,66,68,60,97,-104.27,48,4.0,-10.0,-1011.0,16:01:46.333481,192.168.0.111
489,2,29,-4,68,"3,0,-178",1,0,-2,0,0,0,65,66,68,60,97,-104.27,48,3.0,-5.0,-1002.0,16:01:46.435949,192.168.0.111
490,2,29,-4,68,"3,0,-178",1,0,-2,0,0,0,65,66,69,60,97,-104.31,49,-4.0,-5.0,-1007.0,16:01:46.538024,192.168.0.111
491,2,29,-4,68,"3,0,-178",1,0,-2,0,0,0,65,66,69,60,97,-104.29,49,10.0,-10.0,-999.0,16:01:46.640199,192.168.0.111
492,2,29,-4,68,"3,0,-178",1,0,-2,0,0,0,65,66,69,60,97,-104.34,49,16.0,-16.0,-1003.0,16:01:46.741616,192.168.0.111
493,2,29,-4,68,"3,0,-178",1,0,-2,0,0,0,65,66,69,60,97,-104.29,49,13.0,-19.0,-996.0,16:01:46.843890,192.168.0.111
494,2,29,-4,68,"3,0,-178",1,0,-2,0,0,0,65,66,69,60,97,-104.31,49,5.0,-13.0,-993.0,16:01:47.013261,192.168.0.111
495,2,31,-6,68,"4,0,-177",1,0,-2,0,0,0,65,66,69,60,97,-104.34,49,12.0,-16.0,-1006.0,16:01:47.047649,192.168.0.111
496,2,31,-6,68,"4,0,-177",1,0,-2,0,0,0,65,66,69,60,97,-104.27,49,4.0,-16.0,-999.0,16:01:47.149681,192.168.0.111
497,2,31,-6,68,"4,0,-177",0,0,-2,0,0,0,65,66,68,60,97,-104.29,49,6.0,-9.0,-997.0,16:01:47.251474,192.168.0.111
498,2,31,-6,68,"4,0,-177",0,0,-2,0,0,0,63,67,68,60,97,-104.35,49,0.0,-14.0,-1006.0,16:01:47.424357,192.168.0.111
499,2,31,-6,68,"4,0,-177",0,0,-2,0,0,0,63,67,69,60,97,-104.34,49,8.0,-9.0,-997.0,16:01:47.456714,192.168.0.111
500,2,31,-6,68,"4,0,-177",0,0,-2,0,0,0,63,67,68,60,97,-104.24,50,15.0,-9.0,-998.0,16:01:47.557528,192.168.0.111
501,2,31,-5,67,"4,0,-177",0,0,-2,0,0,0,63,67,69,60,97,-104.3,50,10.0,-10.0,-997.0,16:01:47.659565,192.168.0.111
502,2,31,-5,67,"4,0,-177",0,0,-2,0,0,0,63,67,69,60,97,-104.3,50,9.0,-12.0,-988.0,16:01:47.761425,192.168.0.111
503,2,31,-5,67,"4,0,-177",1,0,-2,0,0,0,63,67,69,60,97,-104.36,50,5.0,-5.0,-1006.0,16:01:47.863537,192.168.0.111
504,2,31,-5,67,"4,0,-177",1,0,-2,0,0,0,63,67,69,60,97,-104.33,50,-1.0,-18.0,-1001.0,16:01:47.965435,192.168.0.111
505,2,31,-5,67,"4,0,-177",1,0,-2,0,0,0,63,67,70,60,97,-104.33,50,8.0,-4.0,-991.0,16:01:48.067257,192.168.0.111
506,2,31,-5,67,"4,0,-177",0,0,-2,0,0,0,63,67,70,60,96,-104.36,50,10.0,-13.0,-998.0,16:01:48.169585,192.168.0.111
507,2,31,-5,67,"4,0,-177",0,0,-2,0,0,0,63,67,70,60,96,-104.36,50,12.0,-9.0,-1006.0,16:01:48.271438,192.168.0.111
508,2,29,-5,69,"3,0,-177",0,0,-2,0,0,0,63,66,70,60,96,-104.32,50,0.0,-11.0,-984.0,16:01:48.373512,192.168.0.111
509,2,29,-5,69,"3,0,-177",0,0,-2,0,0,0,63,66,70,60,96,-104.33,50,8.0,-10.0,-987.0,16:01:48.475497,192.168.0.111
510,2,29,-5,69,"3,0,-177",0,0,-2,0,0,0,63,66,70,60,96,-104.33,51,9.0,-12.0,-995.0,16:01:48.577493,192.168.0.111
511,2,29,-5,69,"3,0,-177",0,0,-2,0,0,0,63,66,70,60,96,-104.36,51,20.0,-14.0,-1003.0,16:01:48.679411,192.168.0.111
512,2,29,-5,69,"3,0,-177",0,0,-2,0,0,0,63,66,70,60,96,-104.34,51,10.0,-16.0,-988.0,16:01:48.781315,192.168.0.111
513,2,29,-5,69,"3,0,-177",0,0,-2,0,0,0,63,66,70,60,96,-104.29,51,7.0,-13.0,-993.0,16:01:48.883655,192.168.0.111
514,2,29,-5,69,"3,0,-177",0,0,-2,0,0,0,63,66,70,60,96,-104.29,51,13.0,-1.0,-1009.0,16:01:48.965371,192.168.0.111
515,2,28,-6,70,"2,0,-176",0,0,-2,0,0,0,63,66,69,60,96,-104.37,51,11.0,-14.0,-1001.0,16:01:49.036124,192.168.0.111
516,2,28,-6,70,"2,0,-176",0,0,-2,0,0,0,63,66,69,60,96,-104.33,51,13.0,-17.0,-1006.0,16:01:49.138148,192.168.0.111
517,2,28,-6,70,"2,0,-176",1,0,-2,0,0,0,63,66,70,60,96,-104.33,51,12.0,-14.0,-1008.0,16:01:49.329863,192.168.0.111
518,2,28,-6,70,"2,0,-176",1,0,-2,0,0,0,63,66,70,60,96,-104.37,51,5.0,-2.0,-1012.0,16:01:49.342161,192.168.0.111
519,2,28,-6,70,"2,0,-176",0,0,-2,0,0,0,63,66,70,60,96,-104.4,51,2.0,-9.0,-991.0,16:01:49.444247,192.168.0.111
520,2,28,-6,70,"2,0,-176",1,0,-2,0,0,0,63,66,69,60,96,-104.31,52,8.0,-7.0,-1006.0,16:01:49.546352,192.168.0.111
521,2,28,-5,69,"3,0,-177",0,0,-2,0,0,0,63,66,69,60,96,-104.3,52,25.0,-19.0,-999.0,16:01:49.648234,192.168.0.111
522,2,28,-5,69,"3,0,-177",0,0,-2,0,0,0,63,66,69,60,96,-104.32,52,23.0,-18.0,-992.0,16:01:49.750224,192.168.0.111
523,2,28,-5,69,"3,0,-177",1,0,-2,0,0,0,63,66,69,60,96,-104.27,52,22.0,-15.0,-1004.0,16:01:49.852160,192.168.0.111
524,2,28,-5,69,"3,0,-177",1,0,-2,0,0,0,63,66,69,60,96,-104.36,52,9.0,-6.0,-994.0,16:01:49.959358,192.168.0.111
525,2,28,-5,69,"3,0,-177",1,0,-2,0,0,0,63,66,69,60,96,-104.26,52,7.0,-6.0,-1005.0,16:01:50.056134,192.168.0.111
526,2,28,-5,69,"3,0,-177",1,0,-2,0,0,0,63,66,69,60,95,-104.31,52,11.0,0.0,-997.0,16:01:50.164460,192.168.0.111
527,2,28,-5,69,"3,0,-177",1,0,-2,0,0,0,63,66,69,60,95,-104.32,52,8.0,2.0,-1000.0,16:01:50.260118,192.168.0.111
528,2,29,-5,69,"3,0,-178",1,0,-2,0,0,0,64,66,69,60,95,-104.31,52,31.0,-13.0,-999.0,16:01:50.456369,192.168.0.111
529,2,29,-5,69,"3,0,-178",1,0,-2,0,0,0,64,66,69,60,95,-104.34,52,22.0,3.0,-1004.0,16:01:50.464859,192.168.0.111
530,2,29,-5,69,"3,0,-178",1,0,-2,0,0,0,64,66,69,60,95,-104.38,53,15.0,-1.0,-997.0,16:01:50.566095,192.168.0.111
