,mid,x,y,z,mpry,pitch,roll,yaw,vgx,vgy,vgz,templ,temph,tof,h,bat,baro,time,agx,agy,agz,timestamp,address
2,-1,-100,-100,-100,"0,0,0",0,0,0,0,0,0,63,65,10,0,79,-1.48,0,-3.0,-1.0,-998.0,13:59:28.221226,192.168.0.115
7,-1,-100,-100,-100,"0,0,0",0,0,0,0,0,0,63,65,10,0,79,-1.52,0,-2.0,-1.0,-1000.0,13:59:28.324724,192.168.0.115
12,-1,-100,-100,-100,"0,0,0",0,0,0,0,0,0,63,65,10,0,79,-1.52,0,-5.0,1.0,-996.0,13:59:28.425704,192.168.0.115
17,-1,-100,-100,-100,"0,0,0",0,0,0,0,0,0,63,65,10,0,79,-1.52,0,-9.0,3.0,-1001.0,13:59:28.527560,192.168.0.115
23,-1,-100,-100,-100,"0,0,0",0,0,0,0,0,0,63,65,10,0,79,-1.52,0,-4.0,14.0,-1009.0,13:59:28.629647,192.168.0.115
28,-1,-100,-100,-100,"0,0,0",0,0,0,0,0,0,63,65,10,0,79,-1.52,0,-48.0,46.0,-1025.0,13:59:28.735982,192.168.0.115
33,-1,-100,-100,-100,"0,0,0",0,0,0,0,0,0,63,65,10,0,79,-1.52,0,-9.0,-13.0,-1035.0,13:59:28.833035,192.168.0.115
38,-1,-100,-100,-100,"0,0,0",-1,0,0,0,0,1,63,65,10,0,79,-1.52,0,-7.0,-16.0,-1005.0,13:59:28.935547,192.168.0.115
43,-1,-100,-100,-100,"0,0,0",0,0,0,0,0,3,63,65,10,0,79,-1.52,0,-4.0,-18.0,-1137.0,13:59:29.037680,192.168.0.115
48,-1,-100,-100,-100,"0,0,0",0,0,0,0,0,6,63,65,12,0,79,-1.52,0,7.0,-26.0,-1232.0,13:59:29.139588,192.168.0.115
53,-1,-100,-100,-100,"0,0,0",0,0,0,0,0,7,63,65,20,10,79,-1.26,0,-85.0,-29.0,-1024.0,13:59:29.241491,192.168.0.115
59,-1,-100,-100,-100,"0,0,0",0,1,0,0,0,8,63,65,26,10,79,-1.24,0,-36.0,-49.0,-937.0,13:59:29.343571,192.168.0.115
64,-1,-100,-100,-100,"0,0,0",-1,1,0,1,0,7,63,65,34,20,79,-0.97,1,-119.0,-35.0,-954.0,13:59:29.445514,192.168.0.115
69,-1,-100,-100,-100,"0,0,0",-3,1,0,1,0,7,63,65,44,30,79,-0.94,1,-86.0,-34.0,-886.0,13:59:29.547520,192.168.0.115
74,-1,-100,-100,-100,"0,0,0",-5,4,-1,1,0,6,63,65,52,30,79,-0.62,1,-120.0,-4.0,-847.0,13:59:29.650271,192.168.0.115
75,-1,-100,-100,-100,"0,0,0",-5,2,-1,2,0,5,63,65,58,40,79,-0.72,1,-91.0,-76.0,-853.0,13:59:29.700174,192.168.0.115
80,-1,-100,-100,-100,"0,0,0",-7,1,-1,2,0,3,63,65,64,40,79,-0.65,1,-109.0,-59.0,-834.0,13:59:29.802188,192.168.0.115
85,-1,-100,-100,-100,"0,0,0",-8,3,-1,1,0,2,63,65,67,50,79,-0.77,1,-91.0,-50.0,-960.0,13:59:29.904426,192.168.0.115
91,-1,-100,-100,-100,"0,0,0",-7,3,-1,1,0,1,63,65,70,50,79,-0.85,1,-82.0,-53.0,-932.0,13:59:30.006021,192.168.0.115
97,-1,-100,-100,-100,"0,0,0",-7,4,-1,1,0,1,63,65,72,50,79,-0.83,1,-84.0,16.0,-1071.0,13:59:30.108294,192.168.0.115
102,-1,-100,-100,-100,"0,0,0",-7,1,-1,1,0,1,63,65,75,50,79,-0.83,1,-101.0,-62.0,-1015.0,13:59:30.210384,192.168.0.115
107,-1,-100,-100,-100,"0,0,0",-7,3,-1,0,0,1,63,65,77,50,79,-0.65,1,-71.0,-30.0,-968.0,13:59:30.312280,192.168.0.115
112,-1,-100,-100,-100,"0,0,0",-5,3,-2,0,0,1,63,65,79,50,79,-0.99,2,-93.0,-79.0,-1045.0,13:59:30.414536,192.168.0.115
117,-1,-100,-100,-100,"0,0,0",-4,1,0,0,0,1,63,65,81,60,79,-0.8,2,-128.0,-12.0,-981.0,13:59:30.516316,192.168.0.115
122,-1,-100,-100,-100,"0,0,0",-4,5,0,0,0,0,63,65,82,60,79,-0.89,2,-152.0,17.0,-1036.0,13:59:30.618287,192.168.0.115
128,-1,-100,-100,-100,"0,0,0",-4,2,0,0,-1,0,63,65,84,60,79,-0.95,2,-161.0,-3.0,-980.0,13:59:30.721412,192.168.0.115
132,-1,-100,-100,-100,"0,0,0",-6,0,0,1,-1,0,63,65,86,60,79,-0.67,2,-132.0,-36.0,-1004.0,13:59:30.822285,192.168.0.115
137,-1,-100,-100,-100,"0,0,0",-8,-1,0,0,0,0,63,65,87,60,79,-0.7,2,-118.0,-31.0,-945.0,13:59:30.924172,192.168.0.115
142,-1,-100,-100,-100,"0,0,0",-8,0,0,0,0,0,63,66,88,60,79,-0.97,2,-182.0,5.0,-1010.0,13:59:31.026214,192.168.0.115
147,-1,-100,-100,-100,"0,0,0",-8,2,0,0,0,0,63,66,88,60,79,-0.85,2,-112.0,-14.0,-946.0,13:59:31.128108,192.168.0.115
152,-1,-100,-100,-100,"0,0,0",-9,0,0,0,0,0,63,66,88,60,79,-0.79,2,-72.0,-36.0,-978.0,13:59:31.230202,192.168.0.115
158,-1,-100,-100,-100,"0,0,0",-8,0,0,0,0,0,63,66,88,60,79,-0.86,2,-119.0,2.0,-963.0,13:59:31.332312,192.168.0.115
163,-1,-100,-100,-100,"0,0,0",-6,0,1,0,0,0,63,66,87,60,79,-0.82,3,-110.0,5.0,-1034.0,13:59:31.435112,192.168.0.115
168,-1,-100,-100,-100,"0,0,0",-7,0,0,0,0,0,63,66,87,60,79,-0.97,3,-81.0,21.0,-967.0,13:59:31.536055,192.168.0.115
173,-1,-100,-100,-100,"0,0,0",-7,0,0,0,-1,0,63,66,86,60,79,-0.87,3,-117.0,-4.0,-964.0,13:59:31.638078,192.168.0.115
178,-1,-100,-100,-100,"0,0,0",-6,-1,0,0,0,0,63,66,86,60,79,-0.97,3,-159.0,51.0,-1055.0,13:59:31.740337,192.168.0.115
184,-1,-100,-100,-100,"0,0,0",-7,0,0,0,0,0,63,66,86,60,79,-0.93,3,-138.0,29.0,-995.0,13:59:31.842237,192.168.0.115
189,-1,-100,-100,-100,"0,0,0",-8,-2,0,0,-1,0,63,66,86,60,79,-1.12,3,-148.0,38.0,-1001.0,13:59:31.944113,192.168.0.115
194,-1,-100,-100,-100,"0,0,0",-8,-2,0,0,0,0,63,66,86,60,79,-0.92,3,-83.0,2.0,-958.0,13:59:32.046229,192.168.0.115
199,-1,-100,-100,-100,"0,0,0",-7,-2,0,0,0,0,63,66,85,60,79,-1.07,3,-124.0,24.0,-968.0,13:59:32.148090,192.168.0.115
204,-1,-100,-100,-100,"0,0,0",-7,0,0,0,0,0,63,66,85,60,79,-0.98,3,-118.0,25.0,-959.0,13:59:32.250216,192.168.0.115
209,-1,-100,-100,-100,"0,0,0",-7,0,0,0,0,0,63,66,84,60,79,-0.8,3,-122.0,26.0,-993.0,13:59:32.352152,192.168.0.115
210,-1,-100,-100,-100,"0,0,0",-6,0,0,0,0,0,63,66,83,60,79,-0.72,4,-115.0,-1.0,-931.0,13:59:32.403298,192.168.0.115
216,-1,-100,-100,-100,"0,0,0",-5,-1,0,0,0,0,63,66,82,60,79,-1.02,4,-155.0,-3.0,-1123.0,13:59:32.505312,192.168.0.115
221,-1,-100,-100,-100,"0,0,0",-7,-2,0,0,0,0,63,66,82,60,79,-0.81,4,-144.0,18.0,-965.0,13:59:32.609761,192.168.0.115
227,-1,-100,-100,-100,"0,0,0",-9,-1,0,0,0,0,63,66,84,60,79,-0.89,4,-110.0,-15.0,-945.0,13:59:32.709250,192.168.0.115
232,-1,-100,-100,-100,"0,0,0",-8,0,0,0,0,0,63,66,83,60,79,-0.91,4,-128.0,-39.0,-892.0,13:59:32.811354,192.168.0.115
237,-1,-100,-100,-100,"0,0,0",-7,-3,-1,0,0,0,63,66,82,60,79,-0.91,4,-125.0,-23.0,-996.0,13:59:32.913381,192.168.0.115
242,-1,-100,-100,-100,"0,0,0",-7,0,-1,0,0,0,62,65,82,60,79,-0.92,4,-123.0,20.0,-999.0,13:59:33.015375,192.168.0.115
247,-1,-100,-100,-100,"0,0,0",-7,2,-1,0,0,0,62,65,82,60,79,-0.93,4,-89.0,-42.0,-995.0,13:59:33.117249,192.168.0.115
252,-1,-100,-100,-100,"0,0,0",-7,0,-1,0,0,0,62,65,81,60,79,-1.19,4,-96.0,-81.0,-945.0,13:59:33.219470,192.168.0.115
257,-1,-100,-100,-100,"0,0,0",-6,1,0,-1,1,0,62,65,80,60,79,-1.04,4,-127.0,32.0,-979.0,13:59:33.321074,192.168.0.115
262,-1,-100,-100,-100,"0,0,0",-5,3,0,-1,0,0,62,65,81,60,79,-1.13,5,-148.0,6.0,-1012.0,13:59:33.423268,192.168.0.115
267,-1,-100,-100,-100,"0,0,0",-5,0,0,0,0,0,62,65,81,60,79,-1.07,5,-138.0,29.0,-942.0,13:59:33.525237,192.168.0.115
272,-1,-100,-100,-100,"0,0,0",-6,1,0,0,0,0,62,65,82,60,79,-1.06,5,-96.0,-44.0,-992.0,13:59:33.627383,192.168.0.115
277,-1,-100,-100,-100,"0,0,0",-6,0,0,0,0,0,62,65,82,60,79,-1.16,5,-100.0,22.0,-963.0,13:59:33.729326,192.168.0.115
282,-1,-100,-100,-100,"0,0,0",-6,0,0,0,0,0,62,65,83,60,79,-1.02,5,-125.0,35.0,-1028.0,13:59:33.831390,192.168.0.115
287,-1,-100,-100,-100,"0,0,0",-6,0,0,0,0,0,62,65,83,60,79,-1.15,5,-117.0,13.0,-961.0,13:59:33.933711,192.168.0.115
293,-1,-100,-100,-100,"0,0,0",-5,0,0,0,0,0,63,65,84,60,79,-1.14,5,-67.0,5.0,-966.0,13:59:34.036144,192.168.0.115
297,-1,-100,-100,-100,"0,0,0",-4,-2,0,0,0,0,63,65,84,60,79,-0.84,5,-171.0,29.0,-948.0,13:59:34.136653,192.168.0.115
302,-1,-100,-100,-100,"0,0,0",-6,-2,0,0,0,0,63,65,84,60,79,-1.01,5,-116.0,6.0,-1015.0,13:59:34.239706,192.168.0.115
307,-1,-100,-100,-100,"0,0,0",-8,-1,0,0,0,0,63,65,84,60,79,-0.98,5,-114.0,30.0,-1026.0,13:59:34.340779,192.168.0.115
313,-1,-100,-100,-100,"0,0,0",-8,0,0,0,0,0,63,65,85,60,79,-0.85,6,-123.0,9.0,-944.0,13:59:34.443439,192.168.0.115
318,-1,-100,-100,-100,"0,0,0",-7,-2,0,0,0,0,63,65,85,60,79,-0.95,6,-143.0,-17.0,-1042.0,13:59:34.544839,192.168.0.115
323,-1,-100,-100,-100,"0,0,0",-8,-2,0,0,0,0,63,65,85,60,79,-1.05,6,-165.0,33.0,-1010.0,13:59:34.646985,192.168.0.115
328,-1,-100,-100,-100,"0,0,0",-8,0,0,0,0,0,63,65,85,60,79,-1.15,6,-127.0,-47.0,-962.0,13:59:34.749204,192.168.0.115
334,-1,-100,-100,-100,"0,0,0",-8,-1,0,0,0,0,63,65,85,60,79,-1.18,6,-170.0,26.0,-1002.0,13:59:34.851287,192.168.0.115
339,-1,-100,-100,-100,"0,0,0",-9,0,0,0,0,0,63,65,86,60,79,-1.06,6,-145.0,70.0,-962.0,13:59:34.953217,192.168.0.115
340,-1,-100,-100,-100,"0,0,0",-7,1,0,0,0,0,63,65,85,60,79,-1.02,6,-113.0,-28.0,-1026.0,13:59:35.004169,192.168.0.115
346,-1,-100,-100,-100,"0,0,0",-8,-2,0,0,0,0,63,65,85,60,79,-1.16,6,-119.0,17.0,-935.0,13:59:35.112323,192.168.0.115
352,-1,-100,-100,-100,"0,0,0",-8,0,0,0,0,0,63,65,85,60,79,-1.21,6,-100.0,14.0,-1003.0,13:59:35.207846,192.168.0.115
357,-1,-100,-100,-100,"0,0,0",-7,0,0,0,0,0,63,65,84,60,79,-1.12,6,-123.0,19.0,-1011.0,13:59:35.309845,192.168.0.115
362,-1,-100,-100,-100,"0,0,0",-7,-1,0,0,0,0,63,65,84,60,79,-1.1,7,-100.0,17.0,-946.0,13:59:35.411812,192.168.0.115
367,-1,-100,-100,-100,"0,0,0",-7,-2,0,0,0,0,63,65,85,60,79,-1.12,7,-88.0,-12.0,-969.0,13:59:35.516109,192.168.0.115
372,-1,-100,-100,-100,"0,0,0",-6,-1,0,-1,0,0,63,65,83,60,79,-1.0,7,-72.0,-17.0,-970.0,13:59:35.615726,192.168.0.115
377,-1,-100,-100,-100,"0,0,0",-5,0,0,-1,0,0,63,65,83,60,79,-1.11,7,-83.0,-50.0,-1035.0,13:59:35.717899,192.168.0.115
382,-1,-100,-100,-100,"0,0,0",-5,1,0,-1,0,0,63,65,82,60,79,-1.12,7,-66.0,5.0,-999.0,13:59:35.819855,192.168.0.115
387,-1,-100,-100,-100,"0,0,0",-4,2,0,-1,0,0,63,65,82,60,79,-1.15,7,-114.0,7.0,-994.0,13:59:35.921635,192.168.0.115
392,-1,-100,-100,-100,"0,0,0",-4,0,0,-1,0,0,64,65,82,60,79,-1.09,7,-104.0,-11.0,-1010.0,13:59:36.024498,192.168.0.115
397,-1,-100,-100,-100,"0,0,0",-4,0,0,0,0,0,64,65,82,60,79,-1.1,7,-76.0,13.0,-986.0,13:59:36.125881,192.168.0.115
402,-1,-100,-100,-100,"0,0,0",-4,1,0,0,0,0,64,65,82,60,79,-1.13,7,-93.0,-3.0,-999.0,13:59:36.228221,192.168.0.115
407,-1,-100,-100,-100,"0,0,0",-5,0,0,0,0,0,64,65,82,60,79,-1.12,7,-77.0,13.0,-999.0,13:59:36.329983,192.168.0.115
412,-1,-100,-100,-100,"0,0,0",-5,0,0,0,0,0,64,65,81,60,79,-1.24,8,-121.0,40.0,-998.0,13:59:36.432013,192.168.0.115
417,-1,-100,-100,-100,"0,0,0",-4,0,0,0,0,0,64,65,82,60,79,-1.22,8,-93.0,1.0,-951.0,13:59:36.533819,192.168.0.115
422,7,-33,6,80,"2,-1,177",-5,-1,0,0,0,0,64,65,82,60,79,-1.21,8,-92.0,38.0,-1000.0,13:59:36.636119,192.168.0.115
428,7,-33,6,80,"2,-1,177",-5,-1,0,0,0,0,64,65,82,60,79,-1.24,8,-149.0,9.0,-1119.0,13:59:36.738855,192.168.0.115
432,7,-33,6,80,"2,-1,177",-5,-2,0,0,0,0,64,65,82,60,79,-1.15,8,-140.0,35.0,-1022.0,13:59:36.839782,192.168.0.115
438,7,-33,6,80,"2,-1,177",-6,2,-3,0,0,0,64,65,83,60,79,-1.24,8,-101.0,-1.0,-925.0,13:59:36.941716,192.168.0.115
443,7,-32,3,80,"4,-1,176",-7,0,-5,0,0,0,64,65,83,60,79,-1.12,8,-106.0,-10.0,-959.0,13:59:37.043651,192.168.0.115
448,7,-32,3,80,"4,-1,176",-7,-2,-4,0,0,0,64,65,83,60,79,-1.02,8,-111.0,55.0,-1003.0,13:59:37.145398,192.168.0.115
453,7,-32,3,80,"4,-1,176",-7,0,-1,0,0,0,64,65,83,60,79,-1.07,8,-79.0,-40.0,-949.0,13:59:37.250520,192.168.0.115
458,7,-32,-6,81,"5,5,-174",-5,-3,-1,0,0,0,64,65,82,60,79,-0.88,8,-73.0,-43.0,-991.0,13:59:37.349837,192.168.0.115
463,7,-32,-6,81,"5,5,-174",-6,0,0,0,0,-1,64,65,81,60,79,-0.94,9,-114.0,25.0,-953.0,13:59:37.451874,192.168.0.115
465,7,-32,-6,81,"5,5,-174",-7,3,0,0,0,-1,64,65,80,60,79,-1.11,9,-81.0,4.0,-1071.0,13:59:37.503110,192.168.0.115
470,7,-32,-6,81,"5,5,-174",-8,0,-1,0,0,0,64,65,79,60,79,-1.07,9,-71.0,-22.0,-1043.0,13:59:37.604975,192.168.0.115
475,7,-32,-6,81,"5,5,-174",-7,0,0,-1,0,0,64,65,78,60,79,-1.43,9,-135.0,44.0,-1017.0,13:59:37.707006,192.168.0.115
481,7,-32,-6,81,"5,5,-174",-7,2,0,-1,0,0,64,65,79,60,79,-1.23,9,-108.0,40.0,-1029.0,13:59:37.809032,192.168.0.115
486,7,-32,-6,81,"5,5,-174",-8,0,0,-1,0,0,64,65,79,60,79,-1.64,9,-180.0,4.0,-1111.0,13:59:37.911000,192.168.0.115
491,7,-32,-6,81,"5,5,-174",-9,0,0,-1,0,0,64,66,81,60,79,-1.05,9,-190.0,0.0,-986.0,13:59:38.013785,192.168.0.115
496,7,-32,-6,81,"5,5,-174",-9,0,0,0,0,0,64,66,82,60,79,-1.12,9,-118.0,-2.0,-886.0,13:59:38.115154,192.168.0.115
501,7,-32,-6,81,"5,5,-174",-8,-1,0,-1,0,0,64,66,83,60,79,-1.25,9,-130.0,14.0,-972.0,13:59:38.216869,192.168.0.115
507,7,-32,-6,81,"5,5,-174",-9,-1,0,-1,0,0,64,66,83,60,79,-1.08,9,-108.0,56.0,-926.0,13:59:38.318770,192.168.0.115
512,7,-26,2,80,"8,0,179",-9,0,0,-1,0,0,64,66,84,60,79,-1.38,10,-126.0,-16.0,-1057.0,13:59:38.421506,192.168.0.115
518,7,-26,2,80,"8,0,179",-8,0,0,-1,0,0,64,66,84,60,79,-1.32,10,-70.0,-46.0,-956.0,13:59:38.524734,192.168.0.115
522,7,-26,2,80,"8,0,179",-9,0,0,-2,0,0,64,66,85,60,79,-1.18,10,-83.0,15.0,-963.0,13:59:38.624987,192.168.0.115
527,7,-26,2,80,"8,0,179",-6,1,0,-2,0,0,64,66,84,60,79,-1.31,10,-155.0,39.0,-1063.0,13:59:38.726908,192.168.0.115
532,7,-23,3,82,"6,-1,178",-6,-1,0,-2,0,0,64,66,84,60,79,-1.07,10,-102.0,-4.0,-936.0,13:59:38.828771,192.168.0.115
537,7,-23,3,82,"6,-1,178",-7,0,0,-2,0,0,64,66,84,60,79,-1.42,10,-215.0,66.0,-1097.0,13:59:38.930993,192.168.0.115
543,7,-23,3,82,"6,-1,178",-6,1,0,-2,0,0,63,66,85,60,79,-1.3,10,-164.0,58.0,-957.0,13:59:39.033771,192.168.0.115
547,7,-23,3,82,"6,-1,178",-9,-1,0,-2,0,0,63,66,86,60,79,-0.81,10,-178.0,21.0,-1066.0,13:59:39.134809,192.168.0.115
552,7,-13,2,84,"6,0,178",-8,-2,0,-1,0,0,63,66,87,60,79,-1.39,10,-125.0,67.0,-1010.0,13:59:39.236765,192.168.0.115
557,7,-13,2,84,"6,0,178",-7,-1,0,-1,0,0,63,66,86,60,79,-0.75,10,-106.0,60.0,-850.0,13:59:39.338779,192.168.0.115
562,7,-13,2,84,"6,0,178",-9,-3,0,-1,-1,0,63,66,86,60,79,-0.93,11,-86.0,61.0,-939.0,13:59:39.440887,192.168.0.115
568,7,-13,2,84,"6,0,178",-8,-2,0,-2,-1,0,63,66,86,60,79,-0.82,11,-101.0,53.0,-843.0,13:59:39.542794,192.168.0.115
573,7,-1,3,85,"9,0,174",-8,-3,0,-2,-1,0,63,66,85,60,79,-0.72,11,-129.0,61.0,-945.0,13:59:39.644841,192.168.0.115
578,7,-1,3,85,"9,0,174",-8,-4,0,-2,-1,0,63,66,84,60,79,-0.75,11,-147.0,73.0,-989.0,13:59:39.746874,192.168.0.115
583,7,-1,3,85,"9,0,174",-8,-1,0,-2,0,0,63,66,83,60,79,-0.48,11,-193.0,57.0,-1018.0,13:59:39.848681,192.168.0.115
588,7,-1,3,85,"9,0,174",-9,-2,0,-2,-1,0,63,66,83,60,79,-0.39,11,-98.0,-11.0,-866.0,13:59:39.950798,192.168.0.115
593,7,5,1,85,"10,0,173",-8,-3,-1,-2,0,0,64,67,84,60,79,-0.73,11,-113.0,21.0,-962.0,13:59:40.052840,192.168.0.115
596,7,5,1,85,"10,0,173",-8,-2,-2,-2,0,0,64,67,83,60,79,-0.74,11,-154.0,101.0,-983.0,13:59:40.104564,192.168.0.115
600,7,5,1,85,"10,0,173",-8,-2,0,-2,0,0,64,67,83,60,79,-0.89,11,-158.0,127.0,-936.0,13:59:40.205651,192.168.0.115
606,7,11,3,84,"7,0,168",-8,-3,0,-2,-1,0,64,67,82,60,79,-1.12,11,-99.0,81.0,-947.0,13:59:40.307642,192.168.0.115
611,7,11,3,84,"7,0,168",-7,-7,0,-2,0,0,64,67,81,60,79,-1.35,12,-130.0,9.0,-943.0,13:59:40.409587,192.168.0.115
616,7,11,3,84,"7,0,168",-8,-4,0,-1,0,0,64,67,80,60,79,-1.69,12,-153.0,26.0,-934.0,13:59:40.511604,192.168.0.115
621,7,11,3,84,"7,0,168",-8,-1,-2,-1,0,0,64,67,80,60,79,-1.91,12,-116.0,-51.0,-1003.0,13:59:40.613528,192.168.0.115
626,7,21,-6,82,"8,1,170",-9,-2,-3,-1,0,0,64,67,80,60,79,-1.86,12,-126.0,0.0,-1051.0,13:59:40.715650,192.168.0.115
632,7,21,-6,82,"8,1,170",-8,0,-2,-2,0,0,64,67,81,60,79,-1.53,12,-126.0,60.0,-954.0,13:59:40.819614,192.168.0.115
636,7,21,-6,82,"8,1,170",-7,-1,0,-1,0,0,64,67,80,60,79,-1.62,12,-162.0,9.0,-984.0,13:59:40.919492,192.168.0.115
641,7,21,-6,82,"8,1,170",-8,-3,0,-1,0,0,64,66,81,60,79,-1.57,12,-123.0,7.0,-947.0,13:59:41.021647,192.168.0.115
646,7,21,-6,82,"8,1,170",-8,0,0,-1,0,0,64,66,80,60,79,-1.63,12,-115.0,58.0,-950.0,13:59:41.123577,192.168.0.115
651,7,21,-6,82,"8,1,170",-9,0,0,-1,0,0,64,66,81,60,79,-1.77,12,-154.0,56.0,-994.0,13:59:41.225434,192.168.0.115
656,7,21,-6,82,"8,1,170",-9,-2,1,-2,0,0,64,66,80,60,79,-1.52,12,-148.0,10.0,-994.0,13:59:41.327557,192.168.0.115
662,7,21,-6,82,"8,1,170",-8,-4,0,-2,0,0,64,66,80,60,79,-1.44,13,-126.0,-48.0,-980.0,13:59:41.430466,192.168.0.115
667,7,21,-6,82,"8,1,170",-7,-2,0,-1,0,0,64,66,78,60,79,-1.61,13,-167.0,71.0,-960.0,13:59:41.531870,192.168.0.115
672,7,21,-6,82,"8,1,170",-7,-1,0,-1,0,0,64,66,78,60,79,-1.25,13,-122.0,18.0,-925.0,13:59:41.633435,192.168.0.115
677,7,21,-6,82,"8,1,170",-8,-3,0,-1,0,0,64,66,78,60,79,-1.12,13,-203.0,61.0,-922.0,13:59:41.735610,192.168.0.115
682,7,21,-6,82,"8,1,170",-8,-3,0,-1,0,0,64,66,77,60,79,-1.48,13,-176.0,21.0,-960.0,13:59:41.837665,192.168.0.115
688,7,21,-6,82,"8,1,170",-8,-3,0,0,0,0,64,66,76,60,79,-1.21,13,-232.0,28.0,-979.0,13:59:41.940346,192.168.0.115
693,7,21,-6,82,"8,1,170",-8,-3,0,0,0,0,64,66,76,60,79,-1.29,13,-173.0,30.0,-961.0,13:59:42.041413,192.168.0.115
698,7,21,-6,82,"8,1,170",-8,-1,0,0,0,0,64,66,75,60,79,-1.35,13,-205.0,28.0,-1048.0,13:59:42.143574,192.168.0.115
703,7,21,-6,82,"8,1,170",-8,-2,-3,0,0,0,64,66,75,60,79,-1.12,13,-198.0,-11.0,-952.0,13:59:42.245326,192.168.0.115
708,7,21,-6,82,"8,1,170",-9,-1,-8,1,0,0,64,66,74,60,79,-1.19,13,-169.0,5.0,-1085.0,13:59:42.348220,192.168.0.115
713,7,21,-6,82,"8,1,170",-9,0,-15,1,1,0,64,66,73,50,79,-1.08,14,-206.0,2.0,-944.0,13:59:42.449571,192.168.0.115
718,7,21,-6,82,"8,1,170",-8,4,-20,1,0,0,64,66,73,50,79,-1.22,14,-153.0,-6.0,-1006.0,13:59:42.551483,192.168.0.115
720,7,21,-6,82,"8,1,170",-8,2,-22,1,0,0,64,66,72,50,79,-1.31,14,-125.0,-73.0,-977.0,13:59:42.602484,192.168.0.115
725,7,21,-6,82,"8,1,170",-8,1,-20,1,0,0,64,66,72,50,79,-1.23,14,-136.0,-17.0,-983.0,13:59:42.706650,192.168.0.115
731,7,21,-6,82,"8,1,170",-9,0,-12,1,0,0,64,66,72,50,79,-1.28,14,-92.0,-45.0,-973.0,13:59:42.806510,192.168.0.115
736,7,21,-6,82,"8,1,170",-9,0,-1,1,0,0,64,66,73,50,79,-1.6,14,-153.0,77.0,-1043.0,13:59:42.911452,192.168.0.115
742,7,21,-6,82,"8,1,170",-9,0,1,1,0,0,65,66,74,50,79,-1.52,14,-169.0,74.0,-984.0,13:59:43.011459,192.168.0.115
746,7,21,-6,82,"8,1,170",-8,-2,1,1,0,1,65,66,76,50,79,-1.45,14,-154.0,53.0,-968.0,13:59:43.112533,192.168.0.115
752,7,21,-6,82,"8,1,170",-8,-3,1,1,0,1,65,66,78,60,79,-1.5,14,-192.0,75.0,-928.0,13:59:43.215394,192.168.0.115
756,7,21,-6,82,"8,1,170",-5,1,0,2,0,0,65,66,78,60,79,-1.89,14,-152.0,70.0,-912.0,13:59:43.316187,192.168.0.115
761,7,21,-6,82,"8,1,170",17,25,-10,5,-1,-2,65,66,93,60,79,-0.93,15,-180.0,183.0,-921.0,13:59:43.418611,192.168.0.115
766,7,21,-6,82,"8,1,170",22,5,-34,9,-8,-4,65,66,82,50,79,-1.05,15,238.0,-79.0,-1769.0,13:59:43.520598,192.168.0.115
771,7,21,-6,82,"8,1,170",-9,-3,-55,11,-8,0,65,66,79,50,79,-1.49,15,206.0,54.0,-1139.0,13:59:43.622439,192.168.0.115
776,7,21,-6,82,"8,1,170",-9,8,-71,9,-5,2,65,66,84,50,79,-0.8,15,84.0,45.0,-1106.0,13:59:43.724509,192.168.0.115
782,7,21,-6,82,"8,1,170",-6,7,-78,6,-4,3,65,66,88,50,79,-1.04,15,42.0,6.0,-977.0,13:59:43.827675,192.168.0.115
786,7,21,-6,82,"8,1,170",-6,4,-73,5,-3,3,65,66,94,60,79,-0.9,15,77.0,-3.0,-978.0,13:59:43.928544,192.168.0.115
791,7,21,-6,82,"8,1,170",-6,4,-57,3,-2,2,64,67,99,60,79,-0.8,15,35.0,3.0,-867.0,13:59:44.031162,192.168.0.115
796,8,8,-6,84,"0,75,-165",-8,1,-38,2,-1,1,64,67,103,60,79,-0.75,15,43.0,-16.0,-967.0,13:59:44.132641,192.168.0.115
801,8,8,-6,84,"0,75,-165",-8,0,-21,1,0,1,64,67,106,70,79,-0.79,15,39.0,-17.0,-965.0,13:59:44.234827,192.168.0.115
807,8,8,-6,84,"0,75,-165",-8,-2,-4,0,0,1,64,67,111,70,79,-0.71,15,-55.0,24.0,-982.0,13:59:44.337448,192.168.0.115
811,8,8,-6,84,"0,75,-165",-8,-3,3,-2,0,1,64,67,114,70,79,-0.82,16,27.0,-21.0,-923.0,13:59:44.438620,192.168.0.115
816,8,-8,-19,99,"3,41,-172",-5,-2,3,-4,1,0,64,67,114,80,79,-0.72,16,8.0,-17.0,-930.0,13:59:44.540541,192.168.0.115
821,8,-8,-19,99,"3,41,-172",-2,-1,2,-4,1,0,64,67,116,80,79,-0.8,16,-3.0,-8.0,-935.0,13:59:44.642652,192.168.0.115
826,8,-8,-19,99,"3,41,-172",0,0,2,-5,1,0,64,67,116,80,79,-0.79,16,10.0,-17.0,-957.0,13:59:44.744463,192.168.0.115
832,8,2,-9,112,"10,-3,179",0,0,2,-5,1,0,64,67,117,80,79,-0.68,16,-5.0,-13.0,-964.0,13:59:44.846610,192.168.0.115
837,8,2,-9,112,"10,-3,179",0,0,1,-5,2,-1,64,67,116,80,79,-0.63,16,-22.0,13.0,-962.0,13:59:44.948573,192.168.0.115
842,8,2,-9,112,"10,-3,179",0,0,1,-5,2,-1,65,66,115,70,79,-0.76,16,-4.0,-19.0,-981.0,13:59:45.050172,192.168.0.115
847,8,18,-6,114,"1,-3,-177",0,0,1,-5,2,-1,65,66,114,70,79,-0.72,16,-11.0,-15.0,-989.0,13:59:45.152632,192.168.0.115
853,8,18,-6,114,"1,-3,-177",1,0,1,-5,2,-1,65,66,113,70,79,-0.74,16,9.0,-13.0,-1039.0,13:59:45.254550,192.168.0.115
855,8,18,-6,114,"1,-3,-177",0,0,1,-4,2,-1,65,66,112,70,79,-0.7,16,-18.0,-13.0,-1029.0,13:59:45.305361,192.168.0.115
861,8,18,-6,114,"1,-3,-177",0,0,1,-4,2,-1,65,66,111,70,79,-0.77,17,-18.0,-33.0,-1039.0,13:59:45.407119,192.168.0.115
866,8,18,-6,114,"1,-3,-177",0,1,1,-4,2,-1,65,66,110,70,79,-0.66,17,-29.0,3.0,-1003.0,13:59:45.509237,192.168.0.115
871,8,18,-6,114,"1,-3,-177",0,1,1,-4,2,0,65,66,109,70,79,-0.65,17,-6.0,-17.0,-1011.0,13:59:45.611351,192.168.0.115
876,8,18,-6,114,"1,-3,-177",0,1,1,-3,2,0,65,66,109,70,79,-0.64,17,-39.0,-7.0,-1011.0,13:59:45.713119,192.168.0.115
882,8,18,-6,114,"1,-3,-177",0,0,0,-3,2,0,65,66,110,70,79,-0.71,17,-42.0,-13.0,-979.0,13:59:45.816472,192.168.0.115
886,8,18,-6,114,"1,-3,-177",0,0,0,-3,2,0,65,66,110,70,79,-0.71,17,-10.0,-6.0,-999.0,13:59:45.917302,192.168.0.115
891,8,18,-6,114,"1,-3,-177",-1,0,0,-3,2,0,65,67,109,70,79,-0.73,17,-29.0,16.0,-960.0,13:59:46.019184,192.168.0.115
897,8,18,-6,114,"1,-3,-177",-1,0,0,-3,2,0,65,67,109,70,79,-0.7,17,-32.0,-19.0,-968.0,13:59:46.122433,192.168.0.115
902,8,18,-6,114,"1,-3,-177",-1,0,0,-2,2,0,65,67,107,70,79,-0.73,17,-34.0,15.0,-990.0,13:59:46.225184,192.168.0.115
906,8,18,-6,114,"1,-3,-177",-2,0,0,-2,2,0,65,67,106,70,79,-0.61,17,-68.0,15.0,-1011.0,13:59:46.325227,192.168.0.115
912,8,18,-6,114,"1,-3,-177",-2,0,0,-2,1,0,65,67,106,60,79,-0.65,18,-1.0,33.0,-1049.0,13:59:46.428372,192.168.0.115
916,8,18,-6,114,"1,-3,-177",-2,-1,0,-2,1,0,65,67,104,60,79,-0.69,18,-18.0,14.0,-1030.0,13:59:46.529190,192.168.0.115
921,8,18,-6,114,"1,-3,-177",0,0,0,-2,2,0,65,67,103,60,79,-0.68,18,-41.0,48.0,-996.0,13:59:46.631272,192.168.0.115
926,8,18,-6,114,"1,-3,-177",1,3,0,-1,1,0,65,67,102,60,79,-0.62,18,-53.0,8.0,-1024.0,13:59:46.733580,192.168.0.115
931,8,18,-6,114,"1,-3,-177",0,1,0,-1,0,0,65,67,102,60,79,-0.78,18,-33.0,2.0,-1042.0,13:59:46.835478,192.168.0.115
936,8,18,-6,114,"1,-3,-177",-1,0,0,0,0,0,65,67,100,60,79,-0.8,18,-25.0,20.0,-1007.0,13:59:46.936813,192.168.0.115
941,8,18,-6,114,"1,-3,-177",-1,0,0,0,0,0,65,67,100,60,79,-0.74,18,-8.0,4.0,-1015.0,13:59:47.039312,192.168.0.115
946,8,18,-6,114,"1,-3,-177",-1,0,0,-1,0,0,65,67,100,60,79,-0.67,18,-37.0,13.0,-1008.0,13:59:47.141345,192.168.0.115
951,8,18,-6,114,"1,-3,-177",-1,0,0,0,0,0,65,67,99,60,79,-0.66,18,-25.0,18.0,-991.0,13:59:47.243070,192.168.0.115
956,8,18,-6,114,"1,-3,-177",-1,0,0,0,0,0,65,67,99,60,79,-0.79,18,6.0,16.0,-1011.0,13:59:47.345179,192.168.0.115
961,8,18,-6,114,"1,-3,-177",0,0,0,0,0,0,65,67,98,60,79,-0.94,19,-18.0,19.0,-936.0,13:59:47.447323,192.168.0.115
966,8,18,-6,114,"1,-3,-177",-1,0,0,0,0,0,65,67,96,60,79,-0.92,19,49.0,-19.0,-919.0,13:59:47.549227,192.168.0.115
971,8,18,-6,114,"1,-3,-177",0,0,0,0,0,-1,65,67,95,60,79,-1.04,19,0.0,14.0,-962.0,13:59:47.650835,192.168.0.115
976,8,18,-6,114,"1,-3,-177",0,0,0,0,0,-2,65,67,92,50,79,-1.01,19,-69.0,5.0,-889.0,13:59:47.753005,192.168.0.115
981,8,18,-6,114,"1,-3,-177",0,0,0,0,0,-2,65,67,90,50,79,-1.07,19,-84.0,-53.0,-928.0,13:59:47.855232,192.168.0.115
986,8,18,-6,114,"1,-3,-177",-1,0,0,0,0,-3,65,67,87,50,79,-1.08,19,-149.0,32.0,-962.0,13:59:47.957004,192.168.0.115
991,8,18,-6,114,"1,-3,-177",-5,0,0,1,0,-4,65,66,82,40,79,-0.19,19,-149.0,45.0,-783.0,13:59:48.059306,192.168.0.115
996,8,18,-6,114,"1,-3,-177",-9,0,-3,2,0,-4,65,66,78,40,79,-0.06,19,-193.0,-14.0,-962.0,13:59:48.162858,192.168.0.115
1001,8,18,-6,114,"1,-3,-177",-9,-2,-12,2,0,-5,65,66,72,30,79,-0.3,19,-94.0,-57.0,-878.0,13:59:48.265663,192.168.0.115
1007,8,18,-6,114,"1,-3,-177",-9,1,-24,2,0,-6,65,66,65,30,79,-0.19,19,-62.0,-116.0,-1155.0,13:59:48.366089,192.168.0.115
1011,8,18,-6,114,"1,-3,-177",-6,4,-36,2,1,-6,65,66,58,20,79,-0.6,20,11.0,-130.0,-1043.0,13:59:48.466934,192.168.0.115
1017,8,18,-6,114,"1,-3,-177",-3,7,-49,2,1,-5,65,66,52,10,79,-0.91,20,0.0,-82.0,-1021.0,13:59:48.568912,192.168.0.115
1023,8,18,-6,114,"1,-3,-177",0,8,-61,1,1,-5,65,66,46,10,79,-1.1,20,75.0,-57.0,-979.0,13:59:48.670990,192.168.0.115
1025,8,18,-6,114,"1,-3,-177",0,6,-72,0,1,-4,65,66,41,0,79,-1.22,20,62.0,-15.0,-1081.0,13:59:48.722388,192.168.0.115
1031,8,18,-6,114,"1,-3,-177",1,6,-77,0,2,-4,65,66,36,0,79,-1.22,20,56.0,-113.0,-960.0,13:59:48.824301,192.168.0.115
1036,8,18,-6,114,"1,-3,-177",2,4,-77,0,2,-4,65,66,31,0,79,-1.2,20,61.0,-42.0,-1002.0,13:59:48.927815,192.168.0.115
1041,8,18,-6,114,"1,-3,-177",3,3,-71,0,1,-4,64,67,24,0,79,-1.41,20,51.0,-46.0,-961.0,13:59:49.028432,192.168.0.115
1046,8,18,-6,114,"1,-3,-177",3,3,-59,0,1,-4,64,67,23,-10,79,-1.46,20,42.0,-32.0,-1031.0,13:59:49.129702,192.168.0.115
1051,8,18,-6,114,"1,-3,-177",1,4,-42,0,1,-4,64,67,17,-10,79,-1.5,20,12.0,46.0,-1108.0,13:59:49.231908,192.168.0.115
1056,8,18,-6,114,"1,-3,-177",0,3,-26,0,0,-4,64,67,11,-20,79,-1.88,20,-27.0,-32.0,-1032.0,13:59:49.334235,192.168.0.115
1061,8,18,-6,114,"1,-3,-177",-1,2,-9,0,0,-4,64,67,10,-20,79,-2.52,21,-76.0,16.0,-1093.0,13:59:49.436208,192.168.0.115
1066,8,18,-6,114,"1,-3,-177",-2,2,2,0,0,-3,64,67,10,-20,79,-3.07,21,-49.0,30.0,-1077.0,13:59:49.538238,192.168.0.115
1071,8,18,-6,114,"1,-3,-177",-2,2,3,0,0,-2,64,67,10,-30,79,-4.21,21,-15.0,-28.0,-1014.0,13:59:49.640753,192.168.0.115
1076,8,18,-6,114,"1,-3,-177",-1,0,3,0,0,1,64,67,10,-30,79,-3.64,21,-31.0,0.0,-779.0,13:59:49.742181,192.168.0.115
1081,8,18,-6,114,"1,-3,-177",-1,3,8,0,0,0,64,67,10,-30,79,-4.21,21,42.0,38.0,-2536.0,13:59:49.844160,192.168.0.115
1086,8,18,-6,114,"1,-3,-177",0,0,10,-1,0,0,64,67,10,-30,79,-3.88,21,-56.0,-67.0,-1330.0,13:59:49.946691,192.168.0.115
1091,8,18,-6,114,"1,-3,-177",0,0,11,-1,0,0,64,68,10,-30,79,-3.17,21,-42.0,-11.0,-1015.0,13:59:50.048206,192.168.0.115
1096,-1,-100,-100,-100,"0,0,0",0,0,11,-1,0,0,64,68,10,-30,79,-2.65,21,-15.0,4.0,-987.0,13:59:50.150395,192.168.0.115
1101,-1,-100,-100,-100,"0,0,0",0,0,11,-1,0,0,64,68,10,-20,79,-2.56,21,3.0,3.0,-1004.0,13:59:50.251837,192.168.0.115
1106,-1,-100,-100,-100,"0,0,0",0,0,11,-1,0,0,64,68,10,-20,79,-2.76,21,-7.0,-1.0,-1010.0,13:59:50.354121,192.168.0.115
1111,-1,-100,-100,-100,"0,0,0",0,0,11,-1,0,0,64,68,10,-20,79,-2.51,22,0.0,-5.0,-1008.0,13:59:50.456161,192.168.0.115
1116,-1,-100,-100,-100,"0,0,0",0,0,11,-1,0,0,64,68,10,-20,79,-2.27,22,-8.0,2.0,-1006.0,13:59:50.558904,192.168.0.115
