,mid,x,y,z,mpry,pitch,roll,yaw,vgx,vgy,vgz,templ,temph,tof,h,bat,baro,time,agx,agy,agz,timestamp,address
4,-1,-100,-100,-100,"0,0,0",0,0,0,0,0,0,69,70,10,0,82,-2.14,0,-3.0,-3.0,-1001.0,13:59:28.237272,192.168.0.114
9,-1,-100,-100,-100,"0,0,0",0,0,0,0,0,0,69,70,10,0,82,-2.07,0,-2.0,-4.0,-1001.0,13:59:28.339185,192.168.0.114
14,-1,-100,-100,-100,"0,0,0",0,0,0,0,0,0,69,70,10,0,82,-2.07,0,1.0,-8.0,-998.0,13:59:28.441320,192.168.0.114
19,-1,-100,-100,-100,"0,0,0",0,0,0,0,0,0,69,71,10,0,82,-2.07,0,-3.0,2.0,-993.0,13:59:28.543217,192.168.0.114
20,-1,-100,-100,-100,"0,0,0",0,0,0,0,0,0,69,71,10,0,82,-2.07,0,-37.0,3.0,-1003.0,13:59:28.593991,192.168.0.114
25,-1,-100,-100,-100,"0,0,0",0,0,0,0,0,0,69,71,10,0,82,-2.07,0,-17.0,9.0,-1003.0,13:59:28.696135,192.168.0.114
30,-1,-100,-100,-100,"0,0,0",0,0,0,0,0,0,69,71,10,0,82,-2.07,0,-20.0,-7.0,-1134.0,13:59:28.798022,192.168.0.114
35,-1,-100,-100,-100,"0,0,0",0,0,0,0,0,1,69,71,10,0,82,-2.07,0,-49.0,-47.0,-1388.0,13:59:28.899952,192.168.0.114
40,-1,-100,-100,-100,"0,0,0",0,0,0,0,0,4,69,71,10,0,82,-2.07,0,-63.0,-55.0,-1239.0,13:59:29.002109,192.168.0.114
45,-1,-100,-100,-100,"0,0,0",-2,1,0,0,1,6,69,71,12,0,82,-2.07,0,-51.0,-69.0,-1091.0,13:59:29.103914,192.168.0.114
50,-1,-100,-100,-100,"0,0,0",-2,3,0,0,1,7,69,71,20,10,82,-1.88,0,-97.0,-5.0,-1048.0,13:59:29.206137,192.168.0.114
56,-1,-100,-100,-100,"0,0,0",-2,4,0,1,0,7,69,71,29,20,82,-1.73,0,-71.0,-10.0,-959.0,13:59:29.307904,192.168.0.114
61,-1,-100,-100,-100,"0,0,0",-3,2,0,1,0,7,69,71,37,20,82,-1.56,1,-69.0,6.0,-882.0,13:59:29.409752,192.168.0.114
66,-1,-100,-100,-100,"0,0,0",-3,1,0,1,0,6,69,70,42,30,82,-1.61,1,-108.0,-13.0,-911.0,13:59:29.512015,192.168.0.114
71,-1,-100,-100,-100,"0,0,0",-5,0,0,1,0,5,69,70,49,40,82,-1.57,1,-74.0,-34.0,-922.0,13:59:29.613945,192.168.0.114
77,-1,-100,-100,-100,"0,0,0",-5,0,0,1,0,4,69,70,55,40,82,-1.54,1,-78.0,-32.0,-917.0,13:59:29.715925,192.168.0.114
82,-1,-100,-100,-100,"0,0,0",-6,0,0,1,0,4,69,70,60,40,82,-1.41,1,-116.0,0.0,-900.0,13:59:29.817944,192.168.0.114
87,-1,-100,-100,-100,"0,0,0",-6,0,0,1,0,2,69,70,63,50,82,-1.48,1,-120.0,-3.0,-953.0,13:59:29.919841,192.168.0.114
93,-1,-100,-100,-100,"0,0,0",-7,1,0,1,0,2,69,70,67,50,82,-1.62,1,-117.0,15.0,-973.0,13:59:30.021768,192.168.0.114
99,-1,-100,-100,-100,"0,0,0",-7,0,0,1,0,1,69,70,70,50,82,-1.45,1,-125.0,-23.0,-934.0,13:59:30.123739,192.168.0.114
104,-1,-100,-100,-100,"0,0,0",-8,0,0,1,0,1,69,70,72,50,82,-1.42,1,-68.0,-1.0,-989.0,13:59:30.225876,192.168.0.114
109,-1,-100,-100,-100,"0,0,0",-8,0,0,0,0,1,69,70,73,50,82,-1.38,1,-37.0,-40.0,-997.0,13:59:30.327748,192.168.0.114
114,-1,-100,-100,-100,"0,0,0",-6,0,0,0,0,1,69,70,74,60,82,-1.45,2,-41.0,-23.0,-931.0,13:59:30.429931,192.168.0.114
119,-1,-100,-100,-100,"0,0,0",-5,2,0,0,0,0,69,71,76,60,82,-1.41,2,-70.0,14.0,-987.0,13:59:30.531842,192.168.0.114
124,-1,-100,-100,-100,"0,0,0",-5,2,0,0,0,0,69,71,77,60,82,-1.45,2,-61.0,-19.0,-1018.0,13:59:30.633902,192.168.0.114
129,-1,-100,-100,-100,"0,0,0",-3,0,0,0,0,1,69,71,78,60,81,-1.23,2,-32.0,-55.0,-957.0,13:59:30.735810,192.168.0.114
134,-1,-100,-100,-100,"0,0,0",-2,0,0,-1,0,0,69,71,79,60,81,-1.23,2,-14.0,1.0,-976.0,13:59:30.837822,192.168.0.114
139,-1,-100,-100,-100,"0,0,0",-2,2,0,-1,0,0,69,71,81,60,81,-1.16,2,-53.0,-2.0,-967.0,13:59:30.939810,192.168.0.114
144,-1,-100,-100,-100,"0,0,0",-2,2,0,-1,0,0,69,71,82,60,81,-1.33,2,-31.0,-50.0,-975.0,13:59:31.041870,192.168.0.114
149,-1,-100,-100,-100,"0,0,0",-1,0,0,-1,0,0,69,71,82,60,81,-1.27,2,-27.0,-60.0,-1001.0,13:59:31.148870,192.168.0.114
154,-1,-100,-100,-100,"0,0,0",-1,0,0,-1,0,0,69,71,82,60,81,-1.28,2,-50.0,-34.0,-997.0,13:59:31.245784,192.168.0.114
155,-1,-100,-100,-100,"0,0,0",0,1,0,-1,0,0,69,71,83,60,81,-1.32,2,-59.0,-16.0,-1011.0,13:59:31.298373,192.168.0.114
160,-1,-100,-100,-100,"0,0,0",-2,2,0,0,0,0,69,71,84,70,81,-1.4,3,-67.0,19.0,-973.0,13:59:31.398966,192.168.0.114
165,-1,-100,-100,-100,"0,0,0",-2,2,1,0,0,0,68,71,84,70,81,-1.12,3,-63.0,32.0,-952.0,13:59:31.501051,192.168.0.114
170,-1,-100,-100,-100,"0,0,0",-3,0,1,0,0,0,68,71,84,70,81,-1.25,3,-78.0,-19.0,-1006.0,13:59:31.603217,192.168.0.114
175,-1,-100,-100,-100,"0,0,0",-2,0,1,0,0,0,68,71,83,70,81,-1.37,3,-77.0,19.0,-969.0,13:59:31.705083,192.168.0.114
181,-1,-100,-100,-100,"0,0,0",-1,1,0,0,0,0,68,71,83,70,81,-1.15,3,-76.0,-28.0,-1062.0,13:59:31.806948,192.168.0.114
186,-1,-100,-100,-100,"0,0,0",-3,0,0,0,0,0,68,71,84,70,81,-1.24,3,-75.0,16.0,-978.0,13:59:31.908970,192.168.0.114
191,-1,-100,-100,-100,"0,0,0",-5,0,0,0,0,0,68,71,84,70,81,-1.2,3,-50.0,7.0,-998.0,13:59:32.011940,192.168.0.114
196,-1,-100,-100,-100,"0,0,0",-5,-1,0,0,0,0,68,71,84,70,81,-1.12,3,-40.0,4.0,-1004.0,13:59:32.113012,192.168.0.114
201,-1,-100,-100,-100,"0,0,0",-4,-1,0,0,0,0,68,71,84,70,81,-1.42,3,-81.0,33.0,-1018.0,13:59:32.215138,192.168.0.114
206,-1,-100,-100,-100,"0,0,0",-4,-1,0,0,0,0,68,71,84,70,81,-1.33,3,-58.0,7.0,-1004.0,13:59:32.317111,192.168.0.114
212,-1,-100,-100,-100,"0,0,0",-4,0,0,0,0,0,68,71,84,70,81,-1.2,4,-58.0,55.0,-992.0,13:59:32.422547,192.168.0.114
218,-1,-100,-100,-100,"0,0,0",-4,0,0,0,0,0,69,71,84,70,81,-1.35,4,-52.0,-2.0,-991.0,13:59:32.522270,192.168.0.114
223,-1,-100,-100,-100,"0,0,0",-4,-3,0,0,0,0,69,71,85,70,81,-1.3,4,-45.0,-9.0,-925.0,13:59:32.623031,192.168.0.114
229,-1,-100,-100,-100,"0,0,0",-4,-2,0,0,0,0,69,71,85,70,81,-1.28,4,-45.0,-47.0,-1018.0,13:59:32.724783,192.168.0.114
234,-1,-100,-100,-100,"0,0,0",-2,-1,0,0,0,0,69,71,85,70,81,-1.58,4,-71.0,-24.0,-1029.0,13:59:32.826907,192.168.0.114
239,-1,-100,-100,-100,"0,0,0",-3,0,0,0,1,0,69,71,85,70,81,-1.38,4,-85.0,21.0,-1008.0,13:59:32.928902,192.168.0.114
244,-1,-100,-100,-100,"0,0,0",-3,2,0,0,0,0,69,71,85,70,81,-1.31,4,-55.0,-31.0,-939.0,13:59:33.030850,192.168.0.114
249,-1,-100,-100,-100,"0,0,0",-4,0,0,0,0,0,69,71,85,70,81,-1.5,4,-99.0,-40.0,-1025.0,13:59:33.132472,192.168.0.114
254,-1,-100,-100,-100,"0,0,0",-4,1,0,0,0,0,69,71,85,70,81,-1.42,4,-129.0,46.0,-940.0,13:59:33.234845,192.168.0.114
259,-1,-100,-100,-100,"0,0,0",-5,2,0,0,0,0,69,71,86,70,81,-1.45,4,-84.0,32.0,-1008.0,13:59:33.336618,192.168.0.114
264,-1,-100,-100,-100,"0,0,0",-6,0,0,0,0,0,69,71,86,70,81,-1.47,5,-79.0,-41.0,-982.0,13:59:33.439816,192.168.0.114
269,-1,-100,-100,-100,"0,0,0",-6,-2,0,0,0,0,69,71,86,70,81,-1.48,5,-105.0,-22.0,-968.0,13:59:33.541639,192.168.0.114
274,-1,-100,-100,-100,"0,0,0",-7,-1,0,0,0,0,69,71,86,70,81,-1.38,5,-91.0,-20.0,-987.0,13:59:33.646640,192.168.0.114
279,-1,-100,-100,-100,"0,0,0",-6,1,0,0,0,0,69,71,86,70,81,-1.44,5,-67.0,-30.0,-1022.0,13:59:33.746123,192.168.0.114
284,-1,-100,-100,-100,"0,0,0",-6,1,0,0,0,0,69,71,86,70,81,-1.51,5,-55.0,-48.0,-979.0,13:59:33.848068,192.168.0.114
289,-1,-100,-100,-100,"0,0,0",-4,0,0,0,0,0,69,71,85,70,81,-1.56,5,-77.0,-33.0,-1002.0,13:59:33.948958,192.168.0.114
294,-1,-100,-100,-100,"0,0,0",-4,0,0,0,0,0,69,71,85,70,81,-1.43,5,-73.0,-46.0,-990.0,13:59:34.052067,192.168.0.114
299,-1,-100,-100,-100,"0,0,0",-4,3,0,0,0,0,69,71,85,70,81,-1.48,5,-60.0,-7.0,-1022.0,13:59:34.152593,192.168.0.114
304,-1,-100,-100,-100,"0,0,0",-4,3,0,0,0,0,69,71,84,70,81,-1.47,5,-77.0,-4.0,-1007.0,13:59:34.254694,192.168.0.114
309,-1,-100,-100,-100,"0,0,0",-3,1,0,0,0,0,69,71,84,70,81,-1.58,5,-81.0,1.0,-1026.0,13:59:34.356639,192.168.0.114
314,-1,-100,-100,-100,"0,0,0",-3,1,0,0,0,0,69,71,84,70,81,-1.51,6,-89.0,-3.0,-977.0,13:59:34.458926,192.168.0.114
319,-1,-100,-100,-100,"0,0,0",-4,0,0,0,0,0,69,70,84,70,81,-1.6,6,-88.0,26.0,-969.0,13:59:34.560648,192.168.0.114
324,-1,-100,-100,-100,"0,0,0",-4,-1,0,0,0,0,69,70,84,70,81,-1.68,6,-87.0,-4.0,-1006.0,13:59:34.668717,192.168.0.114
329,-1,-100,-100,-100,"0,0,0",-4,0,0,0,0,0,69,70,84,70,81,-1.55,6,-75.0,59.0,-924.0,13:59:34.764818,192.168.0.114
331,-1,-100,-100,-100,"0,0,0",-5,0,0,0,0,0,69,70,84,70,81,-1.62,6,-87.0,-9.0,-1015.0,13:59:34.815617,192.168.0.114
336,-1,-100,-100,-100,"0,0,0",-5,-3,0,0,0,0,69,70,84,70,81,-1.32,6,-74.0,-24.0,-980.0,13:59:34.917564,192.168.0.114
342,-1,-100,-100,-100,"0,0,0",-5,-1,0,0,0,0,69,70,83,70,81,-1.52,6,-69.0,-45.0,-968.0,13:59:35.019600,192.168.0.114
348,-1,-100,-100,-100,"0,0,0",-5,0,0,0,0,0,69,70,83,70,81,-1.51,6,-78.0,-19.0,-986.0,13:59:35.127756,192.168.0.114
354,-1,-100,-100,-100,"0,0,0",-4,1,0,0,0,0,69,70,83,70,81,-1.54,6,-76.0,-12.0,-1021.0,13:59:35.223470,192.168.0.114
359,-1,-100,-100,-100,"0,0,0",-3,1,0,0,0,0,69,70,83,60,81,-1.5,6,-83.0,0.0,-1040.0,13:59:35.325693,192.168.0.114
364,-1,-100,-100,-100,"0,0,0",-3,2,0,0,0,0,69,70,83,60,81,-1.61,7,-95.0,53.0,-983.0,13:59:35.427531,192.168.0.114
369,-1,-100,-100,-100,"0,0,0",-3,1,0,0,0,0,69,71,82,60,81,-1.48,7,-113.0,-7.0,-1090.0,13:59:35.530755,192.168.0.114
374,-1,-100,-100,-100,"0,0,0",-5,-1,0,0,0,0,69,71,82,60,81,-1.47,7,-77.0,3.0,-954.0,13:59:35.631487,192.168.0.114
379,-1,-100,-100,-100,"0,0,0",-5,0,0,0,0,0,69,71,83,60,81,-1.41,7,-44.0,-47.0,-943.0,13:59:35.733467,192.168.0.114
384,-1,-100,-100,-100,"0,0,0",-4,-1,0,0,0,0,69,71,83,60,81,-1.56,7,-48.0,-63.0,-1019.0,13:59:35.835494,192.168.0.114
389,-1,-100,-100,-100,"0,0,0",-3,2,0,0,0,0,69,71,82,70,81,-1.77,7,-100.0,-4.0,-991.0,13:59:35.939770,192.168.0.114
394,-1,-100,-100,-100,"0,0,0",-4,3,0,0,0,0,69,71,82,70,81,-1.52,7,-54.0,32.0,-972.0,13:59:36.039494,192.168.0.114
399,-1,-100,-100,-100,"0,0,0",-5,1,0,0,0,0,69,71,83,60,81,-1.39,7,-40.0,45.0,-973.0,13:59:36.141384,192.168.0.114
404,-1,-100,-100,-100,"0,0,0",-4,0,0,0,0,0,69,71,82,60,81,-1.39,7,-54.0,30.0,-986.0,13:59:36.243478,192.168.0.114
409,-1,-100,-100,-100,"0,0,0",-2,-3,0,0,0,0,69,71,82,60,81,-1.53,7,-78.0,-35.0,-1005.0,13:59:36.345884,192.168.0.114
414,-1,-100,-100,-100,"0,0,0",-2,-2,0,0,0,0,69,71,83,70,81,-1.39,8,-71.0,-30.0,-1024.0,13:59:36.447541,192.168.0.114
419,-1,-100,-100,-100,"0,0,0",-4,0,0,0,0,0,69,70,83,70,81,-1.31,8,-33.0,19.0,-1002.0,13:59:36.549550,192.168.0.114
424,-1,-100,-100,-100,"0,0,0",-3,2,0,0,0,0,69,70,83,70,81,-1.36,8,-25.0,8.0,-970.0,13:59:36.658636,192.168.0.114
429,-1,-100,-100,-100,"0,0,0",-2,1,0,0,0,0,69,70,82,60,81,-1.35,8,-8.0,20.0,-994.0,13:59:36.753552,192.168.0.114
434,-1,-100,-100,-100,"0,0,0",-2,-1,0,-1,0,0,69,70,82,60,81,-1.49,8,-45.0,17.0,-1014.0,13:59:36.855544,192.168.0.114
439,-1,-100,-100,-100,"0,0,0",-1,-2,0,-1,0,0,69,70,83,60,81,-1.54,8,-50.0,-2.0,-1010.0,13:59:36.957378,192.168.0.114
444,-1,-100,-100,-100,"0,0,0",-1,-2,0,0,0,0,69,70,82,60,81,-1.54,8,-38.0,7.0,-967.0,13:59:37.059998,192.168.0.114
449,-1,-100,-100,-100,"0,0,0",-2,-1,0,0,0,0,69,70,83,70,81,-1.34,8,-45.0,33.0,-1003.0,13:59:37.161065,192.168.0.114
454,-1,-100,-100,-100,"0,0,0",-2,-1,0,0,0,0,69,70,83,70,81,-1.42,8,-19.0,65.0,-983.0,13:59:37.263023,192.168.0.114
459,-1,-100,-100,-100,"0,0,0",-1,-1,0,0,0,0,69,70,83,70,81,-1.55,8,-44.0,28.0,-998.0,13:59:37.365522,192.168.0.114
464,-1,-100,-100,-100,"0,0,0",-2,-2,0,0,0,0,69,70,84,70,81,-1.4,9,-20.0,26.0,-1013.0,13:59:37.467454,192.168.0.114
469,-1,-100,-100,-100,"0,0,0",-3,-1,0,-1,0,0,69,71,85,70,81,-1.2,9,-31.0,54.0,-969.0,13:59:37.569460,192.168.0.114
474,-1,-100,-100,-100,"0,0,0",-3,0,0,-1,0,0,69,71,85,70,81,-1.19,9,-28.0,16.0,-903.0,13:59:37.671528,192.168.0.114
479,-1,-100,-100,-100,"0,0,0",-3,-3,0,-1,0,0,69,71,85,70,81,-1.62,9,-81.0,-57.0,-1025.0,13:59:37.775414,192.168.0.114
484,-1,-100,-100,-100,"0,0,0",-4,-3,0,-1,0,0,69,71,85,70,81,-1.51,9,-83.0,-9.0,-1032.0,13:59:37.875386,192.168.0.114
489,-1,-100,-100,-100,"0,0,0",-5,0,0,-1,0,0,69,71,85,70,81,-1.54,9,-70.0,-42.0,-1072.0,13:59:37.977267,192.168.0.114
493,-1,-100,-100,-100,"0,0,0",-6,2,0,-1,0,0,69,71,86,70,81,-1.54,9,-75.0,42.0,-929.0,13:59:38.028549,192.168.0.114
498,-1,-100,-100,-100,"0,0,0",-4,1,0,-2,0,0,69,71,85,70,81,-1.48,9,-77.0,-21.0,-1052.0,13:59:38.130563,192.168.0.114
503,-1,-100,-100,-100,"0,0,0",-5,0,0,-2,0,0,69,71,86,70,81,-1.52,9,-87.0,12.0,-958.0,13:59:38.235558,192.168.0.114
509,-1,-100,-100,-100,"0,0,0",-4,1,0,-2,0,0,69,71,86,70,81,-1.47,9,-91.0,0.0,-1013.0,13:59:38.334612,192.168.0.114
514,-1,-100,-100,-100,"0,0,0",-5,-1,0,-2,0,0,69,71,87,70,81,-1.51,10,-86.0,12.0,-935.0,13:59:38.436491,192.168.0.114
519,-1,-100,-100,-100,"0,0,0",-5,0,0,-2,0,0,68,71,88,70,81,-1.51,10,-87.0,-55.0,-1014.0,13:59:38.540576,192.168.0.114
524,-1,-100,-100,-100,"0,0,0",-5,0,1,-2,0,0,68,71,87,70,81,-1.47,10,-83.0,17.0,-954.0,13:59:38.640698,192.168.0.114
529,-1,-100,-100,-100,"0,0,0",-5,0,1,-2,0,0,68,71,87,70,81,-1.38,10,-94.0,-2.0,-956.0,13:59:38.742504,192.168.0.114
534,-1,-100,-100,-100,"0,0,0",-6,-1,0,-2,0,0,68,71,86,70,81,-1.65,10,-72.0,28.0,-982.0,13:59:38.844476,192.168.0.114
539,-1,-100,-100,-100,"0,0,0",-4,-2,0,-2,0,0,68,71,86,70,81,-1.43,10,-73.0,28.0,-981.0,13:59:38.948974,192.168.0.114
544,-1,-100,-100,-100,"0,0,0",-4,0,0,-2,0,0,68,71,85,70,81,-1.41,10,-88.0,20.0,-1026.0,13:59:39.048568,192.168.0.114
549,-1,-100,-100,-100,"0,0,0",-4,-2,0,-3,0,0,68,71,85,70,81,-1.58,10,-59.0,34.0,-967.0,13:59:39.150497,192.168.0.114
554,-1,-100,-100,-100,"0,0,0",-3,-1,0,-2,0,0,68,71,85,70,81,-1.52,10,-82.0,-22.0,-1007.0,13:59:39.252443,192.168.0.114
559,-1,-100,-100,-100,"0,0,0",-4,0,0,-2,0,0,68,71,85,70,81,-1.39,10,-83.0,0.0,-1009.0,13:59:39.354612,192.168.0.114
564,-1,-100,-100,-100,"0,0,0",-5,0,1,-2,0,0,68,71,85,70,81,-1.12,11,-106.0,4.0,-1025.0,13:59:39.459039,192.168.0.114
569,-1,-100,-100,-100,"0,0,0",-4,0,0,-2,0,0,69,71,85,70,81,-1.07,11,-71.0,1.0,-1047.0,13:59:39.558317,192.168.0.114
574,-1,-100,-100,-100,"0,0,0",-4,0,0,-2,0,0,69,71,84,70,81,-0.89,11,-72.0,-8.0,-891.0,13:59:39.664487,192.168.0.114
579,-1,-100,-100,-100,"0,0,0",-4,0,0,-2,0,0,69,71,84,70,81,-0.95,11,-97.0,-48.0,-955.0,13:59:39.765087,192.168.0.114
584,-1,-100,-100,-100,"0,0,0",-5,0,0,-2,0,0,69,71,84,70,81,-0.99,11,-66.0,4.0,-984.0,13:59:39.864546,192.168.0.114
589,-1,-100,-100,-100,"0,0,0",-2,0,1,-2,0,0,69,71,84,70,81,-1.09,11,-89.0,8.0,-1080.0,13:59:39.972182,192.168.0.114
594,-1,-100,-100,-100,"0,0,0",-4,1,2,-2,0,0,69,71,83,70,81,-1.04,11,-46.0,76.0,-971.0,13:59:40.070313,192.168.0.114
599,-1,-100,-100,-100,"0,0,0",-3,1,0,-2,-1,0,69,71,84,70,81,-1.35,11,-29.0,88.0,-952.0,13:59:40.170517,192.168.0.114
604,-1,-100,-100,-100,"0,0,0",-2,-8,0,-2,-1,0,69,71,83,70,81,-1.69,11,-86.0,-36.0,-1171.0,13:59:40.272467,192.168.0.114
609,7,-35,-8,86,"4,-6,175",-3,-4,0,-2,0,0,69,71,83,70,81,-1.57,12,-124.0,45.0,-1026.0,13:59:40.374485,192.168.0.114
614,7,-35,-8,86,"4,-6,175",-4,-3,-1,-1,0,0,69,71,83,70,81,-2.08,12,-121.0,35.0,-1094.0,13:59:40.476756,192.168.0.114
619,7,-35,-8,86,"4,-6,175",-5,-2,0,-1,0,0,69,71,83,70,81,-1.92,12,-107.0,64.0,-948.0,13:59:40.578683,192.168.0.114
624,7,-35,-8,86,"4,-6,175",-6,-1,0,-2,0,0,69,71,84,70,81,-1.93,12,-72.0,86.0,-1009.0,13:59:40.680991,192.168.0.114
629,7,-27,-5,86,"1,-6,163",-5,-4,-1,-2,0,0,69,71,82,70,81,-1.82,12,-116.0,19.0,-972.0,13:59:40.783426,192.168.0.114
634,7,-27,-5,86,"1,-6,163",-2,-6,0,-2,0,0,69,71,81,70,81,-2.04,12,-102.0,-53.0,-1121.0,13:59:40.885679,192.168.0.114
639,7,-27,-5,86,"1,-6,163",-3,0,0,-1,1,0,69,71,83,70,81,-1.86,12,-94.0,50.0,-1002.0,13:59:40.988209,192.168.0.114
644,7,-27,-5,86,"1,-6,163",-6,0,0,-1,1,0,69,71,83,70,81,-1.75,12,-114.0,18.0,-932.0,13:59:41.092378,192.168.0.114
649,7,-21,-13,86,"4,-4,174",-6,1,0,-1,1,0,69,71,83,70,81,-1.87,12,-65.0,4.0,-999.0,13:59:41.192691,192.168.0.114
654,7,-21,-13,86,"4,-4,174",-6,1,0,-2,0,0,69,71,84,70,81,-1.62,12,-86.0,13.0,-933.0,13:59:41.292289,192.168.0.114
659,7,-21,-13,86,"4,-4,174",-4,0,0,-2,1,0,69,71,84,70,81,-1.79,13,-136.0,-32.0,-1071.0,13:59:41.397708,192.168.0.114
664,7,-9,-13,86,"5,-4,177",-5,2,0,-1,0,0,69,71,83,70,81,-1.67,13,-135.0,75.0,-979.0,13:59:41.500109,192.168.0.114
669,7,-9,-13,86,"5,-4,177",-6,1,0,-1,0,0,68,71,83,70,81,-1.9,13,-78.0,18.0,-992.0,13:59:41.598343,192.168.0.114
674,7,-9,-13,86,"5,-4,177",-1,-3,0,-2,0,0,68,71,82,70,81,-1.79,13,-66.0,-20.0,-1064.0,13:59:41.701885,192.168.0.114
679,7,-9,-13,86,"5,-4,177",1,0,0,-1,0,0,68,71,82,70,81,-1.73,13,-60.0,19.0,-1003.0,13:59:41.802387,192.168.0.114
684,7,1,-4,86,"5,-4,174",-1,1,0,-1,0,0,68,71,82,70,81,-1.95,13,-56.0,21.0,-958.0,13:59:41.904331,192.168.0.114
689,7,1,-4,86,"5,-4,174",-1,0,0,-1,0,0,68,71,82,70,81,-1.85,13,-46.0,7.0,-994.0,13:59:41.957457,192.168.0.114
694,7,1,-4,86,"5,-4,174",-1,-1,0,0,0,0,68,71,81,70,81,-1.74,13,-59.0,-17.0,-966.0,13:59:42.057136,192.168.0.114
699,7,1,-4,86,"5,-4,174",-2,0,0,0,0,0,68,71,81,60,81,-1.7,13,-49.0,-53.0,-997.0,13:59:42.158984,192.168.0.114
704,7,9,-11,84,"2,-3,178",-2,1,0,0,0,0,68,71,81,60,81,-1.59,13,-27.0,-2.0,-998.0,13:59:42.261197,192.168.0.114
709,7,9,-11,84,"2,-3,178",-1,2,0,0,0,0,68,71,80,60,81,-1.75,14,-33.0,20.0,-1048.0,13:59:42.363048,192.168.0.114
714,7,9,-11,84,"2,-3,178",0,0,0,0,0,0,68,71,80,60,81,-1.86,14,-50.0,-23.0,-985.0,13:59:42.466366,192.168.0.114
719,7,9,-11,84,"2,-3,178",-1,0,0,0,0,0,69,71,81,60,81,-1.67,14,-77.0,4.0,-983.0,13:59:42.567256,192.168.0.114
724,7,12,4,84,"1,-1,166",-2,-1,0,0,0,0,69,71,81,60,81,-1.58,14,-46.0,-15.0,-959.0,13:59:42.669019,192.168.0.114
729,7,12,4,84,"1,-1,166",-2,0,0,0,0,0,69,71,81,60,81,-1.72,14,-43.0,-24.0,-1042.0,13:59:42.771145,192.168.0.114
734,7,12,4,84,"1,-1,166",-2,2,0,0,0,0,69,71,80,60,81,-1.77,14,-9.0,23.0,-1038.0,13:59:42.873182,192.168.0.114
739,7,12,4,84,"1,-1,166",-1,1,0,0,0,0,69,71,82,60,81,-1.87,14,-38.0,-1.0,-1021.0,13:59:42.975569,192.168.0.114
744,7,12,4,84,"1,-1,166",-1,-1,0,0,0,0,69,71,81,60,81,-1.77,14,-43.0,4.0,-986.0,13:59:43.078003,192.168.0.114
749,7,12,4,84,"1,-1,166",0,0,0,0,0,0,69,71,81,60,81,-1.71,14,-51.0,36.0,-1067.0,13:59:43.179068,192.168.0.114
754,7,12,4,84,"1,-1,166",-2,0,-2,0,0,0,69,71,82,60,81,-1.73,14,315.0,-1045.0,1421.0,13:59:43.282614,192.168.0.114
759,7,12,4,84,"1,-1,166",0,1,-12,0,0,-2,69,71,82,60,81,-1.28,15,1.0,6.0,-1255.0,13:59:43.392092,192.168.0.114
764,7,12,4,84,"1,-1,166",0,2,-17,0,0,0,69,71,76,60,81,-0.86,15,-6.0,-16.0,-1124.0,13:59:43.485118,192.168.0.114
769,7,12,4,84,"1,-1,166",0,1,-16,0,0,0,69,71,91,60,81,-1.55,15,-15.0,-16.0,-1025.0,13:59:43.587185,192.168.0.114
774,7,12,4,84,"1,-1,166",0,-1,-8,0,0,0,69,71,96,60,81,-1.25,15,10.0,8.0,-997.0,13:59:43.689062,192.168.0.114
779,7,12,4,84,"1,-1,166",0,-1,0,0,0,0,69,71,101,60,81,-1.08,15,-39.0,23.0,-1001.0,13:59:43.793705,192.168.0.114
784,7,12,4,84,"1,-1,166",-1,0,0,0,0,0,69,71,104,60,81,-0.94,15,-12.0,0.0,-1049.0,13:59:43.893046,192.168.0.114
789,7,12,4,84,"1,-1,166",-1,0,0,0,0,2,69,71,110,70,81,-1.04,15,-20.0,6.0,-987.0,13:59:43.995062,192.168.0.114
794,7,12,4,84,"1,-1,166",0,0,0,0,0,2,69,71,114,70,81,-1.0,15,2.0,0.0,-955.0,13:59:44.097135,192.168.0.114
799,7,12,4,84,"1,-1,166",0,-1,0,0,0,2,69,71,120,80,81,-0.96,15,-22.0,0.0,-914.0,13:59:44.199033,192.168.0.114
804,7,12,4,84,"1,-1,166",0,-1,0,0,0,1,69,71,122,80,81,-0.78,15,11.0,-19.0,-919.0,13:59:44.300972,192.168.0.114
809,7,12,4,84,"1,-1,166",0,0,0,0,0,0,69,71,124,80,81,-0.87,16,-7.0,15.0,-909.0,13:59:44.403059,192.168.0.114
814,7,12,4,84,"1,-1,166",0,0,0,0,0,0,69,71,126,80,81,-0.84,16,-14.0,7.0,-940.0,13:59:44.505023,192.168.0.114
819,7,12,4,84,"1,-1,166",0,0,0,0,0,0,69,71,127,80,81,-0.78,16,10.0,-15.0,-944.0,13:59:44.606922,192.168.0.114
824,7,12,4,84,"1,-1,166",0,0,0,0,0,0,69,71,126,80,81,-0.83,16,-8.0,7.0,-946.0,13:59:44.708789,192.168.0.114
829,7,12,4,84,"1,-1,166",1,0,0,0,0,-1,69,71,128,80,81,-0.73,16,-8.0,-12.0,-949.0,13:59:44.810922,192.168.0.114
834,7,12,4,84,"1,-1,166",1,0,0,0,0,-1,69,71,126,80,81,-0.8,16,-2.0,-20.0,-971.0,13:59:44.925557,192.168.0.114
839,7,12,4,84,"1,-1,166",1,0,0,0,0,-1,69,71,124,80,81,-0.76,16,-22.0,2.0,-981.0,13:59:45.014845,192.168.0.114
844,7,12,4,84,"1,-1,166",0,1,0,0,0,-1,69,71,124,80,81,-0.75,16,-8.0,8.0,-966.0,13:59:45.117607,192.168.0.114
849,7,12,4,84,"1,-1,166",0,1,0,0,0,-1,69,71,122,80,81,-0.78,16,-19.0,9.0,-990.0,13:59:45.167956,192.168.0.114
854,7,12,4,84,"1,-1,166",0,0,0,0,0,-1,69,71,121,80,81,-0.83,16,1.0,7.0,-1037.0,13:59:45.270109,192.168.0.114
859,7,12,4,84,"1,-1,166",0,0,0,0,0,-1,69,71,119,70,81,-0.81,17,21.0,25.0,-952.0,13:59:45.372757,192.168.0.114
864,7,12,4,84,"1,-1,166",0,0,0,0,0,-1,69,71,116,70,81,-0.87,17,16.0,34.0,-989.0,13:59:45.473901,192.168.0.114
869,7,12,4,84,"1,-1,166",1,-1,0,0,0,-1,69,71,114,70,81,-0.89,17,34.0,45.0,-1036.0,13:59:45.576032,192.168.0.114
874,7,12,4,84,"1,-1,166",2,-2,0,0,0,-1,69,71,112,70,81,-0.95,17,39.0,18.0,-1032.0,13:59:45.677825,192.168.0.114
879,7,12,4,84,"1,-1,166",2,-2,0,0,0,0,69,71,112,70,81,-0.94,17,38.0,30.0,-1038.0,13:59:45.780088,192.168.0.114
884,7,12,4,84,"1,-1,166",1,-2,0,0,0,0,69,71,111,70,81,-0.88,17,13.0,28.0,-995.0,13:59:45.882979,192.168.0.114
889,7,12,4,84,"1,-1,166",2,-1,0,0,0,0,69,71,110,70,81,-0.97,17,25.0,14.0,-1005.0,13:59:45.984132,192.168.0.114
894,7,12,4,84,"1,-1,166",2,-1,0,0,0,0,69,71,110,70,81,-0.93,17,34.0,22.0,-1000.0,13:59:46.086070,192.168.0.114
899,7,12,4,84,"1,-1,166",1,-2,0,0,0,0,69,71,109,70,81,-0.89,17,23.0,8.0,-990.0,13:59:46.187907,192.168.0.114
904,7,12,4,84,"1,-1,166",1,-1,0,0,0,0,69,71,108,70,81,-0.75,17,30.0,25.0,-1004.0,13:59:46.289989,192.168.0.114
909,7,12,4,84,"1,-1,166",1,-2,0,0,0,0,69,71,106,70,81,-0.72,18,38.0,5.0,-951.0,13:59:46.391881,192.168.0.114
914,7,12,4,84,"1,-1,166",3,-2,0,0,0,0,69,71,106,60,81,-0.81,18,10.0,-39.0,-991.0,13:59:46.494092,192.168.0.114
919,7,12,4,84,"1,-1,166",2,0,0,0,0,0,69,71,103,60,81,-1.0,18,-34.0,3.0,-1037.0,13:59:46.596052,192.168.0.114
924,7,12,4,84,"1,-1,166",0,1,0,1,0,0,69,71,102,60,81,-0.98,18,-9.0,20.0,-1051.0,13:59:46.697801,192.168.0.114
929,7,12,4,84,"1,-1,166",0,0,0,1,0,0,69,71,100,60,81,-0.96,18,11.0,10.0,-1039.0,13:59:46.799856,192.168.0.114
934,7,12,4,84,"1,-1,166",0,-2,0,0,0,0,69,71,99,60,81,-1.02,18,-11.0,-30.0,-1058.0,13:59:46.901804,192.168.0.114
939,7,12,4,84,"1,-1,166",0,0,1,0,0,0,69,71,98,60,81,-0.95,18,7.0,-16.0,-1014.0,13:59:47.003611,192.168.0.114
944,7,12,4,84,"1,-1,166",0,1,1,0,0,0,69,71,98,60,81,-0.95,18,5.0,5.0,-996.0,13:59:47.106074,192.168.0.114
949,7,12,4,84,"1,-1,166",0,0,1,0,0,0,69,71,98,60,81,-0.91,18,42.0,-29.0,-1050.0,13:59:47.207968,192.168.0.114
954,7,12,4,84,"1,-1,166",0,0,0,0,0,0,69,71,98,60,81,-0.99,18,8.0,-26.0,-1017.0,13:59:47.309963,192.168.0.114
959,7,12,4,84,"1,-1,166",0,0,0,0,0,0,69,71,98,60,81,-1.04,19,16.0,-26.0,-979.0,13:59:47.411740,192.168.0.114
964,7,12,4,84,"1,-1,166",0,1,0,0,0,0,69,71,98,60,81,-1.05,19,18.0,-26.0,-951.0,13:59:47.513800,192.168.0.114
969,7,12,4,84,"1,-1,166",0,1,0,0,0,0,69,71,98,60,81,-1.1,19,-3.0,1.0,-929.0,13:59:47.615614,192.168.0.114
974,7,12,4,84,"1,-1,166",0,1,0,0,0,-1,69,71,96,60,81,-1.04,19,-9.0,-18.0,-962.0,13:59:47.717718,192.168.0.114
979,-1,-100,-100,-100,"0,0,0",0,1,0,0,0,-2,69,71,94,50,81,-1.1,19,4.0,-11.0,-922.0,13:59:47.819882,192.168.0.114
984,-1,-100,-100,-100,"0,0,0",0,1,0,0,0,-3,69,71,90,50,81,-1.13,19,20.0,-4.0,-915.0,13:59:47.921799,192.168.0.114
989,-1,-100,-100,-100,"0,0,0",0,0,0,0,0,-4,69,71,85,50,81,-1.07,19,30.0,4.0,-907.0,13:59:48.023701,192.168.0.114
994,-1,-100,-100,-100,"0,0,0",1,0,0,0,0,-5,69,71,79,40,81,-1.07,19,25.0,-2.0,-890.0,13:59:48.125813,192.168.0.114
999,-1,-100,-100,-100,"0,0,0",1,0,0,0,0,-5,69,71,74,40,81,-1.23,19,-3.0,2.0,-944.0,13:59:48.237451,192.168.0.114
1004,-1,-100,-100,-100,"0,0,0",1,0,0,0,0,-5,69,71,67,30,81,-1.33,19,-1.0,16.0,-961.0,13:59:48.329542,192.168.0.114
1009,-1,-100,-100,-100,"0,0,0",-2,0,-3,0,0,-5,69,71,61,20,81,-1.48,20,-41.0,12.0,-1007.0,13:59:48.432548,192.168.0.114
1014,-1,-100,-100,-100,"0,0,0",-3,3,-2,1,0,-5,69,71,55,20,81,-1.19,20,-136.0,20.0,-1078.0,13:59:48.533531,192.168.0.114
1020,-1,-100,-100,-100,"0,0,0",-3,0,0,1,-1,-5,69,71,48,10,81,-1.26,20,-26.0,44.0,-950.0,13:59:48.635608,192.168.0.114
1027,-1,-100,-100,-100,"0,0,0",-5,-3,0,1,-1,-5,69,71,42,10,81,-1.44,20,-84.0,-18.0,-1050.0,13:59:48.737653,192.168.0.114
1029,-1,-100,-100,-100,"0,0,0",-5,-1,0,1,0,-5,69,71,35,0,81,-1.87,20,-81.0,-24.0,-1057.0,13:59:48.788745,192.168.0.114
1034,-1,-100,-100,-100,"0,0,0",-3,-4,0,1,0,-5,69,71,28,0,81,-1.8,20,-33.0,15.0,-1039.0,13:59:48.890666,192.168.0.114
1039,-1,-100,-100,-100,"0,0,0",-5,-1,0,1,0,-4,69,71,22,0,81,-1.94,20,-13.0,0.0,-954.0,13:59:48.992651,192.168.0.114
1044,-1,-100,-100,-100,"0,0,0",-3,0,0,0,0,-4,69,71,18,-10,81,-1.67,20,-71.0,-17.0,-1098.0,13:59:49.094870,192.168.0.114
1049,-1,-100,-100,-100,"0,0,0",-3,-1,0,1,0,-4,69,71,11,-10,81,-2.52,20,-67.0,-4.0,-1074.0,13:59:49.196650,192.168.0.114
1054,-1,-100,-100,-100,"0,0,0",-3,0,0,0,0,-4,69,71,10,-20,81,-3.5,20,-58.0,9.0,-1114.0,13:59:49.299559,192.168.0.114
1059,-1,-100,-100,-100,"0,0,0",-3,0,0,0,0,-3,69,71,10,-20,81,-5.76,21,-77.0,-9.0,-2371.0,13:59:49.400686,192.168.0.114
1064,-1,-100,-100,-100,"0,0,0",-3,-4,-1,0,1,1,69,71,10,-20,81,-3.58,21,5.0,23.0,-594.0,13:59:49.502692,192.168.0.114
1069,-1,-100,-100,-100,"0,0,0",-5,-2,-2,0,1,0,69,72,10,0,81,-3.21,21,58.0,35.0,-631.0,13:59:49.604726,192.168.0.114
1074,-1,-100,-100,-100,"0,0,0",0,-3,-1,0,0,0,69,72,10,0,81,-2.8,21,-1.0,50.0,-1012.0,13:59:49.706611,192.168.0.114
1079,-1,-100,-100,-100,"0,0,0",0,-3,-1,0,0,0,69,72,10,0,81,-2.57,21,0.0,55.0,-1001.0,13:59:49.808763,192.168.0.114
1084,-1,-100,-100,-100,"0,0,0",0,-3,-1,0,0,0,69,72,10,0,81,-2.37,21,-3.0,53.0,-1005.0,13:59:49.910595,192.168.0.114
1089,-1,-100,-100,-100,"0,0,0",0,-3,-1,0,0,0,69,72,10,0,81,-2.23,21,-9.0,56.0,-997.0,13:59:50.012995,192.168.0.114
1094,-1,-100,-100,-100,"0,0,0",0,-3,-1,0,0,0,69,72,10,0,81,-2.19,21,-15.0,50.0,-1000.0,13:59:50.115348,192.168.0.114
1099,-1,-100,-100,-100,"0,0,0",0,-3,-1,0,0,0,69,72,10,0,81,-2.2,21,-6.0,52.0,-1000.0,13:59:50.216643,192.168.0.114
1104,-1,-100,-100,-100,"0,0,0",0,-3,-1,0,0,0,69,72,10,0,81,-2.19,21,-4.0,55.0,-997.0,13:59:50.318660,192.168.0.114
1109,-1,-100,-100,-100,"0,0,0",0,-3,-1,0,0,0,69,72,10,0,81,-2.19,21,-2.0,55.0,-998.0,13:59:50.420709,192.168.0.114
1114,-1,-100,-100,-100,"0,0,0",0,-3,-1,0,0,0,69,72,10,0,81,-2.11,21,-2.0,51.0,-997.0,13:59:50.522630,192.168.0.114
1119,-1,-100,-100,-100,"0,0,0",0,-3,-1,0,0,0,69,71,10,0,81,-2.15,21,-1.0,52.0,-996.0,13:59:50.624634,192.168.0.114
