,mid,x,y,z,mpry,pitch,roll,yaw,vgx,vgy,vgz,templ,temph,tof,h,bat,baro,time,agx,agy,agz,timestamp,address
0,-1,-100,-100,-100,"-1,-1,-1",0,0,-2,0,0,0,80,82,10,0,92,-11.82,0,2.0,-1.0,-999.0,13:29:31.126914,192.168.0.113
5,-1,-100,-100,-100,"-1,-1,-1",0,0,-2,0,0,0,80,82,10,0,92,-11.82,0,2.0,-1.0,-998.0,13:29:31.245858,192.168.0.113
12,-1,-100,-100,-100,"-1,-1,-1",0,0,-2,0,0,0,80,82,10,0,92,-11.78,0,2.0,-2.0,-999.0,13:29:31.357738,192.168.0.113
18,-1,-100,-100,-100,"-1,-1,-1",0,0,-2,0,0,0,80,82,10,0,92,-11.81,0,2.0,-3.0,-1000.0,13:29:31.506320,192.168.0.113
23,-1,-100,-100,-100,"-1,-1,-1",0,0,-2,0,0,0,80,82,10,0,92,-11.81,0,6.0,-6.0,-999.0,13:29:31.608681,192.168.0.113
28,-1,-100,-100,-100,"-1,-1,-1",0,0,-2,0,0,0,80,82,10,0,92,-11.81,0,0.0,2.0,-999.0,13:29:31.636591,192.168.0.113
33,-1,-100,-100,-100,"-1,-1,-1",0,0,-2,0,0,0,80,82,10,0,92,-11.81,0,-10.0,-8.0,-995.0,13:29:31.738452,192.168.0.113
38,-1,-100,-100,-100,"-1,-1,-1",0,0,-3,0,0,0,80,82,10,0,92,-11.81,0,-21.0,38.0,-1026.0,13:29:31.840366,192.168.0.113
43,-1,-100,-100,-100,"-1,-1,-1",0,0,-3,0,0,0,80,82,10,0,92,-11.81,0,44.0,-28.0,-1094.0,13:29:31.958429,192.168.0.113
48,-1,-100,-100,-100,"-1,-1,-1",0,0,-4,0,0,-1,80,82,10,0,92,-11.81,0,6.0,-7.0,-1233.0,13:29:32.077815,192.168.0.113
53,-1,-100,-100,-100,"-1,-1,-1",0,0,-4,0,0,-5,80,82,10,0,92,-11.81,0,20.0,0.0,-1214.0,13:29:32.225829,192.168.0.113
58,-1,-100,-100,-100,"-1,-1,-1",1,0,-4,0,0,-6,80,82,14,0,92,-11.52,0,25.0,-14.0,-1392.0,13:29:32.248507,192.168.0.113
63,-1,-100,-100,-100,"-1,-1,-1",1,0,-4,0,0,-7,80,82,22,0,92,-11.42,0,33.0,-9.0,-1197.0,13:29:32.350435,192.168.0.113
68,-1,-100,-100,-100,"-1,-1,-1",1,0,-4,0,0,-7,80,83,29,10,92,-11.27,0,3.0,23.0,-1126.0,13:29:32.452385,192.168.0.113
73,-1,-100,-100,-100,"-1,-1,-1",0,0,-4,0,0,-6,80,83,38,10,92,-11.24,1,11.0,4.0,-1051.0,13:29:32.558002,192.168.0.113
78,7,19,2,42,"0,3,177",1,0,-4,0,0,-6,80,83,47,20,92,-11.09,1,16.0,5.0,-996.0,13:29:32.680310,192.168.0.113
83,7,21,4,45,"1,4,175",1,0,-4,0,0,-5,80,83,56,20,92,-11.07,1,20.0,3.0,-957.0,13:29:32.797882,192.168.0.113
89,7,24,8,56,"3,4,173",1,0,-4,0,0,-4,80,83,63,30,92,-11.0,1,2.0,10.0,-936.0,13:29:32.944725,192.168.0.113
94,7,25,9,62,"3,4,172",1,0,-4,0,0,-3,80,83,70,30,92,-10.93,1,12.0,24.0,-921.0,13:29:32.962476,192.168.0.113
99,7,23,4,67,"1,3,176",1,0,-4,0,0,-2,80,83,76,30,92,-10.87,1,15.0,37.0,-886.0,13:29:33.064374,192.168.0.113
104,7,26,7,73,"3,4,174",1,0,-4,0,0,-1,80,83,81,40,92,-10.82,1,14.0,-18.0,-899.0,13:29:33.166347,192.168.0.113
109,7,28,15,73,"4,5,169",1,0,-4,0,0,-1,80,83,85,40,92,-10.7,1,14.0,-11.0,-919.0,13:29:33.281704,192.168.0.113
114,7,26,8,80,"2,3,174",1,0,-4,0,0,0,80,83,88,40,92,-10.71,1,14.0,0.0,-920.0,13:29:33.401195,192.168.0.113
115,7,26,8,82,"2,3,174",1,0,-4,0,0,0,80,83,91,40,92,-10.69,1,26.0,12.0,-924.0,13:29:33.421315,192.168.0.113
120,7,26,11,86,"2,3,173",1,0,-4,0,0,0,80,83,92,50,92,-10.65,2,21.0,-17.0,-914.0,13:29:33.523363,192.168.0.113
125,7,26,11,86,"2,3,173",0,0,-4,0,0,0,80,83,94,50,92,-10.66,2,25.0,-18.0,-939.0,13:29:33.758199,192.168.0.113
130,7,25,12,90,"2,3,173",0,0,-4,0,0,0,80,83,95,50,92,-10.69,2,-13.0,-2.0,-955.0,13:29:33.767213,192.168.0.113
135,7,25,13,90,"2,4,173",0,0,-4,0,0,0,80,83,96,50,92,-10.7,2,11.0,13.0,-970.0,13:29:33.883073,192.168.0.113
140,7,22,13,92,"0,3,173",0,0,-4,0,0,0,80,83,97,50,92,-10.71,2,20.0,0.0,-955.0,13:29:33.931414,192.168.0.113
146,7,24,9,93,"1,3,175",0,0,-4,0,0,0,80,83,97,50,92,-10.7,2,-3.0,2.0,-968.0,13:29:34.033392,192.168.0.113
151,7,17,5,96,"-2,2,177",0,0,-4,0,0,1,80,83,97,50,92,-10.66,2,10.0,0.0,-961.0,13:29:34.135227,192.168.0.113
156,7,24,12,92,"1,3,174",0,0,-4,0,0,1,80,83,96,50,92,-10.62,2,14.0,-11.0,-975.0,13:29:34.239367,192.168.0.113
162,7,23,19,90,"1,4,170",0,0,-4,0,0,1,80,83,96,50,92,-10.62,2,5.0,-11.0,-969.0,13:29:34.383879,192.168.0.113
168,7,24,15,90,"2,4,172",0,0,-4,0,0,1,80,82,94,50,92,-10.65,2,12.0,-7.0,-988.0,13:29:34.486635,192.168.0.113
173,7,24,14,90,"1,4,172",0,0,-4,0,0,1,80,82,93,50,92,-10.68,3,14.0,6.0,-980.0,13:29:34.598908,192.168.0.113
178,7,23,13,89,"1,3,173",0,0,-4,0,0,1,80,82,93,50,92,-10.68,3,26.0,-9.0,-980.0,13:29:34.645238,192.168.0.113
183,7,21,11,89,"0,3,174",0,0,-4,0,0,1,80,82,91,50,92,-10.68,3,10.0,2.0,-999.0,13:29:34.747215,192.168.0.113
188,7,24,9,88,"1,3,175",1,0,-4,0,0,1,80,82,90,50,92,-10.68,3,-3.0,18.0,-1003.0,13:29:34.849296,192.168.0.113
193,7,24,9,88,"1,3,175",1,0,-4,0,0,1,80,82,89,50,92,-10.71,3,12.0,-6.0,-1002.0,13:29:34.960485,192.168.0.113
198,7,27,21,82,"3,5,168",1,0,-4,0,0,1,80,82,88,50,92,-10.69,3,25.0,-15.0,-999.0,13:29:35.198789,192.168.0.113
203,7,25,9,83,"2,3,175",0,0,-4,0,0,1,80,82,86,50,92,-10.78,3,25.0,-19.0,-994.0,13:29:35.199147,192.168.0.113
208,7,28,18,79,"4,5,170",0,0,-4,0,0,1,80,82,85,50,92,-10.74,3,9.0,-13.0,-991.0,13:29:35.319266,192.168.0.113
213,7,24,10,81,"1,3,174",0,0,-4,0,0,1,80,82,84,50,92,-10.72,3,18.0,-17.0,-996.0,13:29:35.359296,192.168.0.113
219,7,25,10,80,"2,3,175",0,0,-4,0,0,0,80,83,82,40,92,-10.77,3,2.0,18.0,-1011.0,13:29:35.461314,192.168.0.113
224,7,28,15,77,"4,4,171",0,0,-4,0,0,0,80,83,81,40,92,-10.8,4,11.0,-11.0,-1003.0,13:29:35.563170,192.168.0.113
229,7,25,9,77,"2,3,175",0,0,-4,0,0,0,80,83,80,40,92,-10.8,4,35.0,-15.0,-1002.0,13:29:35.679616,192.168.0.113
234,7,28,15,74,"4,5,171",1,0,-4,0,0,0,80,83,79,40,92,-10.83,4,12.0,1.0,-1016.0,13:29:35.822712,192.168.0.113
239,7,28,14,73,"4,4,171",1,0,-3,0,0,0,80,83,78,40,92,-10.74,4,1.0,-7.0,-1007.0,13:29:35.925354,192.168.0.113
244,7,28,13,72,"4,5,171",0,0,-3,0,0,0,80,83,78,40,92,-10.78,4,23.0,-16.0,-1005.0,13:29:35.971200,192.168.0.113
245,7,26,8,74,"2,3,175",1,0,-3,0,0,0,80,83,78,40,92,-10.82,4,8.0,-9.0,-1006.0,13:29:36.041861,192.168.0.113
250,7,24,8,74,"1,3,175",1,0,-3,0,0,0,80,83,77,40,92,-10.8,4,21.0,5.0,-1012.0,13:29:36.281181,192.168.0.113
255,7,24,2,74,"1,2,179",0,0,-3,0,0,0,80,83,76,40,92,-10.79,4,12.0,-2.0,-1013.0,13:29:36.281580,192.168.0.113
260,7,24,8,73,"1,3,175",0,0,-3,0,0,0,80,83,76,40,92,-10.79,4,18.0,3.0,-1010.0,13:29:36.328314,192.168.0.113
265,7,27,13,70,"4,5,171",0,0,-3,0,0,0,80,82,75,40,92,-10.82,4,4.0,11.0,-1016.0,13:29:36.521489,192.168.0.113
274,7,26,6,72,"2,3,175",1,0,-3,0,0,0,80,82,75,40,92,-10.84,5,16.0,-14.0,-1002.0,13:29:36.644481,192.168.0.113
275,7,24,7,72,"2,3,174",0,0,-3,0,0,0,80,82,75,40,92,-10.85,5,13.0,-2.0,-997.0,13:29:36.644571,192.168.0.113
280,7,25,7,72,"2,3,174",0,0,-3,0,0,0,80,82,75,40,92,-10.89,5,15.0,4.0,-998.0,13:29:36.761932,192.168.0.113
285,7,27,12,70,"4,5,170",1,0,-3,0,0,0,80,82,74,40,92,-10.88,5,24.0,-2.0,-1001.0,13:29:36.881570,192.168.0.113
292,7,29,11,68,"5,4,171",1,0,-3,0,0,0,80,82,75,40,92,-10.84,5,4.0,4.0,-998.0,13:29:37.002033,192.168.0.113
297,7,23,6,73,"1,3,174",0,0,-3,0,0,0,80,82,75,40,92,-10.92,5,11.0,-4.0,-1001.0,13:29:37.043152,192.168.0.113
303,7,22,10,72,"0,4,171",0,0,-3,0,0,0,80,82,75,40,92,-10.88,5,10.0,11.0,-1005.0,13:29:37.241458,192.168.0.113
308,7,27,12,69,"4,5,170",1,0,-3,0,0,0,80,82,75,40,92,-10.82,5,13.0,4.0,-1008.0,13:29:37.247132,192.168.0.113
313,7,24,6,73,"1,3,174",1,0,-3,0,0,0,80,82,74,40,92,-10.83,5,20.0,18.0,-1001.0,13:29:37.364653,192.168.0.113
318,7,26,5,71,"3,3,175",1,0,-3,0,0,0,80,82,75,40,92,-10.84,5,20.0,18.0,-1008.0,13:29:37.482513,192.168.0.113
323,7,28,5,70,"4,3,175",1,0,-3,0,0,0,80,82,75,40,92,-10.8,6,18.0,-2.0,-1000.0,13:29:37.602207,192.168.0.113
328,7,26,5,71,"3,3,175",1,0,-3,0,0,0,80,82,75,40,92,-10.85,6,12.0,-5.0,-1004.0,13:29:37.655599,192.168.0.113
333,7,24,6,73,"1,3,174",1,0,-3,0,0,0,80,82,76,40,92,-10.89,6,25.0,-9.0,-1003.0,13:29:37.757048,192.168.0.113
338,7,24,7,73,"1,4,174",1,0,-3,0,0,0,80,82,75,40,92,-10.89,6,7.0,28.0,-1005.0,13:29:37.878042,192.168.0.113
344,7,27,3,71,"3,3,177",1,0,-3,0,0,0,80,82,76,40,92,-10.79,6,25.0,-8.0,-993.0,13:29:37.980901,192.168.0.113
349,7,28,12,70,"4,5,170",1,0,-3,0,0,0,80,82,76,40,92,-10.84,6,-8.0,-20.0,-981.0,13:29:38.201541,192.168.0.113
353,7,28,12,70,"4,5,170",1,0,-4,0,0,0,80,82,76,40,92,-10.77,6,16.0,-7.0,-1005.0,13:29:38.201662,192.168.0.113
359,7,28,12,71,"4,5,170",1,0,-3,0,0,0,80,82,76,40,92,-10.82,6,19.0,-8.0,-997.0,13:29:38.322358,192.168.0.113
363,7,28,12,71,"4,5,170",1,0,-4,0,0,0,80,82,76,40,92,-10.81,6,9.0,-16.0,-994.0,13:29:38.368999,192.168.0.113
368,7,25,6,74,"1,3,174",1,0,-4,0,0,0,80,82,76,40,92,-10.87,6,28.0,-8.0,-995.0,13:29:38.470937,192.168.0.113
374,7,25,6,74,"1,3,174",1,0,-4,0,0,0,80,82,77,40,92,-10.75,7,26.0,9.0,-1001.0,13:29:38.682147,192.168.0.113
379,7,27,5,73,"3,3,175",1,0,-4,0,0,0,80,82,77,40,92,-10.83,7,21.0,16.0,-1000.0,13:29:38.682469,192.168.0.113
384,7,27,5,73,"3,3,175",1,0,-4,0,0,0,80,82,77,40,92,-10.83,7,18.0,3.0,-1018.0,13:29:38.803123,192.168.0.113
389,7,26,4,74,"1,3,176",1,0,-4,0,0,0,80,82,77,40,92,-10.77,7,20.0,-11.0,-998.0,13:29:38.922460,192.168.0.113
393,7,26,4,74,"1,3,176",1,0,-4,0,0,0,80,82,77,40,92,-10.74,7,9.0,5.0,-996.0,13:29:39.042659,192.168.0.113
399,7,29,12,72,"4,5,171",1,0,-3,0,0,0,80,82,78,40,92,-10.78,7,21.0,-9.0,-998.0,13:29:39.083080,192.168.0.113
403,7,29,12,72,"4,5,171",1,0,-3,0,0,0,80,82,77,40,92,-10.74,7,5.0,0.0,-994.0,13:29:39.184908,192.168.0.113
408,7,29,14,71,"4,5,169",1,0,-3,0,0,0,80,82,78,40,92,-10.75,7,23.0,2.0,-1007.0,13:29:39.402612,192.168.0.113
413,7,29,14,71,"4,5,169",1,0,-3,0,0,0,80,82,78,40,92,-10.76,7,30.0,6.0,-1003.0,13:29:39.403084,192.168.0.113
417,7,26,0,75,"0,2,179",1,0,-4,0,0,0,79,82,78,40,92,-10.75,7,13.0,-4.0,-998.0,13:29:39.522341,192.168.0.113
423,7,26,0,75,"0,2,179",1,0,-4,0,0,0,79,82,78,40,92,-10.75,8,7.0,-8.0,-993.0,13:29:39.644887,192.168.0.113
428,7,29,12,73,"3,5,170",1,0,-4,0,0,0,79,82,78,40,92,-10.7,8,44.0,9.0,-965.0,13:29:39.695119,192.168.0.113
433,7,29,12,73,"3,5,170",2,0,-4,0,0,0,79,82,77,40,92,-10.73,8,16.0,1.0,-983.0,13:29:39.797079,192.168.0.113
438,7,29,10,73,"2,5,172",2,0,-4,0,0,0,79,82,77,40,92,-10.78,8,11.0,12.0,-990.0,13:29:39.899418,192.168.0.113
443,7,29,10,73,"2,5,172",2,0,-4,0,0,0,79,82,76,40,92,-10.73,8,17.0,6.0,-993.0,13:29:40.036553,192.168.0.113
448,7,29,10,73,"2,5,172",1,0,-4,0,0,0,79,82,76,40,92,-10.81,8,22.0,8.0,-998.0,13:29:40.157340,192.168.0.113
453,7,26,0,74,"1,3,178",1,0,-4,0,0,0,79,82,75,40,92,-10.83,8,26.0,7.0,-1008.0,13:29:40.242661,192.168.0.113
458,7,26,0,74,"1,3,178",1,0,-4,0,0,0,79,82,74,40,92,-10.84,8,18.0,4.0,-1006.0,13:29:40.362403,192.168.0.113
463,7,24,4,73,"0,4,174",0,0,-4,0,0,0,79,82,74,40,92,-10.86,8,27.0,3.0,-1015.0,13:29:40.408997,192.168.0.113
468,7,24,4,73,"0,4,174",0,0,-4,0,0,0,79,81,73,40,92,-10.89,8,18.0,4.0,-1019.0,13:29:40.511193,192.168.0.113
473,7,27,8,69,"5,5,171",0,0,-4,0,0,0,79,81,73,30,92,-10.8,9,19.0,1.0,-1010.0,13:29:40.612960,192.168.0.113
478,7,27,8,69,"5,5,171",1,0,-4,0,0,0,79,81,73,30,92,-10.81,9,18.0,5.0,-1007.0,13:29:40.715069,192.168.0.113
483,7,29,8,68,"5,5,171",1,0,-4,0,0,0,79,81,73,30,92,-10.82,9,13.0,11.0,-1007.0,13:29:40.816938,192.168.0.113
488,7,29,8,68,"5,5,171",1,0,-4,0,0,0,79,81,73,30,92,-10.85,9,6.0,4.0,-1003.0,13:29:40.918893,192.168.0.113
493,7,28,6,69,"3,5,171",1,0,-4,0,0,0,79,81,73,30,92,-10.82,9,22.0,-4.0,-999.0,13:29:41.020940,192.168.0.113
498,7,28,6,69,"3,5,171",1,0,-4,0,0,0,79,81,74,40,92,-10.86,9,23.0,-9.0,-1009.0,13:29:41.126371,192.168.0.113
503,7,28,6,69,"3,5,171",1,0,-4,0,0,0,79,81,73,40,92,-10.81,9,6.0,-14.0,-1001.0,13:29:41.224984,192.168.0.113
508,7,29,0,70,"2,3,176",1,0,-4,0,0,0,79,81,74,40,92,-10.86,9,0.0,8.0,-1000.0,13:29:41.372429,192.168.0.113
513,7,29,0,70,"2,3,176",1,0,-4,0,0,0,79,81,74,40,92,-10.77,9,-5.0,17.0,-1001.0,13:29:41.499615,192.168.0.113
516,7,29,3,71,"2,4,174",1,0,-4,0,0,0,79,81,74,40,92,-10.83,9,20.0,-8.0,-1000.0,13:29:41.499841,192.168.0.113
521,7,29,3,71,"2,4,174",1,0,-4,0,0,0,79,81,74,40,92,-10.8,10,14.0,12.0,-1012.0,13:29:41.619178,192.168.0.113
526,7,32,10,69,"4,6,170",1,0,-4,0,0,0,79,81,73,40,92,-10.79,10,4.0,10.0,-999.0,13:29:41.739966,192.168.0.113
531,7,32,10,69,"4,6,170",1,0,-4,0,0,0,79,81,73,40,92,-10.79,10,0.0,7.0,-1016.0,13:29:41.856517,192.168.0.113
536,7,32,10,69,"3,6,170",1,0,-4,0,0,0,79,81,74,40,92,-10.75,10,16.0,-2.0,-1009.0,13:29:41.976804,192.168.0.113
541,7,32,10,69,"3,6,170",1,0,-4,0,0,0,79,81,73,40,92,-10.81,10,16.0,-7.0,-1011.0,13:29:41.989870,192.168.0.113
546,7,31,1,70,"3,3,175",1,0,-4,0,0,0,79,81,73,40,92,-10.73,10,18.0,-3.0,-1012.0,13:29:42.099960,192.168.0.113
551,7,31,1,70,"3,3,175",1,0,-4,0,0,0,79,81,74,40,92,-10.8,10,6.0,-12.0,-995.0,13:29:42.217135,192.168.0.113
556,7,30,5,71,"2,4,172",1,0,-4,0,0,0,79,81,74,40,92,-10.77,10,13.0,-10.0,-999.0,13:29:42.336681,192.168.0.113
561,7,30,5,71,"2,4,172",1,0,-4,0,0,0,79,81,74,40,92,-10.74,10,27.0,-12.0,-997.0,13:29:42.456342,192.168.0.113
568,7,33,11,69,"4,6,169",1,0,-4,0,0,0,80,81,74,40,92,-10.82,10,18.0,-16.0,-1006.0,13:29:42.577309,192.168.0.113
571,7,33,11,69,"4,6,169",1,0,-4,0,0,0,80,81,75,40,92,-10.82,11,7.0,-8.0,-976.0,13:29:42.696484,192.168.0.113
576,7,33,10,69,"4,6,170",1,0,-4,0,0,0,80,81,74,40,92,-10.78,11,4.0,4.0,-1004.0,13:29:42.703948,192.168.0.113
581,7,33,10,69,"4,6,170",1,0,-4,0,0,0,80,81,74,40,92,-10.74,11,34.0,-8.0,-981.0,13:29:42.819130,192.168.0.113
586,7,33,10,69,"4,6,170",1,0,-4,0,0,0,80,81,74,40,92,-10.76,11,30.0,10.0,-1000.0,13:29:42.936665,192.168.0.113
591,7,33,10,69,"4,6,170",1,0,-4,0,0,0,80,81,74,40,92,-10.8,11,5.0,-11.0,-995.0,13:29:43.056805,192.168.0.113
596,7,33,10,69,"4,6,170",1,0,-4,0,0,0,80,81,74,40,92,-10.78,11,10.0,6.0,-1007.0,13:29:43.176599,192.168.0.113
601,7,33,10,69,"3,6,170",1,0,-4,0,0,0,80,81,74,40,92,-10.84,11,18.0,-1.0,-1006.0,13:29:43.296465,192.168.0.113
606,7,33,10,69,"3,6,170",1,0,-4,0,0,0,80,81,74,40,92,-10.82,11,28.0,-9.0,-1007.0,13:29:43.315798,192.168.0.113
611,7,30,5,72,"1,5,173",1,0,-4,0,0,0,80,81,74,40,92,-10.77,11,17.0,10.0,-1001.0,13:29:43.417693,192.168.0.113
616,7,30,5,72,"1,5,173",1,0,-4,0,0,0,79,81,74,40,92,-10.78,11,27.0,16.0,-1003.0,13:29:43.537140,192.168.0.113
621,7,29,8,72,"0,5,171",1,0,-4,0,0,0,79,81,74,40,92,-10.84,12,7.0,-4.0,-998.0,13:29:43.657486,192.168.0.113
626,7,29,8,72,"0,5,171",1,0,-3,0,0,0,79,81,74,40,92,-10.87,12,17.0,11.0,-1003.0,13:29:43.779451,192.168.0.113
631,7,34,10,68,"4,6,170",1,0,-3,0,0,0,79,81,74,40,92,-10.83,12,22.0,0.0,-1009.0,13:29:43.898925,192.168.0.113
636,7,34,10,68,"4,6,170",1,0,-3,0,0,0,79,81,74,40,92,-10.85,12,-10.0,19.0,-1011.0,13:29:44.018699,192.168.0.113
641,7,34,10,69,"4,5,170",1,0,-3,0,0,0,79,81,75,40,92,-10.79,12,-4.0,-3.0,-994.0,13:29:44.029771,192.168.0.113
646,7,34,10,69,"4,5,170",1,0,-3,0,0,0,79,81,75,40,92,-10.83,12,11.0,-3.0,-1002.0,13:29:44.259052,192.168.0.113
652,7,33,12,69,"4,6,169",0,0,-4,0,0,0,79,81,75,40,92,-10.85,12,13.0,-8.0,-996.0,13:29:44.259454,192.168.0.113
657,7,33,12,69,"4,6,169",0,0,-4,0,0,0,79,81,76,40,92,-10.88,12,22.0,-3.0,-991.0,13:29:44.377870,192.168.0.113
662,7,34,14,69,"5,7,168",0,0,-4,0,0,0,79,81,75,40,92,-10.78,12,-4.0,-10.0,-994.0,13:29:44.499154,192.168.0.113
667,7,34,14,69,"5,7,168",1,0,-4,0,0,0,78,80,76,40,92,-10.76,13,11.0,22.0,-1005.0,13:29:44.619045,192.168.0.113
672,7,31,6,73,"2,4,173",1,0,-4,0,0,0,78,80,76,40,92,-10.78,13,13.0,15.0,-1006.0,13:29:44.641691,192.168.0.113
677,7,31,6,73,"2,4,173",1,0,-4,0,0,0,78,80,76,40,92,-10.81,13,9.0,6.0,-985.0,13:29:44.743671,192.168.0.113
682,7,35,12,69,"5,6,169",0,0,-4,0,0,0,78,80,76,40,92,-10.76,13,19.0,4.0,-994.0,13:29:44.978564,192.168.0.113
687,7,35,12,69,"5,6,169",1,0,-4,0,0,0,78,80,75,40,92,-10.71,13,12.0,25.0,-998.0,13:29:44.978904,192.168.0.113
692,7,36,12,69,"5,6,169",1,0,-4,0,0,0,78,80,75,40,92,-10.72,13,11.0,-9.0,-993.0,13:29:45.099265,192.168.0.113
697,7,36,12,69,"5,6,169",1,0,-4,0,0,0,78,80,75,40,92,-10.82,13,16.0,13.0,-1000.0,13:29:45.220306,192.168.0.113
702,7,35,11,70,"4,6,170",1,0,-4,0,0,0,78,80,75,40,92,-10.72,13,17.0,-2.0,-998.0,13:29:45.338909,192.168.0.113
707,7,35,11,70,"4,6,170",1,0,-4,0,0,0,78,80,75,40,92,-10.76,13,15.0,14.0,-987.0,13:29:45.355735,192.168.0.113
714,7,35,13,69,"3,7,168",1,0,-4,0,0,0,79,81,74,40,92,-10.82,13,-8.0,28.0,-1001.0,13:29:45.698265,192.168.0.113
719,7,35,13,69,"3,7,168",1,0,-4,0,0,0,79,81,74,40,92,-10.78,14,9.0,-10.0,-998.0,13:29:45.698431,192.168.0.113
724,7,34,12,70,"3,7,168",1,0,-4,0,0,0,79,81,74,40,92,-10.74,14,10.0,12.0,-1001.0,13:29:45.712642,192.168.0.113
729,7,34,12,70,"3,7,168",1,0,-4,0,0,0,79,81,74,40,92,-10.71,14,19.0,8.0,-1006.0,13:29:45.821002,192.168.0.113
734,7,36,11,68,"4,6,169",1,0,-4,0,0,0,79,81,74,40,92,-10.77,14,26.0,6.0,-1001.0,13:29:45.939899,192.168.0.113
739,7,36,11,68,"4,6,169",1,0,-4,0,0,0,79,81,74,40,92,-10.72,14,8.0,12.0,-1004.0,13:29:46.059299,192.168.0.113
745,7,36,15,67,"3,8,167",1,0,-4,0,0,0,79,81,74,40,92,-10.71,14,26.0,1.0,-992.0,13:29:46.179250,192.168.0.113
750,7,36,15,67,"3,8,167",1,0,-4,0,0,0,79,81,74,40,92,-10.72,14,19.0,9.0,-1000.0,13:29:46.305603,192.168.0.113
755,7,35,13,69,"2,7,169",1,0,-4,0,0,0,79,81,73,40,92,-10.74,14,6.0,11.0,-1009.0,13:29:46.418812,192.168.0.113
759,7,35,13,69,"2,7,169",1,0,-4,0,0,0,79,81,73,40,92,-10.8,14,-8.0,-2.0,-1009.0,13:29:46.427268,192.168.0.113
764,7,35,11,69,"3,6,171",1,0,-3,0,0,0,79,81,73,40,92,-10.74,15,5.0,10.0,-1007.0,13:29:46.539210,192.168.0.113
769,7,35,11,69,"3,6,171",1,0,-3,0,0,0,79,81,74,40,92,-10.75,15,15.0,-25.0,-992.0,13:29:46.660032,192.168.0.113
774,7,34,13,69,"3,6,169",0,0,-3,0,0,0,79,81,73,40,92,-10.76,15,5.0,-1.0,-998.0,13:29:46.779100,192.168.0.113
780,7,34,13,69,"3,6,169",0,0,-3,0,0,0,79,81,74,40,92,-10.79,15,11.0,0.0,-1003.0,13:29:46.914686,192.168.0.113
784,7,35,12,68,"4,6,171",0,0,-3,0,0,0,79,81,74,40,92,-10.81,15,7.0,-7.0,-998.0,13:29:47.138458,192.168.0.113
789,7,35,12,68,"4,6,171",1,0,-3,0,0,0,79,81,73,40,92,-10.76,15,11.0,0.0,-992.0,13:29:47.138827,192.168.0.113
795,7,35,13,68,"4,6,170",1,0,-3,0,0,0,79,81,73,40,92,-10.86,15,12.0,-3.0,-991.0,13:29:47.140491,192.168.0.113
800,7,35,13,68,"4,6,170",1,0,-3,0,0,0,79,81,73,40,92,-10.81,15,18.0,-5.0,-1007.0,13:29:47.259582,192.168.0.113
806,7,35,15,68,"4,6,169",1,0,-3,0,0,0,79,81,74,40,92,-10.78,15,13.0,-11.0,-997.0,13:29:47.395611,192.168.0.113
811,7,35,15,68,"4,6,169",1,0,-3,0,0,0,79,81,74,40,92,-10.78,15,-9.0,-4.0,-990.0,13:29:47.500115,192.168.0.113
816,7,36,13,68,"4,6,171",1,0,-3,0,0,0,78,81,73,40,92,-10.79,16,26.0,-4.0,-1002.0,13:29:47.619328,192.168.0.113
821,7,36,13,68,"4,6,171",1,0,-3,0,0,0,78,81,74,40,92,-10.74,16,-7.0,1.0,-997.0,13:29:47.858516,192.168.0.113
826,7,36,13,68,"3,6,171",1,0,-3,0,0,0,78,81,73,40,92,-10.8,16,-5.0,-5.0,-1001.0,13:29:47.858896,192.168.0.113
831,7,36,13,68,"3,6,171",1,0,-3,0,0,0,78,81,73,40,92,-10.74,16,9.0,0.0,-1000.0,13:29:47.979228,192.168.0.113
836,7,35,14,69,"2,6,171",1,0,-3,0,0,0,78,81,74,40,92,-10.77,16,0.0,-19.0,-989.0,13:29:48.099082,192.168.0.113
841,7,35,14,69,"2,6,171",1,0,-3,0,0,0,78,81,74,40,92,-10.85,16,12.0,-5.0,-1013.0,13:29:48.109451,192.168.0.113
846,7,36,14,68,"2,6,171",1,0,-3,0,0,0,78,81,73,40,92,-10.75,16,3.0,0.0,-991.0,13:29:48.219674,192.168.0.113
851,7,36,14,68,"2,6,171",1,0,-3,0,0,0,78,81,74,40,92,-10.71,16,12.0,-9.0,-1007.0,13:29:48.339892,192.168.0.113
856,7,37,12,68,"3,6,172",1,0,-3,0,0,0,78,81,73,40,92,-10.62,16,4.0,-6.0,-995.0,13:29:48.464477,192.168.0.113
861,7,37,12,68,"3,6,172",1,0,-3,0,0,0,78,80,74,40,92,-10.72,16,23.0,-6.0,-1008.0,13:29:48.579125,192.168.0.113
867,7,35,6,71,"1,4,175",1,0,-3,0,0,0,78,80,73,40,92,-10.71,17,22.0,-4.0,-1002.0,13:29:48.699209,192.168.0.113
872,7,35,6,71,"1,4,175",1,0,-3,0,0,0,78,80,73,40,92,-10.68,17,28.0,-15.0,-1003.0,13:29:48.721407,192.168.0.113
878,7,37,13,68,"3,6,171",1,0,-3,0,0,0,78,80,73,40,92,-10.68,17,4.0,-20.0,-998.0,13:29:48.823390,192.168.0.113
882,7,37,13,68,"3,6,171",1,0,-3,0,0,0,78,80,74,40,92,-10.72,17,6.0,0.0,-998.0,13:29:48.939411,192.168.0.113
887,7,36,6,72,"1,4,176",1,0,-3,0,0,0,78,80,74,40,92,-10.73,17,10.0,-4.0,-1003.0,13:29:49.058984,192.168.0.113
892,7,36,6,72,"1,4,176",1,0,-3,0,0,0,78,80,74,40,92,-10.79,17,24.0,-10.0,-1000.0,13:29:49.183365,192.168.0.113
899,7,39,15,67,"4,7,170",1,0,-3,0,0,0,78,80,74,40,92,-10.73,17,2.0,-7.0,-984.0,13:29:49.299494,192.168.0.113
902,7,39,15,67,"4,7,170",1,0,-4,0,0,0,78,80,74,40,92,-10.87,17,8.0,7.0,-992.0,13:29:49.419184,192.168.0.113
907,7,39,14,67,"4,7,170",1,0,-4,0,0,0,78,80,74,40,92,-10.84,17,16.0,-2.0,-1000.0,13:29:49.435325,192.168.0.113
912,7,39,14,67,"4,7,170",1,0,-3,0,0,0,78,80,74,40,92,-10.72,18,10.0,18.0,-999.0,13:29:49.539837,192.168.0.113
918,7,37,11,70,"2,6,171",1,0,-4,0,0,0,78,80,74,40,92,-10.71,18,24.0,19.0,-1009.0,13:29:49.781305,192.168.0.113
923,7,37,11,70,"2,6,171",1,0,-4,0,0,0,78,80,74,40,92,-10.77,18,27.0,11.0,-997.0,13:29:49.792471,192.168.0.113
928,7,37,15,69,"2,7,168",1,0,-4,0,0,0,78,80,74,40,92,-10.75,18,10.0,11.0,-1001.0,13:29:49.902654,192.168.0.113
933,7,37,15,69,"2,7,168",1,0,-4,0,0,0,78,80,74,40,92,-10.74,18,16.0,1.0,-987.0,13:29:50.019341,192.168.0.113
938,7,36,0,73,"0,3,177",1,0,-4,0,0,0,78,80,74,40,92,-10.77,18,10.0,-3.0,-1007.0,13:29:50.139125,192.168.0.113
943,7,36,0,73,"0,3,177",1,0,-4,0,0,0,78,80,74,40,92,-10.77,18,2.0,-3.0,-1006.0,13:29:50.259579,192.168.0.113
949,7,38,17,68,"2,9,166",1,0,-4,0,0,0,78,80,73,40,92,-10.74,18,-11.0,22.0,-1003.0,13:29:50.379686,192.168.0.113
954,7,38,17,68,"2,9,166",1,0,-4,0,0,0,78,80,74,40,92,-10.81,18,14.0,-5.0,-995.0,13:29:50.499339,192.168.0.113
959,7,39,3,71,"1,5,175",1,0,-4,0,0,0,78,80,74,40,92,-10.78,19,-6.0,4.0,-989.0,13:29:50.506481,192.168.0.113
964,7,39,3,71,"1,5,175",1,0,-4,0,0,0,78,80,74,40,92,-10.83,19,12.0,23.0,-1002.0,13:29:50.738903,192.168.0.113
969,7,39,5,71,"1,5,173",1,0,-4,0,0,0,78,80,74,40,92,-10.83,19,-2.0,9.0,-1005.0,13:29:50.739248,192.168.0.113
974,7,39,5,71,"1,5,173",1,0,-4,0,0,0,78,80,73,40,92,-10.67,19,15.0,9.0,-984.0,13:29:50.859049,192.168.0.113
979,7,39,14,69,"2,8,168",1,0,-4,0,0,0,78,80,73,40,92,-10.74,19,-19.0,29.0,-965.0,13:29:50.979187,192.168.0.113
984,7,39,14,69,"2,8,168",1,0,-4,0,0,1,78,80,72,30,92,-10.86,19,2.0,21.0,-940.0,13:29:51.099618,192.168.0.113
989,7,38,16,68,"2,9,166",1,0,-4,0,0,1,78,80,71,30,92,-10.8,19,13.0,7.0,-929.0,13:29:51.121417,192.168.0.113
994,7,38,16,68,"2,9,166",0,0,-4,0,0,2,78,80,68,30,92,-10.83,19,-22.0,3.0,-921.0,13:29:51.220297,192.168.0.113
999,7,38,10,64,"4,7,169",0,0,-4,0,0,3,78,80,64,30,92,-10.93,19,3.0,18.0,-906.0,13:29:51.341926,192.168.0.113
1004,7,38,10,64,"4,7,169",0,0,-4,0,0,3,78,80,61,20,92,-10.89,19,28.0,-5.0,-925.0,13:29:51.459574,192.168.0.113
1011,7,38,10,64,"4,7,169",0,0,-4,0,0,4,79,80,57,20,92,-10.82,20,12.0,26.0,-980.0,13:29:51.579665,192.168.0.113
1016,7,38,10,64,"4,7,169",0,0,-4,0,0,4,79,80,52,20,92,-10.9,20,29.0,15.0,-978.0,13:29:51.679311,192.168.0.113
1019,7,38,10,64,"4,7,169",1,0,-4,0,0,4,79,80,48,10,92,-10.82,20,9.0,12.0,-1004.0,13:29:51.730187,192.168.0.113
1024,7,38,10,64,"4,7,169",1,0,-4,0,0,4,79,80,42,10,92,-10.93,20,17.0,13.0,-1004.0,13:29:51.832257,192.168.0.113
1029,7,38,10,64,"4,7,169",1,0,-4,0,0,4,79,80,37,0,92,-10.96,20,7.0,1.0,-1003.0,13:29:51.934194,192.168.0.113
1034,7,38,10,64,"4,7,169",1,0,-4,0,0,4,79,80,33,0,92,-11.0,20,6.0,-6.0,-995.0,13:29:52.036182,192.168.0.113
1039,7,38,10,64,"4,7,169",1,0,-4,0,0,4,79,80,28,0,92,-11.1,20,7.0,3.0,-1009.0,13:29:52.138189,192.168.0.113
1044,7,38,10,64,"4,7,169",1,0,-4,0,0,4,79,80,23,0,92,-11.1,20,27.0,27.0,-968.0,13:29:52.240228,192.168.0.113
1049,7,38,10,64,"4,7,169",1,0,-3,0,0,4,79,80,18,-10,92,-11.15,20,0.0,-11.0,-1059.0,13:29:52.368830,192.168.0.113
1054,7,38,10,64,"4,7,169",1,0,-3,0,0,4,79,80,16,-10,92,-11.33,20,6.0,-7.0,-1013.0,13:29:52.499151,192.168.0.113
1060,7,38,10,64,"4,7,169",1,0,-3,0,0,4,78,80,10,-20,92,-11.96,21,0.0,8.0,-1042.0,13:29:52.619230,192.168.0.113
1065,7,38,10,64,"4,7,169",0,0,-3,0,0,3,78,80,10,-20,92,-12.72,21,18.0,8.0,-1044.0,13:29:52.739051,192.168.0.113
1070,7,38,10,64,"4,7,169",0,0,-3,0,0,3,78,80,10,-20,92,-14.17,21,-11.0,21.0,-1109.0,13:29:52.750093,192.168.0.113
1075,7,38,10,64,"4,7,169",3,3,-4,-2,0,0,78,80,10,-30,92,-14.38,21,-13.0,-8.0,-946.0,13:29:52.859230,192.168.0.113
1080,7,38,10,64,"4,7,169",0,2,-5,-2,0,0,78,80,10,-30,92,-13.83,21,-3.0,-25.0,-743.0,13:29:53.098423,192.168.0.113
1085,7,38,10,64,"4,7,169",1,3,-5,-2,0,0,78,80,10,-30,92,-14.33,21,23.0,-68.0,-921.0,13:29:53.098812,192.168.0.113
1090,7,38,10,64,"4,7,169",1,3,-5,-1,0,0,78,80,10,-30,92,-13.86,21,36.0,-15.0,-773.0,13:29:53.219349,192.168.0.113
1095,7,38,10,64,"4,7,169",0,3,-6,-2,0,0,78,80,10,-30,92,-13.48,21,23.0,-68.0,-921.0,13:29:53.339157,192.168.0.113
1100,7,38,10,64,"4,7,169",0,3,-6,-2,0,0,78,80,10,-30,92,-13.04,21,36.0,-15.0,-773.0,13:29:53.459654,192.168.0.113
1105,7,38,10,64,"4,7,169",0,3,-6,-2,0,0,78,80,10,-30,92,-12.66,21,-18.0,-48.0,-1034.0,13:29:53.466143,192.168.0.113
1110,7,38,10,64,"4,7,169",0,3,-6,-2,0,0,77,80,10,-30,92,-12.86,22,20.0,-87.0,-996.0,13:29:53.578425,192.168.0.113
1116,7,38,10,64,"4,7,169",0,3,-6,-2,0,0,77,80,10,-30,92,-12.81,22,2.0,-62.0,-997.0,13:29:53.817199,192.168.0.113
1121,7,38,10,64,"4,7,169",0,3,-6,-2,0,0,77,80,10,-30,92,-12.6,22,-13.0,-62.0,-998.0,13:29:53.817545,192.168.0.113
1126,7,38,10,64,"4,7,169",0,3,-6,-3,0,0,77,80,10,0,92,-12.43,22,0.0,-73.0,-996.0,13:29:53.938019,192.168.0.113
1131,7,38,10,64,"4,7,169",1,3,-6,-3,0,1,77,80,10,0,92,-12.03,22,-10.0,-51.0,-1001.0,13:29:54.058275,192.168.0.113
1136,7,38,10,64,"4,7,169",1,3,-6,-3,0,2,77,80,10,0,92,-11.9,22,0.0,-60.0,-1002.0,13:29:54.076469,192.168.0.113
1141,-2,-200,-200,-200,"-1,-1,-1",1,3,-6,-3,0,2,77,80,10,0,92,-11.83,22,-4.0,-63.0,-994.0,13:29:54.178325,192.168.0.113
