,mid,x,y,z,mpry,pitch,roll,yaw,vgx,vgy,vgz,templ,temph,tof,h,bat,baro,time,agx,agy,agz,timestamp,address
0,-1,-100,-100,-100,"0,0,0",0,0,0,0,0,0,65,68,10,0,92,-58.24,0,2.0,-4.0,-999.0,11:38:00.091002,192.168.0.115
5,-1,-100,-100,-100,"0,0,0",0,0,0,0,0,0,65,68,10,0,92,-58.26,0,1.0,-3.0,-1001.0,11:38:00.192852,192.168.0.115
10,-1,-100,-100,-100,"0,0,0",0,0,0,0,0,0,65,68,10,0,92,-58.27,0,4.0,-4.0,-1001.0,11:38:00.294804,192.168.0.115
15,-1,-100,-100,-100,"0,0,0",0,0,0,0,0,0,65,68,10,0,92,-58.27,0,-1.0,0.0,-1004.0,11:38:00.396818,192.168.0.115
20,-1,-100,-100,-100,"0,0,0",0,0,0,0,0,0,65,68,10,0,92,-58.27,0,3.0,19.0,-994.0,11:38:00.498819,192.168.0.115
25,-1,-100,-100,-100,"0,0,0",0,0,0,0,0,0,65,68,10,0,92,-58.27,0,4.0,6.0,-1030.0,11:38:00.600809,192.168.0.115
31,-1,-100,-100,-100,"0,0,0",0,0,0,0,0,0,65,68,10,0,92,-58.27,0,-38.0,5.0,-1093.0,11:38:00.702608,192.168.0.115
36,-1,-100,-100,-100,"0,0,0",-1,0,-1,0,0,0,65,68,10,0,92,-58.27,0,17.0,8.0,-1172.0,11:38:00.804787,192.168.0.115
41,-1,-100,-100,-100,"0,0,0",-1,0,-1,0,0,2,65,68,10,0,92,-58.27,0,40.0,19.0,-1327.0,11:38:00.906828,192.168.0.115
46,-1,-100,-100,-100,"0,0,0",1,0,-1,-1,0,5,66,68,10,0,92,-58.27,0,29.0,-15.0,-1204.0,11:38:01.008640,192.168.0.115
51,-1,-100,-100,-100,"0,0,0",3,-1,-1,-1,0,7,66,68,14,10,92,-57.82,0,69.0,-15.0,-1085.0,11:38:01.110682,192.168.0.115
56,-1,-100,-100,-100,"0,0,0",3,0,-1,-1,0,8,66,68,23,10,92,-57.78,0,76.0,13.0,-1002.0,11:38:01.212642,192.168.0.115
61,-1,-100,-100,-100,"0,0,0",3,0,-1,-1,0,8,66,68,33,20,92,-57.65,1,14.0,25.0,-930.0,11:38:01.314748,192.168.0.115
66,-1,-100,-100,-100,"0,0,0",3,0,-1,0,0,8,66,68,41,30,92,-57.59,1,26.0,-9.0,-902.0,11:38:01.417145,192.168.0.115
71,-1,-100,-100,-100,"0,0,0",3,0,-1,0,0,7,66,68,48,40,92,-57.54,1,37.0,1.0,-886.0,11:38:01.520265,192.168.0.115
76,-1,-100,-100,-100,"0,0,0",3,0,-1,0,0,5,66,68,56,40,92,-57.53,1,27.0,-17.0,-873.0,11:38:01.621739,192.168.0.115
81,-1,-100,-100,-100,"0,0,0",3,0,-1,0,0,4,66,68,62,50,92,-57.39,1,14.0,4.0,-889.0,11:38:01.722775,192.168.0.115
86,-1,-100,-100,-100,"0,0,0",2,0,-1,0,0,3,66,68,66,50,92,-57.4,1,39.0,-24.0,-897.0,11:38:01.824754,192.168.0.115
91,-1,-100,-100,-100,"0,0,0",2,0,-1,0,0,2,66,68,69,50,92,-57.39,1,27.0,-16.0,-919.0,11:38:01.926886,192.168.0.115
97,-1,-100,-100,-100,"0,0,0",2,0,-1,0,0,1,65,67,72,60,92,-57.32,1,7.0,-3.0,-939.0,11:38:02.028673,192.168.0.115
102,-1,-100,-100,-100,"0,0,0",2,0,-1,0,0,1,65,67,74,60,92,-57.29,1,25.0,-8.0,-953.0,11:38:02.130592,192.168.0.115
107,-1,-100,-100,-100,"0,0,0",2,0,-1,0,0,1,65,67,76,60,92,-57.26,1,26.0,-20.0,-979.0,11:38:02.232769,192.168.0.115
113,-1,-100,-100,-100,"0,0,0",1,1,-1,0,0,0,65,67,78,60,92,-57.14,2,36.0,-13.0,-973.0,11:38:02.334945,192.168.0.115
118,-1,-100,-100,-100,"0,0,0",1,1,-1,0,0,0,65,67,79,60,92,-57.17,2,29.0,-19.0,-968.0,11:38:02.436698,192.168.0.115
120,-1,-100,-100,-100,"0,0,0",1,0,-1,0,0,0,65,67,80,60,92,-57.16,2,0.0,-3.0,-1011.0,11:38:02.489784,192.168.0.115
125,-1,-100,-100,-100,"0,0,0",1,0,-1,0,0,0,65,67,81,70,92,-57.12,2,42.0,-26.0,-977.0,11:38:02.592186,192.168.0.115
130,-1,-100,-100,-100,"0,0,0",1,0,-1,0,0,0,65,67,82,70,92,-57.12,2,30.0,-2.0,-1007.0,11:38:02.691880,192.168.0.115
135,-1,-100,-100,-100,"0,0,0",1,0,-1,0,0,0,65,67,83,70,92,-57.06,2,45.0,-12.0,-980.0,11:38:02.793869,192.168.0.115
140,-1,-100,-100,-100,"0,0,0",1,0,-1,0,0,0,65,67,84,70,92,-57.07,2,19.0,13.0,-993.0,11:38:02.895951,192.168.0.115
145,-1,-100,-100,-100,"0,0,0",1,0,-1,0,0,0,66,67,85,70,92,-57.13,2,19.0,1.0,-983.0,11:38:02.997746,192.168.0.115
150,-1,-100,-100,-100,"0,0,0",1,0,-1,0,0,0,66,67,85,70,92,-57.16,2,28.0,-10.0,-988.0,11:38:03.099743,192.168.0.115
155,-1,-100,-100,-100,"0,0,0",1,0,-1,0,0,0,66,67,85,70,92,-57.14,2,21.0,-12.0,-977.0,11:38:03.202573,192.168.0.115
161,-1,-100,-100,-100,"0,0,0",0,0,-1,0,0,0,66,67,85,70,92,-57.12,3,-2.0,-10.0,-967.0,11:38:03.304110,192.168.0.115
166,-1,-100,-100,-100,"0,0,0",0,0,-1,0,0,0,66,67,85,70,92,-57.19,3,20.0,5.0,-999.0,11:38:03.405768,192.168.0.115
171,-1,-100,-100,-100,"0,0,0",0,0,-1,0,0,0,66,67,85,70,92,-57.23,3,28.0,11.0,-1005.0,11:38:03.508934,192.168.0.115
176,-1,-100,-100,-100,"0,0,0",0,0,-1,0,0,0,66,67,85,70,92,-57.23,3,1.0,7.0,-984.0,11:38:03.609758,192.168.0.115
181,-1,-100,-100,-100,"0,0,0",0,0,-1,0,0,0,66,67,84,70,92,-57.27,3,30.0,6.0,-979.0,11:38:03.711804,192.168.0.115
186,-1,-100,-100,-100,"0,0,0",0,0,-1,0,0,0,66,67,85,70,92,-57.2,3,11.0,0.0,-999.0,11:38:03.813553,192.168.0.115
191,-1,-100,-100,-100,"0,0,0",0,0,-1,0,0,0,66,67,84,70,92,-57.18,3,8.0,20.0,-985.0,11:38:03.916715,192.168.0.115
196,-1,-100,-100,-100,"0,0,0",0,0,-1,0,0,0,66,67,83,70,92,-57.27,3,19.0,1.0,-1001.0,11:38:04.017703,192.168.0.115
201,-1,-100,-100,-100,"0,0,0",0,0,-1,0,0,0,66,67,83,70,92,-57.14,3,-6.0,0.0,-998.0,11:38:04.119896,192.168.0.115
206,-1,-100,-100,-100,"0,0,0",0,0,-1,0,0,0,66,67,82,70,92,-57.15,3,16.0,6.0,-976.0,11:38:04.221735,192.168.0.115
211,-1,-100,-100,-100,"0,0,0",0,0,-1,0,0,0,66,67,82,70,92,-57.28,4,18.0,6.0,-1018.0,11:38:04.323754,192.168.0.115
216,-1,-100,-100,-100,"0,0,0",0,0,-1,0,0,0,66,67,81,70,92,-57.13,4,-14.0,15.0,-1003.0,11:38:04.425623,192.168.0.115
221,-1,-100,-100,-100,"0,0,0",0,0,-1,0,0,0,66,67,81,70,92,-57.19,4,26.0,6.0,-1002.0,11:38:04.527663,192.168.0.115
226,-1,-100,-100,-100,"0,0,0",0,0,-1,0,0,0,66,67,81,70,92,-57.24,4,4.0,15.0,-1028.0,11:38:04.629771,192.168.0.115
231,-1,-100,-100,-100,"0,0,0",0,0,-1,0,0,0,66,67,81,70,92,-57.25,4,12.0,26.0,-1001.0,11:38:04.731955,192.168.0.115
237,-1,-100,-100,-100,"0,0,0",0,0,-1,0,0,0,66,67,81,70,92,-57.28,4,0.0,4.0,-1001.0,11:38:04.833750,192.168.0.115
242,-1,-100,-100,-100,"0,0,0",0,-1,-1,0,0,0,66,67,81,70,92,-57.26,4,25.0,-6.0,-1011.0,11:38:04.935846,192.168.0.115
246,-1,-100,-100,-100,"0,0,0",0,0,-1,0,0,0,66,68,82,70,92,-57.27,4,35.0,0.0,-1000.0,11:38:05.037609,192.168.0.115
250,-1,-100,-100,-100,"0,0,0",0,0,-1,0,0,0,66,68,81,70,92,-57.22,4,11.0,15.0,-1020.0,11:38:05.088426,192.168.0.115
255,-1,-100,-100,-100,"0,0,0",0,0,-1,0,0,0,66,68,81,70,92,-57.17,4,16.0,-5.0,-1005.0,11:38:05.190440,192.168.0.115
260,-1,-100,-100,-100,"0,0,0",0,0,-1,0,0,0,66,68,82,70,92,-57.11,5,35.0,8.0,-985.0,11:38:05.292496,192.168.0.115
265,-1,-100,-100,-100,"0,0,0",0,0,-1,0,0,0,66,68,82,70,92,-57.19,5,27.0,-4.0,-1007.0,11:38:05.394331,192.168.0.115
270,-1,-100,-100,-100,"0,0,0",1,0,-1,0,0,0,66,68,82,70,92,-57.17,5,4.0,9.0,-1004.0,11:38:05.496576,192.168.0.115
275,-1,-100,-100,-100,"0,0,0",1,0,-1,0,0,0,66,68,82,70,92,-57.19,5,0.0,-1.0,-1006.0,11:38:05.599034,192.168.0.115
280,-1,-100,-100,-100,"0,0,0",1,0,-1,0,0,0,66,68,82,70,92,-57.22,5,2.0,16.0,-1003.0,11:38:05.700180,192.168.0.115
286,-1,-100,-100,-100,"0,0,0",0,0,-2,0,0,0,66,68,82,70,92,-57.23,5,-10.0,9.0,-1010.0,11:38:05.802579,192.168.0.115
291,-1,-100,-100,-100,"0,0,0",0,0,-2,0,0,0,66,68,82,70,92,-57.2,5,17.0,14.0,-994.0,11:38:05.906589,192.168.0.115
296,-1,-100,-100,-100,"0,0,0",0,0,-2,0,0,0,66,68,82,70,92,-57.15,5,23.0,9.0,-1001.0,11:38:06.006392,192.168.0.115
302,-1,-100,-100,-100,"0,0,0",0,0,-1,0,0,0,66,68,82,70,92,-57.21,5,-1.0,26.0,-1003.0,11:38:06.111508,192.168.0.115
306,-1,-100,-100,-100,"0,0,0",1,0,-1,0,0,0,66,68,82,70,92,-57.2,5,-4.0,19.0,-1022.0,11:38:06.210691,192.168.0.115
311,-1,-100,-100,-100,"0,0,0",0,0,-1,0,0,0,66,68,82,70,92,-57.28,6,1.0,5.0,-995.0,11:38:06.312496,192.168.0.115
316,-1,-100,-100,-100,"0,0,0",0,0,-1,0,0,0,66,68,82,70,92,-57.2,6,7.0,5.0,-995.0,11:38:06.414512,192.168.0.115
321,-1,-100,-100,-100,"0,0,0",0,0,-1,0,0,0,66,68,81,70,92,-57.16,6,15.0,-12.0,-997.0,11:38:06.516492,192.168.0.115
326,-1,-100,-100,-100,"0,0,0",0,0,-1,0,0,0,66,68,81,70,92,-57.21,6,7.0,-13.0,-991.0,11:38:06.618414,192.168.0.115
331,-1,-100,-100,-100,"0,0,0",0,0,-1,0,0,0,66,68,82,70,92,-57.25,6,-3.0,0.0,-1018.0,11:38:06.720544,192.168.0.115
336,-1,-100,-100,-100,"0,0,0",0,0,-1,0,0,0,66,68,82,70,92,-57.26,6,13.0,2.0,-1043.0,11:38:06.822428,192.168.0.115
341,-1,-100,-100,-100,"0,0,0",0,0,-1,0,0,0,66,68,81,70,92,-57.24,6,-21.0,11.0,-1028.0,11:38:06.924435,192.168.0.115
346,-1,-100,-100,-100,"0,0,0",0,0,-1,0,0,0,65,68,82,70,92,-57.2,6,-13.0,7.0,-1012.0,11:38:07.026521,192.168.0.115
351,-1,-100,-100,-100,"0,0,0",0,0,-1,0,0,0,65,68,82,70,92,-57.34,6,-8.0,8.0,-1014.0,11:38:07.128570,192.168.0.115
356,-1,-100,-100,-100,"0,0,0",0,0,-1,0,0,0,65,68,82,70,92,-57.32,6,-28.0,11.0,-998.0,11:38:07.230333,192.168.0.115
361,-1,-100,-100,-100,"0,0,0",-1,0,-1,0,0,0,65,68,82,70,92,-57.29,7,-43.0,9.0,-1003.0,11:38:07.334592,192.168.0.115
366,-1,-100,-100,-100,"0,0,0",-1,0,-1,0,0,0,65,68,83,70,92,-57.28,7,-20.0,12.0,-1001.0,11:38:07.434818,192.168.0.115
371,-1,-100,-100,-100,"0,0,0",-1,0,-1,0,0,0,65,68,84,70,92,-57.25,7,9.0,3.0,-990.0,11:38:07.536419,192.168.0.115
376,-1,-100,-100,-100,"0,0,0",-1,0,-1,0,0,0,65,68,85,70,92,-57.19,7,-6.0,-3.0,-998.0,11:38:07.638298,192.168.0.115
380,-1,-100,-100,-100,"0,0,0",-1,0,-1,0,0,0,65,68,85,70,92,-57.11,7,-13.0,9.0,-995.0,11:38:07.689645,192.168.0.115
385,-1,-100,-100,-100,"0,0,0",-1,0,-1,0,0,0,65,68,85,70,92,-57.1,7,4.0,-16.0,-974.0,11:38:07.791563,192.168.0.115
390,-1,-100,-100,-100,"0,0,0",-1,0,-1,0,0,0,65,68,85,70,92,-57.1,7,-4.0,11.0,-1003.0,11:38:07.893477,192.168.0.115
395,-1,-100,-100,-100,"0,0,0",-1,0,-1,0,0,0,66,67,85,70,92,-57.13,7,-4.0,0.0,-993.0,11:38:07.995398,192.168.0.115
400,-1,-100,-100,-100,"0,0,0",0,0,-1,0,0,0,66,67,85,70,92,-57.27,7,-19.0,3.0,-1011.0,11:38:08.097535,192.168.0.115
405,-1,-100,-100,-100,"0,0,0",0,0,-1,0,0,0,66,67,85,70,92,-57.21,7,-17.0,-2.0,-1003.0,11:38:08.199513,192.168.0.115
410,-1,-100,-100,-100,"0,0,0",0,0,-1,0,0,0,66,67,85,70,92,-57.23,8,-13.0,-2.0,-986.0,11:38:08.301665,192.168.0.115
416,-1,-100,-100,-100,"0,0,0",-1,0,-1,0,0,0,66,67,85,70,92,-57.24,8,-27.0,10.0,-998.0,11:38:08.404820,192.168.0.115
421,-1,-100,-100,-100,"0,0,0",-1,0,-1,0,0,0,66,67,85,70,92,-57.21,8,-4.0,7.0,-1001.0,11:38:08.505629,192.168.0.115
426,-1,-100,-100,-100,"0,0,0",-1,0,-1,0,0,0,66,67,85,70,92,-57.23,8,-4.0,-7.0,-1000.0,11:38:08.607440,192.168.0.115
431,-1,-100,-100,-100,"0,0,0",0,0,-1,0,0,0,66,67,85,70,92,-57.3,8,-14.0,-18.0,-982.0,11:38:08.709835,192.168.0.115
436,-1,-100,-100,-100,"0,0,0",0,0,-1,0,0,0,66,67,85,70,92,-57.28,8,-7.0,-10.0,-980.0,11:38:08.811462,192.168.0.115
441,-1,-100,-100,-100,"0,0,0",0,1,-1,0,0,0,66,67,85,70,92,-57.29,8,-9.0,0.0,-1004.0,11:38:08.913438,192.168.0.115
446,-1,-100,-100,-100,"0,0,0",0,0,-1,0,0,0,65,67,84,70,92,-57.31,8,-5.0,-7.0,-992.0,11:38:09.015448,192.168.0.115
451,-1,-100,-100,-100,"0,0,0",0,0,-1,0,0,0,65,67,84,70,92,-57.25,8,-15.0,7.0,-1003.0,11:38:09.117385,192.168.0.115
456,-1,-100,-100,-100,"0,0,0",0,0,-1,0,0,0,65,67,84,70,92,-57.25,8,-23.0,5.0,-1018.0,11:38:09.219400,192.168.0.115
461,-1,-100,-100,-100,"0,0,0",-1,0,-1,0,0,0,65,67,83,70,92,-57.27,9,-6.0,-22.0,-1004.0,11:38:09.321418,192.168.0.115
466,-1,-100,-100,-100,"0,0,0",-2,0,-1,0,0,0,65,67,84,70,92,-57.26,9,-27.0,-15.0,-1006.0,11:38:09.423386,192.168.0.115
471,-1,-100,-100,-100,"0,0,0",-2,0,-1,0,0,0,65,67,83,70,92,-57.25,9,-30.0,0.0,-1002.0,11:38:09.525445,192.168.0.115
476,-1,-100,-100,-100,"0,0,0",-2,0,-1,-1,0,0,65,67,83,70,92,-57.29,9,-21.0,0.0,-989.0,11:38:09.627789,192.168.0.115
481,-1,-100,-100,-100,"0,0,0",-2,0,-1,-1,0,0,65,67,83,70,92,-57.22,9,-25.0,6.0,-971.0,11:38:09.729408,192.168.0.115
486,-1,-100,-100,-100,"0,0,0",-2,0,-1,-1,0,0,65,67,83,70,92,-57.24,9,-35.0,0.0,-996.0,11:38:09.831458,192.168.0.115
491,-1,-100,-100,-100,"0,0,0",-2,0,-1,-1,0,0,65,67,83,70,92,-57.26,9,-27.0,3.0,-988.0,11:38:09.933711,192.168.0.115
496,-1,-100,-100,-100,"0,0,0",-2,0,-1,-1,0,0,66,68,83,70,92,-57.27,9,-30.0,-4.0,-1005.0,11:38:10.037099,192.168.0.115
501,-1,-100,-100,-100,"0,0,0",-2,0,-1,-2,0,0,66,68,82,70,92,-57.3,9,-32.0,-19.0,-1015.0,11:38:10.137383,192.168.0.115
505,-1,-100,-100,-100,"0,0,0",-2,0,-1,-2,0,0,66,68,82,70,92,-57.27,9,5.0,-9.0,-997.0,11:38:10.189654,192.168.0.115
510,-1,-100,-100,-100,"0,0,0",-1,0,-1,-2,0,0,66,68,83,70,92,-57.31,10,-19.0,-11.0,-1005.0,11:38:10.290450,192.168.0.115
515,-1,-100,-100,-100,"0,0,0",-1,0,-1,-2,0,0,66,68,83,70,92,-57.32,10,-26.0,-3.0,-982.0,11:38:10.397217,192.168.0.115
520,-1,-100,-100,-100,"0,0,0",-1,0,-1,-2,0,0,66,68,83,70,92,-57.25,10,-9.0,-13.0,-1011.0,11:38:10.494121,192.168.0.115
525,-1,-100,-100,-100,"0,0,0",-1,0,-1,-2,0,0,66,68,83,70,92,-57.37,10,-47.0,11.0,-1001.0,11:38:10.597518,192.168.0.115
530,-1,-100,-100,-100,"0,0,0",-1,0,-1,-2,0,0,66,68,83,70,92,-57.29,10,-27.0,-11.0,-999.0,11:38:10.697953,192.168.0.115
535,-1,-100,-100,-100,"0,0,0",-1,0,-1,-2,0,0,66,68,82,70,92,-57.24,10,2.0,-17.0,-997.0,11:38:10.800151,192.168.0.115
540,-1,-100,-100,-100,"0,0,0",-2,0,-1,-2,0,0,66,68,82,70,92,-57.29,10,-29.0,0.0,-995.0,11:38:10.902277,192.168.0.115
546,-1,-100,-100,-100,"0,0,0",-1,0,-1,-2,0,0,66,68,82,70,92,-57.28,10,-35.0,10.0,-995.0,11:38:11.004145,192.168.0.115
551,-1,-100,-100,-100,"0,0,0",-1,0,-1,-2,0,0,66,68,82,70,92,-57.29,10,-11.0,-10.0,-1006.0,11:38:11.105981,192.168.0.115
556,-1,-100,-100,-100,"0,0,0",-1,0,-1,-2,0,0,66,68,82,70,92,-57.33,10,-37.0,4.0,-1012.0,11:38:11.208135,192.168.0.115
561,-1,-100,-100,-100,"0,0,0",-1,0,-1,-2,0,0,66,68,82,70,92,-57.31,11,-15.0,-10.0,-995.0,11:38:11.309998,192.168.0.115
566,-1,-100,-100,-100,"0,0,0",-1,0,-1,-2,0,0,66,68,82,70,92,-57.34,11,-14.0,-20.0,-998.0,11:38:11.413212,192.168.0.115
571,-1,-100,-100,-100,"0,0,0",-1,0,-1,-2,0,0,66,68,82,70,92,-57.2,11,-30.0,-6.0,-1015.0,11:38:11.514105,192.168.0.115
576,-1,-100,-100,-100,"0,0,0",-1,0,-1,-2,0,0,66,68,82,70,92,-57.22,11,-12.0,-20.0,-989.0,11:38:11.616181,192.168.0.115
581,-1,-100,-100,-100,"0,0,0",0,0,-1,-2,0,0,66,68,82,70,92,-57.33,11,-38.0,-20.0,-1003.0,11:38:11.718089,192.168.0.115
586,-1,-100,-100,-100,"0,0,0",0,0,-1,-2,0,0,66,68,82,70,92,-57.31,11,10.0,-33.0,-1016.0,11:38:11.820126,192.168.0.115
591,-1,-100,-100,-100,"0,0,0",0,1,-1,-2,0,0,66,68,82,70,92,-57.3,11,-34.0,-1.0,-1006.0,11:38:11.923000,192.168.0.115
596,-1,-100,-100,-100,"0,0,0",0,1,-1,-2,0,0,66,68,82,70,92,-57.31,11,-42.0,2.0,-994.0,11:38:12.024105,192.168.0.115
601,-1,-100,-100,-100,"0,0,0",0,0,-1,-2,0,0,66,68,82,70,92,-57.25,11,-28.0,4.0,-1008.0,11:38:12.126150,192.168.0.115
606,-1,-100,-100,-100,"0,0,0",0,0,-1,-2,0,0,66,68,82,70,92,-57.29,11,-5.0,0.0,-997.0,11:38:12.228083,192.168.0.115
611,-1,-100,-100,-100,"0,0,0",0,0,-1,-2,0,0,66,68,82,70,92,-57.31,12,-5.0,-17.0,-994.0,11:38:12.330238,192.168.0.115
616,-1,-100,-100,-100,"0,0,0",0,0,-1,-2,0,0,66,68,82,70,92,-57.25,12,-42.0,11.0,-1005.0,11:38:12.431975,192.168.0.115
621,-1,-100,-100,-100,"0,0,0",0,0,-1,-2,0,0,66,68,82,70,92,-57.26,12,-15.0,9.0,-975.0,11:38:12.539475,192.168.0.115
626,-1,-100,-100,-100,"0,0,0",0,0,-1,-2,0,0,66,68,82,70,92,-57.29,12,-47.0,0.0,-992.0,11:38:12.636295,192.168.0.115
631,-1,-100,-100,-100,"0,0,0",-1,0,-1,-2,0,0,66,68,81,70,92,-57.32,12,-34.0,8.0,-988.0,11:38:12.737873,192.168.0.115
636,-1,-100,-100,-100,"0,0,0",-1,0,-1,-2,0,0,66,68,82,70,92,-57.31,12,-4.0,-16.0,-1003.0,11:38:12.839972,192.168.0.115
641,-1,-100,-100,-100,"0,0,0",-1,0,-1,-2,0,0,66,68,81,70,92,-57.43,12,0.0,-10.0,-993.0,11:38:12.941900,192.168.0.115
646,-1,-100,-100,-100,"0,0,0",-1,0,-1,-2,0,0,66,69,81,70,92,-57.33,12,-15.0,5.0,-1020.0,11:38:13.045835,192.168.0.115
651,-1,-100,-100,-100,"0,0,0",0,0,-1,-2,0,0,66,69,80,70,92,-57.33,12,-17.0,15.0,-1010.0,11:38:13.145957,192.168.0.115
655,-1,-100,-100,-100,"0,0,0",0,0,-1,-2,0,0,66,69,80,70,92,-57.33,12,7.0,-1.0,-998.0,11:38:13.197081,192.168.0.115
660,-1,-100,-100,-100,"0,0,0",3,0,-1,-2,0,0,66,69,81,70,92,-57.23,13,-8.0,-5.0,-1014.0,11:38:13.299182,192.168.0.115
665,-1,-100,-100,-100,"0,0,0",4,0,-1,-1,0,0,66,69,80,70,92,-57.18,13,-23.0,23.0,-993.0,11:38:13.401124,192.168.0.115
670,-1,-100,-100,-100,"0,0,0",2,0,-1,-1,0,0,66,69,80,70,92,-57.16,13,21.0,-15.0,-982.0,11:38:13.503286,192.168.0.115
675,-1,-100,-100,-100,"0,0,0",1,0,0,0,0,0,66,69,80,70,92,-57.16,13,21.0,-11.0,-1003.0,11:38:13.605305,192.168.0.115
681,-1,-100,-100,-100,"0,0,0",1,0,0,0,0,0,66,69,80,70,92,-57.19,13,18.0,-8.0,-1023.0,11:38:13.707009,192.168.0.115
686,-1,-100,-100,-100,"0,0,0",1,0,0,0,0,0,66,69,79,70,92,-57.14,13,-16.0,21.0,-1006.0,11:38:13.809266,192.168.0.115
691,-1,-100,-100,-100,"0,0,0",1,0,-1,0,0,0,66,69,79,70,92,-57.13,13,39.0,-23.0,-986.0,11:38:13.911146,192.168.0.115
696,-1,-100,-100,-100,"0,0,0",1,0,-1,0,0,0,66,68,79,70,92,-57.2,13,28.0,-17.0,-1053.0,11:38:14.013198,192.168.0.115
701,-1,-100,-100,-100,"0,0,0",1,0,-1,0,0,0,66,68,78,70,92,-57.18,13,36.0,7.0,-1003.0,11:38:14.119020,192.168.0.115
706,-1,-100,-100,-100,"0,0,0",1,0,-1,0,0,0,66,68,78,70,92,-57.22,13,-11.0,34.0,-916.0,11:38:14.217155,192.168.0.115
711,-1,-100,-100,-100,"0,0,0",1,0,-1,0,0,0,66,68,77,70,92,-57.13,14,11.0,7.0,-924.0,11:38:14.319164,192.168.0.115
716,-1,-100,-100,-100,"0,0,0",0,0,-1,0,0,0,66,68,76,70,92,-57.3,14,18.0,2.0,-929.0,11:38:14.421182,192.168.0.115
721,-1,-100,-100,-100,"0,0,0",1,0,-1,0,0,-1,66,68,75,60,92,-57.43,14,13.0,9.0,-925.0,11:38:14.523248,192.168.0.115
726,-1,-100,-100,-100,"0,0,0",0,0,-1,0,0,-2,66,68,72,60,92,-57.28,14,4.0,3.0,-899.0,11:38:14.625473,192.168.0.115
731,-1,-100,-100,-100,"0,0,0",0,0,-1,0,0,-3,66,68,69,60,92,-57.23,14,-4.0,8.0,-889.0,11:38:14.727121,192.168.0.115
736,-1,-100,-100,-100,"0,0,0",0,0,-1,0,0,-3,66,68,64,60,92,-57.29,14,14.0,-10.0,-954.0,11:38:14.830316,192.168.0.115
741,-1,-100,-100,-100,"0,0,0",0,0,-1,0,0,-4,66,68,60,50,92,-57.35,14,-28.0,32.0,-955.0,11:38:14.931140,192.168.0.115
746,-1,-100,-100,-100,"0,0,0",0,0,-1,0,0,-4,66,68,55,50,92,-57.45,14,-8.0,8.0,-985.0,11:38:15.033167,192.168.0.115
751,-1,-100,-100,-100,"0,0,0",0,0,-1,0,0,-4,66,68,50,40,92,-57.57,14,27.0,-4.0,-1008.0,11:38:15.135069,192.168.0.115
756,-1,-100,-100,-100,"0,0,0",0,0,-1,0,0,-4,66,68,46,40,92,-57.59,14,33.0,7.0,-1017.0,11:38:15.236923,192.168.0.115
761,-1,-100,-100,-100,"0,0,0",0,0,-1,0,0,-4,66,68,41,30,92,-57.61,15,10.0,7.0,-1026.0,11:38:15.339091,192.168.0.115
766,-1,-100,-100,-100,"0,0,0",0,0,-2,0,0,-4,66,68,37,30,92,-57.68,15,12.0,-2.0,-1021.0,11:38:15.441106,192.168.0.115
771,-1,-100,-100,-100,"0,0,0",0,0,-2,0,0,-4,66,68,33,30,92,-57.8,15,31.0,14.0,-1011.0,11:38:15.545606,192.168.0.115
776,-1,-100,-100,-100,"0,0,0",1,0,-2,0,0,-4,66,68,28,20,92,-57.69,15,52.0,2.0,-957.0,11:38:15.644814,192.168.0.115
781,-1,-100,-100,-100,"0,0,0",1,0,-2,0,0,-4,66,68,24,20,92,-57.73,15,24.0,25.0,-996.0,11:38:15.746883,192.168.0.115
786,-1,-100,-100,-100,"0,0,0",1,0,-2,0,0,-4,66,68,19,10,92,-57.82,15,16.0,28.0,-942.0,11:38:15.849056,192.168.0.115
791,-1,-100,-100,-100,"0,0,0",0,-1,-2,0,0,-4,66,68,14,10,92,-57.97,15,25.0,5.0,-1074.0,11:38:15.951052,192.168.0.115
796,-1,-100,-100,-100,"0,0,0",1,0,-2,0,0,-4,66,68,10,0,92,-58.46,15,20.0,39.0,-972.0,11:38:16.054527,192.168.0.115
801,-1,-100,-100,-100,"0,0,0",2,-1,-2,0,0,-4,66,68,10,0,92,-59.4,15,-3.0,49.0,-970.0,11:38:16.155303,192.168.0.115
806,-1,-100,-100,-100,"0,0,0",0,-2,-1,0,0,-3,66,68,10,0,92,-61.03,15,-14.0,0.0,-1081.0,11:38:16.256923,192.168.0.115
811,-1,-100,-100,-100,"0,0,0",0,-1,-1,0,0,-2,66,68,10,0,92,-60.11,16,0.0,24.0,-1138.0,11:38:16.359046,192.168.0.115
816,-1,-100,-100,-100,"0,0,0",4,-2,-3,0,0,1,66,68,10,0,92,-59.13,16,-24.0,16.0,-1134.0,11:38:16.461538,192.168.0.115
820,-1,-100,-100,-100,"0,0,0",-2,-2,-5,0,0,-1,66,68,10,0,92,-58.69,16,-12.0,38.0,-643.0,11:38:16.512085,192.168.0.115
825,-1,-100,-100,-100,"0,0,0",0,0,-5,0,0,0,66,68,10,0,92,-58.45,16,293.0,-43.0,-2213.0,11:38:16.613713,192.168.0.115
830,-1,-100,-100,-100,"0,0,0",-1,-2,-5,0,0,0,66,68,10,0,92,-58.41,16,3.0,5.0,-1013.0,11:38:16.719348,192.168.0.115
835,-1,-100,-100,-100,"0,0,0",0,0,-5,0,0,0,66,68,10,0,92,-58.28,16,-53.0,48.0,-996.0,11:38:16.817655,192.168.0.115
840,-1,-100,-100,-100,"0,0,0",-1,-1,-5,0,0,0,66,68,10,0,92,-58.24,16,-5.0,4.0,-994.0,11:38:16.919813,192.168.0.115
845,-1,-100,-100,-100,"0,0,0",-1,-1,-5,0,0,0,65,68,10,0,92,-58.19,16,-15.0,29.0,-1003.0,11:38:17.023937,192.168.0.115
850,-1,-100,-100,-100,"0,0,0",-1,-1,-5,0,0,-1,65,68,10,0,92,-58.17,16,-17.0,28.0,-1003.0,11:38:17.123853,192.168.0.115
855,-1,-100,-100,-100,"0,0,0",-1,-1,-5,0,0,-1,65,68,10,0,92,-58.17,16,-11.0,21.0,-995.0,11:38:17.225795,192.168.0.115
861,-1,-100,-100,-100,"0,0,0",-1,-1,-5,0,0,-1,65,68,10,0,92,-58.17,16,-11.0,26.0,-997.0,11:38:17.327776,192.168.0.115
