,mid,x,y,z,mpry,pitch,roll,yaw,vgx,vgy,vgz,templ,temph,tof,h,bat,baro,time,agx,agy,agz,timestamp,address
2,-1,-100,-100,-100,"0,0,0",0,0,0,0,0,0,70,72,10,0,94,-58.73,0,0.0,0.0,-1000.0,11:38:00.097392,192.168.0.114
6,-1,-100,-100,-100,"0,0,0",0,0,0,0,0,0,70,72,10,0,94,-58.78,0,0.0,2.0,-998.0,11:38:00.199519,192.168.0.114
12,-1,-100,-100,-100,"0,0,0",0,0,0,0,0,0,70,72,10,0,94,-58.78,0,1.0,2.0,-1001.0,11:38:00.303040,192.168.0.114
17,-1,-100,-100,-100,"0,0,0",0,0,0,0,0,0,70,72,10,0,94,-58.78,0,0.0,4.0,-997.0,11:38:00.403456,192.168.0.114
22,-1,-100,-100,-100,"0,0,0",0,0,0,0,0,0,70,72,10,0,94,-58.78,0,-9.0,5.0,-1001.0,11:38:00.505610,192.168.0.114
27,-1,-100,-100,-100,"0,0,0",0,0,0,0,0,0,70,72,10,0,94,-58.78,0,-12.0,-6.0,-986.0,11:38:00.607447,192.168.0.114
33,-1,-100,-100,-100,"0,0,0",0,0,0,0,0,0,70,72,10,0,94,-58.78,0,16.0,10.0,-1141.0,11:38:00.709478,192.168.0.114
38,-1,-100,-100,-100,"0,0,0",-1,1,0,0,0,0,70,72,10,0,94,-58.78,0,25.0,5.0,-1211.0,11:38:00.811746,192.168.0.114
43,-1,-100,-100,-100,"0,0,0",0,0,0,0,0,3,70,72,10,0,94,-58.78,0,52.0,8.0,-1345.0,11:38:00.913721,192.168.0.114
48,-1,-100,-100,-100,"0,0,0",2,0,1,-1,0,6,69,71,10,0,94,-58.78,0,38.0,1.0,-1118.0,11:38:01.015462,192.168.0.114
53,-1,-100,-100,-100,"0,0,0",2,0,1,-1,0,7,69,71,19,10,94,-58.36,0,49.0,11.0,-1041.0,11:38:01.117502,192.168.0.114
58,-1,-100,-100,-100,"0,0,0",3,-1,1,-1,0,8,69,71,28,20,94,-58.25,0,46.0,-8.0,-998.0,11:38:01.219482,192.168.0.114
63,-1,-100,-100,-100,"0,0,0",4,0,0,-1,0,8,69,71,35,20,94,-58.15,1,91.0,-8.0,-949.0,11:38:01.321421,192.168.0.114
68,-1,-100,-100,-100,"0,0,0",4,0,0,-1,0,7,69,71,42,30,94,-58.18,1,59.0,-20.0,-881.0,11:38:01.423408,192.168.0.114
73,-1,-100,-100,-100,"0,0,0",6,0,0,-1,0,6,69,71,50,40,94,-58.15,1,7.0,5.0,-875.0,11:38:01.525486,192.168.0.114
78,-1,-100,-100,-100,"0,0,0",5,0,0,0,0,5,69,71,56,40,94,-58.03,1,10.0,-2.0,-881.0,11:38:01.627432,192.168.0.114
83,-1,-100,-100,-100,"0,0,0",3,0,0,0,0,3,69,71,61,50,94,-58.02,1,35.0,-11.0,-900.0,11:38:01.729477,192.168.0.114
88,-1,-100,-100,-100,"0,0,0",2,0,0,0,0,3,69,71,65,50,94,-57.96,1,33.0,-3.0,-911.0,11:38:01.831632,192.168.0.114
93,-1,-100,-100,-100,"0,0,0",2,0,0,0,0,2,69,71,68,50,94,-57.9,1,24.0,0.0,-945.0,11:38:01.933612,192.168.0.114
95,-1,-100,-100,-100,"0,0,0",1,0,0,0,0,1,70,71,71,50,94,-57.87,1,10.0,13.0,-972.0,11:38:01.984317,192.168.0.114
100,-1,-100,-100,-100,"0,0,0",1,0,0,0,0,1,70,71,72,60,94,-57.88,1,36.0,-11.0,-966.0,11:38:02.086155,192.168.0.114
105,-1,-100,-100,-100,"0,0,0",1,0,0,0,0,1,70,71,74,60,94,-57.86,1,36.0,10.0,-983.0,11:38:02.190904,192.168.0.114
110,-1,-100,-100,-100,"0,0,0",1,0,0,0,0,0,70,71,75,60,94,-57.88,2,8.0,-2.0,-979.0,11:38:02.290140,192.168.0.114
115,-1,-100,-100,-100,"0,0,0",0,0,0,0,0,0,70,71,77,60,94,-57.87,2,0.0,24.0,-1002.0,11:38:02.392240,192.168.0.114
121,-1,-100,-100,-100,"0,0,0",0,0,0,0,0,0,70,71,79,60,94,-57.82,2,10.0,16.0,-987.0,11:38:02.494331,192.168.0.114
126,-1,-100,-100,-100,"0,0,0",0,0,0,0,0,0,70,71,80,60,94,-57.83,2,1.0,-3.0,-991.0,11:38:02.596103,192.168.0.114
132,-1,-100,-100,-100,"0,0,0",0,-1,0,0,0,0,70,71,81,60,94,-57.8,2,-7.0,19.0,-1004.0,11:38:02.704321,192.168.0.114
136,-1,-100,-100,-100,"0,0,0",0,0,0,0,0,0,70,71,82,60,94,-57.83,2,-5.0,6.0,-987.0,11:38:02.800049,192.168.0.114
141,-1,-100,-100,-100,"0,0,0",0,0,0,0,0,0,70,71,83,70,94,-57.76,2,1.0,3.0,-997.0,11:38:02.902300,192.168.0.114
147,-1,-100,-100,-100,"0,0,0",0,0,0,0,0,0,70,72,84,70,94,-57.8,2,6.0,0.0,-979.0,11:38:03.004272,192.168.0.114
152,-1,-100,-100,-100,"0,0,0",0,0,0,0,0,0,70,72,84,70,94,-57.75,2,14.0,7.0,-1003.0,11:38:03.106120,192.168.0.114
157,-1,-100,-100,-100,"0,0,0",0,0,0,0,0,0,70,72,84,70,94,-57.79,2,-6.0,10.0,-987.0,11:38:03.208192,192.168.0.114
163,-1,-100,-100,-100,"0,0,0",0,0,0,0,0,0,70,72,84,70,94,-57.83,3,-14.0,23.0,-980.0,11:38:03.309978,192.168.0.114
168,-1,-100,-100,-100,"0,0,0",0,0,0,0,0,0,70,72,84,70,94,-57.79,3,-8.0,14.0,-1002.0,11:38:03.412225,192.168.0.114
173,-1,-100,-100,-100,"0,0,0",0,0,0,0,0,0,70,72,85,70,94,-57.75,3,7.0,-5.0,-991.0,11:38:03.515339,192.168.0.114
178,-1,-100,-100,-100,"0,0,0",0,0,0,0,0,0,70,72,85,70,94,-57.8,3,3.0,23.0,-1005.0,11:38:03.616108,192.168.0.114
183,-1,-100,-100,-100,"0,0,0",0,0,0,0,0,0,70,72,84,70,94,-57.78,3,6.0,23.0,-1004.0,11:38:03.718488,192.168.0.114
188,-1,-100,-100,-100,"0,0,0",0,0,0,0,0,0,70,72,84,70,94,-57.79,3,21.0,2.0,-986.0,11:38:03.821237,192.168.0.114
193,-1,-100,-100,-100,"0,0,0",0,0,0,0,0,0,70,72,84,70,94,-57.75,3,10.0,7.0,-994.0,11:38:03.923236,192.168.0.114
198,-1,-100,-100,-100,"0,0,0",0,0,1,0,0,0,70,72,84,70,94,-57.69,3,22.0,8.0,-1002.0,11:38:04.025671,192.168.0.114
203,-1,-100,-100,-100,"0,0,0",0,0,1,0,0,0,70,72,84,70,94,-57.75,3,6.0,16.0,-985.0,11:38:04.128255,192.168.0.114
208,-1,-100,-100,-100,"0,0,0",0,0,1,0,0,0,70,72,84,70,94,-57.77,3,13.0,0.0,-975.0,11:38:04.230368,192.168.0.114
213,-1,-100,-100,-100,"0,0,0",0,0,1,0,0,0,70,72,84,70,94,-57.76,4,19.0,6.0,-1019.0,11:38:04.330158,192.168.0.114
218,-1,-100,-100,-100,"0,0,0",0,0,1,0,0,0,70,72,83,70,94,-57.77,4,2.0,3.0,-1010.0,11:38:04.432045,192.168.0.114
223,-1,-100,-100,-100,"0,0,0",0,0,1,0,0,0,70,72,83,70,94,-57.79,4,18.0,0.0,-1016.0,11:38:04.534098,192.168.0.114
228,-1,-100,-100,-100,"0,0,0",1,0,1,0,0,0,70,72,83,70,94,-57.86,4,26.0,-9.0,-1035.0,11:38:04.636082,192.168.0.114
233,-1,-100,-100,-100,"0,0,0",1,0,1,0,0,0,70,72,83,70,94,-57.83,4,6.0,12.0,-1029.0,11:38:04.738045,192.168.0.114
235,-1,-100,-100,-100,"0,0,0",1,0,0,0,0,0,70,72,83,70,94,-57.76,4,17.0,-5.0,-996.0,11:38:04.790923,192.168.0.114
240,-1,-100,-100,-100,"0,0,0",1,0,0,0,0,0,70,72,83,70,94,-57.82,4,11.0,-9.0,-999.0,11:38:04.891271,192.168.0.114
248,-1,-100,-100,-100,"0,0,0",0,0,0,0,0,0,70,72,83,70,94,-57.79,4,21.0,1.0,-991.0,11:38:05.044131,192.168.0.114
253,-1,-100,-100,-100,"0,0,0",1,0,0,0,0,0,70,72,83,70,94,-57.82,4,0.0,4.0,-979.0,11:38:05.145992,192.168.0.114
256,-1,-100,-100,-100,"0,0,0",0,0,0,0,0,0,70,72,82,70,94,-57.73,4,0.0,-9.0,-980.0,11:38:05.197290,192.168.0.114
261,-1,-100,-100,-100,"0,0,0",0,0,0,0,0,0,70,72,82,70,94,-57.83,5,2.0,35.0,-1028.0,11:38:05.299271,192.168.0.114
266,-1,-100,-100,-100,"0,0,0",0,0,0,0,0,0,70,72,81,70,94,-57.81,5,11.0,11.0,-992.0,11:38:05.401142,192.168.0.114
271,-1,-100,-100,-100,"0,0,0",0,0,0,0,0,0,70,72,81,70,94,-57.82,5,9.0,-1.0,-992.0,11:38:05.503224,192.168.0.114
276,-1,-100,-100,-100,"0,0,0",0,-1,1,0,0,0,70,72,82,70,94,-57.83,5,7.0,10.0,-1013.0,11:38:05.605316,192.168.0.114
281,-1,-100,-100,-100,"0,0,0",0,-1,1,0,0,0,70,72,81,70,94,-57.74,5,-5.0,19.0,-977.0,11:38:05.706750,192.168.0.114
288,-1,-100,-100,-100,"0,0,0",0,-1,1,0,0,0,70,72,81,70,94,-57.7,5,49.0,1.0,-977.0,11:38:05.809322,192.168.0.114
293,-1,-100,-100,-100,"0,0,0",0,-1,1,0,0,0,70,72,82,70,94,-57.72,5,15.0,12.0,-991.0,11:38:05.911222,192.168.0.114
298,-1,-100,-100,-100,"0,0,0",0,-1,1,0,0,0,70,72,81,70,94,-57.7,5,10.0,17.0,-1002.0,11:38:06.013235,192.168.0.114
303,-1,-100,-100,-100,"0,0,0",1,-1,1,0,0,0,70,72,80,70,94,-57.75,5,31.0,6.0,-1004.0,11:38:06.114952,192.168.0.114
308,-1,-100,-100,-100,"0,0,0",1,-1,1,0,0,0,70,72,80,70,94,-57.78,5,0.0,17.0,-1023.0,11:38:06.217620,192.168.0.114
313,-1,-100,-100,-100,"0,0,0",0,-1,0,0,0,0,70,72,80,70,94,-57.86,6,33.0,4.0,-1039.0,11:38:06.319265,192.168.0.114
318,-1,-100,-100,-100,"0,0,0",1,0,0,0,0,0,70,72,80,70,94,-57.82,6,10.0,13.0,-986.0,11:38:06.421327,192.168.0.114
323,-1,-100,-100,-100,"0,0,0",1,0,0,0,0,0,70,72,81,70,94,-57.72,6,5.0,24.0,-1003.0,11:38:06.523161,192.168.0.114
328,-1,-100,-100,-100,"0,0,0",0,-1,0,0,0,0,70,72,81,70,94,-57.77,6,15.0,23.0,-1014.0,11:38:06.625275,192.168.0.114
333,-1,-100,-100,-100,"0,0,0",1,0,0,0,0,0,70,72,81,70,94,-57.71,6,29.0,8.0,-960.0,11:38:06.727467,192.168.0.114
338,-1,-100,-100,-100,"0,0,0",1,0,0,0,0,0,70,72,81,70,94,-57.75,6,38.0,19.0,-1012.0,11:38:06.829343,192.168.0.114
343,-1,-100,-100,-100,"0,0,0",1,0,0,0,0,0,70,72,81,70,94,-57.78,6,30.0,6.0,-966.0,11:38:06.931293,192.168.0.114
348,-1,-100,-100,-100,"0,0,0",1,0,0,0,0,0,70,72,82,70,94,-57.78,6,24.0,1.0,-992.0,11:38:07.033138,192.168.0.114
353,-1,-100,-100,-100,"0,0,0",1,0,0,0,0,0,70,72,81,70,94,-57.81,6,26.0,17.0,-997.0,11:38:07.135244,192.168.0.114
358,-1,-100,-100,-100,"0,0,0",2,0,0,0,0,0,70,72,81,70,94,-57.82,6,23.0,21.0,-1029.0,11:38:07.237264,192.168.0.114
363,-1,-100,-100,-100,"0,0,0",1,0,0,0,0,0,70,72,82,70,94,-57.86,7,18.0,8.0,-1001.0,11:38:07.339124,192.168.0.114
368,-1,-100,-100,-100,"0,0,0",1,0,0,0,0,0,70,72,82,70,94,-57.73,7,6.0,8.0,-981.0,11:38:07.440838,192.168.0.114
373,-1,-100,-100,-100,"0,0,0",1,0,0,0,0,0,70,72,83,70,94,-57.75,7,7.0,32.0,-989.0,11:38:07.543108,192.168.0.114
378,-1,-100,-100,-100,"0,0,0",1,0,0,0,0,0,70,72,83,70,94,-57.84,7,0.0,15.0,-993.0,11:38:07.645149,192.168.0.114
383,-1,-100,-100,-100,"0,0,0",0,-1,0,0,0,0,70,72,82,70,94,-57.82,7,14.0,5.0,-1001.0,11:38:07.747014,192.168.0.114
388,-1,-100,-100,-100,"0,0,0",0,-1,0,0,0,0,70,72,83,70,94,-57.79,7,6.0,9.0,-987.0,11:38:07.849117,192.168.0.114
393,-1,-100,-100,-100,"0,0,0",0,-1,0,0,0,0,70,72,84,70,94,-57.83,7,-2.0,0.0,-965.0,11:38:07.951129,192.168.0.114
398,-1,-100,-100,-100,"0,0,0",0,-1,0,0,0,0,69,71,83,70,94,-57.78,7,11.0,4.0,-995.0,11:38:08.053339,192.168.0.114
403,-1,-100,-100,-100,"0,0,0",0,0,0,0,0,0,69,71,83,70,94,-57.77,7,-6.0,5.0,-990.0,11:38:08.155035,192.168.0.114
406,-1,-100,-100,-100,"0,0,0",0,0,0,0,0,0,69,71,84,70,94,-57.73,7,2.0,3.0,-991.0,11:38:08.205745,192.168.0.114
411,-1,-100,-100,-100,"0,0,0",0,0,0,0,0,0,69,71,84,70,94,-57.73,8,-4.0,8.0,-990.0,11:38:08.307831,192.168.0.114
417,-1,-100,-100,-100,"0,0,0",0,0,0,0,0,0,69,71,84,70,94,-57.79,8,22.0,-6.0,-992.0,11:38:08.409733,192.168.0.114
422,-1,-100,-100,-100,"0,0,0",0,0,0,0,0,0,69,71,84,70,94,-57.84,8,4.0,-3.0,-1006.0,11:38:08.511867,192.168.0.114
427,-1,-100,-100,-100,"0,0,0",0,0,0,0,0,0,69,71,83,70,94,-57.74,8,13.0,-20.0,-981.0,11:38:08.613680,192.168.0.114
433,-1,-100,-100,-100,"0,0,0",0,0,0,0,0,0,69,71,83,70,94,-57.79,8,-11.0,9.0,-1005.0,11:38:08.715936,192.168.0.114
438,-1,-100,-100,-100,"0,0,0",0,0,0,0,0,0,69,71,83,70,94,-57.76,8,18.0,-16.0,-987.0,11:38:08.817666,192.168.0.114
443,-1,-100,-100,-100,"0,0,0",0,0,0,0,0,0,69,71,83,70,94,-57.73,8,14.0,11.0,-985.0,11:38:08.920868,192.168.0.114
448,-1,-100,-100,-100,"0,0,0",0,0,0,0,0,0,69,71,83,70,94,-57.73,8,-15.0,4.0,-999.0,11:38:09.022151,192.168.0.114
453,-1,-100,-100,-100,"0,0,0",0,0,0,0,0,0,69,71,83,70,94,-57.72,8,0.0,-2.0,-1010.0,11:38:09.123865,192.168.0.114
458,-1,-100,-100,-100,"0,0,0",0,0,0,0,0,0,69,71,84,70,94,-57.79,8,-6.0,-3.0,-985.0,11:38:09.225739,192.168.0.114
463,-1,-100,-100,-100,"0,0,0",-1,0,0,0,0,0,69,71,84,70,94,-57.81,9,3.0,-3.0,-1000.0,11:38:09.327796,192.168.0.114
468,-1,-100,-100,-100,"0,0,0",-2,0,0,0,0,0,69,71,84,70,94,-57.78,9,-23.0,1.0,-993.0,11:38:09.430532,192.168.0.114
473,-1,-100,-100,-100,"0,0,0",-2,0,0,0,0,0,69,71,83,70,94,-57.81,9,-7.0,-3.0,-999.0,11:38:09.531812,192.168.0.114
478,-1,-100,-100,-100,"0,0,0",-2,0,0,0,0,0,69,71,84,70,94,-57.78,9,-16.0,-3.0,-1002.0,11:38:09.633907,192.168.0.114
483,-1,-100,-100,-100,"0,0,0",-2,0,0,-1,0,0,69,71,84,70,94,-57.77,9,-14.0,-12.0,-994.0,11:38:09.735626,192.168.0.114
488,-1,-100,-100,-100,"0,0,0",-2,0,0,-1,0,0,69,71,84,70,94,-57.81,9,-31.0,18.0,-992.0,11:38:09.838499,192.168.0.114
493,-1,-100,-100,-100,"0,0,0",-2,0,0,-1,0,0,69,71,84,70,94,-57.76,9,-18.0,9.0,-987.0,11:38:09.940360,192.168.0.114
498,-1,-100,-100,-100,"0,0,0",-1,0,0,-2,0,0,70,72,84,70,94,-57.78,9,-7.0,2.0,-998.0,11:38:10.043226,192.168.0.114
503,-1,-100,-100,-100,"0,0,0",-1,0,0,-2,0,0,70,72,84,70,94,-57.78,9,-1.0,-5.0,-995.0,11:38:10.144241,192.168.0.114
508,-1,-100,-100,-100,"0,0,0",-1,0,0,-2,0,0,70,72,84,70,94,-57.86,9,-11.0,-11.0,-995.0,11:38:10.247681,192.168.0.114
513,-1,-100,-100,-100,"0,0,0",-1,0,0,-2,0,0,70,72,84,70,94,-57.81,10,13.0,-8.0,-1016.0,11:38:10.351266,192.168.0.114
518,-1,-100,-100,-100,"0,0,0",-1,0,0,-2,0,0,70,72,84,70,94,-57.78,10,-27.0,8.0,-1005.0,11:38:10.449730,192.168.0.114
523,-1,-100,-100,-100,"0,0,0",-1,0,0,-2,0,0,70,72,84,70,94,-57.81,10,-28.0,0.0,-993.0,11:38:10.554242,192.168.0.114
528,-1,-100,-100,-100,"0,0,0",-1,0,0,-2,0,0,70,72,83,70,94,-57.82,10,-3.0,-2.0,-1004.0,11:38:10.653277,192.168.0.114
533,-1,-100,-100,-100,"0,0,0",-1,0,0,-2,0,0,70,72,84,70,94,-57.78,10,-17.0,5.0,-997.0,11:38:10.755593,192.168.0.114
538,-1,-100,-100,-100,"0,0,0",0,0,0,-2,0,0,70,72,84,70,94,-57.82,10,-5.0,-2.0,-1007.0,11:38:10.857580,192.168.0.114
543,-1,-100,-100,-100,"0,0,0",0,0,0,-2,0,0,70,72,84,70,94,-57.78,10,-39.0,-10.0,-994.0,11:38:10.959682,192.168.0.114
548,-1,-100,-100,-100,"0,0,0",0,0,0,-2,0,0,70,70,83,70,94,-57.79,10,-14.0,-22.0,-999.0,11:38:11.061714,192.168.0.114
553,-1,-100,-100,-100,"0,0,0",0,0,0,-2,0,0,70,70,84,70,94,-57.81,10,-8.0,-7.0,-1010.0,11:38:11.165592,192.168.0.114
558,-1,-100,-100,-100,"0,0,0",0,0,0,-3,0,0,70,70,83,70,94,-57.87,10,0.0,-20.0,-1011.0,11:38:11.265641,192.168.0.114
563,-1,-100,-100,-100,"0,0,0",0,0,0,-3,0,0,70,70,83,70,94,-57.83,11,-41.0,7.0,-1011.0,11:38:11.367564,192.168.0.114
568,-1,-100,-100,-100,"0,0,0",0,0,0,-3,0,0,70,70,83,70,94,-57.89,11,-3.0,-30.0,-982.0,11:38:11.469666,192.168.0.114
572,-1,-100,-100,-100,"0,0,0",0,0,0,-3,0,0,70,70,83,70,94,-57.87,11,-27.0,-4.0,-1000.0,11:38:11.520884,192.168.0.114
577,-1,-100,-100,-100,"0,0,0",0,1,0,-2,0,0,70,70,83,70,94,-57.76,11,-23.0,-22.0,-1005.0,11:38:11.622818,192.168.0.114
582,-1,-100,-100,-100,"0,0,0",0,1,0,-2,0,0,70,70,84,70,94,-57.82,11,0.0,-32.0,-1001.0,11:38:11.724857,192.168.0.114
587,-1,-100,-100,-100,"0,0,0",0,1,0,-2,0,0,70,70,84,70,94,-57.73,11,-43.0,-17.0,-979.0,11:38:11.826859,192.168.0.114
593,-1,-100,-100,-100,"0,0,0",0,1,0,-2,0,0,70,70,84,70,94,-57.76,11,-21.0,-24.0,-997.0,11:38:11.929958,192.168.0.114
598,-1,-100,-100,-100,"0,0,0",0,1,0,-2,0,0,69,71,84,70,94,-57.82,11,-36.0,-9.0,-994.0,11:38:12.030731,192.168.0.114
603,-1,-100,-100,-100,"0,0,0",0,1,0,-2,0,0,69,71,84,70,94,-57.84,11,-24.0,-25.0,-988.0,11:38:12.132997,192.168.0.114
608,-1,-100,-100,-100,"0,0,0",0,1,0,-2,0,0,69,71,83,70,94,-57.79,11,-16.0,-15.0,-974.0,11:38:12.236811,192.168.0.114
613,-1,-100,-100,-100,"0,0,0",0,1,0,-2,0,0,69,71,83,70,94,-57.91,12,-20.0,-16.0,-990.0,11:38:12.336875,192.168.0.114
618,-1,-100,-100,-100,"0,0,0",0,1,0,-2,0,0,69,71,83,70,94,-57.85,12,-2.0,-41.0,-983.0,11:38:12.438805,192.168.0.114
623,-1,-100,-100,-100,"0,0,0",0,1,0,-2,0,0,69,71,83,70,94,-57.85,12,-11.0,4.0,-1011.0,11:38:12.540646,192.168.0.114
628,-1,-100,-100,-100,"0,0,0",0,1,0,-2,0,0,69,71,83,70,94,-57.81,12,-6.0,-24.0,-1023.0,11:38:12.643022,192.168.0.114
633,-1,-100,-100,-100,"0,0,0",0,1,0,-2,0,0,69,71,82,70,94,-57.81,12,-22.0,-7.0,-989.0,11:38:12.745187,192.168.0.114
638,-1,-100,-100,-100,"0,0,0",0,1,0,-2,0,0,69,71,82,70,94,-57.8,12,-16.0,-4.0,-969.0,11:38:12.846763,192.168.0.114
643,-1,-100,-100,-100,"0,0,0",0,0,0,-2,0,0,69,71,81,70,94,-57.84,12,-11.0,0.0,-1024.0,11:38:12.948739,192.168.0.114
648,-1,-100,-100,-100,"0,0,0",0,-1,0,-2,0,0,70,72,81,70,94,-57.8,12,-7.0,-17.0,-990.0,11:38:13.050539,192.168.0.114
653,-1,-100,-100,-100,"0,0,0",0,0,0,-2,0,0,70,72,80,70,94,-57.76,12,22.0,-20.0,-1001.0,11:38:13.152678,192.168.0.114
658,-1,-100,-100,-100,"0,0,0",1,0,0,-2,0,0,70,72,80,70,94,-57.83,12,-21.0,-6.0,-1005.0,11:38:13.254765,192.168.0.114
663,-1,-100,-100,-100,"0,0,0",4,0,0,-1,0,0,70,72,80,70,94,-57.78,13,-23.0,10.0,-1004.0,11:38:13.356743,192.168.0.114
668,-1,-100,-100,-100,"0,0,0",2,0,0,0,0,0,70,72,80,70,94,-57.76,13,-2.0,-5.0,-986.0,11:38:13.458795,192.168.0.114
673,-1,-100,-100,-100,"0,0,0",1,0,0,0,0,0,70,72,80,70,94,-57.79,13,6.0,-12.0,-989.0,11:38:13.561339,192.168.0.114
677,-1,-100,-100,-100,"0,0,0",1,0,0,0,0,0,70,72,79,70,94,-57.8,13,10.0,-21.0,-986.0,11:38:13.662691,192.168.0.114
683,-1,-100,-100,-100,"0,0,0",1,0,0,0,0,0,70,72,79,70,94,-57.81,13,14.0,-18.0,-1010.0,11:38:13.764778,192.168.0.114
688,-1,-100,-100,-100,"0,0,0",1,0,0,0,0,0,70,72,80,70,94,-57.81,13,11.0,-4.0,-989.0,11:38:13.866731,192.168.0.114
693,-1,-100,-100,-100,"0,0,0",1,0,0,0,0,0,70,72,80,70,94,-57.8,13,14.0,2.0,-1009.0,11:38:13.969655,192.168.0.114
698,-1,-100,-100,-100,"0,0,0",1,0,0,0,0,0,70,71,80,70,94,-57.72,13,32.0,-16.0,-996.0,11:38:14.070764,192.168.0.114
703,-1,-100,-100,-100,"0,0,0",0,0,0,0,0,0,70,71,80,70,94,-57.75,13,0.0,-6.0,-993.0,11:38:14.174592,192.168.0.114
708,-1,-100,-100,-100,"0,0,0",0,0,0,0,0,0,70,71,80,70,94,-57.78,14,2.0,-10.0,-968.0,11:38:14.274798,192.168.0.114
713,-1,-100,-100,-100,"0,0,0",0,0,0,0,0,0,70,71,80,70,94,-57.86,14,-1.0,16.0,-952.0,11:38:14.377524,192.168.0.114
718,-1,-100,-100,-100,"0,0,0",0,0,0,0,0,-1,70,71,80,60,94,-57.92,14,9.0,-21.0,-912.0,11:38:14.482794,192.168.0.114
723,-1,-100,-100,-100,"0,0,0",0,0,0,0,0,-2,70,71,78,60,94,-57.91,14,-26.0,14.0,-913.0,11:38:14.580810,192.168.0.114
728,-1,-100,-100,-100,"0,0,0",0,0,0,0,0,-2,70,71,75,60,94,-57.98,14,6.0,38.0,-924.0,11:38:14.688478,192.168.0.114
733,-1,-100,-100,-100,"0,0,0",0,0,0,0,0,-3,70,71,72,60,94,-57.97,14,-4.0,5.0,-942.0,11:38:14.784769,192.168.0.114
738,-1,-100,-100,-100,"0,0,0",0,0,0,0,0,-4,70,71,68,50,94,-57.93,14,17.0,-2.0,-972.0,11:38:14.886681,192.168.0.114
742,-1,-100,-100,-100,"0,0,0",0,0,1,0,0,-4,70,71,63,50,94,-58.01,14,-6.0,7.0,-963.0,11:38:14.937510,192.168.0.114
748,-1,-100,-100,-100,"0,0,0",0,0,1,0,0,-4,70,71,59,40,94,-57.95,14,19.0,2.0,-998.0,11:38:15.091083,192.168.0.114
753,-1,-100,-100,-100,"0,0,0",0,0,0,0,0,-4,70,71,54,40,94,-57.97,14,9.0,13.0,-1006.0,11:38:15.194628,192.168.0.114
757,-1,-100,-100,-100,"0,0,0",0,0,0,0,0,-4,70,71,49,30,94,-58.11,15,8.0,16.0,-974.0,11:38:15.243493,192.168.0.114
762,-1,-100,-100,-100,"0,0,0",0,0,0,0,0,-4,70,71,44,30,94,-58.08,15,42.0,0.0,-1016.0,11:38:15.347283,192.168.0.114
767,-1,-100,-100,-100,"0,0,0",0,0,0,0,0,-4,70,71,39,20,94,-58.24,15,25.0,24.0,-1011.0,11:38:15.447480,192.168.0.114
773,-1,-100,-100,-100,"0,0,0",1,0,1,0,0,-4,70,71,34,20,94,-58.13,15,20.0,8.0,-990.0,11:38:15.549345,192.168.0.114
778,-1,-100,-100,-100,"0,0,0",1,0,1,0,0,-4,70,71,29,10,94,-58.24,15,38.0,-10.0,-996.0,11:38:15.651137,192.168.0.114
783,-1,-100,-100,-100,"0,0,0",1,-1,1,0,0,-5,70,71,24,10,94,-58.25,15,18.0,-6.0,-982.0,11:38:15.753415,192.168.0.114
788,-1,-100,-100,-100,"0,0,0",1,0,1,0,0,-5,70,71,22,0,94,-58.43,15,29.0,-8.0,-1076.0,11:38:15.855411,192.168.0.114
793,-1,-100,-100,-100,"0,0,0",2,0,1,-1,0,-4,70,71,15,0,94,-58.45,15,70.0,-36.0,-985.0,11:38:15.957375,192.168.0.114
798,-1,-100,-100,-100,"0,0,0",3,1,0,-1,0,-4,69,72,10,0,94,-59.41,15,100.0,-26.0,-1049.0,11:38:16.059489,192.168.0.114
803,-1,-100,-100,-100,"0,0,0",4,1,0,-1,0,-3,69,72,10,0,94,-60.01,15,0.0,-11.0,-1093.0,11:38:16.161405,192.168.0.114
808,-1,-100,-100,-100,"0,0,0",2,1,0,0,0,-3,69,72,10,0,94,-61.33,16,16.0,-17.0,-1078.0,11:38:16.263412,192.168.0.114
813,-1,-100,-100,-100,"0,0,0",1,0,0,0,0,0,69,72,10,0,94,-61.84,16,89.0,-34.0,-913.0,11:38:16.365205,192.168.0.114
817,-1,-100,-100,-100,"0,0,0",1,1,0,0,0,0,69,72,10,0,94,-60.79,16,21.0,13.0,-685.0,11:38:16.467416,192.168.0.114
823,-1,-100,-100,-100,"0,0,0",0,0,0,0,0,0,69,72,10,0,94,-60.85,16,-1.0,-4.0,-801.0,11:38:16.570654,192.168.0.114
828,-1,-100,-100,-100,"0,0,0",0,0,0,0,0,0,69,72,10,0,94,-60.62,16,28.0,6.0,-872.0,11:38:16.673483,192.168.0.114
833,-1,-100,-100,-100,"0,0,0",0,0,0,0,0,0,69,72,10,0,94,-59.99,16,-9.0,-14.0,-1006.0,11:38:16.773383,192.168.0.114
838,-1,-100,-100,-100,"0,0,0",0,0,0,0,0,0,69,72,10,0,94,-59.72,16,0.0,-15.0,-1005.0,11:38:16.875550,192.168.0.114
843,-1,-100,-100,-100,"0,0,0",0,0,0,0,0,0,69,72,10,0,94,-59.49,16,-3.0,-24.0,-993.0,11:38:16.978718,192.168.0.114
848,-1,-100,-100,-100,"0,0,0",0,0,0,0,0,0,69,71,10,0,94,-59.39,16,-3.0,-3.0,-1000.0,11:38:17.079061,192.168.0.114
853,-1,-100,-100,-100,"0,0,0",0,0,0,0,0,0,69,71,10,0,94,-59.31,16,6.0,6.0,-1001.0,11:38:17.181423,192.168.0.114
858,-1,-100,-100,-100,"0,0,0",0,0,0,0,0,0,69,71,10,0,94,-59.18,16,0.0,0.0,-1000.0,11:38:17.283043,192.168.0.114
