,mid,x,y,z,mpry,pitch,roll,yaw,vgx,vgy,vgz,templ,temph,tof,h,bat,baro,time,agx,agy,agz,timestamp,address
1,-1,-100,-100,-100,"0,0,0",0,0,0,0,0,0,68,70,10,0,93,-19.06,0,-6.0,0.0,-999.0,16:41:05.733326,192.168.0.115
6,-1,-100,-100,-100,"0,0,0",0,0,0,0,0,0,68,70,10,0,93,-19.06,0,-7.0,-2.0,-997.0,16:41:05.835934,192.168.0.115
11,-1,-100,-100,-100,"0,0,0",0,0,0,0,0,0,68,70,10,0,93,-19.06,0,-8.0,0.0,-999.0,16:41:05.937513,192.168.0.115
16,-1,-100,-100,-100,"0,0,0",0,0,0,0,0,0,68,70,10,0,93,-19.06,0,-8.0,4.0,-999.0,16:41:06.039359,192.168.0.115
21,-1,-100,-100,-100,"0,0,0",0,0,0,0,0,0,68,70,10,0,93,-19.06,0,1.0,-12.0,-999.0,16:41:06.142547,192.168.0.115
26,-1,-100,-100,-100,"0,0,0",0,0,0,0,0,0,68,70,10,0,93,-19.06,0,-21.0,6.0,-1045.0,16:41:06.246621,192.168.0.115
31,-1,-100,-100,-100,"0,0,0",0,0,0,0,0,0,68,70,10,0,93,-19.06,0,21.0,-12.0,-1057.0,16:41:06.346146,192.168.0.115
37,-1,-100,-100,-100,"0,0,0",0,0,0,0,0,2,68,70,10,0,93,-19.06,0,-21.0,31.0,-1195.0,16:41:06.448213,192.168.0.115
42,-1,-100,-100,-100,"0,0,0",0,0,0,0,0,5,68,70,10,0,93,-19.06,0,2.0,4.0,-1359.0,16:41:06.549955,192.168.0.115
47,-1,-100,-100,-100,"0,0,0",0,-1,0,0,0,8,68,70,13,10,93,-18.86,0,-40.0,3.0,-1138.0,16:41:06.652063,192.168.0.115
53,-1,-100,-100,-100,"0,0,0",0,0,0,0,0,8,68,70,22,20,93,-18.68,0,-10.0,-4.0,-1035.0,16:41:06.754204,192.168.0.115
58,-1,-100,-100,-100,"0,0,0",0,0,0,0,0,8,68,70,28,30,93,-18.59,0,-36.0,54.0,-919.0,16:41:06.855706,192.168.0.115
64,-1,-100,-100,-100,"0,0,0",1,0,-1,0,0,7,68,70,36,30,93,-18.43,1,-76.0,64.0,-926.0,16:41:06.957831,192.168.0.115
69,-1,-100,-100,-100,"0,0,0",-2,-1,-1,1,-1,6,68,70,43,40,93,-18.45,1,13.0,104.0,-865.0,16:41:07.059429,192.168.0.115
74,-1,-100,-100,-100,"0,0,0",-2,-2,-1,0,-1,5,68,70,49,50,93,-18.32,1,-62.0,99.0,-924.0,16:41:07.161977,192.168.0.115
79,-1,-100,-100,-100,"0,0,0",-2,-5,-1,0,-2,4,68,70,55,50,93,-18.16,1,-24.0,95.0,-873.0,16:41:07.263423,192.168.0.115
84,-1,-100,-100,-100,"0,0,0",-2,-6,-1,0,-2,3,68,70,59,50,93,-18.27,1,-63.0,75.0,-939.0,16:41:07.365917,192.168.0.115
85,-1,-100,-100,-100,"0,0,0",-3,-6,0,0,-2,2,68,70,63,60,93,-18.15,1,-8.0,128.0,-915.0,16:41:07.416884,192.168.0.115
90,-1,-100,-100,-100,"0,0,0",-3,-7,0,0,-1,2,69,71,65,60,93,-18.31,1,1.0,94.0,-926.0,16:41:07.519080,192.168.0.115
96,-1,-100,-100,-100,"0,0,0",-1,-8,0,0,-1,1,69,71,67,60,93,-18.08,1,13.0,109.0,-997.0,16:41:07.620973,192.168.0.115
101,-1,-100,-100,-100,"0,0,0",-1,-7,0,0,-1,1,69,71,69,60,93,-18.11,1,-24.0,136.0,-906.0,16:41:07.722810,192.168.0.115
106,-1,-100,-100,-100,"0,0,0",0,-8,0,0,-1,1,69,71,70,60,93,-18.12,1,-6.0,122.0,-960.0,16:41:07.825029,192.168.0.115
111,-1,-100,-100,-100,"0,0,0",0,-9,-1,0,-1,1,69,71,71,60,93,-18.19,2,-83.0,153.0,-1053.0,16:41:07.926721,192.168.0.115
116,-1,-100,-100,-100,"0,0,0",-1,-7,-1,0,-1,1,69,71,72,60,93,-18.19,2,-47.0,126.0,-977.0,16:41:08.028468,192.168.0.115
121,-1,-100,-100,-100,"0,0,0",-3,-9,0,0,-1,1,69,71,74,70,93,-18.23,2,-7.0,122.0,-945.0,16:41:08.131075,192.168.0.115
126,-1,-100,-100,-100,"0,0,0",-3,-10,0,0,0,0,69,71,75,70,93,-18.18,2,18.0,104.0,-982.0,16:41:08.234777,192.168.0.115
131,-1,-100,-100,-100,"0,0,0",-1,-8,0,0,0,0,69,71,76,70,93,-18.13,2,-17.0,104.0,-1038.0,16:41:08.334595,192.168.0.115
136,-1,-100,-100,-100,"0,0,0",-2,-6,0,0,0,1,69,71,76,70,93,-17.94,2,-34.0,115.0,-973.0,16:41:08.436608,192.168.0.115
141,-1,-100,-100,-100,"0,0,0",-1,-7,0,0,0,0,68,70,77,70,93,-18.02,2,-18.0,87.0,-1032.0,16:41:08.538933,192.168.0.115
146,-1,-100,-100,-100,"0,0,0",-1,-7,0,0,0,1,68,70,78,70,93,-18.09,2,27.0,119.0,-970.0,16:41:08.640922,192.168.0.115
151,-1,-100,-100,-100,"0,0,0",0,-7,0,0,0,1,68,70,79,70,93,-17.87,2,-21.0,120.0,-989.0,16:41:08.742931,192.168.0.115
156,-1,-100,-100,-100,"0,0,0",0,-7,0,0,0,0,68,70,80,70,93,-18.05,2,36.0,153.0,-918.0,16:41:08.845254,192.168.0.115
161,-1,-100,-100,-100,"0,0,0",0,-8,0,0,0,0,68,70,81,70,93,-17.94,3,17.0,126.0,-936.0,16:41:08.948812,192.168.0.115
166,-1,-100,-100,-100,"0,0,0",0,-8,0,0,0,0,68,70,82,70,93,-17.9,3,-23.0,137.0,-1001.0,16:41:09.049170,192.168.0.115
171,-1,-100,-100,-100,"0,0,0",0,-8,0,0,0,0,68,70,82,70,93,-17.9,3,35.0,126.0,-1027.0,16:41:09.151056,192.168.0.115
177,-1,-100,-100,-100,"0,0,0",0,-8,0,0,0,0,68,70,82,70,93,-18.09,3,-27.0,156.0,-1019.0,16:41:09.252654,192.168.0.115
182,8,-42,15,83,"0,11,175",0,-9,-1,0,0,0,68,70,83,70,93,-17.91,3,-16.0,170.0,-969.0,16:41:09.354689,192.168.0.115
187,8,-42,15,83,"0,11,175",0,-8,-1,0,0,0,68,70,83,80,93,-18.3,3,-30.0,141.0,-1011.0,16:41:09.457073,192.168.0.115
194,8,-42,15,83,"0,11,175",0,-8,-1,0,0,0,69,70,82,80,93,-18.0,3,-44.0,121.0,-969.0,16:41:09.559097,192.168.0.115
199,8,-42,15,83,"0,11,175",0,-8,0,0,0,0,69,70,83,70,93,-18.25,3,-8.0,96.0,-920.0,16:41:09.661025,192.168.0.115
203,8,-36,10,88,"2,12,180",-1,-6,0,0,0,0,69,70,82,70,93,-17.95,3,-48.0,118.0,-965.0,16:41:09.763044,192.168.0.115
208,8,-36,10,88,"2,12,180",0,-6,-1,0,0,0,69,70,82,70,93,-18.2,3,-64.0,181.0,-1040.0,16:41:09.865005,192.168.0.115
213,8,-36,10,88,"2,12,180",-3,-8,0,0,0,0,69,70,83,70,93,-18.3,4,47.0,130.0,-939.0,16:41:09.966909,192.168.0.115
215,8,-36,10,88,"2,12,180",-2,-6,0,0,0,0,69,70,84,80,93,-18.18,4,-65.0,175.0,-1045.0,16:41:10.017757,192.168.0.115
220,8,-42,10,85,"0,12,179",-1,-9,0,0,0,0,69,70,84,80,93,-18.18,4,11.0,92.0,-950.0,16:41:10.120107,192.168.0.115
226,8,-42,10,85,"0,12,179",-2,-8,0,0,0,0,69,70,86,80,93,-18.33,4,-23.0,134.0,-985.0,16:41:10.222232,192.168.0.115
231,8,-42,10,85,"0,12,179",0,-7,0,0,0,0,69,70,85,80,93,-18.26,4,-16.0,134.0,-1009.0,16:41:10.325051,192.168.0.115
236,8,-40,18,88,"4,12,177",-1,-8,0,0,0,0,69,70,85,80,93,-18.18,4,-15.0,143.0,-990.0,16:41:10.426080,192.168.0.115
241,8,-40,18,88,"4,12,177",0,-7,0,0,0,0,68,70,85,80,93,-18.28,4,-4.0,115.0,-968.0,16:41:10.531298,192.168.0.115
246,8,-40,18,88,"4,12,177",0,-7,0,0,0,0,68,70,85,80,93,-18.22,4,14.0,129.0,-1017.0,16:41:10.629637,192.168.0.115
251,8,-40,18,88,"4,12,177",0,-6,0,0,0,0,68,70,86,80,93,-18.26,4,6.0,157.0,-995.0,16:41:10.731872,192.168.0.115
256,8,-38,20,91,"5,11,176",1,-6,0,-1,0,0,68,70,87,80,93,-17.98,4,-64.0,170.0,-989.0,16:41:10.834066,192.168.0.115
261,8,-38,20,91,"5,11,176",1,-7,0,0,0,0,68,70,86,80,93,-17.97,5,-23.0,138.0,-974.0,16:41:10.941740,192.168.0.115
266,8,-38,20,91,"5,11,176",1,-8,0,0,0,0,68,70,86,80,93,-18.2,5,-22.0,128.0,-1026.0,16:41:11.037969,192.168.0.115
271,8,-38,20,91,"5,11,176",0,-7,0,0,0,0,68,70,86,80,93,-17.99,5,-28.0,190.0,-966.0,16:41:11.139980,192.168.0.115
276,7,-45,-2,86,"-2,0,165",0,-9,0,0,0,0,68,70,86,80,93,-17.99,5,43.0,127.0,-954.0,16:41:11.250297,192.168.0.115
281,7,-45,-2,86,"-2,0,165",0,-9,0,0,0,0,68,70,87,80,93,-18.18,5,-29.0,145.0,-999.0,16:41:11.344020,192.168.0.115
286,7,-45,-2,86,"-2,0,165",0,-8,0,0,0,0,68,70,87,80,93,-18.25,5,3.0,133.0,-1011.0,16:41:11.446566,192.168.0.115
291,7,-45,-2,86,"-2,0,165",0,-6,0,0,0,0,68,70,86,80,93,-18.07,5,-10.0,119.0,-954.0,16:41:11.548021,192.168.0.115
296,7,-45,-2,86,"-2,0,165",0,-6,0,0,0,0,68,70,86,80,93,-18.18,5,20.0,151.0,-1016.0,16:41:11.650038,192.168.0.115
301,7,-45,-2,86,"-2,0,165",1,-6,0,0,0,0,68,70,87,80,93,-18.19,5,-32.0,134.0,-965.0,16:41:11.752145,192.168.0.115
306,7,-45,-2,86,"-2,0,165",1,-7,0,0,0,0,68,70,87,80,93,-18.32,5,0.0,140.0,-1011.0,16:41:11.854034,192.168.0.115
311,7,-45,-2,86,"-2,0,165",1,-7,0,0,0,0,68,70,87,80,93,-18.11,6,-19.0,137.0,-928.0,16:41:11.956120,192.168.0.115
317,7,-43,-5,84,"-2,1,168",0,-7,0,0,0,0,68,70,87,80,93,-18.18,6,34.0,108.0,-1005.0,16:41:12.058074,192.168.0.115
322,7,-43,-5,84,"-2,1,168",0,-6,0,0,0,0,68,70,87,80,93,-18.38,6,3.0,172.0,-976.0,16:41:12.159676,192.168.0.115
327,7,-43,-5,84,"-2,1,168",1,-8,0,0,0,0,68,70,88,80,93,-17.97,6,37.0,152.0,-1095.0,16:41:12.261751,192.168.0.115
332,7,-43,-5,84,"-2,1,168",2,-8,0,0,0,0,68,70,87,80,93,-17.96,6,13.0,118.0,-992.0,16:41:12.363976,192.168.0.115
337,7,-42,-5,84,"-4,1,168",1,-8,0,0,0,0,68,70,87,80,93,-18.16,6,56.0,120.0,-977.0,16:41:12.466180,192.168.0.115
342,7,-42,-5,84,"-4,1,168",2,-7,0,0,0,0,67,70,88,80,93,-18.22,6,31.0,129.0,-1023.0,16:41:12.567954,192.168.0.115
345,7,-42,-5,84,"-4,1,168",1,-7,0,0,0,0,67,70,88,80,93,-18.24,6,18.0,151.0,-1007.0,16:41:12.619029,192.168.0.115
350,7,-42,-5,84,"-4,1,168",1,-7,0,0,0,0,67,70,88,80,93,-18.4,6,14.0,145.0,-953.0,16:41:12.720931,192.168.0.115
356,7,-36,-1,86,"-3,1,166",3,-7,0,0,0,0,67,70,89,80,93,-18.24,6,-6.0,108.0,-966.0,16:41:12.823134,192.168.0.115
361,7,-36,-1,86,"-3,1,166",2,-7,0,0,0,0,67,70,88,80,93,-18.08,7,5.0,100.0,-958.0,16:41:12.925191,192.168.0.115
366,7,-36,-1,86,"-3,1,166",1,-6,0,0,0,0,67,70,89,80,93,-18.31,7,-7.0,129.0,-985.0,16:41:13.026545,192.168.0.115
371,7,-36,-1,86,"-3,1,166",1,-7,0,0,0,0,67,70,90,80,93,-18.23,7,-32.0,70.0,-1036.0,16:41:13.129131,192.168.0.115
376,7,-37,-1,85,"-5,1,166",1,-4,0,0,1,0,67,70,89,80,93,-18.24,7,43.0,85.0,-957.0,16:41:13.231143,192.168.0.115
381,7,-37,-1,85,"-5,1,166",0,-5,0,0,0,0,67,70,90,80,93,-18.29,7,32.0,76.0,-1061.0,16:41:13.333047,192.168.0.115
386,7,-37,-1,85,"-5,1,166",0,-5,0,0,0,0,67,70,90,80,93,-18.23,7,40.0,113.0,-979.0,16:41:13.435275,192.168.0.115
390,7,-37,-1,85,"-5,1,166",2,-6,0,0,0,0,67,70,91,80,93,-18.04,7,17.0,100.0,-982.0,16:41:13.537397,192.168.0.115
396,7,-34,-1,87,"-4,2,169",1,-5,0,0,0,0,67,70,91,80,93,-18.01,7,-26.0,114.0,-928.0,16:41:13.641687,192.168.0.115
401,7,-34,-1,87,"-4,2,169",0,-5,0,0,0,0,67,70,90,80,93,-18.14,7,28.0,98.0,-998.0,16:41:13.741065,192.168.0.115
406,7,-34,-1,87,"-4,2,169",0,-5,0,0,0,0,67,70,90,80,93,-18.38,7,69.0,80.0,-1014.0,16:41:13.844054,192.168.0.115
411,7,-34,-1,87,"-4,2,169",0,-5,0,0,0,0,67,70,89,80,93,-18.47,8,98.0,97.0,-999.0,16:41:13.945017,192.168.0.115
416,7,-34,2,88,"-4,2,170",3,-4,0,0,0,0,67,70,91,80,93,-18.24,8,22.0,108.0,-987.0,16:41:14.046591,192.168.0.115
421,7,-34,2,88,"-4,2,170",3,-5,-1,0,0,0,67,70,90,80,93,-18.14,8,8.0,113.0,-946.0,16:41:14.148500,192.168.0.115
426,7,-34,2,88,"-4,2,170",3,-6,-1,0,0,0,67,70,90,80,93,-18.14,8,-18.0,127.0,-1019.0,16:41:14.250461,192.168.0.115
431,7,-34,2,88,"-4,2,170",1,-5,0,0,0,0,67,70,90,80,93,-18.13,8,-4.0,108.0,-1071.0,16:41:14.353018,192.168.0.115
436,7,-34,3,88,"-3,2,172",0,-6,0,0,0,0,67,70,90,80,93,-18.19,8,18.0,136.0,-969.0,16:41:14.455130,192.168.0.115
441,7,-34,3,88,"-3,2,172",1,-6,0,0,0,0,67,69,89,80,93,-18.23,8,-2.0,107.0,-946.0,16:41:14.556944,192.168.0.115
446,7,-34,3,88,"-3,2,172",1,-6,0,0,0,0,67,69,89,80,93,-18.14,8,-7.0,82.0,-1032.0,16:41:14.658943,192.168.0.115
451,7,-32,0,88,"-1,3,173",0,-5,0,0,0,0,67,69,89,80,93,-18.05,8,34.0,72.0,-1066.0,16:41:14.760988,192.168.0.115
456,7,-32,0,88,"-1,3,173",1,-4,0,0,0,0,67,69,88,80,93,-18.17,8,-10.0,71.0,-1029.0,16:41:14.864777,192.168.0.115
461,7,-32,0,88,"-1,3,173",1,-3,0,0,0,0,67,69,88,80,93,-18.08,9,63.0,80.0,-1007.0,16:41:14.964616,192.168.0.115
466,7,-32,0,88,"-1,3,173",1,-3,0,0,0,0,67,69,89,80,93,-18.0,9,50.0,79.0,-986.0,16:41:15.067199,192.168.0.115
471,7,-38,5,85,"-3,2,169",0,-3,0,0,0,0,67,69,89,80,93,-18.32,9,38.0,110.0,-1067.0,16:41:15.169196,192.168.0.115
477,7,-38,5,85,"-3,2,169",1,-6,0,0,0,0,67,69,89,80,93,-18.12,9,42.0,65.0,-957.0,16:41:15.271193,192.168.0.115
482,7,-38,5,85,"-3,2,169",3,-4,0,0,0,0,67,69,90,80,93,-18.19,9,47.0,67.0,-957.0,16:41:15.373241,192.168.0.115
487,7,-38,5,85,"-3,2,169",2,-2,0,0,0,0,67,69,88,80,93,-17.97,9,-2.0,109.0,-978.0,16:41:15.475292,192.168.0.115
492,7,-37,7,86,"-3,1,172",2,-4,0,0,0,0,66,69,88,80,93,-18.16,9,20.0,82.0,-998.0,16:41:15.577116,192.168.0.115
497,7,-37,7,86,"-3,1,172",2,-5,0,0,0,0,66,69,88,80,93,-18.29,9,49.0,68.0,-988.0,16:41:15.679436,192.168.0.115
502,7,-37,7,86,"-3,1,172",3,-4,0,0,0,0,66,69,87,80,93,-18.28,9,48.0,146.0,-1023.0,16:41:15.780897,192.168.0.115
507,7,-36,7,85,"-4,2,172",2,-7,0,0,0,0,66,69,88,80,93,-18.47,9,37.0,91.0,-973.0,16:41:15.891353,192.168.0.115
512,7,-36,7,85,"-4,2,172",3,-5,0,0,0,0,66,69,87,80,93,-18.18,10,29.0,140.0,-958.0,16:41:15.985869,192.168.0.115
517,7,-36,7,85,"-4,2,172",2,-7,0,0,0,0,66,69,88,80,93,-18.14,10,23.0,109.0,-956.0,16:41:16.087239,192.168.0.115
521,7,-36,7,85,"-4,2,172",2,-7,-1,0,0,0,66,69,89,80,93,-18.26,10,-4.0,81.0,-953.0,16:41:16.137850,192.168.0.115
526,7,-35,5,84,"-5,2,170",1,-5,-1,0,0,0,66,69,87,80,93,-18.11,10,37.0,77.0,-970.0,16:41:16.240017,192.168.0.115
531,7,-35,5,84,"-5,2,170",1,-5,0,0,0,0,66,69,88,80,93,-18.18,10,39.0,77.0,-993.0,16:41:16.342382,192.168.0.115
536,7,-35,5,84,"-5,2,170",2,-6,0,0,0,0,66,69,87,80,93,-18.09,10,6.0,68.0,-1010.0,16:41:16.444035,192.168.0.115
541,7,-35,5,84,"-5,2,170",1,-5,0,0,0,0,66,68,88,80,93,-18.25,10,50.0,90.0,-1011.0,16:41:16.547383,192.168.0.115
546,7,-33,4,85,"-3,3,170",3,-3,-1,0,0,0,66,68,87,80,93,-18.44,10,-59.0,143.0,-1038.0,16:41:16.648186,192.168.0.115
551,7,-33,4,85,"-3,3,170",1,-5,0,1,0,0,66,68,88,80,93,-18.06,10,58.0,124.0,-956.0,16:41:16.750201,192.168.0.115
556,7,-33,4,85,"-3,3,170",0,-8,0,0,-1,0,66,68,88,80,93,-18.13,10,27.0,126.0,-992.0,16:41:16.852067,192.168.0.115
561,7,-33,4,85,"-3,3,170",1,-9,0,0,-1,0,66,68,89,80,93,-18.32,11,55.0,132.0,-1020.0,16:41:16.955142,192.168.0.115
566,7,-36,2,83,"-5,3,172",2,-8,0,0,0,0,66,68,88,80,93,-18.59,11,28.0,140.0,-996.0,16:41:17.059166,192.168.0.115
571,7,-36,2,83,"-5,3,172",2,-9,0,0,0,0,66,68,88,80,93,-18.19,11,-16.0,149.0,-1101.0,16:41:17.158038,192.168.0.115
576,7,-36,2,83,"-5,3,172",1,-9,0,0,0,0,66,68,89,80,93,-18.26,11,59.0,104.0,-1006.0,16:41:17.260170,192.168.0.115
581,7,-36,2,83,"-5,3,172",0,-6,0,0,0,0,66,68,88,80,93,-18.15,11,46.0,149.0,-939.0,16:41:17.362168,192.168.0.115
586,7,-33,3,87,"-1,1,166",2,-8,0,0,0,0,66,68,88,80,93,-18.39,11,48.0,112.0,-954.0,16:41:17.463994,192.168.0.115
591,7,-33,3,87,"-1,1,166",3,-8,-1,0,0,0,66,69,88,80,93,-18.13,11,-35.0,132.0,-947.0,16:41:17.566328,192.168.0.115
596,7,-33,3,87,"-1,1,166",1,-8,-1,0,0,0,66,69,88,80,93,-18.18,11,-46.0,83.0,-995.0,16:41:17.668227,192.168.0.115
601,7,-33,3,87,"-1,1,166",0,-8,0,1,0,0,66,69,88,80,93,-18.28,11,31.0,149.0,-956.0,16:41:17.770338,192.168.0.115
606,7,-33,2,86,"-1,0,167",0,-6,0,0,0,0,66,69,88,80,93,-18.35,11,30.0,150.0,-962.0,16:41:17.873573,192.168.0.115
611,7,-33,2,86,"-1,0,167",0,-8,0,0,0,0,66,69,87,80,93,-18.59,12,2.0,112.0,-1028.0,16:41:17.973755,192.168.0.115
616,7,-33,2,86,"-1,0,167",0,-9,0,0,0,0,66,69,88,80,93,-18.39,12,15.0,107.0,-1016.0,16:41:18.076162,192.168.0.115
621,7,-33,2,86,"-1,0,167",0,-6,0,0,0,0,66,69,88,80,93,-18.39,12,-2.0,121.0,-990.0,16:41:18.178498,192.168.0.115
626,7,-33,2,86,"-1,0,167",0,-7,0,0,0,0,66,69,87,80,93,-18.36,12,33.0,108.0,-1050.0,16:41:18.280237,192.168.0.115
631,7,-33,2,86,"-1,0,167",0,-6,0,0,0,0,66,69,87,80,93,-18.32,12,13.0,185.0,-1000.0,16:41:18.382681,192.168.0.115
636,7,-33,2,86,"-1,0,167",0,-6,0,0,0,0,66,69,88,80,93,-18.1,12,10.0,130.0,-935.0,16:41:18.483695,192.168.0.115
641,7,-33,2,86,"-1,0,167",0,-8,0,0,0,0,66,68,88,80,93,-18.26,12,0.0,115.0,-957.0,16:41:18.586164,192.168.0.115
646,7,-43,-3,81,"-5,2,171",0,-8,-1,0,0,0,66,68,87,80,93,-18.36,12,-26.0,113.0,-962.0,16:41:18.688104,192.168.0.115
651,7,-43,-3,81,"-5,2,171",0,-7,-1,0,0,0,66,68,87,80,93,-18.35,12,22.0,131.0,-1019.0,16:41:18.791334,192.168.0.115
657,7,-43,-3,81,"-5,2,171",0,-6,0,0,0,0,66,68,87,80,93,-18.22,12,61.0,131.0,-970.0,16:41:18.892336,192.168.0.115
662,7,-43,-3,81,"-5,2,171",0,-7,0,0,0,0,66,68,87,80,93,-18.07,13,23.0,138.0,-1060.0,16:41:18.995048,192.168.0.115
667,7,-38,-5,85,"-1,2,170",2,-7,0,0,0,0,66,68,87,80,93,-18.06,13,20.0,90.0,-1014.0,16:41:19.096356,192.168.0.115
671,7,-38,-5,85,"-1,2,170",1,-8,0,0,0,0,66,68,87,80,93,-18.4,13,58.0,156.0,-1034.0,16:41:19.152570,192.168.0.115
676,7,-38,-5,85,"-1,2,170",1,-7,0,0,0,0,66,68,87,80,93,-18.24,13,21.0,200.0,-977.0,16:41:19.250399,192.168.0.115
681,7,-38,-5,85,"-1,2,170",1,-8,-1,0,0,0,66,68,87,80,93,-18.41,13,4.0,116.0,-938.0,16:41:19.352273,192.168.0.115
686,7,-40,1,84,"-3,1,166",1,-9,-1,0,0,0,66,68,88,80,93,-18.16,13,-26.0,102.0,-972.0,16:41:19.454208,192.168.0.115
691,7,-40,1,84,"-3,1,166",0,-9,-1,0,0,0,66,69,88,80,93,-18.47,13,35.0,121.0,-990.0,16:41:19.556175,192.168.0.115
696,7,-40,1,84,"-3,1,166",0,-8,0,0,0,0,66,69,88,80,93,-18.58,13,27.0,152.0,-935.0,16:41:19.658533,192.168.0.115
701,7,-40,1,84,"-3,1,166",0,-8,0,0,0,0,66,69,87,80,93,-18.34,13,-24.0,163.0,-988.0,16:41:19.760156,192.168.0.115
706,7,-41,-2,82,"-6,2,167",0,-9,0,0,0,0,66,69,88,80,93,-18.25,13,16.0,121.0,-898.0,16:41:19.862233,192.168.0.115
711,7,-41,-2,82,"-6,2,167",0,-8,-1,0,0,0,66,69,87,80,93,-18.16,14,-58.0,142.0,-1001.0,16:41:19.964585,192.168.0.115
716,7,-41,-2,82,"-6,2,167",0,-7,-1,1,0,0,66,69,87,80,93,-18.43,14,14.0,120.0,-997.0,16:41:20.066297,192.168.0.115
721,7,-41,-2,82,"-6,2,167",0,-10,-1,1,0,0,66,69,87,80,93,-18.25,14,-70.0,100.0,-1007.0,16:41:20.167791,192.168.0.115
726,8,-33,13,96,"0,13,-175",-1,-9,-1,1,0,0,66,69,87,80,93,-18.55,14,-66.0,90.0,-930.0,16:41:20.270134,192.168.0.115
731,8,-33,13,96,"0,13,-175",-3,-8,-1,1,0,0,66,69,87,80,93,-18.49,14,-64.0,110.0,-969.0,16:41:20.372159,192.168.0.115
736,8,-33,13,96,"0,13,-175",-3,-8,-1,1,0,0,66,69,88,80,93,-18.57,14,-67.0,105.0,-973.0,16:41:20.474252,192.168.0.115
741,8,-38,22,89,"0,11,175",-3,-8,0,0,0,0,66,68,88,80,93,-18.48,14,-60.0,110.0,-958.0,16:41:20.576247,192.168.0.115
746,8,-38,22,89,"0,11,175",-2,-8,0,0,0,0,66,68,87,80,93,-18.51,14,15.0,125.0,-977.0,16:41:20.678379,192.168.0.115
751,8,-38,22,89,"0,11,175",-2,-8,0,0,0,0,66,68,87,80,93,-18.41,14,32.0,163.0,-1009.0,16:41:20.779864,192.168.0.115
756,8,-38,22,89,"0,11,175",0,-9,0,0,0,0,66,68,88,80,93,-18.49,14,25.0,126.0,-946.0,16:41:20.886640,192.168.0.115
761,8,-38,22,89,"0,11,175",0,-8,0,0,0,0,66,68,87,80,93,-18.37,15,-37.0,129.0,-994.0,16:41:20.984354,192.168.0.115
766,8,-38,22,89,"0,11,175",-1,-9,0,0,0,0,66,68,88,80,93,-18.32,15,51.0,140.0,-985.0,16:41:21.086322,192.168.0.115
771,8,-38,22,89,"0,11,175",0,-8,0,0,1,0,66,68,87,80,93,-18.32,15,-5.0,123.0,-1013.0,16:41:21.188347,192.168.0.115
776,8,-38,22,89,"0,11,175",0,-6,0,0,1,0,66,68,87,80,93,-18.37,15,57.0,136.0,-993.0,16:41:21.290236,192.168.0.115
781,8,-42,21,90,"0,10,176",2,-6,0,-1,1,0,66,68,87,80,93,-18.35,15,-1.0,124.0,-975.0,16:41:21.392260,192.168.0.115
786,8,-42,21,90,"0,10,176",2,-6,0,0,1,0,66,68,87,80,93,-18.34,15,54.0,89.0,-997.0,16:41:21.494594,192.168.0.115
791,8,-42,21,90,"0,10,176",1,-6,0,0,1,0,66,68,87,80,93,-18.36,15,-3.0,112.0,-994.0,16:41:21.596340,192.168.0.115
796,8,-42,21,90,"0,10,176",3,-6,0,0,0,0,66,68,87,80,93,-18.37,15,-5.0,160.0,-945.0,16:41:21.698246,192.168.0.115
801,8,-32,24,94,"2,10,-179",2,-7,0,0,0,0,66,68,86,80,93,-18.21,15,15.0,142.0,-1032.0,16:41:21.800233,192.168.0.115
806,8,-32,24,94,"2,10,-179",2,-8,0,0,0,0,66,68,86,80,93,-18.47,15,-2.0,151.0,-1001.0,16:41:21.902301,192.168.0.115
811,8,-32,24,94,"2,10,-179",2,-8,0,0,0,0,66,68,85,80,93,-18.45,16,24.0,137.0,-1028.0,16:41:22.004107,192.168.0.115
816,8,-32,24,94,"2,10,-179",0,-8,0,0,0,0,66,68,85,80,93,-18.37,16,28.0,89.0,-1073.0,16:41:22.106276,192.168.0.115
822,7,-35,0,84,"-3,2,169",1,-7,0,0,0,0,66,68,85,80,93,-18.61,16,-3.0,129.0,-986.0,16:41:22.208348,192.168.0.115
827,7,-35,0,84,"-3,2,169",2,-7,0,0,0,0,66,68,85,80,93,-18.4,16,8.0,122.0,-1006.0,16:41:22.310372,192.168.0.115
832,7,-35,0,84,"-3,2,169",0,-6,0,0,0,0,66,68,84,80,93,-18.49,16,37.0,151.0,-970.0,16:41:22.412199,192.168.0.115
837,7,-35,0,84,"-3,2,169",0,-5,0,0,0,0,66,68,84,80,93,-18.48,16,-35.0,144.0,-960.0,16:41:22.514123,192.168.0.115
842,7,-30,1,83,"-1,1,167",1,-8,-1,0,0,0,66,68,84,80,93,-18.57,16,-42.0,91.0,-977.0,16:41:22.616298,192.168.0.115
847,7,-30,1,83,"-1,1,167",0,-8,0,0,0,0,66,68,85,80,93,-18.58,16,30.0,101.0,-1001.0,16:41:22.718361,192.168.0.115
851,7,-30,1,83,"-1,1,167",0,-6,0,0,1,0,66,68,84,80,93,-18.62,16,-29.0,127.0,-981.0,16:41:22.769188,192.168.0.115
856,7,-31,0,82,"-2,2,170",1,-4,0,0,0,0,66,68,84,80,93,-18.44,16,0.0,117.0,-999.0,16:41:22.871455,192.168.0.115
861,7,-31,0,82,"-2,2,170",0,-6,0,0,0,0,66,68,84,80,93,-18.15,17,12.0,87.0,-912.0,16:41:22.973567,192.168.0.115
866,7,-31,0,82,"-2,2,170",0,-6,0,0,0,0,66,68,84,80,93,-18.44,17,-68.0,92.0,-1046.0,16:41:23.076773,192.168.0.115
871,7,-31,0,82,"-2,2,170",0,-4,0,0,1,0,66,68,83,70,93,-18.61,17,20.0,77.0,-1064.0,16:41:23.177205,192.168.0.115
876,7,-33,3,81,"-3,2,172",0,-5,0,0,1,0,66,68,82,70,93,-18.39,17,8.0,59.0,-1013.0,16:41:23.279120,192.168.0.115
881,7,-33,3,81,"-3,2,172",0,-4,-1,0,1,0,66,68,83,70,93,-18.47,17,-9.0,85.0,-957.0,16:41:23.381415,192.168.0.115
886,7,-33,3,81,"-3,2,172",0,-2,-1,0,1,0,66,68,83,70,93,-18.48,17,-11.0,99.0,-958.0,16:41:23.485342,192.168.0.115
891,7,-33,3,81,"-3,2,172",0,-3,0,0,0,0,66,68,83,70,93,-18.48,17,-3.0,85.0,-1027.0,16:41:23.585829,192.168.0.115
896,7,-33,5,80,"0,2,172",-1,-3,0,0,0,0,66,68,84,70,93,-18.49,17,19.0,88.0,-974.0,16:41:23.687332,192.168.0.115
901,7,-33,5,80,"0,2,172",0,-4,0,0,0,0,66,68,84,70,93,-18.39,17,-4.0,27.0,-956.0,16:41:23.789273,192.168.0.115
906,7,-33,5,80,"0,2,172",0,-3,0,0,0,0,66,68,84,70,93,-18.16,17,47.0,65.0,-956.0,16:41:23.891649,192.168.0.115
911,7,-31,10,82,"1,2,173",0,-3,0,0,0,0,66,68,84,80,93,-18.34,18,42.0,58.0,-1008.0,16:41:23.993283,192.168.0.115
916,7,-31,10,82,"1,2,173",2,-3,0,0,0,0,66,68,85,80,93,-17.99,18,16.0,103.0,-927.0,16:41:24.095176,192.168.0.115
921,7,-31,10,82,"1,2,173",2,-4,0,0,0,0,66,68,85,80,93,-18.05,18,44.0,24.0,-1043.0,16:41:24.197371,192.168.0.115
926,7,-31,10,82,"1,2,173",3,-4,0,0,0,0,66,68,84,80,93,-18.31,18,12.0,73.0,-1005.0,16:41:24.299366,192.168.0.115
931,7,-31,10,83,"0,1,173",3,-3,0,0,0,0,66,68,84,80,93,-18.53,18,38.0,81.0,-1065.0,16:41:24.401354,192.168.0.115
936,7,-31,10,83,"0,1,173",2,-3,0,0,0,0,66,68,84,80,93,-18.41,18,24.0,76.0,-1009.0,16:41:24.503300,192.168.0.115
941,7,-31,10,83,"0,1,173",1,-6,0,0,0,0,66,68,85,80,93,-18.78,18,53.0,55.0,-1072.0,16:41:24.608656,192.168.0.115
946,7,-31,10,83,"0,1,173",2,-4,0,0,0,0,66,68,85,80,93,-18.37,18,49.0,123.0,-982.0,16:41:24.708250,192.168.0.115
951,7,-27,9,83,"-2,1,175",3,-4,-1,0,0,0,66,68,85,80,93,-18.26,18,36.0,109.0,-946.0,16:41:24.810387,192.168.0.115
956,7,-27,9,83,"-2,1,175",3,-5,-1,0,0,0,66,68,86,80,93,-18.46,18,-50.0,80.0,-1004.0,16:41:24.912417,192.168.0.115
961,7,-27,9,83,"-2,1,175",3,-6,-1,0,0,0,66,68,86,80,93,-18.43,19,3.0,76.0,-1024.0,16:41:25.014708,192.168.0.115
966,7,-27,9,83,"-2,1,175",0,-5,0,1,0,0,66,68,86,80,93,-18.37,19,11.0,29.0,-1015.0,16:41:25.116246,192.168.0.115
971,7,-21,8,85,"0,3,175",0,-5,0,0,0,0,66,68,86,80,93,-18.21,19,7.0,29.0,-996.0,16:41:25.218331,192.168.0.115
977,7,-21,8,85,"0,3,175",0,-2,0,0,1,0,66,68,85,80,93,-18.42,19,40.0,61.0,-957.0,16:41:25.320419,192.168.0.115
982,7,-21,8,85,"0,3,175",1,-1,0,0,0,0,66,68,85,80,93,-18.59,19,54.0,104.0,-1054.0,16:41:25.422109,192.168.0.115
987,7,-25,9,84,"0,2,172",2,-1,0,0,0,0,66,68,85,80,93,-18.77,19,-7.0,155.0,-990.0,16:41:25.524660,192.168.0.115
992,7,-25,9,84,"0,2,172",3,-3,0,0,0,0,66,68,85,80,93,-18.44,19,42.0,123.0,-1006.0,16:41:25.626464,192.168.0.115
997,7,-25,9,84,"0,2,172",2,-6,0,0,-1,0,66,68,85,80,93,-18.6,19,12.0,79.0,-1021.0,16:41:25.728230,192.168.0.115
1002,7,-25,9,84,"0,2,172",2,-7,0,0,0,0,66,68,86,80,93,-18.39,19,62.0,55.0,-970.0,16:41:25.831100,192.168.0.115
1007,7,-24,9,84,"-1,2,177",2,-5,0,0,0,0,66,68,85,80,93,-18.39,19,34.0,119.0,-1012.0,16:41:25.932549,192.168.0.115
1012,7,-24,9,84,"-1,2,177",3,-4,-1,0,0,0,66,68,85,80,93,-18.41,20,-20.0,59.0,-1028.0,16:41:26.034421,192.168.0.115
1016,7,-24,9,84,"-1,2,177",3,-5,-1,0,0,0,66,68,85,80,93,-18.5,20,-18.0,43.0,-1025.0,16:41:26.085290,192.168.0.115
1021,7,-24,9,84,"-1,2,177",2,-4,-1,1,0,0,66,68,84,80,93,-18.33,20,14.0,59.0,-989.0,16:41:26.195951,192.168.0.115
1026,7,-21,9,84,"0,3,172",0,-4,0,1,0,0,66,68,84,80,93,-18.23,20,6.0,91.0,-985.0,16:41:26.289255,192.168.0.115
1031,7,-21,9,84,"0,3,172",0,-3,0,0,0,0,66,68,84,80,93,-18.32,20,36.0,36.0,-981.0,16:41:26.391377,192.168.0.115
1036,7,-21,9,84,"0,3,172",1,-3,0,0,0,0,66,68,83,70,93,-18.23,20,16.0,55.0,-996.0,16:41:26.493497,192.168.0.115
1041,7,-23,10,82,"0,2,172",2,-1,0,0,0,0,66,68,82,70,93,-18.44,20,-3.0,109.0,-1039.0,16:41:26.599707,192.168.0.115
1046,7,-23,10,82,"0,2,172",1,-3,0,1,0,0,66,68,83,70,93,-18.51,20,47.0,55.0,-1034.0,16:41:26.697247,192.168.0.115
1051,7,-23,10,82,"0,2,172",0,-4,0,0,0,0,66,68,83,70,93,-18.55,20,52.0,88.0,-974.0,16:41:26.799260,192.168.0.115
1056,7,-23,10,82,"0,2,172",1,-3,-1,0,0,0,66,68,83,70,93,-18.35,20,27.0,132.0,-984.0,16:41:26.901341,192.168.0.115
1061,7,-21,8,83,"0,3,178",1,-5,0,0,0,0,66,68,83,70,93,-18.44,21,43.0,112.0,-1002.0,16:41:27.004288,192.168.0.115
1066,7,-21,8,83,"0,3,178",1,-5,0,0,-1,0,66,68,84,70,93,-18.31,21,55.0,102.0,-956.0,16:41:27.105290,192.168.0.115
1071,7,-21,8,83,"0,3,178",1,-7,0,0,-1,0,66,68,84,70,93,-18.19,21,-80.0,73.0,-1012.0,16:41:27.207331,192.168.0.115
1076,7,-21,8,83,"0,3,178",1,-6,-1,0,0,0,66,68,83,70,93,-18.25,21,-23.0,177.0,-1005.0,16:41:27.309233,192.168.0.115
1081,7,-25,8,82,"-1,2,173",0,-6,-1,1,-1,0,66,68,85,70,93,-18.45,21,-27.0,106.0,-1008.0,16:41:27.411397,192.168.0.115
1086,7,-25,8,82,"-1,2,173",0,-10,-1,1,0,0,66,68,84,80,93,-18.62,21,-40.0,106.0,-1033.0,16:41:27.513347,192.168.0.115
1091,7,-25,8,82,"-1,2,173",0,-5,-2,1,0,0,66,68,84,80,93,-18.51,21,-30.0,118.0,-946.0,16:41:27.615356,192.168.0.115
1096,7,-29,3,81,"-1,3,171",-1,-6,-2,1,0,0,66,68,85,80,93,-18.54,21,-51.0,-1.0,-944.0,16:41:27.717390,192.168.0.115
1101,7,-29,3,81,"-1,3,171",0,-6,-1,0,0,0,66,68,85,80,93,-18.36,21,7.0,73.0,-923.0,16:41:27.819317,192.168.0.115
1106,7,-29,3,81,"-1,3,171",0,-5,0,0,0,0,66,68,84,80,93,-18.42,21,9.0,99.0,-1010.0,16:41:27.920874,192.168.0.115
1111,7,-29,3,81,"-1,3,171",0,-4,0,0,0,0,66,68,83,80,93,-18.49,22,-28.0,104.0,-1053.0,16:41:28.022934,192.168.0.115
1116,7,-30,5,83,"1,2,168",0,-6,0,0,0,0,66,68,83,80,93,-18.5,22,19.0,92.0,-982.0,16:41:28.126182,192.168.0.115
1121,7,-30,5,83,"1,2,168",0,-5,0,0,0,0,66,68,83,70,93,-18.34,22,9.0,116.0,-1045.0,16:41:28.227413,192.168.0.115
1126,7,-30,5,83,"1,2,168",0,-4,0,0,0,0,66,68,82,70,93,-18.52,22,-41.0,135.0,-1025.0,16:41:28.329311,192.168.0.115
1131,7,-30,5,83,"1,2,168",1,-5,0,0,0,0,66,68,82,70,93,-18.3,22,-43.0,138.0,-1008.0,16:41:28.442583,192.168.0.115
1136,7,-32,6,80,"0,0,169",1,-7,0,0,0,0,66,68,82,70,93,-18.49,22,43.0,87.0,-960.0,16:41:28.533557,192.168.0.115
1141,7,-32,6,80,"0,0,169",0,-6,0,0,0,0,66,67,82,70,93,-18.44,22,-26.0,134.0,-1026.0,16:41:28.635349,192.168.0.115
1146,7,-32,6,80,"0,0,169",0,-6,0,0,0,0,66,67,82,70,93,-18.3,22,23.0,98.0,-1067.0,16:41:28.737338,192.168.0.115
1151,7,-32,6,80,"0,0,169",1,-8,-1,0,0,0,66,67,82,70,93,-18.45,22,-14.0,60.0,-983.0,16:41:28.839336,192.168.0.115
1157,7,-35,1,78,"-4,2,170",1,-7,-1,0,0,0,66,67,81,70,93,-18.6,22,12.0,92.0,-1033.0,16:41:28.941646,192.168.0.115
1162,7,-35,1,78,"-4,2,170",0,-4,0,0,0,0,66,67,81,70,93,-18.35,23,15.0,89.0,-957.0,16:41:29.043990,192.168.0.115
1167,7,-35,1,78,"-4,2,170",0,-4,0,0,0,0,66,67,81,70,93,-18.37,23,18.0,51.0,-1028.0,16:41:29.146536,192.168.0.115
1172,7,-35,1,78,"-4,2,170",0,-4,0,0,0,0,66,67,81,70,93,-18.51,23,32.0,34.0,-989.0,16:41:29.248998,192.168.0.115
1177,7,-34,1,77,"-5,2,168",1,-4,0,0,0,0,66,67,81,70,93,-18.28,23,-1.0,75.0,-1011.0,16:41:29.351390,192.168.0.115
1181,7,-34,1,77,"-5,2,168",2,-2,0,0,0,0,66,67,81,70,93,-18.59,23,49.0,42.0,-963.0,16:41:29.401351,192.168.0.115
1186,7,-34,1,77,"-5,2,168",1,-3,0,0,0,0,66,67,82,70,93,-18.6,23,33.0,58.0,-1008.0,16:41:29.502571,192.168.0.115
1191,7,-29,3,79,"-2,1,173",3,-4,0,0,0,0,66,68,82,70,93,-18.45,23,-16.0,104.0,-1012.0,16:41:29.604336,192.168.0.115
1196,7,-29,3,79,"-2,1,173",2,-3,-1,0,0,0,66,68,81,70,93,-18.37,23,30.0,67.0,-977.0,16:41:29.706654,192.168.0.115
1201,7,-29,3,79,"-2,1,173",2,-3,0,0,0,0,66,68,81,70,93,-18.57,23,22.0,123.0,-1037.0,16:41:29.808412,192.168.0.115
1206,7,-29,3,79,"-2,1,173",1,-5,0,0,0,0,66,68,82,70,93,-18.41,23,25.0,108.0,-945.0,16:41:29.910461,192.168.0.115
1211,7,-23,5,81,"-2,3,174",1,-6,0,0,0,0,66,68,82,70,93,-18.3,24,-22.0,164.0,-1000.0,16:41:30.012082,192.168.0.115
1216,7,-23,5,81,"-2,3,174",2,-8,0,0,0,0,66,68,82,70,93,-18.65,24,-29.0,99.0,-962.0,16:41:30.114535,192.168.0.115
1221,7,-23,5,81,"-2,3,174",1,-7,0,0,0,0,66,68,83,70,93,-18.45,24,24.0,100.0,-983.0,16:41:30.216363,192.168.0.115
1226,7,-23,5,81,"-2,3,174",0,-6,0,0,0,0,66,68,83,70,93,-18.31,24,12.0,104.0,-950.0,16:41:30.319780,192.168.0.115
1231,7,-28,4,80,"-3,2,169",0,-8,0,0,0,0,66,68,83,70,93,-18.26,24,23.0,113.0,-933.0,16:41:30.420851,192.168.0.115
1236,7,-28,4,80,"-3,2,169",0,-7,0,0,0,0,66,68,83,70,93,-18.46,24,47.0,144.0,-1025.0,16:41:30.522370,192.168.0.115
1241,7,-28,4,80,"-3,2,169",1,-8,0,0,0,0,66,69,83,70,93,-18.43,24,8.0,103.0,-988.0,16:41:30.624437,192.168.0.115
1246,7,-28,4,80,"-3,2,169",2,-9,0,0,0,0,66,69,82,70,93,-18.39,24,-8.0,140.0,-1040.0,16:41:30.726522,192.168.0.115
1251,7,-34,-3,78,"-5,2,172",1,-7,-1,0,0,0,66,69,82,70,93,-18.33,24,-61.0,174.0,-927.0,16:41:30.828508,192.168.0.115
1256,7,-34,-3,78,"-5,2,172",0,-7,-1,0,0,0,66,69,82,70,93,-18.5,24,-4.0,148.0,-1008.0,16:41:30.930561,192.168.0.115
1261,7,-34,-3,78,"-5,2,172",0,-8,-1,1,0,0,66,69,82,70,93,-18.35,25,-11.0,156.0,-1074.0,16:41:31.032410,192.168.0.115
1266,7,-34,-3,78,"-5,2,172",0,-8,0,0,0,0,66,69,81,70,93,-18.38,25,14.0,159.0,-950.0,16:41:31.134541,192.168.0.115
1271,7,-31,-2,80,"-3,2,169",0,-6,0,0,0,0,66,69,81,70,93,-18.31,25,38.0,139.0,-1019.0,16:41:31.238597,192.168.0.115
1276,7,-31,-2,80,"-3,2,169",0,-9,0,0,0,0,66,69,82,70,93,-18.55,25,-3.0,72.0,-959.0,16:41:31.338194,192.168.0.115
1281,7,-31,-2,80,"-3,2,169",0,-9,0,0,0,0,66,69,81,70,93,-18.54,25,1.0,114.0,-918.0,16:41:31.441145,192.168.0.115
1286,7,-34,-3,78,"-2,1,171",0,-7,0,0,0,0,66,69,81,70,93,-18.46,25,-6.0,96.0,-999.0,16:41:31.542722,192.168.0.115
1291,7,-34,-3,78,"-2,1,171",1,-6,0,0,0,0,65,69,82,70,93,-18.42,25,44.0,88.0,-1013.0,16:41:31.644489,192.168.0.115
1296,7,-34,-3,78,"-2,1,171",0,-6,0,0,0,0,65,69,82,70,93,-18.24,25,56.0,93.0,-1070.0,16:41:31.746486,192.168.0.115
1301,7,-34,-3,78,"-2,1,171",0,-4,0,0,0,0,65,69,82,70,93,-18.62,25,40.0,173.0,-1053.0,16:41:31.852913,192.168.0.115
1306,7,-31,1,81,"-1,0,167",3,-7,0,0,0,0,65,69,82,70,93,-18.64,26,-16.0,143.0,-945.0,16:41:31.951507,192.168.0.115
1311,7,-31,1,81,"-1,0,167",2,-8,-1,0,0,0,65,69,83,80,93,-18.56,26,23.0,128.0,-1022.0,16:41:32.052457,192.168.0.115
1316,7,-31,1,81,"-1,0,167",1,-8,-1,0,0,0,65,69,83,70,93,-18.65,26,-58.0,115.0,-1007.0,16:41:32.154286,192.168.0.115
1321,7,-31,1,81,"-1,0,167",0,-8,-1,0,0,0,65,69,84,80,93,-18.42,26,7.0,76.0,-961.0,16:41:32.256576,192.168.0.115
1326,7,-34,-2,79,"-4,1,172",0,-4,0,0,0,0,65,69,84,80,93,-18.6,26,36.0,160.0,-1008.0,16:41:32.358276,192.168.0.115
1332,7,-34,-2,79,"-4,1,172",0,-5,0,0,0,0,65,69,83,80,93,-18.41,26,-7.0,146.0,-900.0,16:41:32.460303,192.168.0.115
1337,7,-34,-2,79,"-4,1,172",2,-6,-1,0,0,0,65,69,82,70,93,-18.71,26,16.0,108.0,-1035.0,16:41:32.563240,192.168.0.115
1342,7,-34,-2,79,"-4,1,172",1,-7,-1,0,0,0,66,68,82,70,93,-18.45,26,-49.0,62.0,-1007.0,16:41:32.664770,192.168.0.115
1347,7,-31,-3,81,"-3,3,172",0,-6,0,1,0,0,66,68,83,70,93,-18.56,26,-45.0,128.0,-978.0,16:41:32.766505,192.168.0.115
1352,7,-31,-3,81,"-3,3,172",0,-5,0,1,0,0,66,68,82,70,93,-18.39,26,19.0,126.0,-1009.0,16:41:32.868534,192.168.0.115
1356,7,-31,-3,81,"-3,3,172",-1,-4,0,0,0,0,66,68,83,70,93,-18.64,27,30.0,76.0,-982.0,16:41:32.919415,192.168.0.115
1361,7,-30,1,80,"-3,3,169",1,-6,0,0,0,0,66,68,83,70,93,-18.5,27,45.0,34.0,-991.0,16:41:33.021346,192.168.0.115
1366,7,-30,1,80,"-3,3,169",1,-3,0,0,1,0,66,68,82,70,93,-18.66,27,-2.0,129.0,-1001.0,16:41:33.123372,192.168.0.115
1371,7,-30,1,80,"-3,3,169",2,-4,0,0,1,0,66,68,82,70,93,-18.54,27,-2.0,73.0,-1026.0,16:41:33.225399,192.168.0.115
1376,7,-30,1,80,"-3,3,169",2,-2,0,0,1,0,66,68,83,70,93,-18.69,27,35.0,97.0,-1096.0,16:41:33.327561,192.168.0.115
1381,7,-30,4,80,"-1,0,171",3,-3,4,0,0,0,66,68,83,70,93,-18.49,27,20.0,87.0,-1004.0,16:41:33.429388,192.168.0.115
1386,7,-30,4,80,"-1,0,171",3,-2,6,0,0,0,66,68,84,80,93,-18.68,27,-23.0,92.0,-1009.0,16:41:33.531233,192.168.0.115
1391,7,-30,4,80,"-1,0,171",2,-1,5,0,0,0,65,68,84,80,93,-18.72,27,-9.0,102.0,-947.0,16:41:33.633655,192.168.0.115
1396,7,-30,4,80,"-1,0,171",2,-2,2,0,0,0,65,68,84,80,93,-18.65,27,65.0,37.0,-971.0,16:41:33.735392,192.168.0.115
1401,7,-25,8,81,"-1,0,174",2,-3,-1,0,0,0,65,68,84,80,93,-18.52,27,-21.0,39.0,-928.0,16:41:33.837441,192.168.0.115
1406,7,-25,8,81,"-1,0,174",2,-2,-1,0,0,0,65,68,84,80,93,-18.55,28,-42.0,68.0,-1049.0,16:41:33.939399,192.168.0.115
1411,7,-25,8,81,"-1,0,174",0,-1,-1,1,0,0,65,68,83,70,93,-18.59,28,34.0,68.0,-1026.0,16:41:34.041428,192.168.0.115
1416,7,-23,8,83,"-1,0,176",0,-2,-1,0,0,0,65,68,82,70,93,-18.5,28,28.0,87.0,-996.0,16:41:34.143579,192.168.0.115
1421,7,-23,8,83,"-1,0,176",1,-4,-1,0,0,0,65,68,82,70,93,-18.44,28,1.0,69.0,-1033.0,16:41:34.245403,192.168.0.115
1426,7,-23,8,83,"-1,0,176",1,-4,-1,0,0,0,65,68,82,70,93,-18.47,28,33.0,123.0,-958.0,16:41:34.347462,192.168.0.115
1431,7,-23,8,83,"-1,0,176",0,-4,-1,0,0,0,65,68,82,70,93,-18.47,28,33.0,47.0,-1005.0,16:41:34.449417,192.168.0.115
1436,7,-26,9,80,"0,3,176",1,-5,-1,0,0,0,65,68,82,70,93,-18.46,28,22.0,20.0,-1001.0,16:41:34.551618,192.168.0.115
1441,7,-26,9,80,"0,3,176",1,-3,-1,0,0,0,65,68,82,70,93,-18.57,28,-43.0,55.0,-984.0,16:41:34.654267,192.168.0.115
1446,7,-26,9,80,"0,3,176",0,-1,0,0,0,0,65,68,81,70,93,-18.24,28,26.0,88.0,-1007.0,16:41:34.755426,192.168.0.115
1451,7,-26,9,80,"0,3,176",0,-3,0,0,0,0,65,68,82,70,93,-18.6,28,59.0,92.0,-1000.0,16:41:34.857931,192.168.0.115
1456,7,-26,7,80,"0,4,174",2,-2,0,0,0,0,65,68,83,70,93,-18.44,29,41.0,142.0,-1003.0,16:41:34.959378,192.168.0.115
1461,7,-26,7,80,"0,4,174",3,-5,0,0,-1,0,65,68,84,80,93,-18.51,29,48.0,161.0,-976.0,16:41:35.061333,192.168.0.115
1466,7,-26,7,80,"0,4,174",5,-7,0,-1,-1,0,65,68,84,80,93,-18.65,29,75.0,77.0,-927.0,16:41:35.163465,192.168.0.115
1471,7,-26,7,80,"0,4,174",5,-9,-2,0,0,0,65,68,85,80,93,-18.41,29,-35.0,77.0,-954.0,16:41:35.265266,192.168.0.115
1476,7,-28,9,81,"0,1,175",4,-6,-6,1,0,0,65,68,84,80,93,-18.33,29,-103.0,67.0,-1049.0,16:41:35.369237,192.168.0.115
1481,7,-28,9,81,"0,1,175",-1,-4,-11,2,0,0,65,68,83,70,93,-18.33,29,-58.0,70.0,-1027.0,16:41:35.469358,192.168.0.115
1486,7,-28,9,81,"0,1,175",-4,-3,-18,2,0,0,65,68,83,70,93,-18.69,29,-76.0,62.0,-1036.0,16:41:35.571574,192.168.0.115
1492,7,-21,9,83,"-3,4,166",-5,-1,-23,1,0,0,66,67,83,70,93,-18.72,29,-72.0,122.0,-1036.0,16:41:35.673230,192.168.0.115
1496,7,-21,9,83,"-3,4,166",-4,-5,-24,0,0,0,66,67,83,70,93,-18.66,29,-9.0,99.0,-1008.0,16:41:35.775261,192.168.0.115
1502,7,-21,9,83,"-3,4,166",-2,-6,-17,0,0,0,66,67,83,70,93,-18.38,29,-73.0,121.0,-1060.0,16:41:35.877457,192.168.0.115
1507,7,-21,9,83,"-3,4,166",-1,-8,-7,0,0,0,66,67,83,70,93,-18.71,30,-29.0,79.0,-916.0,16:41:35.979387,192.168.0.115
1512,7,-32,8,79,"5,23,172",-1,-7,0,1,0,0,66,67,83,70,93,-18.61,30,-10.0,73.0,-1011.0,16:41:36.081409,192.168.0.115
1517,7,-32,8,79,"5,23,172",-2,-5,0,0,0,0,66,67,83,70,93,-18.41,30,27.0,130.0,-1001.0,16:41:36.183452,192.168.0.115
1522,7,-32,8,79,"5,23,172",-2,-5,0,0,0,0,66,67,82,70,93,-18.22,30,68.0,77.0,-915.0,16:41:36.285378,192.168.0.115
1527,7,-32,8,79,"5,23,172",1,-4,0,0,0,0,66,67,82,70,93,-18.42,30,42.0,79.0,-1032.0,16:41:36.387260,192.168.0.115
1531,7,-35,7,80,"0,3,166",2,-3,0,0,0,0,66,67,81,70,93,-18.39,30,20.0,106.0,-1050.0,16:41:36.438548,192.168.0.115
1536,7,-35,7,80,"0,3,166",2,-6,0,0,0,0,66,67,83,70,93,-18.45,30,-9.0,130.0,-963.0,16:41:36.540521,192.168.0.115
1541,7,-35,7,80,"0,3,166",2,-6,0,0,0,0,66,68,82,70,93,-18.48,30,14.0,115.0,-975.0,16:41:36.642598,192.168.0.115
1546,7,-35,4,79,"-2,0,172",2,-6,0,0,0,0,66,68,82,70,93,-18.59,30,17.0,127.0,-1002.0,16:41:36.744477,192.168.0.115
1551,7,-35,4,79,"-2,0,172",2,-8,0,0,0,0,66,68,83,70,93,-18.61,30,15.0,119.0,-1042.0,16:41:36.846468,192.168.0.115
1556,7,-35,4,79,"-2,0,172",2,-7,0,0,0,0,66,68,83,70,93,-18.22,31,36.0,93.0,-1012.0,16:41:36.952765,192.168.0.115
1561,7,-35,4,79,"-2,0,172",3,-6,0,0,0,0,66,68,83,70,93,-18.45,31,31.0,89.0,-1012.0,16:41:37.050537,192.168.0.115
1566,7,-30,5,79,"-3,1,169",3,-5,0,0,0,0,66,68,84,80,93,-18.48,31,15.0,94.0,-932.0,16:41:37.152548,192.168.0.115
1571,7,-30,5,79,"-3,1,169",3,-7,0,0,0,0,66,68,84,80,93,-18.49,31,6.0,93.0,-963.0,16:41:37.254534,192.168.0.115
1576,7,-30,5,79,"-3,1,169",2,-8,-1,0,0,0,66,68,84,80,93,-18.6,31,-43.0,57.0,-1006.0,16:41:37.357490,192.168.0.115
1581,7,-30,5,79,"-3,1,169",1,-6,0,0,0,0,66,68,84,80,93,-18.48,31,22.0,50.0,-976.0,16:41:37.458845,192.168.0.115
1586,7,-26,2,81,"-3,0,172",1,-4,0,0,0,0,66,68,83,80,93,-18.51,31,-18.0,85.0,-1002.0,16:41:37.560476,192.168.0.115
1591,7,-26,2,81,"-3,0,172",1,-2,-1,0,0,0,66,68,83,80,93,-18.67,31,18.0,117.0,-1047.0,16:41:37.662511,192.168.0.115
1596,7,-26,2,81,"-3,0,172",1,-5,-1,0,0,0,66,68,84,80,93,-18.78,31,1.0,113.0,-973.0,16:41:37.764530,192.168.0.115
1601,7,-26,0,81,"-3,2,172",1,-7,0,0,0,0,66,68,83,80,93,-18.57,31,-50.0,109.0,-996.0,16:41:37.866460,192.168.0.115
1606,7,-26,0,81,"-3,2,172",0,-8,0,1,0,0,66,68,84,70,93,-18.75,32,6.0,65.0,-1059.0,16:41:37.972577,192.168.0.115
1611,7,-26,0,81,"-3,2,172",0,-6,0,1,0,0,66,68,83,70,93,-18.53,32,0.0,110.0,-941.0,16:41:38.070140,192.168.0.115
1616,7,-26,0,81,"-3,2,172",0,-4,0,0,0,0,66,68,83,70,93,-18.56,32,6.0,165.0,-982.0,16:41:38.172172,192.168.0.115
1621,7,-28,3,81,"-3,2,168",0,-4,0,0,0,0,66,68,82,70,93,-18.27,32,-55.0,147.0,-983.0,16:41:38.274617,192.168.0.115
1626,7,-28,3,81,"-3,2,168",0,-6,0,0,0,0,66,68,83,70,93,-18.49,32,-7.0,151.0,-946.0,16:41:38.376545,192.168.0.115
1631,7,-28,3,81,"-3,2,168",0,-8,0,0,0,0,66,68,83,70,93,-18.49,32,50.0,138.0,-974.0,16:41:38.478987,192.168.0.115
1636,7,-28,3,81,"-3,2,168",0,-8,0,0,0,0,66,68,84,70,93,-18.39,32,13.0,107.0,-1043.0,16:41:38.580506,192.168.0.115
1641,7,-30,1,80,"-2,2,172",0,-7,0,0,0,0,66,68,83,70,93,-18.38,32,-6.0,157.0,-970.0,16:41:38.682587,192.168.0.115
1646,7,-30,1,80,"-2,2,172",0,-7,-1,0,-1,0,66,68,83,70,93,-18.69,32,-56.0,159.0,-1011.0,16:41:38.784561,192.168.0.115
1651,7,-30,1,80,"-2,2,172",0,-10,0,1,-1,0,66,68,85,70,93,-18.72,32,-33.0,127.0,-982.0,16:41:38.895572,192.168.0.115
1656,7,-30,1,80,"-2,2,172",-1,-9,0,0,0,0,66,68,85,70,93,-18.68,33,11.0,163.0,-1050.0,16:41:38.988406,192.168.0.115
1661,7,-32,1,81,"-1,1,166",0,-9,0,0,0,0,66,68,84,70,93,-18.59,33,45.0,114.0,-992.0,16:41:39.090323,192.168.0.115
1667,7,-32,1,81,"-1,1,166",0,-9,0,0,0,0,66,68,84,70,93,-18.36,33,22.0,116.0,-960.0,16:41:39.192625,192.168.0.115
1672,7,-32,1,81,"-1,1,166",0,-9,0,0,0,0,66,68,83,80,93,-18.43,33,53.0,133.0,-1037.0,16:41:39.294607,192.168.0.115
1677,7,-32,1,81,"-1,1,166",2,-7,0,0,0,0,66,68,83,80,93,-18.54,33,-11.0,136.0,-1001.0,16:41:39.396570,192.168.0.115
1681,7,-37,0,80,"-2,0,165",1,-8,0,0,0,0,66,68,83,70,93,-18.5,33,9.0,120.0,-924.0,16:41:39.447518,192.168.0.115
1686,7,-37,0,80,"-2,0,165",0,-8,-1,0,0,0,66,68,83,70,93,-18.52,33,-1.0,143.0,-962.0,16:41:39.549482,192.168.0.115
1691,7,-37,0,80,"-2,0,165",0,-7,0,0,0,0,65,67,83,70,93,-18.58,33,-24.0,113.0,-1007.0,16:41:39.651485,192.168.0.115
1696,7,-37,0,80,"-2,0,165",0,-9,0,0,0,0,65,67,82,70,93,-18.66,33,-23.0,125.0,-1068.0,16:41:39.753611,192.168.0.115
1701,7,-31,0,83,"-1,0,164",0,-6,0,0,0,0,65,67,81,70,93,-18.53,33,38.0,142.0,-1025.0,16:41:39.855542,192.168.0.115
1706,7,-31,0,83,"-1,0,164",-1,-6,0,0,0,0,65,67,81,70,93,-18.39,34,41.0,131.0,-946.0,16:41:39.957499,192.168.0.115
1711,7,-31,0,83,"-1,0,164",1,-6,0,0,0,0,65,67,81,70,93,-18.22,34,14.0,124.0,-1038.0,16:41:40.059439,192.168.0.115
1716,7,-31,0,83,"-1,0,164",0,-6,0,0,0,0,65,67,82,70,93,-18.6,34,62.0,144.0,-1053.0,16:41:40.161507,192.168.0.115
1721,7,-31,-5,82,"1,1,170",1,-8,0,0,0,0,65,67,82,70,93,-18.31,34,29.0,114.0,-945.0,16:41:40.263483,192.168.0.115
1726,7,-31,-5,82,"1,1,170",4,-6,0,0,0,0,65,67,82,70,93,-18.59,34,-40.0,129.0,-986.0,16:41:40.365538,192.168.0.115
1731,7,-31,-5,82,"1,1,170",0,-6,0,0,0,0,65,67,83,70,93,-18.41,34,9.0,101.0,-934.0,16:41:40.470698,192.168.0.115
1736,7,-31,-5,82,"1,1,170",0,-8,0,0,0,0,65,67,82,70,93,-18.45,34,-1.0,76.0,-1011.0,16:41:40.569436,192.168.0.115
1741,7,-35,-2,79,"-3,0,168",0,-5,0,0,0,0,65,67,82,70,93,-18.53,34,33.0,129.0,-1018.0,16:41:40.673487,192.168.0.115
1746,7,-35,-2,79,"-3,0,168",1,-5,0,0,0,0,65,67,83,70,93,-18.6,34,58.0,94.0,-983.0,16:41:40.773242,192.168.0.115
1751,7,-35,-2,79,"-3,0,168",3,-6,0,0,0,0,65,67,83,70,93,-18.7,34,52.0,87.0,-978.0,16:41:40.875801,192.168.0.115
1756,7,-35,-2,79,"-3,0,168",3,-5,0,0,0,0,65,67,83,80,93,-18.53,35,-16.0,133.0,-963.0,16:41:40.977563,192.168.0.115
1761,7,-33,-2,81,"-2,0,172",3,-6,0,0,0,0,65,67,83,80,93,-18.52,35,40.0,154.0,-1010.0,16:41:41.079608,192.168.0.115
1766,7,-33,-2,81,"-2,0,172",1,-6,0,0,0,0,65,67,82,70,93,-18.34,35,99.0,82.0,-928.0,16:41:41.181665,192.168.0.115
1771,7,-33,-2,81,"-2,0,172",3,-5,0,0,0,0,65,67,82,70,93,-18.49,35,13.0,135.0,-1012.0,16:41:41.283493,192.168.0.115
1776,7,-33,-2,81,"-2,0,172",2,-6,0,0,0,0,65,67,82,70,93,-18.6,35,39.0,92.0,-1020.0,16:41:41.385460,192.168.0.115
1781,7,-33,1,79,"-7,1,170",2,-6,0,0,0,0,65,67,82,70,93,-18.72,35,55.0,83.0,-1022.0,16:41:41.488687,192.168.0.115
1786,7,-33,1,79,"-7,1,170",3,-5,0,0,0,0,65,67,81,70,93,-18.67,35,4.0,148.0,-949.0,16:41:41.589450,192.168.0.115
1791,7,-33,1,79,"-7,1,170",1,-6,0,0,0,0,65,68,82,70,93,-18.62,35,3.0,142.0,-988.0,16:41:41.691517,192.168.0.115
1796,7,-33,1,79,"-7,1,170",1,-7,0,0,0,0,65,68,82,70,93,-18.53,35,4.0,124.0,-971.0,16:41:41.793568,192.168.0.115
1801,7,-27,0,80,"-4,2,171",0,-5,0,0,0,0,65,68,82,70,93,-18.73,35,-21.0,95.0,-1005.0,16:41:41.895702,192.168.0.115
1806,7,-27,0,80,"-4,2,171",0,-5,-1,0,0,0,65,68,82,70,93,-18.64,36,55.0,74.0,-968.0,16:41:41.997843,192.168.0.115
1811,7,-27,0,80,"-4,2,171",3,-4,-1,0,0,0,65,68,83,70,93,-18.91,36,36.0,109.0,-1024.0,16:41:42.099438,192.168.0.115
1816,7,-27,0,80,"-4,2,171",1,-8,-1,0,0,0,65,68,84,70,93,-18.54,36,-18.0,145.0,-973.0,16:41:42.201500,192.168.0.115
1821,7,-30,0,79,"-3,2,171",-1,-7,0,0,0,0,65,68,83,70,93,-18.49,36,-29.0,86.0,-1006.0,16:41:42.303624,192.168.0.115
1826,7,-30,0,79,"-3,2,171",0,-5,0,0,0,0,65,68,83,70,93,-18.7,36,22.0,73.0,-957.0,16:41:42.405236,192.168.0.115
1831,7,-30,0,79,"-3,2,171",1,-3,0,0,0,0,65,68,83,70,93,-18.4,36,5.0,103.0,-1041.0,16:41:42.507549,192.168.0.115
1837,7,-30,0,79,"-3,2,171",0,-6,0,0,0,0,65,68,82,70,93,-18.61,36,29.0,76.0,-1005.0,16:41:42.609345,192.168.0.115
1842,7,-33,1,79,"-4,2,169",1,-7,0,0,0,0,66,68,83,70,93,-18.51,36,-19.0,121.0,-1010.0,16:41:42.711573,192.168.0.115
1848,7,-33,1,79,"-4,2,169",0,-6,0,0,0,0,66,68,82,70,93,-18.66,36,38.0,121.0,-1005.0,16:41:42.813622,192.168.0.115
1852,7,-33,1,79,"-4,2,169",1,-4,0,0,0,0,66,68,82,70,93,-18.6,36,4.0,124.0,-1041.0,16:41:42.915608,192.168.0.115
1857,7,-34,3,79,"-4,1,170",2,-4,0,0,0,0,66,68,81,70,93,-18.69,37,43.0,119.0,-954.0,16:41:43.017436,192.168.0.115
1861,7,-34,3,79,"-4,1,170",2,-5,-1,0,0,0,66,68,82,70,93,-18.59,37,-31.0,173.0,-993.0,16:41:43.068555,192.168.0.115
1866,7,-34,3,79,"-4,1,170",1,-8,-1,0,0,0,66,68,82,70,93,-18.65,37,-30.0,81.0,-1047.0,16:41:43.170648,192.168.0.115
1871,7,-34,3,79,"-4,1,170",1,-7,-1,0,0,0,66,68,83,70,93,-18.66,37,6.0,72.0,-939.0,16:41:43.272595,192.168.0.115
1876,7,-31,2,80,"-4,1,174",-1,-6,-1,0,0,0,66,68,83,70,93,-18.56,37,35.0,117.0,-948.0,16:41:43.374647,192.168.0.115
1881,7,-31,2,80,"-4,1,174",0,-6,0,0,0,0,66,68,82,70,93,-18.52,37,23.0,95.0,-1006.0,16:41:43.477416,192.168.0.115
1886,7,-31,2,80,"-4,1,174",0,-5,0,0,0,0,66,68,82,70,93,-18.69,37,31.0,123.0,-979.0,16:41:43.578616,192.168.0.115
1891,7,-31,2,80,"-4,1,174",1,-5,-1,0,0,0,65,67,83,70,93,-18.68,37,-11.0,109.0,-971.0,16:41:43.680624,192.168.0.115
1896,7,-31,5,81,"0,1,169",0,-6,-1,0,0,0,65,67,83,70,93,-18.56,37,-71.0,106.0,-1017.0,16:41:43.782718,192.168.0.115
1901,7,-31,5,81,"0,1,169",0,-7,-2,1,0,0,65,67,83,70,93,-18.86,37,-9.0,67.0,-1034.0,16:41:43.884622,192.168.0.115
1906,7,-31,5,81,"0,1,169",-1,-7,-1,1,0,0,65,67,84,70,93,-18.81,38,16.0,87.0,-998.0,16:41:43.986680,192.168.0.115
1911,7,-34,3,80,"-4,2,170",-3,-6,0,1,0,0,65,67,83,80,93,-18.76,38,-52.0,124.0,-950.0,16:41:44.088322,192.168.0.115
1916,7,-34,3,80,"-4,2,170",-2,-4,0,0,0,0,65,67,84,70,93,-18.56,38,-18.0,153.0,-949.0,16:41:44.191126,192.168.0.115
1921,7,-34,3,80,"-4,2,170",-1,-4,0,0,0,0,65,67,83,70,93,-18.33,38,39.0,137.0,-967.0,16:41:44.292752,192.168.0.115
1926,7,-34,3,80,"-4,2,170",-1,-7,0,0,0,0,65,67,84,70,93,-18.57,38,1.0,175.0,-1022.0,16:41:44.394656,192.168.0.115
1931,7,-39,1,80,"0,1,171",0,-7,0,0,0,0,65,67,85,80,93,-18.67,38,-5.0,146.0,-955.0,16:41:44.496734,192.168.0.115
1936,7,-39,1,80,"0,1,171",1,-8,0,0,0,0,65,67,86,80,93,-18.33,38,-55.0,94.0,-1089.0,16:41:44.598584,192.168.0.115
1941,7,-39,1,80,"0,1,171",1,-9,0,0,0,0,65,68,86,80,93,-18.34,38,40.0,179.0,-1031.0,16:41:44.700759,192.168.0.115
1946,7,-39,1,80,"0,1,171",-2,-6,0,0,0,0,65,68,86,80,93,-18.54,38,33.0,119.0,-1033.0,16:41:44.804023,192.168.0.115
1951,7,-38,3,83,"0,0,168",1,-8,0,-1,0,0,65,68,87,80,93,-18.44,38,-64.0,77.0,-964.0,16:41:44.904588,192.168.0.115
1956,7,-38,3,83,"0,0,168",2,-9,0,0,0,0,65,68,88,80,93,-18.8,39,-19.0,108.0,-1038.0,16:41:45.006657,192.168.0.115
1961,7,-38,3,83,"0,0,168",1,-9,0,0,0,0,65,68,87,80,93,-18.65,39,13.0,116.0,-924.0,16:41:45.108702,192.168.0.115
1966,7,-38,3,83,"0,0,168",0,-8,0,0,0,0,65,68,87,80,93,-18.74,39,-32.0,95.0,-1007.0,16:41:45.211062,192.168.0.115
1971,7,-38,4,84,"-2,0,164",0,-7,-1,0,0,0,65,68,86,80,93,-18.6,39,-39.0,103.0,-964.0,16:41:45.312752,192.168.0.115
1976,7,-38,4,84,"-2,0,164",0,-7,0,0,0,0,65,68,85,80,93,-18.48,39,27.0,94.0,-1016.0,16:41:45.414701,192.168.0.115
1981,7,-38,4,84,"-2,0,164",-1,-6,0,0,0,0,65,68,84,80,93,-18.45,39,4.0,86.0,-1024.0,16:41:45.516728,192.168.0.115
1986,7,-38,4,84,"-2,0,164",0,-5,0,0,0,0,65,68,84,80,93,-18.63,39,-57.0,146.0,-990.0,16:41:45.618775,192.168.0.115
1992,7,-37,-2,83,"-2,1,169",0,-6,0,0,0,0,66,69,82,70,93,-18.56,39,9.0,135.0,-1053.0,16:41:45.720731,192.168.0.115
1996,7,-37,-2,83,"-2,1,169",0,-6,0,0,0,0,66,69,82,70,93,-18.64,39,-45.0,163.0,-985.0,16:41:45.822483,192.168.0.115
2001,7,-37,-2,83,"-2,1,169",0,-5,0,0,0,0,66,69,82,70,93,-18.54,39,10.0,120.0,-1030.0,16:41:45.924603,192.168.0.115
2007,7,-37,-2,83,"-2,1,169",-1,-6,0,0,0,0,66,69,82,70,93,-18.61,40,43.0,111.0,-1071.0,16:41:46.026735,192.168.0.115
2012,7,-37,3,80,"-1,0,168",0,-6,0,0,0,0,66,69,82,70,93,-18.66,40,-13.0,133.0,-989.0,16:41:46.128649,192.168.0.115
2017,7,-37,3,80,"-1,0,168",0,-8,0,0,0,0,66,69,82,70,93,-18.67,40,-9.0,124.0,-998.0,16:41:46.230720,192.168.0.115
2022,7,-37,3,80,"-1,0,168",1,-8,0,0,0,0,66,69,83,70,93,-18.72,40,-43.0,121.0,-1065.0,16:41:46.332586,192.168.0.115
2026,7,-37,3,80,"-1,0,168",0,-6,0,0,0,0,66,69,82,70,93,-18.62,40,26.0,53.0,-999.0,16:41:46.383445,192.168.0.115
2031,7,-31,8,81,"1,0,165",0,-4,0,0,0,0,66,69,82,70,93,-18.54,40,3.0,127.0,-1016.0,16:41:46.488114,192.168.0.115
2036,7,-31,8,81,"1,0,165",0,-5,0,0,0,0,66,69,83,70,93,-18.52,40,32.0,132.0,-989.0,16:41:46.587557,192.168.0.115
2041,7,-31,8,81,"1,0,165",0,-7,0,0,0,0,66,67,83,70,93,-18.33,40,-23.0,95.0,-1004.0,16:41:46.689576,192.168.0.115
2046,7,-39,-3,76,"-5,2,173",1,-5,0,0,0,0,66,67,83,70,93,-18.29,40,61.0,122.0,-979.0,16:41:46.791233,192.168.0.115
2051,7,-39,-3,76,"-5,2,173",0,-5,0,0,0,0,66,67,83,70,93,-18.52,40,9.0,111.0,-972.0,16:41:46.893670,192.168.0.115
2056,7,-39,-3,76,"-5,2,173",0,-7,0,0,0,0,66,67,83,80,93,-18.49,41,62.0,76.0,-958.0,16:41:46.995623,192.168.0.115
2061,7,-39,-3,76,"-5,2,173",1,-7,0,0,0,0,66,67,83,80,93,-18.63,41,-7.0,95.0,-987.0,16:41:47.097476,192.168.0.115
2066,7,-35,4,80,"-4,1,171",3,-3,0,0,0,0,66,67,84,80,93,-18.53,41,-9.0,156.0,-992.0,16:41:47.199533,192.168.0.115
2071,7,-35,4,80,"-4,1,171",2,-6,0,0,0,0,66,67,84,80,93,-18.75,41,52.0,144.0,-1039.0,16:41:47.303115,192.168.0.115
2076,7,-35,4,80,"-4,1,171",1,-5,0,0,0,0,66,67,85,80,93,-18.71,41,38.0,121.0,-924.0,16:41:47.403581,192.168.0.115
2081,7,-35,4,80,"-4,1,171",4,-7,0,0,0,0,66,67,85,80,93,-18.64,41,35.0,92.0,-952.0,16:41:47.506785,192.168.0.115
2086,7,-30,2,81,"-5,1,173",3,-7,0,0,0,0,66,67,85,80,93,-18.73,41,82.0,92.0,-1012.0,16:41:47.607647,192.168.0.115
2091,7,-30,2,81,"-5,1,173",2,-6,0,0,0,0,65,68,84,80,93,-18.45,41,2.0,117.0,-932.0,16:41:47.709588,192.168.0.115
2096,7,-30,2,81,"-5,1,173",4,-6,0,0,0,0,65,68,84,80,93,-18.45,41,-14.0,122.0,-1019.0,16:41:47.811735,192.168.0.115
2101,7,-30,2,81,"-5,1,173",2,-6,0,0,0,0,65,68,84,80,93,-18.47,41,22.0,102.0,-1031.0,16:41:47.913754,192.168.0.115
2106,7,-28,4,82,"-6,1,167",2,-6,-1,0,0,0,65,68,83,80,93,-18.56,42,-18.0,133.0,-1013.0,16:41:48.017457,192.168.0.115
2111,7,-28,4,82,"-6,1,167",0,-8,-1,0,0,0,65,68,83,80,93,-18.72,42,-60.0,100.0,-968.0,16:41:48.117571,192.168.0.115
2116,7,-28,4,82,"-6,1,167",0,-7,-2,1,0,0,65,68,84,70,93,-18.97,42,18.0,129.0,-1029.0,16:41:48.219917,192.168.0.115
2121,7,-28,4,82,"-6,1,167",-1,-7,-1,1,0,0,65,68,85,80,93,-18.68,42,52.0,116.0,-986.0,16:41:48.321504,192.168.0.115
2126,7,-24,3,82,"-3,3,168",-1,-6,-1,0,0,0,65,68,85,80,93,-18.74,42,-22.0,130.0,-976.0,16:41:48.423678,192.168.0.115
2131,7,-24,3,82,"-3,3,168",-1,-6,-1,0,0,0,65,68,85,80,93,-18.77,42,-25.0,51.0,-1009.0,16:41:48.525558,192.168.0.115
2136,7,-24,3,82,"-3,3,168",0,-6,0,0,0,0,65,68,85,80,93,-18.66,42,38.0,114.0,-1022.0,16:41:48.628305,192.168.0.115
2141,7,-24,3,82,"-3,3,168",0,-4,0,0,0,0,65,67,85,80,93,-18.63,42,80.0,99.0,-1052.0,16:41:48.729651,192.168.0.115
2146,7,-28,-3,83,"0,2,172",0,-5,0,0,0,0,65,67,85,80,93,-18.62,42,-15.0,174.0,-986.0,16:41:48.831694,192.168.0.115
2151,7,-28,-3,83,"0,2,172",0,-7,-1,0,0,0,65,67,85,80,93,-18.66,42,-41.0,110.0,-958.0,16:41:48.933758,192.168.0.115
2156,7,-28,-3,83,"0,2,172",2,-6,-1,0,0,0,65,67,85,80,93,-18.81,43,-40.0,129.0,-1061.0,16:41:49.035682,192.168.0.115
2161,7,-30,0,83,"0,2,172",0,-8,-1,0,0,0,65,67,86,80,93,-18.64,43,3.0,65.0,-940.0,16:41:49.137737,192.168.0.115
2167,7,-30,0,83,"0,2,172",0,-8,-1,0,0,0,65,67,85,80,93,-18.66,43,-3.0,58.0,-939.0,16:41:49.239520,192.168.0.115
2172,7,-30,0,83,"0,2,172",0,-7,0,0,0,0,65,67,85,80,93,-18.84,43,59.0,101.0,-1037.0,16:41:49.341697,192.168.0.115
2177,7,-30,0,83,"0,2,172",0,-3,0,0,0,0,65,67,84,80,93,-18.64,43,34.0,164.0,-947.0,16:41:49.443584,192.168.0.115
2182,7,-27,3,84,"0,2,165",0,-5,0,0,0,0,65,67,85,80,93,-18.58,43,0.0,124.0,-973.0,16:41:49.545736,192.168.0.115
2187,7,-27,3,84,"0,2,165",1,-7,-1,0,0,0,65,67,85,80,93,-18.74,43,37.0,152.0,-937.0,16:41:49.648976,192.168.0.115
2193,7,-27,3,84,"0,2,165",0,-8,0,0,0,0,65,68,85,80,93,-18.69,43,10.0,138.0,-1005.0,16:41:49.749573,192.168.0.115
2196,7,-27,3,84,"0,2,165",0,-9,0,0,0,0,65,68,85,80,93,-18.84,43,18.0,109.0,-1000.0,16:41:49.800741,192.168.0.115
2201,7,-32,0,81,"-3,2,171",1,-7,0,0,0,0,65,68,84,80,93,-18.76,43,34.0,138.0,-1006.0,16:41:49.903779,192.168.0.115
2206,7,-32,0,81,"-3,2,171",1,-7,0,0,0,0,65,68,85,80,93,-18.69,44,-11.0,112.0,-887.0,16:41:50.004639,192.168.0.115
2211,7,-32,0,81,"-3,2,171",2,-7,0,0,0,0,65,68,84,80,93,-18.61,44,32.0,100.0,-1027.0,16:41:50.106662,192.168.0.115
2216,7,-32,0,81,"-3,2,171",0,-7,0,0,0,0,65,68,84,80,93,-18.65,44,21.0,98.0,-974.0,16:41:50.208878,192.168.0.115
2221,7,-31,0,82,"-3,1,170",0,-7,0,0,0,0,65,68,84,80,93,-18.65,44,71.0,70.0,-1000.0,16:41:50.310705,192.168.0.115
2226,7,-31,0,82,"-3,1,170",0,-7,0,0,0,0,65,68,84,80,93,-18.61,44,8.0,96.0,-937.0,16:41:50.412762,192.168.0.115
2231,7,-31,0,82,"-3,1,170",2,-6,0,0,0,0,65,68,83,80,93,-18.79,44,21.0,121.0,-1034.0,16:41:50.514791,192.168.0.115
2236,7,-31,0,82,"-3,1,170",1,-4,0,0,0,0,65,68,83,70,93,-18.72,44,-7.0,97.0,-985.0,16:41:50.616675,192.168.0.115
2241,7,-29,5,82,"0,0,166",2,-5,0,0,0,0,65,67,83,70,93,-18.6,44,7.0,47.0,-950.0,16:41:50.718737,192.168.0.115
2246,7,-29,5,82,"0,0,166",1,-4,0,0,1,0,65,67,82,70,93,-18.66,44,-4.0,86.0,-1005.0,16:41:50.820494,192.168.0.115
2251,7,-29,5,82,"0,0,166",1,-2,0,0,0,0,65,67,83,70,93,-18.61,44,13.0,174.0,-1012.0,16:41:50.922880,192.168.0.115
2256,7,-29,5,82,"0,0,166",0,-3,1,0,0,0,65,67,83,70,93,-18.79,45,43.0,112.0,-949.0,16:41:51.024793,192.168.0.115
2261,7,-29,2,80,"-5,2,171",2,-7,0,0,0,0,65,67,84,80,93,-18.6,45,62.0,67.0,-925.0,16:41:51.126856,192.168.0.115
2266,7,-29,2,80,"-5,2,171",3,-6,0,0,0,0,65,67,83,80,93,-18.6,45,49.0,108.0,-1054.0,16:41:51.228781,192.168.0.115
2271,7,-29,2,80,"-5,2,171",3,-5,0,0,0,0,65,67,83,70,93,-18.82,45,46.0,117.0,-964.0,16:41:51.330777,192.168.0.115
2276,7,-29,2,80,"-5,2,171",1,-7,0,0,0,0,65,67,83,70,93,-18.58,45,-4.0,100.0,-989.0,16:41:51.432797,192.168.0.115
2281,7,-27,0,82,"-3,2,172",2,-6,-1,0,0,0,65,67,83,70,93,-18.64,45,-87.0,133.0,-1075.0,16:41:51.534715,192.168.0.115
2286,7,-27,0,82,"-3,2,172",0,-7,-3,1,0,0,65,67,82,70,93,-18.81,45,-42.0,78.0,-1023.0,16:41:51.637012,192.168.0.115
2291,7,-27,0,82,"-3,2,172",-1,-5,-5,1,0,0,65,67,82,70,93,-18.86,45,-42.0,113.0,-975.0,16:41:51.738845,192.168.0.115
2296,7,-29,3,80,"-5,3,170",-3,-5,-7,1,0,0,65,67,83,70,93,-18.98,45,-23.0,83.0,-973.0,16:41:51.840648,192.168.0.115
2301,7,-29,3,80,"-5,3,170",-2,-5,-7,1,0,0,65,67,82,70,93,-18.93,45,23.0,97.0,-959.0,16:41:51.942762,192.168.0.115
2306,7,-29,3,80,"-5,3,170",-2,-5,-1,0,0,0,65,67,82,70,93,-18.55,46,29.0,162.0,-941.0,16:41:52.044738,192.168.0.115
2311,7,-29,3,80,"-5,3,170",-1,-7,0,0,0,0,65,67,82,70,93,-18.65,46,-59.0,123.0,-942.0,16:41:52.146853,192.168.0.115
2316,7,-34,0,79,"0,9,171",1,-7,0,0,0,0,65,67,82,70,93,-18.61,46,-22.0,83.0,-1048.0,16:41:52.248819,192.168.0.115
2321,7,-34,0,79,"0,9,171",0,-9,0,1,0,0,65,67,81,70,93,-18.4,46,11.0,125.0,-962.0,16:41:52.350727,192.168.0.115
2326,7,-34,0,79,"0,9,171",-2,-8,0,0,0,0,65,67,81,70,93,-18.59,46,27.0,118.0,-1058.0,16:41:52.452838,192.168.0.115
2331,7,-34,0,79,"0,9,171",0,-7,0,0,0,0,65,67,82,70,93,-18.69,46,7.0,113.0,-1015.0,16:41:52.554886,192.168.0.115
2337,7,-33,5,79,"-2,0,166",0,-6,0,0,0,0,65,67,82,70,93,-18.54,46,7.0,108.0,-966.0,16:41:52.657545,192.168.0.115
2342,7,-33,5,79,"-2,0,166",1,-7,0,0,0,0,65,67,82,70,93,-18.72,46,-4.0,105.0,-990.0,16:41:52.758901,192.168.0.115
2346,7,-33,5,79,"-2,0,166",0,-7,0,0,0,0,65,67,83,70,93,-18.51,46,-18.0,74.0,-964.0,16:41:52.809650,192.168.0.115
2351,7,-33,5,79,"-2,0,166",-1,-8,0,0,0,0,65,67,83,70,93,-18.74,46,-21.0,93.0,-996.0,16:41:52.911609,192.168.0.115
2356,7,-33,1,80,"-1,0,169",0,-6,0,0,0,0,65,67,83,70,93,-18.72,47,-5.0,101.0,-967.0,16:41:53.013860,192.168.0.115
2361,7,-33,1,80,"-1,0,169",0,-7,0,0,0,0,65,67,83,80,93,-18.6,47,-33.0,64.0,-1040.0,16:41:53.115727,192.168.0.115
2366,7,-33,1,80,"-1,0,169",0,-7,0,0,0,0,65,67,83,80,93,-18.77,47,18.0,103.0,-956.0,16:41:53.217701,192.168.0.115
2371,7,-33,1,80,"-1,0,169",0,-4,-1,0,0,0,65,67,83,70,93,-18.68,47,-25.0,104.0,-1007.0,16:41:53.319587,192.168.0.115
2376,7,-36,-2,80,"-3,1,172",0,-5,0,0,0,0,65,67,82,70,93,-18.51,47,-23.0,132.0,-974.0,16:41:53.421913,192.168.0.115
2381,7,-36,-2,80,"-3,1,172",-2,-3,0,0,0,0,65,67,81,70,93,-18.58,47,41.0,86.0,-1045.0,16:41:53.523664,192.168.0.115
2386,7,-36,-2,80,"-3,1,172",-1,-4,0,0,0,0,65,67,81,70,93,-18.58,47,3.0,108.0,-1058.0,16:41:53.625615,192.168.0.115
2391,7,-36,-2,80,"-3,1,172",1,-6,0,0,1,0,65,67,81,70,93,-18.75,47,-23.0,56.0,-1026.0,16:41:53.727658,192.168.0.115
2396,7,-38,1,78,"-3,1,172",0,-3,0,0,1,0,65,67,81,70,93,-18.83,47,-10.0,80.0,-1027.0,16:41:53.829682,192.168.0.115
2401,7,-38,1,78,"-3,1,172",-1,-1,0,0,1,0,65,67,81,70,93,-18.63,48,18.0,131.0,-934.0,16:41:53.932247,192.168.0.115
2406,7,-38,1,78,"-3,1,172",0,-3,0,0,0,0,65,67,81,70,93,-18.64,48,6.0,96.0,-1008.0,16:41:54.033775,192.168.0.115
2411,7,-35,6,78,"-3,0,169",1,-5,0,0,0,0,65,67,82,70,93,-18.77,48,-11.0,64.0,-999.0,16:41:54.135814,192.168.0.115
2416,7,-35,6,78,"-3,0,169",0,-6,0,0,0,0,65,67,82,70,93,-18.55,48,51.0,44.0,-1057.0,16:41:54.237741,192.168.0.115
2421,7,-35,6,78,"-3,0,169",0,-5,0,0,0,0,65,67,83,70,93,-18.49,48,44.0,65.0,-921.0,16:41:54.339661,192.168.0.115
2426,7,-35,6,78,"-3,0,169",0,-3,-1,0,0,0,65,67,83,70,93,-18.69,48,12.0,81.0,-993.0,16:41:54.441684,192.168.0.115
2431,7,-34,8,79,"-1,1,172",1,-2,-2,0,0,0,65,67,83,80,93,-18.46,48,-65.0,54.0,-994.0,16:41:54.543442,192.168.0.115
2436,7,-34,8,79,"-1,1,172",0,-4,0,0,0,0,65,67,83,70,93,-18.61,48,-44.0,44.0,-987.0,16:41:54.645887,192.168.0.115
2441,7,-34,8,79,"-1,1,172",-2,-4,0,1,0,0,65,68,82,70,93,-18.8,48,-57.0,20.0,-983.0,16:41:54.748048,192.168.0.115
2446,7,-34,8,79,"-1,1,172",-2,-2,0,1,0,0,65,68,82,70,93,-18.65,48,5.0,97.0,-1005.0,16:41:54.850547,192.168.0.115
2451,7,-34,7,80,"-3,3,175",-4,-1,2,0,0,0,65,68,81,70,93,-18.4,49,43.0,88.0,-999.0,16:41:54.952965,192.168.0.115
2456,7,-34,7,80,"-3,3,175",-1,-1,6,0,0,0,65,68,82,70,93,-18.61,49,85.0,105.0,-1034.0,16:41:55.055340,192.168.0.115
2461,7,-34,7,80,"-3,3,175",2,-5,9,-1,0,0,65,68,83,70,93,-18.37,49,62.0,61.0,-990.0,16:41:55.157774,192.168.0.115
2466,7,-35,12,79,"0,0,173",3,-5,10,-1,0,0,65,68,83,80,93,-18.78,49,12.0,132.0,-1009.0,16:41:55.259918,192.168.0.115
2471,7,-35,12,79,"0,0,173",3,-5,3,0,0,0,65,68,83,80,93,-18.96,49,27.0,44.0,-986.0,16:41:55.359633,192.168.0.115
2476,7,-35,12,79,"0,0,173",2,-4,0,0,0,0,65,68,83,80,93,-18.74,49,22.0,80.0,-950.0,16:41:55.461538,192.168.0.115
2481,7,-35,12,79,"0,0,173",0,-5,0,0,0,0,65,68,82,70,93,-18.54,49,41.0,78.0,-1019.0,16:41:55.563683,192.168.0.115
2486,7,-31,8,82,"-4,-8,174",2,-2,0,0,0,0,65,68,81,70,93,-18.88,49,-8.0,128.0,-945.0,16:41:55.665762,192.168.0.115
2491,7,-31,8,82,"-4,-8,174",2,-6,0,0,0,0,65,68,82,70,93,-18.59,49,58.0,54.0,-997.0,16:41:55.767661,192.168.0.115
2496,7,-31,8,82,"-4,-8,174",1,-5,0,0,0,0,65,68,81,70,93,-18.85,49,-6.0,151.0,-965.0,16:41:55.869588,192.168.0.115
2501,7,-31,8,82,"-4,-8,174",2,-6,-1,0,0,0,65,68,81,70,93,-18.82,50,-28.0,93.0,-1004.0,16:41:55.971733,192.168.0.115
2507,7,-29,5,81,"-1,2,176",0,-7,-1,0,0,0,65,68,80,70,93,-18.78,50,-7.0,100.0,-1048.0,16:41:56.073794,192.168.0.115
2512,7,-29,5,81,"-1,2,176",0,-7,-1,0,0,0,65,68,81,70,93,-18.57,50,-3.0,57.0,-932.0,16:41:56.175671,192.168.0.115
2517,7,-29,5,81,"-1,2,176",0,-5,-1,0,0,0,65,68,81,70,93,-18.72,50,-9.0,110.0,-977.0,16:41:56.277725,192.168.0.115
2522,7,-29,3,79,"-3,3,172",-1,-5,0,0,0,0,65,68,80,70,93,-18.52,50,12.0,103.0,-999.0,16:41:56.379543,192.168.0.115
2526,7,-29,3,79,"-3,3,172",0,-6,-1,0,0,0,65,68,80,70,93,-18.61,50,13.0,147.0,-962.0,16:41:56.430790,192.168.0.115
2531,7,-29,3,79,"-3,3,172",1,-6,-1,0,0,0,65,68,81,70,93,-18.65,50,-53.0,134.0,-1026.0,16:41:56.532826,192.168.0.115
2536,7,-29,3,79,"-3,3,172",0,-7,0,0,0,0,65,68,81,70,93,-18.6,50,-8.0,116.0,-996.0,16:41:56.634829,192.168.0.115
2543,7,-34,2,77,"-2,2,173",-1,-5,0,0,0,0,66,68,81,70,93,-18.57,50,45.0,94.0,-1032.0,16:41:56.788240,192.168.0.115
2546,7,-34,2,77,"-2,2,173",0,-5,0,0,0,0,66,68,81,70,93,-18.55,50,37.0,95.0,-935.0,16:41:56.838736,192.168.0.115
2551,7,-34,2,77,"-2,2,173",1,-6,0,0,0,0,66,68,81,70,93,-18.58,51,18.0,87.0,-1010.0,16:41:56.940767,192.168.0.115
2556,7,-34,2,77,"-2,2,173",0,-5,-1,0,0,0,66,68,81,70,93,-18.47,51,3.0,90.0,-1037.0,16:41:57.042413,192.168.0.115
2561,7,-35,3,77,"-3,1,169",0,-5,-1,0,0,0,66,68,80,70,93,-18.47,51,-19.0,126.0,-925.0,16:41:57.145134,192.168.0.115
2566,7,-35,3,77,"-3,1,169",2,-7,-1,0,0,0,66,68,80,70,93,-18.67,51,-40.0,137.0,-999.0,16:41:57.247077,192.168.0.115
2571,7,-35,3,77,"-3,1,169",0,-6,-1,0,0,0,66,68,79,70,93,-18.7,51,-34.0,134.0,-1083.0,16:41:57.348956,192.168.0.115
2576,7,-31,3,79,"-1,2,171",-1,-5,0,0,0,0,66,68,80,70,93,-18.37,51,-12.0,136.0,-1001.0,16:41:57.451741,192.168.0.115
2581,7,-31,3,79,"-1,2,171",0,-7,0,0,0,0,66,68,80,70,93,-18.54,51,25.0,141.0,-1099.0,16:41:57.554175,192.168.0.115
2586,7,-31,3,79,"-1,2,171",0,-7,0,0,0,0,66,68,80,70,93,-18.45,51,-57.0,161.0,-972.0,16:41:57.656633,192.168.0.115
2591,7,-31,3,79,"-1,2,171",0,-8,-1,0,0,0,66,69,81,70,93,-18.77,51,-39.0,116.0,-993.0,16:41:57.757410,192.168.0.115
2596,7,-32,4,77,"0,1,170",-1,-8,-1,0,0,0,66,69,81,70,93,-18.58,51,-48.0,152.0,-997.0,16:41:57.859603,192.168.0.115
2601,7,-32,4,77,"0,1,170",-2,-7,-1,0,0,0,66,69,82,70,93,-18.46,52,-48.0,169.0,-953.0,16:41:57.960832,192.168.0.115
2606,7,-32,4,77,"0,1,170",-1,-9,-1,0,0,0,66,69,81,70,93,-18.44,52,-82.0,90.0,-965.0,16:41:58.062868,192.168.0.115
2611,7,-32,4,77,"0,1,170",-2,-8,-1,1,0,0,66,69,81,70,93,-18.5,52,-98.0,141.0,-1004.0,16:41:58.164824,192.168.0.115
2616,7,-37,1,75,"-3,2,168",-3,-6,-1,1,0,0,66,69,81,70,93,-18.39,52,-63.0,186.0,-992.0,16:41:58.271485,192.168.0.115
2621,7,-37,1,75,"-3,2,168",-2,-8,-2,1,0,0,66,69,81,70,93,-18.74,52,-62.0,139.0,-1073.0,16:41:58.368843,192.168.0.115
2626,7,-37,1,75,"-3,2,168",-5,-9,-3,1,0,0,66,69,83,70,93,-18.6,52,-32.0,109.0,-934.0,16:41:58.471083,192.168.0.115
2631,7,-37,1,75,"-3,2,168",-4,-7,-4,0,0,0,66,69,82,70,93,-18.83,52,-46.0,138.0,-987.0,16:41:58.572866,192.168.0.115
2636,7,-36,-1,79,"1,2,170",-2,-6,-1,0,0,0,66,69,83,70,93,-18.93,52,-19.0,181.0,-1068.0,16:41:58.674834,192.168.0.115
