,mid,x,y,z,mpry,pitch,roll,yaw,vgx,vgy,vgz,templ,temph,tof,h,bat,baro,time,agx,agy,agz,timestamp,address
4,-1,-100,-100,-100,"0,0,0",0,0,-87,0,0,0,65,69,10,0,100,-19.68,0,-1.0,-3.0,-1002.0,16:41:05.749762,192.168.0.113
9,-1,-100,-100,-100,"0,0,0",0,0,-87,0,0,0,65,69,10,0,100,-19.66,0,0.0,-4.0,-1000.0,16:41:05.853889,192.168.0.113
14,-1,-100,-100,-100,"0,0,0",0,0,-87,0,0,0,65,69,10,0,100,-19.65,0,0.0,-2.0,-1000.0,16:41:05.953885,192.168.0.113
19,-1,-100,-100,-100,"0,0,0",0,0,-87,0,0,0,65,69,10,0,100,-19.66,0,5.0,-4.0,-1000.0,16:41:06.055351,192.168.0.113
24,-1,-100,-100,-100,"0,0,0",0,0,-87,0,0,0,65,69,10,0,100,-19.66,0,10.0,-9.0,-994.0,16:41:06.157623,192.168.0.113
29,-1,-100,-100,-100,"0,0,0",0,0,-87,0,0,0,65,69,10,0,100,-19.66,0,-1.0,0.0,-981.0,16:41:06.259979,192.168.0.113
34,-1,-100,-100,-100,"0,0,0",0,0,-87,0,0,0,65,69,10,0,100,-19.66,0,-27.0,-17.0,-1017.0,16:41:06.362013,192.168.0.113
35,-1,-100,-100,-100,"0,0,0",0,0,-87,0,0,1,65,69,10,0,100,-19.66,0,10.0,3.0,-1161.0,16:41:06.412931,192.168.0.113
40,-1,-100,-100,-100,"0,0,0",0,0,-87,0,0,4,65,69,10,0,100,-19.66,0,2.0,7.0,-1402.0,16:41:06.515145,192.168.0.113
45,-1,-100,-100,-100,"0,0,0",0,0,-87,0,0,7,65,69,10,10,100,-19.66,0,18.0,-13.0,-1265.0,16:41:06.619415,192.168.0.113
51,-1,-100,-100,-100,"0,0,0",0,0,-87,0,0,8,65,69,16,10,100,-19.23,0,15.0,9.0,-1028.0,16:41:06.719684,192.168.0.113
56,-1,-100,-100,-100,"0,0,0",0,0,-87,0,0,8,65,69,25,20,100,-19.23,0,16.0,18.0,-990.0,16:41:06.821667,192.168.0.113
62,-1,-100,-100,-100,"0,0,0",1,0,-87,0,0,8,65,69,32,30,100,-19.09,1,12.0,-4.0,-942.0,16:41:06.924206,192.168.0.113
67,-1,-100,-100,-100,"0,0,0",1,0,-87,0,0,7,65,69,41,40,100,-18.88,1,-12.0,72.0,-861.0,16:41:07.026101,192.168.0.113
72,-1,-100,-100,-100,"0,0,0",0,0,-87,0,0,5,65,69,48,40,99,-18.78,1,8.0,57.0,-863.0,16:41:07.129592,192.168.0.113
77,-1,-100,-100,-100,"0,0,0",0,-2,-87,-1,0,4,65,69,54,50,99,-18.88,1,18.0,15.0,-893.0,16:41:07.230871,192.168.0.113
82,-1,-100,-100,-100,"0,0,0",0,-3,-87,0,0,3,65,69,59,50,99,-18.71,1,24.0,70.0,-913.0,16:41:07.331032,192.168.0.113
88,-1,-100,-100,-100,"0,0,0",1,-3,-87,-1,0,3,65,69,62,60,99,-18.81,1,53.0,57.0,-872.0,16:41:07.432790,192.168.0.113
93,-1,-100,-100,-100,"0,0,0",1,-4,-87,-1,0,2,65,69,65,60,99,-18.77,1,10.0,1.0,-911.0,16:41:07.535173,192.168.0.113
99,-1,-100,-100,-100,"0,0,0",0,-4,-87,0,0,1,65,69,67,60,99,-18.72,1,2.0,29.0,-962.0,16:41:07.636966,192.168.0.113
104,-1,-100,-100,-100,"0,0,0",0,-3,-87,0,0,1,65,69,69,60,99,-18.75,1,24.0,57.0,-962.0,16:41:07.738736,192.168.0.113
109,-1,-100,-100,-100,"0,0,0",1,-2,-87,0,0,1,65,69,70,60,99,-18.66,1,3.0,33.0,-1014.0,16:41:07.840810,192.168.0.113
114,-1,-100,-100,-100,"0,0,0",1,-2,-86,0,0,1,65,69,72,60,99,-18.55,2,2.0,15.0,-935.0,16:41:07.943716,192.168.0.113
119,-1,-100,-100,-100,"0,0,0",0,-2,-87,0,0,0,65,69,73,70,99,-18.62,2,13.0,18.0,-987.0,16:41:08.044683,192.168.0.113
124,-1,-100,-100,-100,"0,0,0",0,-1,-87,0,0,0,65,69,74,70,99,-18.54,2,-9.0,14.0,-1006.0,16:41:08.146948,192.168.0.113
129,-1,-100,-100,-100,"0,0,0",0,-1,-86,0,0,0,65,69,75,70,99,-18.59,2,24.0,10.0,-968.0,16:41:08.251189,192.168.0.113
134,-1,-100,-100,-100,"0,0,0",0,-1,-86,0,0,0,65,69,76,70,99,-18.76,2,43.0,20.0,-1034.0,16:41:08.350920,192.168.0.113
139,-1,-100,-100,-100,"0,0,0",1,0,-87,0,0,1,65,69,77,70,99,-18.72,2,49.0,24.0,-985.0,16:41:08.453022,192.168.0.113
144,-1,-100,-100,-100,"0,0,0",2,0,-87,0,0,0,65,69,78,70,99,-18.58,2,23.0,37.0,-954.0,16:41:08.555081,192.168.0.113
149,-1,-100,-100,-100,"0,0,0",2,-1,-87,0,0,0,65,69,79,70,99,-18.61,2,30.0,13.0,-970.0,16:41:08.656818,192.168.0.113
154,-1,-100,-100,-100,"0,0,0",2,0,-87,0,0,0,66,68,79,70,99,-18.56,2,25.0,13.0,-979.0,16:41:08.758941,192.168.0.113
159,-1,-100,-100,-100,"0,0,0",3,-1,-87,0,0,0,66,68,80,70,99,-18.64,2,-7.0,46.0,-1013.0,16:41:08.861049,192.168.0.113
164,-1,-100,-100,-100,"0,0,0",3,-2,-87,0,0,0,66,68,80,70,99,-18.69,3,-1.0,26.0,-1022.0,16:41:08.963033,192.168.0.113
169,-1,-100,-100,-100,"0,0,0",2,-1,-87,0,0,0,66,68,81,70,99,-18.7,3,-14.0,0.0,-1010.0,16:41:09.064846,192.168.0.113
174,-1,-100,-100,-100,"0,0,0",0,-1,-87,0,0,0,66,68,82,70,98,-18.7,3,-17.0,-12.0,-986.0,16:41:09.167020,192.168.0.113
179,-1,-100,-100,-100,"0,0,0",0,-1,-87,0,0,0,66,68,83,80,98,-18.72,3,-9.0,12.0,-971.0,16:41:09.268991,192.168.0.113
184,-1,-100,-100,-100,"0,0,0",0,0,-87,0,0,0,66,68,83,80,98,-18.62,3,20.0,27.0,-972.0,16:41:09.371013,192.168.0.113
189,-1,-100,-100,-100,"0,0,0",0,0,-87,0,0,0,66,68,83,80,98,-18.68,3,9.0,2.0,-980.0,16:41:09.472986,192.168.0.113
192,-1,-100,-100,-100,"0,0,0",0,0,-87,0,0,0,66,68,84,80,98,-18.61,3,-11.0,30.0,-1007.0,16:41:09.524555,192.168.0.113
197,-1,-100,-100,-100,"0,0,0",0,0,-87,0,0,0,66,68,84,80,98,-18.66,3,17.0,27.0,-996.0,16:41:09.626281,192.168.0.113
204,-1,-100,-100,-100,"0,0,0",0,0,-87,0,0,0,65,69,84,80,98,-18.62,3,-9.0,48.0,-983.0,16:41:09.779388,192.168.0.113
209,-1,-100,-100,-100,"0,0,0",0,-2,-87,0,0,0,65,69,83,80,98,-18.72,3,-10.0,22.0,-973.0,16:41:09.881219,192.168.0.113
214,-1,-100,-100,-100,"0,0,0",0,-2,-87,0,0,0,65,69,84,80,98,-18.61,4,-26.0,50.0,-998.0,16:41:09.983102,192.168.0.113
218,-1,-100,-100,-100,"0,0,0",0,-2,-87,0,0,0,65,69,84,80,98,-18.56,4,14.0,57.0,-976.0,16:41:10.033871,192.168.0.113
223,-1,-100,-100,-100,"0,0,0",0,-2,-87,0,0,0,65,69,83,80,98,-18.67,4,30.0,44.0,-1034.0,16:41:10.135928,192.168.0.113
229,-1,-100,-100,-100,"0,0,0",0,-1,-87,0,0,0,65,69,82,80,98,-18.67,4,0.0,35.0,-991.0,16:41:10.238422,192.168.0.113
234,-1,-100,-100,-100,"0,0,0",1,-2,-87,0,0,0,65,69,82,70,98,-18.5,4,0.0,14.0,-977.0,16:41:10.339842,192.168.0.113
239,-1,-100,-100,-100,"0,0,0",0,-1,-87,0,0,0,65,69,81,70,98,-18.61,4,28.0,56.0,-1018.0,16:41:10.441982,192.168.0.113
244,-1,-100,-100,-100,"0,0,0",1,-1,-86,0,0,0,65,69,81,70,98,-18.64,4,28.0,36.0,-1023.0,16:41:10.544065,192.168.0.113
249,-1,-100,-100,-100,"0,0,0",1,-2,-86,0,0,0,65,69,81,70,98,-18.71,4,6.0,28.0,-1022.0,16:41:10.645799,192.168.0.113
254,-1,-100,-100,-100,"0,0,0",1,-2,-86,0,0,0,65,69,81,70,98,-18.7,4,-10.0,7.0,-980.0,16:41:10.747514,192.168.0.113
259,-1,-100,-100,-100,"0,0,0",0,-2,-86,0,0,0,65,69,82,70,98,-18.7,4,-11.0,26.0,-991.0,16:41:10.850066,192.168.0.113
264,-1,-100,-100,-100,"0,0,0",0,-1,-86,0,0,0,65,69,81,70,98,-18.62,5,0.0,6.0,-1002.0,16:41:10.952107,192.168.0.113
269,-1,-100,-100,-100,"0,0,0",0,-1,-87,0,0,0,65,69,81,70,98,-18.67,5,10.0,30.0,-1002.0,16:41:11.054093,192.168.0.113
274,-1,-100,-100,-100,"0,0,0",0,-1,-87,0,0,0,65,69,82,70,97,-18.69,5,1.0,42.0,-999.0,16:41:11.155990,192.168.0.113
279,-1,-100,-100,-100,"0,0,0",0,-1,-87,0,0,0,65,69,82,70,97,-18.7,5,15.0,29.0,-1018.0,16:41:11.258044,192.168.0.113
284,-1,-100,-100,-100,"0,0,0",0,-2,-86,0,0,0,65,69,83,80,97,-18.66,5,29.0,27.0,-1005.0,16:41:11.360207,192.168.0.113
289,-1,-100,-100,-100,"0,0,0",1,-1,-86,0,0,0,65,69,83,80,97,-18.77,5,23.0,37.0,-978.0,16:41:11.461654,192.168.0.113
294,-1,-100,-100,-100,"0,0,0",1,-2,-87,0,0,0,65,69,83,80,97,-18.72,5,35.0,8.0,-1027.0,16:41:11.564015,192.168.0.113
299,-1,-100,-100,-100,"0,0,0",1,-2,-87,0,0,0,65,69,83,80,97,-18.72,5,28.0,0.0,-1027.0,16:41:11.666155,192.168.0.113
304,-1,-100,-100,-100,"0,0,0",1,0,-87,0,0,0,66,67,84,80,97,-18.69,5,14.0,-12.0,-971.0,16:41:11.767784,192.168.0.113
309,-1,-100,-100,-100,"0,0,0",1,0,-87,0,0,0,66,67,84,80,97,-18.68,5,58.0,-16.0,-991.0,16:41:11.873024,192.168.0.113
314,-1,-100,-100,-100,"0,0,0",2,0,-87,0,0,0,66,67,83,80,97,-18.71,6,46.0,-16.0,-953.0,16:41:11.972149,192.168.0.113
319,-1,-100,-100,-100,"0,0,0",2,0,-87,0,0,0,66,67,84,80,97,-18.65,6,16.0,19.0,-1030.0,16:41:12.074288,192.168.0.113
324,-1,-100,-100,-100,"0,0,0",2,0,-86,0,0,0,66,67,85,80,97,-18.55,6,38.0,15.0,-1023.0,16:41:12.175965,192.168.0.113
329,-1,-100,-100,-100,"0,0,0",2,-1,-86,0,0,0,66,67,85,80,97,-18.67,6,44.0,17.0,-957.0,16:41:12.278691,192.168.0.113
334,-1,-100,-100,-100,"0,0,0",2,-1,-86,0,0,0,66,67,85,80,97,-18.6,6,35.0,10.0,-971.0,16:41:12.380671,192.168.0.113
339,-1,-100,-100,-100,"0,0,0",2,-1,-87,0,0,0,66,67,85,80,97,-18.4,6,45.0,36.0,-976.0,16:41:12.482682,192.168.0.113
344,-1,-100,-100,-100,"0,0,0",3,-1,-86,0,0,0,66,67,86,80,97,-18.43,6,23.0,29.0,-1036.0,16:41:12.584138,192.168.0.113
349,-1,-100,-100,-100,"0,0,0",3,-1,-86,0,0,0,66,67,86,80,97,-18.59,6,-13.0,21.0,-981.0,16:41:12.686216,192.168.0.113
354,-1,-100,-100,-100,"0,0,0",2,-2,-86,0,0,0,65,68,87,80,97,-18.64,6,-11.0,35.0,-956.0,16:41:12.788070,192.168.0.113
359,-1,-100,-100,-100,"0,0,0",1,-2,-87,0,0,0,65,68,87,80,97,-18.68,6,-12.0,37.0,-986.0,16:41:12.890208,192.168.0.113
364,-1,-100,-100,-100,"0,0,0",1,-2,-87,0,0,0,65,68,87,80,97,-18.62,7,20.0,25.0,-982.0,16:41:12.992256,192.168.0.113
369,-1,-100,-100,-100,"0,0,0",1,-2,-86,0,0,0,65,68,88,80,97,-18.73,7,10.0,37.0,-1018.0,16:41:13.094322,192.168.0.113
374,-1,-100,-100,-100,"0,0,0",1,-3,-86,0,0,0,65,68,87,80,96,-18.73,7,44.0,30.0,-1003.0,16:41:13.144914,192.168.0.113
379,-1,-100,-100,-100,"0,0,0",0,-3,-86,0,0,0,65,68,88,80,96,-18.5,7,2.0,33.0,-966.0,16:41:13.247125,192.168.0.113
384,-1,-100,-100,-100,"0,0,0",1,-2,-86,0,0,0,65,68,88,80,96,-18.54,7,18.0,23.0,-961.0,16:41:13.349426,192.168.0.113
389,-1,-100,-100,-100,"0,0,0",2,-1,-86,0,0,0,65,68,87,80,96,-18.65,7,51.0,32.0,-1029.0,16:41:13.451144,192.168.0.113
394,-1,-100,-100,-100,"0,0,0",3,-1,-87,0,0,0,65,68,88,80,96,-18.61,7,37.0,53.0,-993.0,16:41:13.552863,192.168.0.113
399,-1,-100,-100,-100,"0,0,0",3,-2,-87,0,0,0,65,68,88,80,96,-18.55,7,21.0,20.0,-1015.0,16:41:13.658027,192.168.0.113
404,-1,-100,-100,-100,"0,0,0",2,-2,-87,0,0,0,65,68,88,80,96,-18.49,7,44.0,47.0,-946.0,16:41:13.757244,192.168.0.113
408,-1,-100,-100,-100,"0,0,0",2,-2,-87,0,0,0,65,68,89,80,96,-18.64,7,45.0,27.0,-1008.0,16:41:13.859102,192.168.0.113
414,-1,-100,-100,-100,"0,0,0",3,-2,-87,0,0,0,65,68,88,80,96,-18.69,8,17.0,43.0,-1011.0,16:41:13.962008,192.168.0.113
419,-1,-100,-100,-100,"0,0,0",3,-2,-87,0,0,0,65,68,89,80,96,-18.64,8,35.0,22.0,-989.0,16:41:14.062596,192.168.0.113
424,-1,-100,-100,-100,"0,0,0",3,-1,-86,0,0,0,65,68,89,80,96,-18.65,8,36.0,30.0,-978.0,16:41:14.164519,192.168.0.113
429,-1,-100,-100,-100,"0,0,0",2,-1,-86,0,0,0,65,68,88,80,96,-18.53,8,76.0,41.0,-956.0,16:41:14.267162,192.168.0.113
434,-1,-100,-100,-100,"0,0,0",3,-2,-86,0,0,0,65,68,88,80,96,-18.62,8,47.0,25.0,-977.0,16:41:14.369041,192.168.0.113
439,-1,-100,-100,-100,"0,0,0",3,-2,-87,0,0,0,65,68,89,80,96,-18.59,8,46.0,36.0,-1007.0,16:41:14.470835,192.168.0.113
444,-1,-100,-100,-100,"0,0,0",4,-2,-87,0,0,0,65,68,88,80,96,-18.67,8,45.0,43.0,-998.0,16:41:14.572870,192.168.0.113
449,-1,-100,-100,-100,"0,0,0",4,-2,-87,0,0,0,65,68,89,80,96,-18.62,8,40.0,68.0,-1010.0,16:41:14.677732,192.168.0.113
454,-1,-100,-100,-100,"0,0,0",4,-2,-86,0,0,0,65,68,88,80,96,-18.44,8,39.0,36.0,-943.0,16:41:14.777115,192.168.0.113
459,-1,-100,-100,-100,"0,0,0",3,-3,-86,0,0,0,65,68,88,80,96,-18.54,8,31.0,56.0,-994.0,16:41:14.878499,192.168.0.113
464,-1,-100,-100,-100,"0,0,0",3,-4,-86,0,0,0,65,68,87,80,96,-18.69,9,72.0,50.0,-971.0,16:41:14.983613,192.168.0.113
469,-1,-100,-100,-100,"0,0,0",3,-5,-87,0,0,0,65,68,87,80,95,-18.56,9,41.0,60.0,-1056.0,16:41:15.083149,192.168.0.113
474,-1,-100,-100,-100,"0,0,0",3,-4,-87,0,0,0,65,68,87,80,95,-18.59,9,44.0,114.0,-982.0,16:41:15.185053,192.168.0.113
479,-1,-100,-100,-100,"0,0,0",3,-5,-87,0,0,0,65,68,86,80,95,-18.71,9,73.0,54.0,-1017.0,16:41:15.287161,192.168.0.113
484,-1,-100,-100,-100,"0,0,0",4,-4,-87,0,0,0,65,68,87,80,95,-18.79,9,58.0,28.0,-978.0,16:41:15.389145,192.168.0.113
489,-1,-100,-100,-100,"0,0,0",4,-3,-87,0,0,0,65,68,86,80,95,-18.6,9,37.0,51.0,-986.0,16:41:15.491251,192.168.0.113
494,-1,-100,-100,-100,"0,0,0",4,-3,-87,0,0,0,65,68,86,80,95,-18.79,9,67.0,51.0,-1008.0,16:41:15.593696,192.168.0.113
499,-1,-100,-100,-100,"0,0,0",4,-2,-87,0,0,0,65,68,86,80,95,-18.72,9,54.0,39.0,-994.0,16:41:15.695128,192.168.0.113
504,-1,-100,-100,-100,"0,0,0",4,-2,-87,0,0,0,65,68,85,80,95,-18.71,9,71.0,35.0,-1028.0,16:41:15.796704,192.168.0.113
509,-1,-100,-100,-100,"0,0,0",3,-2,-87,0,0,0,65,68,84,80,95,-18.73,9,53.0,39.0,-1019.0,16:41:15.912400,192.168.0.113
514,-1,-100,-100,-100,"0,0,0",4,-1,-87,1,0,0,65,68,85,80,95,-18.74,10,53.0,28.0,-977.0,16:41:16.001071,192.168.0.113
519,-1,-100,-100,-100,"0,0,0",4,-1,-87,0,0,0,65,68,85,80,95,-18.67,10,76.0,20.0,-1092.0,16:41:16.103293,192.168.0.113
524,-1,-100,-100,-100,"0,0,0",4,-1,-87,0,0,0,65,68,85,80,95,-18.64,10,40.0,41.0,-940.0,16:41:16.204955,192.168.0.113
529,-1,-100,-100,-100,"0,0,0",4,-1,-87,0,0,0,65,68,85,80,95,-18.59,10,44.0,37.0,-998.0,16:41:16.307297,192.168.0.113
534,-1,-100,-100,-100,"0,0,0",4,0,-87,0,-1,0,65,68,85,80,95,-18.66,10,53.0,44.0,-1012.0,16:41:16.409245,192.168.0.113
539,-1,-100,-100,-100,"0,0,0",2,-2,-87,0,-1,0,65,68,85,80,95,-18.7,10,47.0,23.0,-982.0,16:41:16.460114,192.168.0.113
544,-1,-100,-100,-100,"0,0,0",1,-3,-87,0,0,0,65,68,86,80,95,-18.69,10,12.0,48.0,-1057.0,16:41:16.561938,192.168.0.113
549,-1,-100,-100,-100,"0,0,0",3,-3,-87,0,0,0,65,68,87,80,95,-18.63,10,54.0,43.0,-1008.0,16:41:16.664235,192.168.0.113
554,-1,-100,-100,-100,"0,0,0",3,-2,-87,0,0,0,65,69,86,80,95,-18.8,10,41.0,23.0,-1005.0,16:41:16.766202,192.168.0.113
559,-1,-100,-100,-100,"0,0,0",4,-1,-87,0,0,0,65,69,86,80,95,-18.73,10,41.0,8.0,-987.0,16:41:16.872687,192.168.0.113
564,-1,-100,-100,-100,"0,0,0",4,-1,-87,0,0,0,65,69,86,80,95,-18.85,11,15.0,20.0,-1002.0,16:41:16.970048,192.168.0.113
569,-1,-100,-100,-100,"0,0,0",4,-1,-87,0,0,0,65,69,87,80,94,-18.74,11,24.0,18.0,-976.0,16:41:17.072465,192.168.0.113
574,-1,-100,-100,-100,"0,0,0",2,-1,-87,0,-1,0,65,69,86,80,94,-18.82,11,50.0,7.0,-982.0,16:41:17.174362,192.168.0.113
579,-1,-100,-100,-100,"0,0,0",2,-1,-87,0,0,0,65,69,86,80,94,-18.74,11,64.0,2.0,-1014.0,16:41:17.276380,192.168.0.113
584,-1,-100,-100,-100,"0,0,0",2,-1,-87,0,0,0,65,69,86,80,94,-18.9,11,43.0,38.0,-1012.0,16:41:17.379170,192.168.0.113
589,-1,-100,-100,-100,"0,0,0",4,0,-87,0,0,0,65,69,86,80,94,-18.76,11,31.0,51.0,-982.0,16:41:17.480273,192.168.0.113
594,-1,-100,-100,-100,"0,0,0",4,-1,-87,0,0,0,65,69,86,80,94,-18.78,11,36.0,17.0,-978.0,16:41:17.582169,192.168.0.113
599,-1,-100,-100,-100,"0,0,0",3,-2,-87,0,0,0,65,69,86,80,94,-18.68,11,42.0,23.0,-988.0,16:41:17.684630,192.168.0.113
604,-1,-100,-100,-100,"0,0,0",3,-2,-87,0,0,0,65,68,86,80,94,-18.78,11,40.0,28.0,-1004.0,16:41:17.786349,192.168.0.113
609,-1,-100,-100,-100,"0,0,0",3,-2,-87,0,0,0,65,68,86,80,94,-18.81,11,29.0,27.0,-964.0,16:41:17.888440,192.168.0.113
614,-1,-100,-100,-100,"0,0,0",3,-2,-87,0,0,0,65,68,86,80,94,-18.88,12,22.0,-1.0,-991.0,16:41:17.990424,192.168.0.113
619,-1,-100,-100,-100,"0,0,0",3,-1,-87,0,0,0,65,68,87,80,94,-18.84,12,50.0,28.0,-999.0,16:41:18.092106,192.168.0.113
624,-1,-100,-100,-100,"0,0,0",4,-1,-87,0,0,0,65,68,86,80,94,-18.8,12,51.0,31.0,-997.0,16:41:18.197688,192.168.0.113
629,-1,-100,-100,-100,"0,0,0",3,-1,-87,0,0,0,65,68,87,80,94,-18.84,12,26.0,29.0,-986.0,16:41:18.296393,192.168.0.113
634,-1,-100,-100,-100,"0,0,0",3,-2,-87,0,0,0,65,68,86,80,94,-18.83,12,44.0,31.0,-1007.0,16:41:18.399294,192.168.0.113
639,-1,-100,-100,-100,"0,0,0",3,-2,-87,0,0,0,65,68,86,80,94,-18.83,12,52.0,20.0,-1012.0,16:41:18.500348,192.168.0.113
644,-1,-100,-100,-100,"0,0,0",3,-1,-87,0,0,0,65,68,86,80,94,-18.87,12,8.0,33.0,-1017.0,16:41:18.602294,192.168.0.113
649,-1,-100,-100,-100,"0,0,0",3,-1,-87,0,-1,0,65,68,86,80,94,-18.69,12,15.0,36.0,-999.0,16:41:18.704327,192.168.0.113
654,-1,-100,-100,-100,"0,0,0",3,-1,-87,0,-1,0,65,68,86,80,94,-18.68,12,39.0,10.0,-979.0,16:41:18.806274,192.168.0.113
659,-1,-100,-100,-100,"0,0,0",1,-3,-86,0,-1,0,65,68,86,80,94,-18.85,12,46.0,44.0,-990.0,16:41:18.910868,192.168.0.113
664,-1,-100,-100,-100,"0,0,0",2,-2,-87,0,0,0,65,68,86,80,94,-18.68,13,43.0,12.0,-988.0,16:41:19.010686,192.168.0.113
669,-1,-100,-100,-100,"0,0,0",2,-2,-87,0,0,0,65,68,86,80,94,-18.81,13,4.0,58.0,-1029.0,16:41:19.113764,192.168.0.113
674,-1,-100,-100,-100,"0,0,0",3,-1,-87,0,0,0,65,68,86,80,94,-18.85,13,-7.0,26.0,-989.0,16:41:19.215317,192.168.0.113
679,-1,-100,-100,-100,"0,0,0",2,-2,-87,0,-1,0,65,68,85,80,94,-18.79,13,20.0,57.0,-1015.0,16:41:19.317706,192.168.0.113
684,-1,-100,-100,-100,"0,0,0",2,-2,-87,0,-1,0,65,68,85,80,94,-18.67,13,41.0,29.0,-992.0,16:41:19.419160,192.168.0.113
689,-1,-100,-100,-100,"0,0,0",2,-2,-87,0,-1,0,65,68,86,80,94,-18.8,13,56.0,31.0,-991.0,16:41:19.521352,192.168.0.113
694,-1,-100,-100,-100,"0,0,0",2,-3,-87,0,0,0,65,68,86,80,94,-18.67,13,31.0,44.0,-1005.0,16:41:19.623024,192.168.0.113
699,-1,-100,-100,-100,"0,0,0",3,-2,-87,0,0,0,65,68,87,80,94,-18.77,13,37.0,58.0,-944.0,16:41:19.725078,192.168.0.113
704,-1,-100,-100,-100,"0,0,0",2,-3,-87,0,0,0,65,68,86,80,94,-18.83,13,25.0,52.0,-1054.0,16:41:19.827466,192.168.0.113
709,-1,-100,-100,-100,"0,0,0",2,-3,-87,0,0,0,65,68,86,80,94,-18.92,13,37.0,60.0,-995.0,16:41:19.929943,192.168.0.113
714,-1,-100,-100,-100,"0,0,0",2,-3,-87,0,0,0,65,68,86,80,94,-18.86,14,-7.0,70.0,-1011.0,16:41:20.032399,192.168.0.113
719,-1,-100,-100,-100,"0,0,0",3,-4,-87,0,0,0,65,68,86,80,94,-18.72,14,-7.0,42.0,-1050.0,16:41:20.082248,192.168.0.113
724,-1,-100,-100,-100,"0,0,0",1,-3,-87,0,-1,0,65,68,86,80,94,-18.67,14,19.0,46.0,-969.0,16:41:20.184603,192.168.0.113
729,-1,-100,-100,-100,"0,0,0",1,-3,-87,0,0,0,65,68,86,80,94,-18.79,14,14.0,35.0,-973.0,16:41:20.285987,192.168.0.113
734,-1,-100,-100,-100,"0,0,0",2,-4,-87,0,0,0,65,68,86,80,94,-18.69,14,34.0,30.0,-992.0,16:41:20.388259,192.168.0.113
739,-1,-100,-100,-100,"0,0,0",3,-4,-87,0,0,0,65,68,86,80,94,-18.7,14,24.0,35.0,-1019.0,16:41:20.491880,192.168.0.113
744,-1,-100,-100,-100,"0,0,0",2,-3,-87,0,0,0,65,68,85,80,94,-18.75,14,12.0,53.0,-1011.0,16:41:20.592382,192.168.0.113
749,-1,-100,-100,-100,"0,0,0",3,-3,-87,0,0,0,65,68,86,80,94,-18.96,14,25.0,13.0,-1008.0,16:41:20.694433,192.168.0.113
754,-1,-100,-100,-100,"0,0,0",2,-2,-87,0,0,0,65,68,86,80,94,-18.83,14,22.0,9.0,-994.0,16:41:20.795938,192.168.0.113
759,-1,-100,-100,-100,"0,0,0",2,-2,-87,0,0,0,65,68,86,80,94,-18.79,14,31.0,25.0,-955.0,16:41:20.898558,192.168.0.113
764,-1,-100,-100,-100,"0,0,0",1,-1,-87,0,0,0,65,68,86,80,94,-18.86,15,28.0,7.0,-989.0,16:41:21.000338,192.168.0.113
769,-1,-100,-100,-100,"0,0,0",2,-1,-87,0,0,0,65,68,86,80,94,-18.82,15,30.0,35.0,-997.0,16:41:21.102410,192.168.0.113
774,-1,-100,-100,-100,"0,0,0",3,-1,-87,0,0,0,65,68,85,80,94,-18.82,15,14.0,31.0,-1009.0,16:41:21.204237,192.168.0.113
779,-1,-100,-100,-100,"0,0,0",3,-1,-87,0,0,0,65,68,85,80,94,-18.85,15,34.0,21.0,-988.0,16:41:21.307083,192.168.0.113
784,-1,-100,-100,-100,"0,0,0",2,-1,-87,0,0,0,65,68,85,80,94,-18.85,15,21.0,27.0,-984.0,16:41:21.408247,192.168.0.113
789,-1,-100,-100,-100,"0,0,0",2,-1,-87,0,0,0,65,68,85,80,94,-18.75,15,4.0,26.0,-999.0,16:41:21.510404,192.168.0.113
794,-1,-100,-100,-100,"0,0,0",2,-1,-87,0,0,0,65,68,85,80,94,-18.9,15,13.0,13.0,-1005.0,16:41:21.612436,192.168.0.113
799,-1,-100,-100,-100,"0,0,0",2,-1,-87,0,0,0,65,68,85,80,94,-18.77,15,17.0,39.0,-993.0,16:41:21.714350,192.168.0.113
804,-1,-100,-100,-100,"0,0,0",2,-1,-87,0,0,0,65,68,85,80,94,-18.89,15,12.0,40.0,-995.0,16:41:21.816333,192.168.0.113
809,-1,-100,-100,-100,"0,0,0",2,-2,-87,0,0,0,65,68,84,80,94,-18.85,15,30.0,55.0,-1003.0,16:41:21.918428,192.168.0.113
814,-1,-100,-100,-100,"0,0,0",2,0,-87,0,0,0,65,68,85,80,94,-18.63,16,-10.0,110.0,-1029.0,16:41:22.020760,192.168.0.113
819,-1,-100,-100,-100,"0,0,0",2,-1,-87,-1,0,0,65,68,85,80,94,-18.34,16,26.0,70.0,-1022.0,16:41:22.122303,192.168.0.113
824,-1,-100,-100,-100,"0,0,0",2,-4,-86,-1,0,0,65,68,85,80,94,-18.73,16,42.0,88.0,-1002.0,16:41:22.224353,192.168.0.113
829,-1,-100,-100,-100,"0,0,0",2,-8,-87,-1,0,0,65,68,85,80,94,-18.71,16,3.0,90.0,-969.0,16:41:22.326585,192.168.0.113
834,-1,-100,-100,-100,"0,0,0",2,-8,-87,-1,0,0,65,68,84,80,94,-18.59,16,22.0,48.0,-1004.0,16:41:22.430012,192.168.0.113
839,-1,-100,-100,-100,"0,0,0",1,-7,-88,0,0,0,65,68,85,80,94,-18.84,16,-1.0,40.0,-985.0,16:41:22.530691,192.168.0.113
844,-1,-100,-100,-100,"0,0,0",2,-6,-87,0,0,0,65,68,84,80,94,-18.75,16,12.0,43.0,-1014.0,16:41:22.633766,192.168.0.113
849,-1,-100,-100,-100,"0,0,0",2,-5,-87,0,0,0,65,68,84,80,94,-18.84,16,-8.0,103.0,-1137.0,16:41:22.734878,192.168.0.113
854,-1,-100,-100,-100,"0,0,0",1,-2,-87,0,0,0,65,68,84,80,94,-18.73,16,20.0,69.0,-975.0,16:41:22.838554,192.168.0.113
859,-1,-100,-100,-100,"0,0,0",1,-3,-87,0,0,0,65,68,85,80,94,-18.94,16,31.0,86.0,-1019.0,16:41:22.941426,192.168.0.113
864,-1,-100,-100,-100,"0,0,0",2,-5,-87,0,0,0,65,68,86,80,94,-18.85,17,2.0,21.0,-992.0,16:41:23.040480,192.168.0.113
869,-1,-100,-100,-100,"0,0,0",3,-5,-87,0,0,0,65,68,86,80,94,-18.87,17,6.0,27.0,-987.0,16:41:23.142608,192.168.0.113
874,-1,-100,-100,-100,"0,0,0",2,-4,-87,1,0,0,65,68,86,80,94,-18.8,17,-2.0,71.0,-1020.0,16:41:23.244382,192.168.0.113
879,-1,-100,-100,-100,"0,0,0",2,-2,-87,1,0,0,65,68,86,80,94,-18.7,17,0.0,39.0,-940.0,16:41:23.346459,192.168.0.113
884,-1,-100,-100,-100,"0,0,0",2,-1,-86,1,0,0,65,68,85,80,94,-18.59,17,27.0,56.0,-1009.0,16:41:23.397255,192.168.0.113
889,-1,-100,-100,-100,"0,0,0",2,-1,-86,0,0,0,65,68,85,80,94,-18.66,17,85.0,40.0,-948.0,16:41:23.499272,192.168.0.113
894,-1,-100,-100,-100,"0,0,0",2,-3,-86,0,0,0,65,68,85,80,94,-18.75,17,0.0,59.0,-964.0,16:41:23.601320,192.168.0.113
899,-1,-100,-100,-100,"0,0,0",3,-4,-86,0,0,0,65,68,85,80,94,-18.68,17,-10.0,71.0,-1041.0,16:41:23.703338,192.168.0.113
904,-1,-100,-100,-100,"0,0,0",4,-2,-86,0,0,0,65,67,85,80,94,-18.91,17,38.0,78.0,-1032.0,16:41:23.805201,192.168.0.113
909,-1,-100,-100,-100,"0,0,0",2,-2,-86,0,0,0,65,67,85,80,94,-18.81,17,43.0,49.0,-1002.0,16:41:23.907359,192.168.0.113
914,-1,-100,-100,-100,"0,0,0",3,-5,-87,0,0,0,65,67,85,80,94,-18.93,18,13.0,77.0,-1057.0,16:41:24.008745,192.168.0.113
919,-1,-100,-100,-100,"0,0,0",4,-3,-87,0,0,0,65,67,86,80,94,-18.71,18,42.0,88.0,-1034.0,16:41:24.111293,192.168.0.113
924,-1,-100,-100,-100,"0,0,0",4,-4,-87,0,0,0,65,67,86,80,94,-18.71,18,22.0,93.0,-1014.0,16:41:24.213260,192.168.0.113
929,-1,-100,-100,-100,"0,0,0",3,-6,-87,0,0,0,65,67,87,80,94,-18.77,18,73.0,56.0,-994.0,16:41:24.315205,192.168.0.113
934,-1,-100,-100,-100,"0,0,0",2,-7,-87,0,0,0,65,67,88,80,94,-18.77,18,41.0,32.0,-1009.0,16:41:24.417241,192.168.0.113
939,-1,-100,-100,-100,"0,0,0",3,-5,-87,0,0,0,65,67,87,80,94,-18.7,18,-19.0,103.0,-993.0,16:41:24.519296,192.168.0.113
944,-1,-100,-100,-100,"0,0,0",3,-3,-87,0,0,0,65,67,87,80,94,-18.7,18,19.0,88.0,-1002.0,16:41:24.621969,192.168.0.113
949,-1,-100,-100,-100,"0,0,0",3,-4,-87,0,0,0,65,67,88,80,94,-18.71,18,41.0,102.0,-1022.0,16:41:24.724235,192.168.0.113
954,-1,-100,-100,-100,"0,0,0",3,-5,-87,0,-1,0,65,67,88,80,94,-18.78,18,20.0,92.0,-987.0,16:41:24.826435,192.168.0.113
959,-1,-100,-100,-100,"0,0,0",2,-6,-87,0,0,0,65,67,88,80,94,-18.88,18,18.0,88.0,-939.0,16:41:24.928466,192.168.0.113
964,-1,-100,-100,-100,"0,0,0",3,-7,-88,0,-1,0,65,67,87,80,94,-18.74,19,2.0,77.0,-999.0,16:41:25.031323,192.168.0.113
969,-1,-100,-100,-100,"0,0,0",1,-6,-87,0,-1,0,65,67,87,80,94,-18.66,19,35.0,73.0,-990.0,16:41:25.132303,192.168.0.113
974,-1,-100,-100,-100,"0,0,0",2,-5,-87,0,0,0,65,67,87,80,94,-18.86,19,74.0,11.0,-999.0,16:41:25.234398,192.168.0.113
979,-1,-100,-100,-100,"0,0,0",3,-5,-87,0,0,0,65,67,86,80,94,-18.94,19,67.0,59.0,-994.0,16:41:25.336426,192.168.0.113
984,-1,-100,-100,-100,"0,0,0",4,-3,-87,1,0,0,65,67,85,80,94,-18.75,19,42.0,90.0,-965.0,16:41:25.438275,192.168.0.113
989,-1,-100,-100,-100,"0,0,0",4,-2,-87,0,0,0,65,67,84,80,94,-18.81,19,32.0,75.0,-973.0,16:41:25.540576,192.168.0.113
994,-1,-100,-100,-100,"0,0,0",6,-3,-88,0,0,0,65,67,84,80,94,-18.97,19,23.0,93.0,-1032.0,16:41:25.642470,192.168.0.113
999,-1,-100,-100,-100,"0,0,0",4,-3,-88,0,0,0,65,67,84,80,94,-18.87,19,6.0,114.0,-969.0,16:41:25.746915,192.168.0.113
1004,-1,-100,-100,-100,"0,0,0",4,-3,-88,0,-1,0,65,68,84,80,94,-18.78,19,25.0,107.0,-1011.0,16:41:25.846529,192.168.0.113
1009,-1,-100,-100,-100,"0,0,0",3,-5,-87,0,-1,0,65,68,84,80,94,-18.74,19,4.0,85.0,-990.0,16:41:25.948453,192.168.0.113
1014,-1,-100,-100,-100,"0,0,0",2,-7,-87,0,-1,0,65,68,84,80,94,-18.74,20,1.0,146.0,-1011.0,16:41:26.050444,192.168.0.113
1019,-1,-100,-100,-100,"0,0,0",2,-7,-87,0,-1,0,65,68,84,80,94,-18.8,20,63.0,143.0,-946.0,16:41:26.155367,192.168.0.113
1024,-1,-100,-100,-100,"0,0,0",2,-7,-87,0,-1,0,65,68,84,80,94,-18.89,20,23.0,122.0,-1016.0,16:41:26.259349,192.168.0.113
1029,-1,-100,-100,-100,"0,0,0",2,-8,-87,0,-1,0,65,68,85,80,94,-18.9,20,25.0,101.0,-997.0,16:41:26.356426,192.168.0.113
1034,-1,-100,-100,-100,"0,0,0",2,-8,-87,0,-1,0,65,68,84,80,94,-18.8,20,37.0,122.0,-977.0,16:41:26.407275,192.168.0.113
1039,-1,-100,-100,-100,"0,0,0",1,-9,-87,0,-1,0,65,68,85,80,94,-18.72,20,22.0,145.0,-999.0,16:41:26.509259,192.168.0.113
1044,-1,-100,-100,-100,"0,0,0",2,-9,-87,0,0,0,65,68,84,80,94,-18.78,20,31.0,149.0,-937.0,16:41:26.612657,192.168.0.113
1049,-1,-100,-100,-100,"0,0,0",3,-8,-88,0,0,0,65,68,83,80,94,-18.89,20,54.0,120.0,-1014.0,16:41:26.713385,192.168.0.113
1055,-1,-100,-100,-100,"0,0,0",1,-7,-87,0,-1,0,65,68,83,70,94,-18.84,20,39.0,74.0,-1027.0,16:41:26.866538,192.168.0.113
1060,-1,-100,-100,-100,"0,0,0",1,-5,-87,1,0,0,65,68,83,70,94,-18.91,21,37.0,80.0,-1011.0,16:41:26.968440,192.168.0.113
1065,-1,-100,-100,-100,"0,0,0",2,-3,-87,1,0,0,65,68,83,70,94,-18.89,21,24.0,86.0,-964.0,16:41:27.070448,192.168.0.113
1069,-1,-100,-100,-100,"0,0,0",2,-5,-87,1,0,0,65,68,83,70,94,-18.86,21,71.0,54.0,-1014.0,16:41:27.121379,192.168.0.113
1074,-1,-100,-100,-100,"0,0,0",3,-4,-87,1,0,0,65,68,83,70,94,-18.94,21,29.0,87.0,-995.0,16:41:27.223278,192.168.0.113
1079,-1,-100,-100,-100,"0,0,0",5,-3,-87,1,0,0,65,68,83,80,94,-18.93,21,5.0,86.0,-1017.0,16:41:27.325580,192.168.0.113
1084,-1,-100,-100,-100,"0,0,0",5,-3,-88,1,0,0,65,68,83,80,94,-18.8,21,23.0,61.0,-990.0,16:41:27.427326,192.168.0.113
1089,-1,-100,-100,-100,"0,0,0",4,-2,-88,1,0,0,65,68,83,80,94,-19.0,21,11.0,103.0,-1002.0,16:41:27.529395,192.168.0.113
1094,-1,-100,-100,-100,"0,0,0",3,-2,-88,0,0,0,65,68,83,80,94,-19.08,21,-13.0,79.0,-1015.0,16:41:27.631267,192.168.0.113
1099,-1,-100,-100,-100,"0,0,0",3,-4,-87,0,-1,0,65,68,84,80,94,-18.97,21,3.0,92.0,-1082.0,16:41:27.733664,192.168.0.113
1104,-1,-100,-100,-100,"0,0,0",1,-5,-87,0,-1,0,65,67,85,80,94,-18.85,21,16.0,113.0,-981.0,16:41:27.836786,192.168.0.113
1109,-1,-100,-100,-100,"0,0,0",1,-5,-87,0,-1,0,65,67,86,80,94,-18.91,22,52.0,77.0,-1013.0,16:41:27.941017,192.168.0.113
1114,-1,-100,-100,-100,"0,0,0",2,-5,-87,0,0,0,65,67,85,80,94,-19.02,22,-15.0,109.0,-1011.0,16:41:28.039005,192.168.0.113
1119,-1,-100,-100,-100,"0,0,0",2,-6,-87,0,-1,0,65,67,87,80,94,-18.94,22,-1.0,78.0,-984.0,16:41:28.141124,192.168.0.113
1124,-1,-100,-100,-100,"0,0,0",1,-5,-87,0,-1,0,65,67,86,80,94,-18.76,22,26.0,77.0,-986.0,16:41:28.243394,192.168.0.113
1129,-1,-100,-100,-100,"0,0,0",1,-5,-86,0,0,0,65,67,86,80,94,-18.81,22,33.0,91.0,-987.0,16:41:28.345463,192.168.0.113
1134,-1,-100,-100,-100,"0,0,0",2,-5,-87,0,0,0,65,67,87,80,94,-18.78,22,41.0,87.0,-903.0,16:41:28.447329,192.168.0.113
1139,-1,-100,-100,-100,"0,0,0",2,-4,-86,0,0,0,65,67,87,80,94,-18.83,22,35.0,95.0,-1021.0,16:41:28.549505,192.168.0.113
1144,-1,-100,-100,-100,"0,0,0",3,-4,-87,0,0,0,65,67,87,80,94,-18.94,22,28.0,104.0,-965.0,16:41:28.651334,192.168.0.113
1149,-1,-100,-100,-100,"0,0,0",2,-5,-87,0,0,0,65,67,87,80,94,-18.64,22,18.0,115.0,-996.0,16:41:28.753389,192.168.0.113
1154,-1,-100,-100,-100,"0,0,0",2,-5,-87,0,0,0,65,67,87,80,94,-18.97,22,40.0,93.0,-1053.0,16:41:28.855380,192.168.0.113
1159,-1,-100,-100,-100,"0,0,0",4,-5,-87,0,0,0,65,67,86,80,94,-18.82,23,27.0,68.0,-904.0,16:41:28.957350,192.168.0.113
1164,-1,-100,-100,-100,"0,0,0",4,-5,-87,0,0,0,65,67,86,80,94,-18.71,23,18.0,73.0,-992.0,16:41:29.059364,192.168.0.113
1169,-1,-100,-100,-100,"0,0,0",3,-5,-87,0,0,0,65,67,86,80,94,-18.79,23,31.0,89.0,-1026.0,16:41:29.166796,192.168.0.113
1174,-1,-100,-100,-100,"0,0,0",3,-5,-86,0,0,0,65,67,87,80,94,-18.94,23,71.0,83.0,-1000.0,16:41:29.263354,192.168.0.113
1179,-1,-100,-100,-100,"0,0,0",4,-5,-87,0,0,0,65,67,86,80,94,-19.0,23,26.0,108.0,-999.0,16:41:29.365345,192.168.0.113
1184,-1,-100,-100,-100,"0,0,0",4,-5,-87,0,0,0,65,67,85,80,94,-18.9,23,34.0,96.0,-930.0,16:41:29.467357,192.168.0.113
1189,-1,-100,-100,-100,"0,0,0",3,-6,-87,0,0,0,65,67,85,80,94,-18.82,23,11.0,71.0,-997.0,16:41:29.569413,192.168.0.113
1194,-1,-100,-100,-100,"0,0,0",3,-5,-87,0,0,0,65,67,86,80,94,-18.82,23,33.0,127.0,-974.0,16:41:29.671341,192.168.0.113
1199,-1,-100,-100,-100,"0,0,0",2,-5,-87,0,0,0,65,67,86,80,94,-18.91,23,30.0,92.0,-1033.0,16:41:29.773381,192.168.0.113
1204,-1,-100,-100,-100,"0,0,0",2,-5,-87,0,0,0,65,67,87,80,94,-18.88,23,50.0,95.0,-956.0,16:41:29.875375,192.168.0.113
1209,-1,-100,-100,-100,"0,0,0",3,-5,-87,0,0,0,65,67,87,80,94,-18.85,24,26.0,104.0,-1042.0,16:41:29.977442,192.168.0.113
1214,-1,-100,-100,-100,"0,0,0",1,-3,-87,0,0,0,65,67,88,80,94,-19.09,24,13.0,109.0,-976.0,16:41:30.079186,192.168.0.113
1220,-1,-100,-100,-100,"0,0,0",2,-6,-87,0,0,0,65,67,89,80,94,-18.99,24,24.0,43.0,-1008.0,16:41:30.182385,192.168.0.113
1225,-1,-100,-100,-100,"0,0,0",2,-5,-87,0,0,0,65,67,89,80,94,-18.93,24,53.0,51.0,-985.0,16:41:30.283334,192.168.0.113
1230,-1,-100,-100,-100,"0,0,0",3,-4,-87,0,0,0,65,67,88,80,94,-18.94,24,54.0,66.0,-992.0,16:41:30.388385,192.168.0.113
1234,-1,-100,-100,-100,"0,0,0",5,-2,-87,0,0,0,65,67,87,80,94,-19.05,24,9.0,85.0,-975.0,16:41:30.487409,192.168.0.113
1239,-1,-100,-100,-100,"0,0,0",3,-3,-87,0,0,0,65,67,88,80,94,-18.98,24,47.0,71.0,-992.0,16:41:30.538376,192.168.0.113
1244,-1,-100,-100,-100,"0,0,0",3,-3,-87,0,0,0,65,67,89,80,94,-18.92,24,55.0,57.0,-946.0,16:41:30.640551,192.168.0.113
1249,-1,-100,-100,-100,"0,0,0",2,-4,-87,0,0,0,65,67,89,80,94,-18.83,24,58.0,98.0,-972.0,16:41:30.742422,192.168.0.113
1254,-1,-100,-100,-100,"0,0,0",3,-4,-87,0,0,0,65,68,89,80,94,-19.05,24,66.0,83.0,-1049.0,16:41:30.844501,192.168.0.113
1259,-1,-100,-100,-100,"0,0,0",4,-4,-88,0,0,0,65,68,88,80,94,-18.78,25,-18.0,90.0,-958.0,16:41:30.946394,192.168.0.113
1264,-1,-100,-100,-100,"0,0,0",3,-4,-89,0,-1,0,65,68,88,80,94,-18.94,25,-32.0,80.0,-946.0,16:41:31.048446,192.168.0.113
1269,-1,-100,-100,-100,"0,0,0",1,-7,-88,0,-1,0,65,68,89,80,94,-18.96,25,-16.0,87.0,-975.0,16:41:31.150614,192.168.0.113
1274,-1,-100,-100,-100,"0,0,0",0,-5,-88,0,-1,0,65,68,88,80,94,-19.08,25,-14.0,97.0,-977.0,16:41:31.252497,192.168.0.113
1279,-1,-100,-100,-100,"0,0,0",0,-5,-87,0,-1,0,65,68,87,80,94,-19.0,25,-12.0,80.0,-962.0,16:41:31.354073,192.168.0.113
1284,-1,-100,-100,-100,"0,0,0",0,-6,-86,0,-1,0,65,68,86,80,94,-18.86,25,-6.0,104.0,-1030.0,16:41:31.456443,192.168.0.113
1289,-1,-100,-100,-100,"0,0,0",0,-5,-86,0,-1,0,65,68,85,80,94,-18.84,25,32.0,94.0,-1026.0,16:41:31.558467,192.168.0.113
1294,-1,-100,-100,-100,"0,0,0",0,-6,-86,0,0,0,65,68,86,80,94,-19.04,25,25.0,64.0,-1029.0,16:41:31.660611,192.168.0.113
1299,-1,-100,-100,-100,"0,0,0",1,-6,-87,0,0,0,65,68,85,80,94,-18.96,25,7.0,105.0,-979.0,16:41:31.765894,192.168.0.113
1304,-1,-100,-100,-100,"0,0,0",3,-3,-87,0,0,0,65,67,86,80,94,-19.18,25,14.0,110.0,-953.0,16:41:31.864552,192.168.0.113
1309,-1,-100,-100,-100,"0,0,0",0,-6,-87,0,-1,0,65,67,85,80,94,-18.95,26,4.0,107.0,-1016.0,16:41:31.966446,192.168.0.113
1314,-1,-100,-100,-100,"0,0,0",0,-7,-87,0,0,0,65,67,84,80,94,-18.85,26,54.0,73.0,-969.0,16:41:32.068439,192.168.0.113
1319,-1,-100,-100,-100,"0,0,0",1,-7,-87,0,0,0,65,67,85,80,94,-19.02,26,4.0,90.0,-1042.0,16:41:32.170215,192.168.0.113
1324,-1,-100,-100,-100,"0,0,0",2,-5,-87,0,0,0,65,67,85,80,94,-19.01,26,-18.0,92.0,-1062.0,16:41:32.272486,192.168.0.113
1329,-1,-100,-100,-100,"0,0,0",1,-5,-87,0,0,0,65,67,85,80,94,-19.05,26,6.0,95.0,-985.0,16:41:32.374846,192.168.0.113
1334,-1,-100,-100,-100,"0,0,0",1,-5,-87,0,0,0,65,67,86,80,94,-19.02,26,0.0,84.0,-1000.0,16:41:32.478681,192.168.0.113
1339,-1,-100,-100,-100,"0,0,0",2,-4,-87,0,0,0,65,67,86,80,94,-19.0,26,13.0,83.0,-972.0,16:41:32.578529,192.168.0.113
1344,-1,-100,-100,-100,"0,0,0",2,-3,-88,0,0,0,65,67,85,80,94,-19.08,26,11.0,93.0,-962.0,16:41:32.680744,192.168.0.113
1349,-1,-100,-100,-100,"0,0,0",2,-3,-87,0,0,0,65,67,86,80,94,-19.19,26,18.0,62.0,-1043.0,16:41:32.784075,192.168.0.113
1354,-1,-100,-100,-100,"0,0,0",1,-4,-86,0,0,0,65,68,87,80,94,-19.01,26,10.0,87.0,-1021.0,16:41:32.884465,192.168.0.113
1359,-1,-100,-100,-100,"0,0,0",2,-6,-86,0,0,0,65,68,88,80,94,-18.84,27,50.0,66.0,-987.0,16:41:32.987238,192.168.0.113
1364,-1,-100,-100,-100,"0,0,0",2,-5,-87,0,0,0,65,68,88,80,94,-18.85,27,13.0,72.0,-970.0,16:41:33.091214,192.168.0.113
1369,-1,-100,-100,-100,"0,0,0",3,-3,-87,0,0,0,65,68,87,80,94,-18.95,27,18.0,81.0,-1036.0,16:41:33.192099,192.168.0.113
1374,-1,-100,-100,-100,"0,0,0",3,-2,-87,0,0,0,65,68,86,80,94,-19.04,27,3.0,99.0,-987.0,16:41:33.292593,192.168.0.113
1379,-1,-100,-100,-100,"0,0,0",2,-4,-87,0,0,0,65,68,87,80,94,-19.03,27,36.0,44.0,-968.0,16:41:33.394549,192.168.0.113
1384,-1,-100,-100,-100,"0,0,0",2,-4,-87,0,0,0,65,68,87,80,94,-18.83,27,60.0,72.0,-979.0,16:41:33.496691,192.168.0.113
1390,-1,-100,-100,-100,"0,0,0",2,-2,-87,0,0,0,65,68,86,80,94,-18.88,27,22.0,79.0,-994.0,16:41:33.598678,192.168.0.113
1395,-1,-100,-100,-100,"0,0,0",4,-1,-87,0,0,0,65,68,86,80,94,-18.88,27,5.0,92.0,-945.0,16:41:33.700658,192.168.0.113
1400,-1,-100,-100,-100,"0,0,0",3,-4,-86,0,-1,0,65,68,86,80,94,-18.81,27,8.0,110.0,-1009.0,16:41:33.802606,192.168.0.113
1405,-1,-100,-100,-100,"0,0,0",1,-6,-86,0,0,0,65,67,88,80,94,-18.86,27,74.0,42.0,-1037.0,16:41:33.904523,192.168.0.113
1410,-1,-100,-100,-100,"0,0,0",1,-5,-86,0,0,0,65,67,87,80,94,-18.99,28,60.0,85.0,-993.0,16:41:34.006400,192.168.0.113
1414,-1,-100,-100,-100,"0,0,0",4,-3,-87,0,0,0,65,67,86,80,94,-19.18,28,-12.0,115.0,-974.0,16:41:34.057381,192.168.0.113
1419,-1,-100,-100,-100,"0,0,0",3,-5,-87,0,0,0,65,67,86,80,94,-18.99,28,45.0,76.0,-931.0,16:41:34.159416,192.168.0.113
1424,-1,-100,-100,-100,"0,0,0",3,-6,-87,0,0,0,65,67,87,80,94,-19.06,28,-6.0,91.0,-983.0,16:41:34.261414,192.168.0.113
1429,-1,-100,-100,-100,"0,0,0",1,-7,-87,0,-1,0,65,67,87,80,94,-19.13,28,37.0,126.0,-1043.0,16:41:34.363481,192.168.0.113
1434,-1,-100,-100,-100,"0,0,0",1,-6,-88,0,-1,0,65,67,86,80,94,-18.89,28,-61.0,94.0,-1007.0,16:41:34.465041,192.168.0.113
1439,-1,-100,-100,-100,"0,0,0",0,-7,-89,0,-1,0,65,67,86,80,94,-19.28,28,14.0,77.0,-1027.0,16:41:34.567331,192.168.0.113
1444,-1,-100,-100,-100,"0,0,0",0,-4,-88,0,-1,0,65,67,86,80,94,-19.21,28,13.0,100.0,-950.0,16:41:34.669239,192.168.0.113
1449,-1,-100,-100,-100,"0,0,0",0,-4,-86,0,0,0,65,67,85,80,94,-19.05,28,17.0,85.0,-1010.0,16:41:34.771410,192.168.0.113
1454,-1,-100,-100,-100,"0,0,0",1,-6,-87,0,0,0,65,67,86,80,94,-18.91,28,15.0,53.0,-963.0,16:41:34.873410,192.168.0.113
1459,-1,-100,-100,-100,"0,0,0",2,-6,-87,0,0,0,65,67,86,80,94,-18.64,29,15.0,108.0,-1018.0,16:41:34.975363,192.168.0.113
1464,-1,-100,-100,-100,"0,0,0",2,-4,-87,0,0,0,65,67,85,80,94,-18.61,29,36.0,101.0,-950.0,16:41:35.077369,192.168.0.113
1469,-1,-100,-100,-100,"0,0,0",1,-4,-86,0,0,0,65,67,85,80,94,-18.92,29,10.0,76.0,-1034.0,16:41:35.179335,192.168.0.113
1474,-1,-100,-100,-100,"0,0,0",3,-3,-86,0,0,0,65,67,84,80,94,-19.05,29,101.0,69.0,-971.0,16:41:35.281259,192.168.0.113
1479,-1,-100,-100,-100,"0,0,0",5,-3,-86,0,0,0,65,67,83,80,94,-18.86,29,86.0,68.0,-1017.0,16:41:35.383270,192.168.0.113
1484,-1,-100,-100,-100,"0,0,0",4,-3,-86,0,0,0,65,67,84,80,94,-18.74,29,48.0,49.0,-990.0,16:41:35.485445,192.168.0.113
1489,-1,-100,-100,-100,"0,0,0",4,-5,-86,0,0,0,65,67,84,80,94,-18.89,29,36.0,88.0,-966.0,16:41:35.587463,192.168.0.113
1494,-1,-100,-100,-100,"0,0,0",3,-3,-86,0,0,0,65,67,84,80,94,-18.99,29,68.0,62.0,-987.0,16:41:35.689078,192.168.0.113
1499,-1,-100,-100,-100,"0,0,0",5,-5,-87,0,0,0,65,67,83,80,94,-18.61,29,51.0,94.0,-980.0,16:41:35.791072,192.168.0.113
1504,-1,-100,-100,-100,"0,0,0",4,-5,-86,0,0,0,65,67,83,80,94,-19.07,29,23.0,97.0,-1054.0,16:41:35.893394,192.168.0.113
1509,-1,-100,-100,-100,"0,0,0",3,-6,-87,0,0,0,65,67,83,80,94,-19.14,30,3.0,133.0,-1001.0,16:41:35.995420,192.168.0.113
1514,-1,-100,-100,-100,"0,0,0",3,-4,-87,0,0,0,65,67,82,80,94,-18.91,30,52.0,75.0,-1011.0,16:41:36.097455,192.168.0.113
1519,-1,-100,-100,-100,"0,0,0",2,-4,-87,0,0,0,65,67,83,80,94,-19.01,30,4.0,114.0,-943.0,16:41:36.199554,192.168.0.113
1524,-1,-100,-100,-100,"0,0,0",2,-5,-87,0,0,0,65,67,83,80,94,-19.13,30,9.0,62.0,-970.0,16:41:36.301408,192.168.0.113
1529,-1,-100,-100,-100,"0,0,0",1,-7,-87,0,-1,0,65,67,83,80,94,-19.12,30,8.0,73.0,-1019.0,16:41:36.405751,192.168.0.113
1534,-1,-100,-100,-100,"0,0,0",1,-5,-87,0,-1,0,65,67,83,80,94,-19.09,30,-11.0,77.0,-981.0,16:41:36.505881,192.168.0.113
1539,-1,-100,-100,-100,"0,0,0",0,-6,-87,0,-1,0,65,67,84,80,94,-19.1,30,-48.0,61.0,-1036.0,16:41:36.607483,192.168.0.113
1544,-1,-100,-100,-100,"0,0,0",0,-4,-87,0,-1,0,65,67,84,80,94,-18.85,30,29.0,103.0,-933.0,16:41:36.709438,192.168.0.113
1549,-1,-100,-100,-100,"0,0,0",-1,-5,-86,0,-1,0,65,67,83,80,94,-18.86,30,29.0,110.0,-973.0,16:41:36.811319,192.168.0.113
1555,-1,-100,-100,-100,"0,0,0",0,-5,-86,0,0,0,65,67,84,80,94,-19.11,30,17.0,73.0,-1029.0,16:41:36.913268,192.168.0.113
1560,-1,-100,-100,-100,"0,0,0",1,-6,-87,0,0,0,65,67,84,80,94,-18.95,31,15.0,114.0,-903.0,16:41:37.015341,192.168.0.113
1565,-1,-100,-100,-100,"0,0,0",1,-6,-87,0,0,0,65,67,84,80,94,-18.95,31,8.0,92.0,-956.0,16:41:37.117390,192.168.0.113
1569,-1,-100,-100,-100,"0,0,0",0,-6,-87,0,0,0,65,67,84,80,94,-19.08,31,44.0,44.0,-1007.0,16:41:37.168533,192.168.0.113
1574,-1,-100,-100,-100,"0,0,0",1,-4,-87,0,0,0,65,67,83,80,94,-18.93,31,-102.0,89.0,-1090.0,16:41:37.270681,192.168.0.113
1579,-1,-100,-100,-100,"0,0,0",2,-4,-87,0,-1,0,65,67,84,80,94,-18.77,31,-66.0,152.0,-1021.0,16:41:37.372518,192.168.0.113
1584,-1,-100,-100,-100,"0,0,0",0,-6,-87,0,-1,0,65,67,83,80,94,-19.07,31,-15.0,159.0,-963.0,16:41:37.474547,192.168.0.113
1589,-1,-100,-100,-100,"0,0,0",-2,-8,-87,0,-1,0,65,67,83,80,94,-19.03,31,-6.0,120.0,-916.0,16:41:37.576494,192.168.0.113
1594,-1,-100,-100,-100,"0,0,0",-2,-8,-87,0,0,0,65,67,82,80,94,-19.02,31,13.0,77.0,-1050.0,16:41:37.678481,192.168.0.113
1599,-1,-100,-100,-100,"0,0,0",1,-6,-87,0,0,0,65,67,83,80,94,-19.06,31,-9.0,109.0,-1056.0,16:41:37.780587,192.168.0.113
1604,-1,-100,-100,-100,"0,0,0",1,-7,-87,0,0,0,65,67,83,80,94,-18.86,31,56.0,85.0,-996.0,16:41:37.882113,192.168.0.113
1609,-1,-100,-100,-100,"0,0,0",1,-6,-86,0,0,0,65,67,84,80,94,-18.94,32,63.0,130.0,-991.0,16:41:37.995504,192.168.0.113
1614,-1,-100,-100,-100,"0,0,0",2,-5,-86,0,0,0,65,67,84,80,94,-18.93,32,34.0,62.0,-1030.0,16:41:38.086135,192.168.0.113
1619,-1,-100,-100,-100,"0,0,0",2,-6,-86,0,0,0,65,67,84,80,94,-18.92,32,52.0,82.0,-968.0,16:41:38.188112,192.168.0.113
1624,-1,-100,-100,-100,"0,0,0",4,-5,-86,0,0,0,65,67,83,80,94,-19.07,32,-10.0,107.0,-999.0,16:41:38.290598,192.168.0.113
1629,-1,-100,-100,-100,"0,0,0",4,-4,-86,0,0,0,65,67,82,80,94,-18.82,32,-2.0,92.0,-971.0,16:41:38.395548,192.168.0.113
1634,-1,-100,-100,-100,"0,0,0",4,-5,-86,0,0,0,65,67,82,80,94,-18.85,32,38.0,94.0,-1023.0,16:41:38.497764,192.168.0.113
1639,-1,-100,-100,-100,"0,0,0",3,-5,-86,0,0,0,65,67,81,80,94,-19.2,32,80.0,81.0,-980.0,16:41:38.596532,192.168.0.113
1644,-1,-100,-100,-100,"0,0,0",4,-4,-86,0,0,0,65,67,81,70,94,-19.11,32,24.0,83.0,-1012.0,16:41:38.698563,192.168.0.113
1649,-1,-100,-100,-100,"0,0,0",4,-4,-86,0,0,0,65,67,81,70,94,-18.83,32,96.0,19.0,-1025.0,16:41:38.800553,192.168.0.113
1654,-1,-100,-100,-100,"0,0,0",5,-4,-86,0,0,0,65,68,81,70,94,-19.04,32,80.0,31.0,-1006.0,16:41:38.902494,192.168.0.113
1659,-1,-100,-100,-100,"0,0,0",5,-2,-86,1,0,0,65,68,81,70,94,-18.94,33,78.0,40.0,-1011.0,16:41:39.005322,192.168.0.113
1664,-1,-100,-100,-100,"0,0,0",6,-2,-86,0,0,0,65,68,81,70,94,-19.11,33,107.0,58.0,-1018.0,16:41:39.106427,192.168.0.113
1669,-1,-100,-100,-100,"0,0,0",6,-1,-87,0,0,0,65,68,82,70,94,-19.05,33,72.0,97.0,-965.0,16:41:39.208535,192.168.0.113
1674,-1,-100,-100,-100,"0,0,0",7,-2,-87,0,0,0,65,68,82,80,94,-19.17,33,44.0,160.0,-1001.0,16:41:39.310388,192.168.0.113
1679,-1,-100,-100,-100,"0,0,0",7,-2,-88,0,0,0,65,68,83,80,94,-19.0,33,-9.0,152.0,-987.0,16:41:39.412643,192.168.0.113
1684,-1,-100,-100,-100,"0,0,0",5,-6,-88,-1,-1,0,65,68,83,80,94,-18.96,33,61.0,71.0,-1012.0,16:41:39.514639,192.168.0.113
1689,-1,-100,-100,-100,"0,0,0",2,-7,-87,0,-1,0,65,68,83,80,94,-18.84,33,-20.0,103.0,-954.0,16:41:39.616628,192.168.0.113
1694,-1,-100,-100,-100,"0,0,0",3,-6,-88,0,-1,0,65,68,83,80,94,-19.07,33,12.0,151.0,-1011.0,16:41:39.718697,192.168.0.113
1699,-1,-100,-100,-100,"0,0,0",0,-6,-87,0,-2,0,65,68,83,80,94,-19.12,33,71.0,139.0,-955.0,16:41:39.820501,192.168.0.113
1704,-1,-100,-100,-100,"0,0,0",0,-9,-87,-1,-1,0,65,67,83,80,94,-19.11,33,-34.0,83.0,-1010.0,16:41:39.922651,192.168.0.113
1709,-1,-100,-100,-100,"0,0,0",3,-8,-88,0,-1,0,65,67,84,80,94,-18.98,34,-61.0,105.0,-983.0,16:41:40.024868,192.168.0.113
1714,-1,-100,-100,-100,"0,0,0",2,-7,-88,0,-2,0,65,67,84,80,94,-19.27,34,-49.0,169.0,-1029.0,16:41:40.126335,192.168.0.113
1719,-1,-100,-100,-100,"0,0,0",0,-7,-87,0,-2,0,65,67,85,80,94,-19.15,34,34.0,136.0,-987.0,16:41:40.229381,192.168.0.113
1725,-1,-100,-100,-100,"0,0,0",-2,-6,-86,0,-1,0,65,67,86,80,94,-19.0,34,-5.0,130.0,-960.0,16:41:40.331472,192.168.0.113
1730,-1,-100,-100,-100,"0,0,0",0,-7,-87,0,-1,0,65,67,85,80,94,-18.96,34,38.0,93.0,-1028.0,16:41:40.437498,192.168.0.113
1734,-1,-100,-100,-100,"0,0,0",1,-7,-87,0,0,0,65,67,85,80,94,-18.91,34,40.0,114.0,-989.0,16:41:40.535474,192.168.0.113
1739,-1,-100,-100,-100,"0,0,0",1,-6,-87,0,0,0,65,67,85,80,94,-18.93,34,21.0,57.0,-985.0,16:41:40.587274,192.168.0.113
1744,-1,-100,-100,-100,"0,0,0",2,-6,-87,0,0,0,65,67,85,80,94,-18.86,34,43.0,78.0,-1009.0,16:41:40.688637,192.168.0.113
1749,-1,-100,-100,-100,"0,0,0",2,-4,-86,0,0,0,65,67,85,80,94,-19.0,34,51.0,85.0,-984.0,16:41:40.790249,192.168.0.113
1754,-1,-100,-100,-100,"0,0,0",3,-3,-86,0,0,0,65,67,85,80,94,-19.04,34,55.0,105.0,-977.0,16:41:40.893317,192.168.0.113
1759,-1,-100,-100,-100,"0,0,0",3,-4,-87,0,0,0,65,67,85,80,94,-18.99,35,9.0,115.0,-937.0,16:41:40.994649,192.168.0.113
1764,-1,-100,-100,-100,"0,0,0",4,-5,-88,0,0,0,65,67,85,80,94,-19.0,35,8.0,100.0,-966.0,16:41:41.096585,192.168.0.113
1769,-1,-100,-100,-100,"0,0,0",2,-5,-87,0,0,0,65,67,85,80,94,-19.07,35,24.0,96.0,-1014.0,16:41:41.198393,192.168.0.113
1774,-1,-100,-100,-100,"0,0,0",1,-5,-87,0,0,0,65,67,85,80,94,-19.14,35,-5.0,89.0,-974.0,16:41:41.301529,192.168.0.113
1779,-1,-100,-100,-100,"0,0,0",3,-7,-87,0,0,0,65,67,85,80,94,-19.06,35,-25.0,78.0,-980.0,16:41:41.402680,192.168.0.113
1784,-1,-100,-100,-100,"0,0,0",2,-5,-87,0,-1,0,65,67,85,80,94,-19.07,35,-3.0,93.0,-1012.0,16:41:41.504673,192.168.0.113
1789,-1,-100,-100,-100,"0,0,0",1,-3,-87,0,-1,0,65,67,84,80,94,-19.34,35,37.0,79.0,-1055.0,16:41:41.606603,192.168.0.113
1794,-1,-100,-100,-100,"0,0,0",0,-2,-87,0,-1,0,65,67,85,80,94,-18.98,35,42.0,104.0,-957.0,16:41:41.708515,192.168.0.113
1799,-1,-100,-100,-100,"0,0,0",1,-5,-87,0,0,0,65,67,87,80,94,-19.13,35,-31.0,70.0,-1010.0,16:41:41.810471,192.168.0.113
1804,-1,-100,-100,-100,"0,0,0",1,-6,-88,0,-1,0,65,67,87,80,94,-18.97,35,21.0,64.0,-994.0,16:41:41.912822,192.168.0.113
1809,-1,-100,-100,-100,"0,0,0",0,-5,-87,0,-1,0,65,67,87,80,94,-19.08,36,15.0,75.0,-1019.0,16:41:42.014626,192.168.0.113
1814,-1,-100,-100,-100,"0,0,0",1,-3,-87,0,0,0,65,67,86,80,94,-19.03,36,-6.0,125.0,-1003.0,16:41:42.116555,192.168.0.113
1819,-1,-100,-100,-100,"0,0,0",1,-4,-87,0,0,0,65,67,87,80,94,-19.01,36,1.0,84.0,-955.0,16:41:42.218681,192.168.0.113
1824,-1,-100,-100,-100,"0,0,0",1,-6,-87,0,0,0,65,67,88,80,94,-18.92,36,23.0,105.0,-954.0,16:41:42.321367,192.168.0.113
1829,-1,-100,-100,-100,"0,0,0",0,-6,-87,0,0,0,65,67,88,80,94,-19.03,36,30.0,81.0,-976.0,16:41:42.422453,192.168.0.113
1834,-1,-100,-100,-100,"0,0,0",1,-6,-87,0,0,0,65,67,86,80,94,-19.04,36,5.0,75.0,-1041.0,16:41:42.524712,192.168.0.113
1839,-1,-100,-100,-100,"0,0,0",2,-5,-87,0,0,0,65,67,86,80,94,-19.06,36,-19.0,76.0,-1004.0,16:41:42.626569,192.168.0.113
1844,-1,-100,-100,-100,"0,0,0",1,-5,-87,0,0,0,65,67,85,80,94,-19.09,36,-6.0,100.0,-988.0,16:41:42.730567,192.168.0.113
1849,-1,-100,-100,-100,"0,0,0",0,-4,-87,0,0,0,65,67,85,80,94,-19.04,36,41.0,58.0,-930.0,16:41:42.830771,192.168.0.113
1854,-1,-100,-100,-100,"0,0,0",2,-5,-87,0,0,0,65,66,84,80,94,-19.16,36,-1.0,80.0,-1019.0,16:41:42.932652,192.168.0.113
1859,-1,-100,-100,-100,"0,0,0",3,-4,-87,0,0,0,65,66,83,80,94,-19.07,37,44.0,80.0,-1019.0,16:41:43.034632,192.168.0.113
1864,-1,-100,-100,-100,"0,0,0",3,-4,-87,0,0,0,65,66,82,80,94,-19.09,37,18.0,69.0,-995.0,16:41:43.136746,192.168.0.113
1869,-1,-100,-100,-100,"0,0,0",3,-4,-87,0,0,0,65,66,82,80,94,-19.01,37,54.0,63.0,-986.0,16:41:43.238624,192.168.0.113
1874,-1,-100,-100,-100,"0,0,0",3,-3,-87,0,0,0,65,66,82,80,94,-19.15,37,0.0,61.0,-985.0,16:41:43.340700,192.168.0.113
1879,-1,-100,-100,-100,"0,0,0",4,-2,-87,0,0,0,65,66,81,80,94,-19.14,37,39.0,54.0,-967.0,16:41:43.442414,192.168.0.113
1884,-1,-100,-100,-100,"0,0,0",2,-2,-87,0,0,0,65,66,81,70,94,-19.0,37,32.0,75.0,-1026.0,16:41:43.544576,192.168.0.113
1889,-1,-100,-100,-100,"0,0,0",2,-4,-87,0,0,0,65,66,81,70,94,-19.01,37,5.0,42.0,-1030.0,16:41:43.646773,192.168.0.113
1894,-1,-100,-100,-100,"0,0,0",3,-5,-87,0,0,0,65,66,81,70,94,-19.13,37,58.0,82.0,-1029.0,16:41:43.748828,192.168.0.113
1899,-1,-100,-100,-100,"0,0,0",3,-3,-87,0,0,0,65,66,82,70,94,-19.11,37,51.0,90.0,-1008.0,16:41:43.800530,192.168.0.113
1905,-1,-100,-100,-100,"0,0,0",3,-3,-87,0,0,0,64,67,82,70,94,-19.01,37,67.0,54.0,-962.0,16:41:43.952754,192.168.0.113
1910,-1,-100,-100,-100,"0,0,0",3,-4,-87,0,0,0,64,67,83,70,94,-18.99,38,23.0,48.0,-918.0,16:41:44.054405,192.168.0.113
1914,-1,-100,-100,-100,"0,0,0",4,-4,-87,0,0,0,64,67,83,80,94,-19.02,38,16.0,50.0,-963.0,16:41:44.105468,192.168.0.113
1919,-1,-100,-100,-100,"0,0,0",4,-3,-87,0,0,0,64,67,83,80,94,-18.91,38,44.0,44.0,-1018.0,16:41:44.207520,192.168.0.113
1924,-1,-100,-100,-100,"0,0,0",2,-2,-87,0,0,0,64,67,83,80,94,-19.13,38,-21.0,60.0,-1029.0,16:41:44.309566,192.168.0.113
1929,-1,-100,-100,-100,"0,0,0",1,-3,-88,0,-1,0,64,67,84,80,94,-19.22,38,-19.0,73.0,-967.0,16:41:44.411569,192.168.0.113
1934,-1,-100,-100,-100,"0,0,0",0,-3,-88,0,-1,0,64,67,84,80,94,-19.11,38,-48.0,45.0,-978.0,16:41:44.513440,192.168.0.113
1939,-1,-100,-100,-100,"0,0,0",0,-4,-87,0,-2,0,64,67,85,80,94,-19.08,38,24.0,78.0,-930.0,16:41:44.615507,192.168.0.113
1944,-1,-100,-100,-100,"0,0,0",-1,-2,-87,0,-1,0,64,67,85,80,94,-19.03,38,-6.0,51.0,-993.0,16:41:44.717433,192.168.0.113
1949,-1,-100,-100,-100,"0,0,0",0,-3,-87,0,-1,0,64,67,85,80,94,-19.16,38,-3.0,74.0,-965.0,16:41:44.819515,192.168.0.113
1954,-1,-100,-100,-100,"0,0,0",0,-4,-87,0,-1,0,64,67,85,80,94,-18.99,38,11.0,54.0,-1054.0,16:41:44.922141,192.168.0.113
1959,-1,-100,-100,-100,"0,0,0",0,-4,-88,0,-1,0,64,67,86,80,94,-19.15,39,8.0,70.0,-1006.0,16:41:45.023591,192.168.0.113
1964,-1,-100,-100,-100,"0,0,0",0,-2,-88,0,-1,0,64,67,85,80,94,-19.1,39,15.0,68.0,-960.0,16:41:45.125661,192.168.0.113
1969,-1,-100,-100,-100,"0,0,0",0,-3,-88,0,-1,0,64,67,86,80,94,-19.16,39,-73.0,125.0,-1017.0,16:41:45.227519,192.168.0.113
1974,-1,-100,-100,-100,"0,0,0",-1,-6,-87,-1,-1,0,64,67,87,80,94,-19.0,39,0.0,105.0,-992.0,16:41:45.329719,192.168.0.113
1979,-1,-100,-100,-100,"0,0,0",-1,-7,-87,-1,-1,0,64,67,87,80,94,-19.13,39,10.0,97.0,-936.0,16:41:45.431364,192.168.0.113
1984,-1,-100,-100,-100,"0,0,0",0,-8,-87,0,-1,0,64,67,87,80,94,-19.09,39,-45.0,123.0,-1003.0,16:41:45.535742,192.168.0.113
1989,-1,-100,-100,-100,"0,0,0",-2,-7,-87,0,-1,0,64,67,86,80,94,-19.06,39,-52.0,115.0,-1026.0,16:41:45.635524,192.168.0.113
1994,-1,-100,-100,-100,"0,0,0",-1,-6,-87,0,-1,0,64,67,87,80,94,-19.13,39,-64.0,89.0,-978.0,16:41:45.739175,192.168.0.113
1999,-1,-100,-100,-100,"0,0,0",-1,-5,-86,0,0,0,64,67,86,80,94,-19.01,39,-5.0,118.0,-970.0,16:41:45.840398,192.168.0.113
2004,-1,-100,-100,-100,"0,0,0",-1,-9,-86,0,0,0,64,67,86,80,94,-18.88,40,-28.0,102.0,-1029.0,16:41:45.943098,192.168.0.113
2009,-1,-100,-100,-100,"0,0,0",0,-9,-87,0,0,0,64,67,87,80,94,-18.95,40,26.0,88.0,-995.0,16:41:46.046061,192.168.0.113
2014,-1,-100,-100,-100,"0,0,0",0,-5,-86,0,0,0,64,67,86,80,94,-19.09,40,32.0,76.0,-1063.0,16:41:46.146730,192.168.0.113
2019,-1,-100,-100,-100,"0,0,0",0,-4,-86,0,0,0,64,67,86,80,94,-18.88,40,4.0,148.0,-977.0,16:41:46.248461,192.168.0.113
2024,-1,-100,-100,-100,"0,0,0",0,-5,-86,0,0,0,64,67,86,80,94,-18.95,40,29.0,82.0,-1014.0,16:41:46.350854,192.168.0.113
2029,-1,-100,-100,-100,"0,0,0",0,-6,-86,0,0,0,64,67,86,80,94,-18.84,40,42.0,121.0,-939.0,16:41:46.453295,192.168.0.113
2034,-1,-100,-100,-100,"0,0,0",2,-7,-86,0,0,0,64,67,88,80,94,-18.79,40,-10.0,89.0,-1010.0,16:41:46.555589,192.168.0.113
2039,-1,-100,-100,-100,"0,0,0",1,-5,-86,0,0,0,64,67,88,80,94,-19.05,40,-13.0,73.0,-929.0,16:41:46.657976,192.168.0.113
2044,-1,-100,-100,-100,"0,0,0",0,-4,-87,0,0,0,64,67,88,80,94,-18.96,40,-18.0,60.0,-1021.0,16:41:46.760583,192.168.0.113
2049,-1,-100,-100,-100,"0,0,0",0,-4,-87,0,0,0,64,67,87,80,94,-18.9,40,-47.0,71.0,-1068.0,16:41:46.862797,192.168.0.113
2055,-1,-100,-100,-100,"0,0,0",1,-4,-87,0,0,0,65,67,87,80,94,-19.06,41,-70.0,53.0,-996.0,16:41:46.962665,192.168.0.113
2060,-1,-100,-100,-100,"0,0,0",0,-3,-88,0,0,0,65,67,87,80,94,-19.14,41,-41.0,67.0,-951.0,16:41:47.064884,192.168.0.113
2065,-1,-100,-100,-100,"0,0,0",0,-2,-87,0,0,0,65,67,85,80,94,-19.14,41,-16.0,84.0,-1077.0,16:41:47.166746,192.168.0.113
2070,-1,-100,-100,-100,"0,0,0",-2,-3,-87,0,0,0,65,67,84,80,94,-19.15,41,-7.0,142.0,-1010.0,16:41:47.268697,192.168.0.113
2075,-1,-100,-100,-100,"0,0,0",-1,-6,-86,0,0,0,65,67,84,80,94,-19.06,41,28.0,106.0,-947.0,16:41:47.371700,192.168.0.113
2079,-1,-100,-100,-100,"0,0,0",0,-9,-87,0,0,0,65,67,84,80,94,-19.0,41,26.0,83.0,-985.0,16:41:47.421788,192.168.0.113
2084,-1,-100,-100,-100,"0,0,0",1,-8,-86,0,0,0,65,67,86,80,94,-18.91,41,34.0,84.0,-1050.0,16:41:47.523581,192.168.0.113
2089,-1,-100,-100,-100,"0,0,0",1,-4,-86,0,0,0,65,67,86,80,94,-18.78,41,56.0,140.0,-1013.0,16:41:47.625592,192.168.0.113
2094,-1,-100,-100,-100,"0,0,0",3,-6,-86,0,1,0,65,67,87,80,94,-19.05,41,56.0,67.0,-988.0,16:41:47.727750,192.168.0.113
2099,-1,-100,-100,-100,"0,0,0",3,-6,-86,0,1,0,65,67,88,80,94,-19.05,41,30.0,69.0,-963.0,16:41:47.829119,192.168.0.113
2104,-1,-100,-100,-100,"0,0,0",3,-6,-87,0,0,0,65,67,88,80,94,-19.08,42,20.0,124.0,-1034.0,16:41:47.931525,192.168.0.113
2109,-1,-100,-100,-100,"0,0,0",3,-4,-87,0,0,0,65,67,88,80,94,-19.04,42,26.0,120.0,-937.0,16:41:48.033624,192.168.0.113
2114,-1,-100,-100,-100,"0,0,0",3,-7,-87,0,0,0,65,67,88,80,94,-19.03,42,26.0,102.0,-1004.0,16:41:48.135601,192.168.0.113
2119,-1,-100,-100,-100,"0,0,0",2,-5,-87,0,0,0,65,67,88,80,94,-19.15,42,10.0,133.0,-935.0,16:41:48.237707,192.168.0.113
2124,-1,-100,-100,-100,"0,0,0",2,-6,-87,0,0,0,65,67,89,80,94,-19.27,42,10.0,56.0,-955.0,16:41:48.339563,192.168.0.113
2129,-1,-100,-100,-100,"0,0,0",1,-6,-87,0,0,0,65,67,88,80,94,-19.19,42,-76.0,71.0,-1032.0,16:41:48.441689,192.168.0.113
2134,-1,-100,-100,-100,"0,0,0",1,-4,-87,0,0,0,65,67,89,80,94,-19.01,42,32.0,71.0,-946.0,16:41:48.544038,192.168.0.113
2139,-1,-100,-100,-100,"0,0,0",0,-4,-86,0,0,0,65,67,89,80,94,-18.99,42,108.0,73.0,-1029.0,16:41:48.646280,192.168.0.113
2144,-1,-100,-100,-100,"0,0,0",1,-4,-86,0,0,0,65,67,89,80,94,-19.24,42,51.0,72.0,-956.0,16:41:48.748024,192.168.0.113
2149,-1,-100,-100,-100,"0,0,0",4,-4,-87,0,0,0,65,67,88,80,94,-18.89,42,23.0,92.0,-981.0,16:41:48.849521,192.168.0.113
2154,-1,-100,-100,-100,"0,0,0",4,-5,-87,0,0,0,64,68,89,80,94,-18.96,43,-4.0,114.0,-996.0,16:41:48.952147,192.168.0.113
2159,-1,-100,-100,-100,"0,0,0",4,-4,-87,0,0,0,64,68,88,80,94,-19.04,43,13.0,77.0,-981.0,16:41:49.053381,192.168.0.113
2164,-1,-100,-100,-100,"0,0,0",3,-4,-86,0,0,0,64,68,87,80,94,-19.0,43,50.0,74.0,-986.0,16:41:49.156844,192.168.0.113
2169,-1,-100,-100,-100,"0,0,0",3,-5,-86,0,0,0,64,68,88,80,94,-19.05,43,56.0,48.0,-1002.0,16:41:49.257816,192.168.0.113
2174,-1,-100,-100,-100,"0,0,0",2,-4,-86,0,0,0,64,68,87,80,94,-19.01,43,63.0,37.0,-999.0,16:41:49.359383,192.168.0.113
2179,-1,-100,-100,-100,"0,0,0",3,-2,-87,0,0,0,64,68,87,80,94,-19.07,43,47.0,105.0,-997.0,16:41:49.464746,192.168.0.113
2184,-1,-100,-100,-100,"0,0,0",4,-3,-87,0,0,0,64,68,88,80,94,-19.14,43,21.0,61.0,-987.0,16:41:49.565843,192.168.0.113
2189,-1,-100,-100,-100,"0,0,0",4,-3,-87,0,0,0,64,68,87,80,94,-19.13,43,69.0,30.0,-949.0,16:41:49.665686,192.168.0.113
2194,-1,-100,-100,-100,"0,0,0",3,-2,-87,0,0,0,64,68,87,80,94,-19.18,43,15.0,79.0,-994.0,16:41:49.767840,192.168.0.113
2199,-1,-100,-100,-100,"0,0,0",2,-2,-87,0,0,0,64,68,86,80,94,-19.06,43,-3.0,67.0,-966.0,16:41:49.873223,192.168.0.113
2204,-1,-100,-100,-100,"0,0,0",2,-3,-87,0,0,0,65,66,86,80,94,-19.09,44,22.0,91.0,-989.0,16:41:49.971645,192.168.0.113
2209,-1,-100,-100,-100,"0,0,0",1,-4,-87,0,0,0,65,66,86,80,94,-19.13,44,44.0,66.0,-983.0,16:41:50.080308,192.168.0.113
2214,-1,-100,-100,-100,"0,0,0",1,-5,-87,0,0,0,65,66,85,80,94,-19.16,44,37.0,72.0,-1005.0,16:41:50.175550,192.168.0.113
2219,-1,-100,-100,-100,"0,0,0",1,-5,-88,0,0,0,65,66,85,80,94,-19.18,44,5.0,65.0,-990.0,16:41:50.280671,192.168.0.113
2225,-1,-100,-100,-100,"0,0,0",2,-3,-88,0,-1,0,65,66,84,80,94,-19.12,44,-7.0,71.0,-986.0,16:41:50.379492,192.168.0.113
2230,-1,-100,-100,-100,"0,0,0",1,-4,-88,0,-1,0,65,66,83,80,94,-19.06,44,-43.0,76.0,-1020.0,16:41:50.481548,192.168.0.113
2234,-1,-100,-100,-100,"0,0,0",-1,-2,-87,0,-2,0,65,66,82,70,94,-19.3,44,27.0,130.0,-1032.0,16:41:50.585144,192.168.0.113
2239,-1,-100,-100,-100,"0,0,0",-1,-3,-86,0,-1,0,65,66,83,70,94,-18.85,44,38.0,93.0,-969.0,16:41:50.685729,192.168.0.113
2245,-1,-100,-100,-100,"0,0,0",0,-5,-86,0,0,0,65,66,83,70,94,-18.99,44,31.0,54.0,-1024.0,16:41:50.787333,192.168.0.113
2249,-1,-100,-100,-100,"0,0,0",1,-5,-86,0,0,0,65,66,83,70,94,-19.15,44,14.0,75.0,-1045.0,16:41:50.838641,192.168.0.113
2254,-1,-100,-100,-100,"0,0,0",2,-4,-86,0,0,0,64,68,82,70,94,-19.03,45,-1.0,97.0,-986.0,16:41:50.941673,192.168.0.113
2259,-1,-100,-100,-100,"0,0,0",1,-5,-87,0,0,0,64,68,84,70,94,-19.13,45,19.0,126.0,-1028.0,16:41:51.042902,192.168.0.113
2264,-1,-100,-100,-100,"0,0,0",1,-5,-86,-1,0,0,64,68,84,80,94,-19.05,45,11.0,121.0,-921.0,16:41:51.144840,192.168.0.113
2269,-1,-100,-100,-100,"0,0,0",0,-8,-86,0,0,0,64,68,85,80,94,-19.15,45,34.0,56.0,-1024.0,16:41:51.246714,192.168.0.113
2274,-1,-100,-100,-100,"0,0,0",0,-7,-86,0,0,0,64,68,85,80,94,-19.21,45,9.0,74.0,-968.0,16:41:51.348787,192.168.0.113
2279,-1,-100,-100,-100,"0,0,0",2,-5,-87,0,0,0,64,68,84,80,94,-19.17,45,-4.0,109.0,-996.0,16:41:51.451295,192.168.0.113
2284,-1,-100,-100,-100,"0,0,0",0,-6,-87,0,0,0,64,68,85,80,94,-19.35,45,-53.0,105.0,-1013.0,16:41:51.552615,192.168.0.113
2289,-1,-100,-100,-100,"0,0,0",0,-4,-88,0,-1,0,64,68,84,80,94,-19.38,45,-48.0,129.0,-1016.0,16:41:51.654727,192.168.0.113
2294,-1,-100,-100,-100,"0,0,0",-1,-5,-87,0,-1,0,64,68,83,80,94,-19.28,45,0.0,133.0,-960.0,16:41:51.756666,192.168.0.113
2299,-1,-100,-100,-100,"0,0,0",0,-6,-87,0,-1,0,64,68,84,80,94,-18.98,45,-26.0,50.0,-1008.0,16:41:51.858731,192.168.0.113
2304,-1,-100,-100,-100,"0,0,0",-1,-5,-86,0,0,0,65,66,83,80,94,-19.05,46,62.0,75.0,-987.0,16:41:51.962762,192.168.0.113
2309,-1,-100,-100,-100,"0,0,0",0,-6,-86,0,0,0,65,66,83,70,94,-19.13,46,38.0,74.0,-976.0,16:41:52.062888,192.168.0.113
2314,-1,-100,-100,-100,"0,0,0",3,-4,-86,0,0,0,65,66,82,70,94,-19.11,46,-42.0,83.0,-980.0,16:41:52.164697,192.168.0.113
2319,-1,-100,-100,-100,"0,0,0",1,-5,-87,0,0,0,65,66,82,70,94,-19.21,46,29.0,20.0,-1029.0,16:41:52.266593,192.168.0.113
2324,-1,-100,-100,-100,"0,0,0",2,-4,-86,0,0,0,65,66,81,70,94,-19.2,46,-3.0,71.0,-991.0,16:41:52.369189,192.168.0.113
2329,-1,-100,-100,-100,"0,0,0",1,-3,-87,0,0,0,65,66,81,70,94,-19.19,46,20.0,121.0,-976.0,16:41:52.470829,192.168.0.113
2334,-1,-100,-100,-100,"0,0,0",1,-1,-87,0,0,0,65,66,81,70,94,-19.04,46,20.0,101.0,-969.0,16:41:52.572755,192.168.0.113
2339,-1,-100,-100,-100,"0,0,0",2,-4,-86,0,0,0,65,66,82,70,94,-18.9,46,25.0,113.0,-980.0,16:41:52.676745,192.168.0.113
2344,-1,-100,-100,-100,"0,0,0",3,-6,-86,0,0,0,65,66,82,70,94,-19.12,46,57.0,62.0,-1021.0,16:41:52.776767,192.168.0.113
2349,-1,-100,-100,-100,"0,0,0",4,-4,-87,0,0,0,65,66,82,80,94,-19.23,46,32.0,88.0,-945.0,16:41:52.879495,192.168.0.113
2354,-1,-100,-100,-100,"0,0,0",5,-4,-87,0,0,0,65,66,83,80,94,-19.04,47,-23.0,115.0,-968.0,16:41:52.980937,192.168.0.113
2359,-1,-100,-100,-100,"0,0,0",3,-5,-87,0,0,0,65,66,83,80,94,-18.79,47,-18.0,146.0,-938.0,16:41:53.083164,192.168.0.113
2364,-1,-100,-100,-100,"0,0,0",0,-6,-86,0,0,0,65,66,83,80,94,-18.95,47,-10.0,140.0,-1015.0,16:41:53.184827,192.168.0.113
2369,-1,-100,-100,-100,"0,0,0",0,-7,-87,0,0,0,65,66,83,80,94,-19.02,47,8.0,80.0,-965.0,16:41:53.287070,192.168.0.113
2374,-1,-100,-100,-100,"0,0,0",0,-7,-87,0,0,0,65,66,83,80,94,-18.76,47,48.0,77.0,-1011.0,16:41:53.388675,192.168.0.113
2379,-1,-100,-100,-100,"0,0,0",1,-5,-86,0,0,0,65,66,83,80,94,-18.99,47,78.0,85.0,-1032.0,16:41:53.490383,192.168.0.113
2384,-1,-100,-100,-100,"0,0,0",2,-5,-87,0,0,0,65,66,83,80,94,-19.11,47,58.0,77.0,-975.0,16:41:53.592724,192.168.0.113
2389,-1,-100,-100,-100,"0,0,0",3,-5,-87,0,0,0,65,66,83,80,94,-19.0,47,58.0,95.0,-978.0,16:41:53.694788,192.168.0.113
2394,-1,-100,-100,-100,"0,0,0",4,-3,-88,0,0,0,65,66,82,80,94,-19.17,47,63.0,107.0,-963.0,16:41:53.796807,192.168.0.113
2399,-1,-100,-100,-100,"0,0,0",4,-4,-87,0,0,0,65,66,82,80,94,-18.83,47,21.0,107.0,-1010.0,16:41:53.847731,192.168.0.113
2405,-1,-100,-100,-100,"0,0,0",3,-7,-86,0,0,0,65,67,82,70,94,-19.07,48,34.0,89.0,-1047.0,16:41:54.000897,192.168.0.113
2410,-1,-100,-100,-100,"0,0,0",3,-5,-87,0,0,0,65,67,81,70,94,-19.19,48,-12.0,69.0,-999.0,16:41:54.102870,192.168.0.113
2415,-1,-100,-100,-100,"0,0,0",3,-6,-88,0,0,0,65,67,81,70,94,-19.17,48,-19.0,107.0,-988.0,16:41:54.204765,192.168.0.113
2420,-1,-100,-100,-100,"0,0,0",0,-4,-87,0,-1,0,65,67,81,70,94,-19.04,48,35.0,107.0,-941.0,16:41:54.306695,192.168.0.113
2424,-1,-100,-100,-100,"0,0,0",-1,-5,-87,0,-1,0,65,67,83,70,94,-19.08,48,29.0,136.0,-960.0,16:41:54.357463,192.168.0.113
2429,-1,-100,-100,-100,"0,0,0",0,-7,-87,0,0,0,65,67,82,70,94,-18.98,48,-17.0,97.0,-1020.0,16:41:54.459707,192.168.0.113
2434,-1,-100,-100,-100,"0,0,0",0,-8,-87,0,0,0,65,67,84,70,94,-19.24,48,-16.0,128.0,-989.0,16:41:54.561711,192.168.0.113
2439,-1,-100,-100,-100,"0,0,0",0,-7,-87,0,0,0,65,67,83,70,94,-19.13,48,46.0,72.0,-984.0,16:41:54.663645,192.168.0.113
2444,-1,-100,-100,-100,"0,0,0",0,-5,-87,0,0,0,65,67,84,80,94,-19.36,48,-12.0,57.0,-1015.0,16:41:54.765760,192.168.0.113
2449,-1,-100,-100,-100,"0,0,0",0,-4,-87,1,0,0,65,67,84,80,94,-19.18,48,27.0,50.0,-968.0,16:41:54.867691,192.168.0.113
2454,-1,-100,-100,-100,"0,0,0",0,-4,-86,1,0,0,63,67,85,80,94,-19.2,49,8.0,38.0,-1005.0,16:41:54.969661,192.168.0.113
2459,-1,-100,-100,-100,"0,0,0",1,-2,-86,1,0,0,63,67,84,80,94,-19.08,49,37.0,52.0,-1001.0,16:41:55.071607,192.168.0.113
2464,-1,-100,-100,-100,"0,0,0",1,-2,-86,1,0,0,63,67,84,80,94,-19.19,49,27.0,71.0,-963.0,16:41:55.176322,192.168.0.113
2469,-1,-100,-100,-100,"0,0,0",1,-1,-86,0,0,0,63,67,83,80,94,-18.93,49,7.0,43.0,-973.0,16:41:55.275455,192.168.0.113
2474,-1,-100,-100,-100,"0,0,0",1,-3,-86,0,0,0,63,67,83,80,94,-19.21,49,37.0,48.0,-954.0,16:41:55.377501,192.168.0.113
2479,-1,-100,-100,-100,"0,0,0",2,-3,-86,0,0,0,63,67,83,80,94,-19.26,49,60.0,42.0,-978.0,16:41:55.479637,192.168.0.113
2484,-1,-100,-100,-100,"0,0,0",1,-2,-87,0,0,0,63,67,83,80,94,-19.26,49,62.0,89.0,-1032.0,16:41:55.581782,192.168.0.113
2489,-1,-100,-100,-100,"0,0,0",2,-4,-87,0,0,0,63,67,83,80,94,-18.98,49,10.0,61.0,-1035.0,16:41:55.683712,192.168.0.113
2494,-1,-100,-100,-100,"0,0,0",2,-4,-87,0,0,0,63,67,83,80,94,-18.84,49,10.0,101.0,-958.0,16:41:55.785226,192.168.0.113
2499,-1,-100,-100,-100,"0,0,0",3,-4,-86,0,0,0,63,67,83,80,94,-19.01,49,48.0,77.0,-1037.0,16:41:55.887621,192.168.0.113
2504,-1,-100,-100,-100,"0,0,0",1,-5,-86,0,0,0,65,67,83,80,94,-18.97,50,42.0,85.0,-1020.0,16:41:55.989625,192.168.0.113
2509,-1,-100,-100,-100,"0,0,0",2,-4,-87,0,0,0,65,67,84,80,94,-18.99,50,60.0,71.0,-1004.0,16:41:56.091694,192.168.0.113
2514,-1,-100,-100,-100,"0,0,0",3,-3,-87,0,0,0,65,67,84,80,94,-19.15,50,60.0,105.0,-916.0,16:41:56.193611,192.168.0.113
2519,-1,-100,-100,-100,"0,0,0",3,-5,-87,0,0,0,65,67,84,80,94,-18.99,50,18.0,127.0,-1033.0,16:41:56.295659,192.168.0.113
2524,-1,-100,-100,-100,"0,0,0",2,-7,-88,0,0,0,65,67,85,80,94,-19.18,50,2.0,97.0,-1001.0,16:41:56.397651,192.168.0.113
2529,-1,-100,-100,-100,"0,0,0",1,-7,-87,0,0,0,65,67,84,80,94,-18.93,50,19.0,92.0,-991.0,16:41:56.499499,192.168.0.113
2534,-1,-100,-100,-100,"0,0,0",2,-6,-87,0,0,0,65,67,84,80,94,-18.99,50,25.0,104.0,-979.0,16:41:56.604034,192.168.0.113
