,mid,x,y,z,mpry,pitch,roll,yaw,vgx,vgy,vgz,templ,temph,tof,h,bat,baro,time,agx,agy,agz,timestamp,address
3,-1,-100,-100,-100,"0,0,0",0,0,0,0,0,0,59,62,10,0,100,-19.07,0,7.0,-6.0,-999.0,16:41:05.747260,192.168.0.111
8,-1,-100,-100,-100,"0,0,0",0,0,0,0,0,0,59,62,10,0,100,-19.09,0,5.0,-7.0,-998.0,16:41:05.849033,192.168.0.111
13,-1,-100,-100,-100,"0,0,0",0,0,0,0,0,0,59,62,10,0,100,-19.04,0,4.0,-5.0,-999.0,16:41:05.951079,192.168.0.111
18,-1,-100,-100,-100,"0,0,0",0,0,0,0,0,0,59,62,10,0,100,-19.05,0,1.0,-5.0,-1000.0,16:41:06.053244,192.168.0.111
23,-1,-100,-100,-100,"0,0,0",0,0,0,0,0,0,59,62,10,0,100,-19.05,0,4.0,-2.0,-1000.0,16:41:06.155066,192.168.0.111
28,-1,-100,-100,-100,"0,0,0",0,0,0,0,0,0,59,62,10,0,100,-19.05,0,-7.0,-7.0,-1014.0,16:41:06.257468,192.168.0.111
33,-1,-100,-100,-100,"0,0,0",0,0,0,0,0,0,59,62,10,0,100,-19.05,0,-24.0,21.0,-1035.0,16:41:06.359910,192.168.0.111
39,-1,-100,-100,-100,"0,0,0",-1,0,0,0,0,1,59,62,10,0,100,-19.05,0,-3.0,5.0,-1216.0,16:41:06.461169,192.168.0.111
44,-1,-100,-100,-100,"0,0,0",0,0,0,0,0,4,59,62,10,0,100,-19.05,0,33.0,-1.0,-1378.0,16:41:06.569667,192.168.0.111
49,-1,-100,-100,-100,"0,0,0",1,0,0,0,0,7,58,62,11,0,100,-19.01,0,0.0,-2.0,-1155.0,16:41:06.665560,192.168.0.111
54,-1,-100,-100,-100,"0,0,0",1,0,0,0,0,8,58,62,20,10,100,-18.76,0,16.0,11.0,-1042.0,16:41:06.769825,192.168.0.111
59,-1,-100,-100,-100,"0,0,0",1,0,0,0,0,8,58,62,28,20,100,-18.67,0,13.0,12.0,-981.0,16:41:06.869356,192.168.0.111
61,-1,-100,-100,-100,"0,0,0",1,-1,0,0,0,7,58,62,36,20,100,-18.59,1,7.0,3.0,-923.0,16:41:06.920484,192.168.0.111
66,-1,-100,-100,-100,"0,0,0",1,0,0,0,0,6,58,62,43,30,100,-18.46,1,11.0,-1.0,-893.0,16:41:07.022020,192.168.0.111
71,-1,-100,-100,-100,"0,0,0",0,0,0,0,0,5,58,62,51,40,100,-18.5,1,10.0,3.0,-881.0,16:41:07.124044,192.168.0.111
76,-1,-100,-100,-100,"0,0,0",0,0,0,0,0,4,58,62,56,40,100,-18.41,1,22.0,5.0,-899.0,16:41:07.226333,192.168.0.111
81,-1,-100,-100,-100,"0,0,0",1,0,0,0,0,3,58,62,61,40,100,-18.36,1,19.0,8.0,-914.0,16:41:07.328493,192.168.0.111
87,-1,-100,-100,-100,"0,0,0",1,0,0,0,0,2,58,62,65,50,100,-18.29,1,22.0,8.0,-927.0,16:41:07.430552,192.168.0.111
92,-1,-100,-100,-100,"0,0,0",1,0,0,0,0,2,58,62,68,50,100,-18.25,1,21.0,8.0,-953.0,16:41:07.532490,192.168.0.111
98,3,0,-2,60,"-2,-1,-178",1,0,0,0,0,1,59,63,71,50,100,-18.24,1,20.0,11.0,-962.0,16:41:07.635136,192.168.0.111
103,3,0,-2,60,"-2,-1,-178",1,0,0,0,0,1,59,63,73,50,100,-18.18,1,24.0,5.0,-971.0,16:41:07.736912,192.168.0.111
108,3,0,-2,60,"-2,-1,-178",1,0,0,0,0,1,59,63,74,60,100,-18.22,1,25.0,1.0,-978.0,16:41:07.838887,192.168.0.111
113,3,0,-2,60,"-2,-1,-178",1,0,0,0,0,1,59,63,76,60,100,-18.18,2,28.0,8.0,-968.0,16:41:07.940391,192.168.0.111
118,3,0,-2,73,"-3,-1,-178",1,0,0,0,0,0,59,63,78,60,100,-18.12,2,35.0,-1.0,-981.0,16:41:08.042034,192.168.0.111
123,3,0,-2,73,"-3,-1,-178",1,0,0,0,0,0,59,63,79,60,100,-18.13,2,18.0,0.0,-970.0,16:41:08.144551,192.168.0.111
128,3,0,-2,73,"-3,-1,-178",1,0,0,0,0,0,59,63,80,60,100,-18.09,2,21.0,-2.0,-1003.0,16:41:08.246566,192.168.0.111
133,3,0,-2,73,"-3,-1,-178",1,0,0,0,0,0,59,63,82,60,100,-18.1,2,31.0,-3.0,-985.0,16:41:08.348473,192.168.0.111
138,3,0,-3,81,"-4,-1,-176",1,0,0,0,0,0,59,63,82,60,100,-18.14,2,21.0,4.0,-977.0,16:41:08.450185,192.168.0.111
143,3,0,-3,81,"-4,-1,-176",1,0,0,0,0,0,59,63,83,70,100,-18.15,2,28.0,-4.0,-989.0,16:41:08.552604,192.168.0.111
148,3,0,-3,81,"-4,-1,-176",1,0,0,0,0,0,59,62,83,70,100,-18.12,2,24.0,-1.0,-983.0,16:41:08.654628,192.168.0.111
153,3,-1,-2,85,"-6,-1,-177",1,0,0,0,0,0,59,62,85,70,100,-18.12,2,20.0,-3.0,-975.0,16:41:08.756926,192.168.0.111
158,3,-1,-2,85,"-6,-1,-177",1,0,0,0,0,0,59,62,85,70,100,-18.16,2,27.0,-15.0,-985.0,16:41:08.858557,192.168.0.111
163,3,-1,-2,85,"-6,-1,-177",1,0,0,0,0,0,59,62,85,70,100,-18.11,3,15.0,7.0,-990.0,16:41:08.960646,192.168.0.111
168,3,-1,-2,85,"-6,-1,-177",1,0,0,0,0,0,59,62,86,70,100,-18.12,3,31.0,3.0,-982.0,16:41:09.062584,192.168.0.111
173,3,0,-4,87,"-5,-1,-175",1,0,0,0,0,0,59,62,86,70,100,-18.04,3,18.0,4.0,-997.0,16:41:09.164886,192.168.0.111
178,3,0,-4,87,"-5,-1,-175",1,0,0,0,0,0,59,62,86,70,100,-18.16,3,29.0,-11.0,-982.0,16:41:09.266552,192.168.0.111
183,3,0,-4,87,"-5,-1,-175",1,0,0,0,0,0,59,62,86,70,100,-18.17,3,26.0,6.0,-995.0,16:41:09.368553,192.168.0.111
188,3,0,-4,87,"-5,-1,-175",1,0,0,0,0,0,59,62,87,70,100,-18.05,3,29.0,-10.0,-987.0,16:41:09.470485,192.168.0.111
191,3,-2,-4,89,"-5,-1,-174",1,0,0,0,0,0,59,62,86,70,100,-18.08,3,31.0,6.0,-996.0,16:41:09.521709,192.168.0.111
196,3,-2,-4,89,"-5,-1,-174",1,0,0,0,0,0,59,62,86,70,100,-18.15,3,28.0,3.0,-991.0,16:41:09.623909,192.168.0.111
201,3,-2,-4,89,"-5,-1,-174",1,0,0,0,0,0,59,62,86,70,100,-18.16,3,23.0,-1.0,-992.0,16:41:09.725490,192.168.0.111
206,3,-2,-4,89,"-5,-1,-174",1,0,0,0,0,0,59,62,85,70,100,-18.1,3,19.0,-11.0,-1006.0,16:41:09.827837,192.168.0.111
211,3,-2,-3,88,"-5,0,-175",1,0,0,0,0,0,59,62,84,70,100,-18.13,4,12.0,8.0,-1010.0,16:41:09.929406,192.168.0.111
217,3,-2,-3,88,"-5,0,-175",1,0,0,0,0,0,59,62,84,70,100,-18.19,4,24.0,-5.0,-998.0,16:41:10.031483,192.168.0.111
222,3,-2,-3,88,"-5,0,-175",1,0,0,0,0,0,59,62,84,70,100,-18.2,4,26.0,7.0,-1006.0,16:41:10.133721,192.168.0.111
228,3,-2,-5,87,"-4,-1,-173",1,0,0,0,0,0,59,62,83,70,100,-18.09,4,20.0,5.0,-1004.0,16:41:10.235695,192.168.0.111
233,3,-2,-5,87,"-4,-1,-173",0,0,0,0,0,0,59,62,83,70,100,-18.1,4,30.0,-5.0,-993.0,16:41:10.337596,192.168.0.111
238,3,-2,-5,87,"-4,-1,-173",1,0,0,0,0,0,59,62,83,70,100,-18.16,4,21.0,4.0,-1002.0,16:41:10.439468,192.168.0.111
243,3,-2,-5,87,"-4,-1,-173",1,0,0,0,0,0,59,62,82,70,100,-18.21,4,32.0,-8.0,-1012.0,16:41:10.541569,192.168.0.111
248,3,-2,-1,86,"-4,-1,-175",1,0,0,0,0,0,59,63,82,70,100,-18.17,4,22.0,-4.0,-1003.0,16:41:10.643844,192.168.0.111
253,3,-2,-1,86,"-4,-1,-175",1,0,0,0,0,0,59,63,82,70,100,-18.22,4,22.0,0.0,-1007.0,16:41:10.745368,192.168.0.111
258,3,-2,-1,86,"-4,-1,-175",1,0,0,0,0,0,59,63,83,70,100,-18.18,4,30.0,1.0,-1003.0,16:41:10.847168,192.168.0.111
263,3,-2,-1,86,"-4,-1,-175",1,0,0,0,0,0,59,63,82,70,100,-18.19,5,27.0,4.0,-997.0,16:41:10.949732,192.168.0.111
268,3,-2,0,85,"-3,-1,-177",1,0,0,0,0,0,59,63,83,70,100,-18.13,5,33.0,3.0,-992.0,16:41:11.051672,192.168.0.111
273,3,-2,0,85,"-3,-1,-177",1,0,0,0,0,0,59,63,83,70,100,-18.19,5,23.0,10.0,-992.0,16:41:11.153530,192.168.0.111
278,3,-2,0,85,"-3,-1,-177",1,0,0,0,0,0,59,63,83,70,100,-18.08,5,38.0,0.0,-991.0,16:41:11.255689,192.168.0.111
283,3,-3,-1,85,"-3,-1,-177",1,0,0,0,0,0,59,63,83,70,100,-18.17,5,30.0,3.0,-991.0,16:41:11.357482,192.168.0.111
288,3,-3,-1,85,"-3,-1,-177",1,0,0,0,0,0,59,63,83,70,100,-18.21,5,22.0,0.0,-992.0,16:41:11.460487,192.168.0.111
293,3,-3,-1,85,"-3,-1,-177",1,0,0,0,0,0,59,63,83,70,100,-18.13,5,22.0,-1.0,-996.0,16:41:11.563556,192.168.0.111
298,3,-3,-1,85,"-3,-1,-177",1,0,0,0,0,0,59,62,82,70,100,-18.2,5,22.0,3.0,-996.0,16:41:11.663726,192.168.0.111
303,3,-4,-1,85,"-4,-1,-177",1,0,0,0,0,0,59,62,82,70,100,-18.2,5,31.0,0.0,-995.0,16:41:11.765489,192.168.0.111
308,3,-4,-1,85,"-4,-1,-177",1,0,0,0,0,0,59,62,83,70,100,-18.21,5,23.0,0.0,-1009.0,16:41:11.867781,192.168.0.111
313,3,-4,-1,85,"-4,-1,-177",1,0,0,0,0,0,59,62,82,70,100,-18.21,6,21.0,0.0,-999.0,16:41:11.970374,192.168.0.111
315,3,-4,-1,85,"-4,-1,-177",1,0,0,0,0,0,59,62,82,70,100,-18.26,6,26.0,-5.0,-996.0,16:41:12.020572,192.168.0.111
320,3,-3,-1,86,"-3,-1,-177",1,0,0,0,0,0,59,62,83,70,100,-18.2,6,24.0,5.0,-994.0,16:41:12.122848,192.168.0.111
325,3,-3,-1,86,"-3,-1,-177",1,0,0,0,0,0,59,62,84,70,100,-18.18,6,30.0,8.0,-986.0,16:41:12.225731,192.168.0.111
330,3,-3,-1,86,"-3,-1,-177",1,0,0,0,0,0,59,62,83,70,100,-18.18,6,35.0,8.0,-989.0,16:41:12.326754,192.168.0.111
335,3,-3,0,86,"-3,0,-176",1,0,0,0,0,0,59,62,83,70,100,-18.15,6,39.0,0.0,-986.0,16:41:12.428714,192.168.0.111
340,3,-3,0,86,"-3,0,-176",1,0,0,0,0,0,59,62,83,70,100,-18.18,6,25.0,14.0,-996.0,16:41:12.530716,192.168.0.111
346,3,-3,0,86,"-3,0,-176",1,0,0,0,0,0,59,63,83,70,100,-18.16,6,31.0,6.0,-1006.0,16:41:12.632594,192.168.0.111
351,3,-3,0,86,"-3,0,-176",1,0,0,0,0,0,59,63,83,70,100,-18.15,6,23.0,2.0,-991.0,16:41:12.734733,192.168.0.111
358,3,-6,-3,86,"-4,-1,-174",1,0,0,0,0,0,59,63,83,70,100,-18.12,6,28.0,-2.0,-994.0,16:41:12.836662,192.168.0.111
363,3,-6,-3,86,"-4,-1,-174",1,0,0,0,0,0,59,63,83,70,100,-18.21,7,26.0,3.0,-996.0,16:41:12.938695,192.168.0.111
368,3,-6,-3,86,"-4,-1,-174",1,0,0,0,0,0,59,63,83,70,100,-18.19,7,28.0,8.0,-989.0,16:41:13.040901,192.168.0.111
373,3,-6,-3,86,"-4,-1,-174",1,0,0,0,0,0,59,63,82,70,100,-18.25,7,22.0,15.0,-1002.0,16:41:13.142644,192.168.0.111
378,3,-6,-3,87,"-4,-1,-175",1,0,0,0,0,0,59,63,82,70,100,-18.15,7,31.0,2.0,-998.0,16:41:13.244662,192.168.0.111
383,3,-6,-3,87,"-4,-1,-175",1,0,0,0,0,0,59,63,83,70,100,-18.24,7,33.0,11.0,-1004.0,16:41:13.346643,192.168.0.111
388,3,-6,-3,87,"-4,-1,-175",1,0,0,0,0,0,59,63,83,70,100,-18.25,7,26.0,1.0,-992.0,16:41:13.448714,192.168.0.111
393,3,-4,-3,86,"-4,-1,-175",1,0,0,0,0,0,59,63,82,70,100,-18.23,7,35.0,9.0,-1002.0,16:41:13.550887,192.168.0.111
398,3,-4,-3,86,"-4,-1,-175",1,0,0,0,0,0,60,63,82,70,100,-18.16,7,31.0,10.0,-1014.0,16:41:13.652496,192.168.0.111
403,3,-4,-3,86,"-4,-1,-175",1,0,0,0,0,0,60,63,83,70,100,-18.13,7,34.0,8.0,-1002.0,16:41:13.754601,192.168.0.111
409,3,-4,-3,86,"-4,-1,-175",1,0,0,0,0,0,60,63,83,70,100,-18.22,7,31.0,8.0,-993.0,16:41:13.859344,192.168.0.111
413,3,-4,-1,86,"-3,-1,-177",1,0,0,0,0,0,60,63,83,70,100,-18.17,8,34.0,8.0,-995.0,16:41:13.961839,192.168.0.111
418,3,-4,-1,86,"-3,-1,-177",1,0,0,0,0,0,60,63,84,70,100,-18.2,8,30.0,1.0,-995.0,16:41:14.060175,192.168.0.111
423,3,-4,-1,86,"-3,-1,-177",1,0,0,0,0,0,60,63,84,70,100,-18.17,8,32.0,1.0,-1000.0,16:41:14.162197,192.168.0.111
428,3,-4,-1,86,"-3,-1,-177",1,0,0,0,0,0,60,63,84,70,100,-18.11,8,32.0,3.0,-993.0,16:41:14.264687,192.168.0.111
433,3,-4,0,86,"-3,-1,-178",1,0,0,0,0,0,60,63,84,70,100,-18.2,8,21.0,12.0,-992.0,16:41:14.366691,192.168.0.111
438,3,-4,0,86,"-3,-1,-178",1,0,0,0,0,0,60,63,83,70,100,-18.15,8,29.0,5.0,-991.0,16:41:14.468393,192.168.0.111
443,3,-4,0,86,"-3,-1,-178",1,0,0,0,0,0,60,63,83,70,100,-18.16,8,33.0,4.0,-1000.0,16:41:14.570623,192.168.0.111
448,3,-4,0,86,"-3,-1,-177",1,0,0,0,0,0,60,62,83,70,100,-18.19,8,30.0,4.0,-1007.0,16:41:14.672556,192.168.0.111
453,3,-4,0,86,"-3,-1,-177",1,0,0,0,0,0,60,62,83,70,100,-18.2,8,31.0,0.0,-995.0,16:41:14.774821,192.168.0.111
458,3,-4,0,86,"-3,-1,-177",1,0,0,0,0,0,60,62,83,70,100,-18.16,8,25.0,0.0,-1005.0,16:41:14.876367,192.168.0.111
463,3,-4,0,86,"-3,-1,-177",1,0,0,0,0,0,60,62,83,70,100,-18.18,9,38.0,-8.0,-994.0,16:41:14.978125,192.168.0.111
468,3,-6,-4,86,"-4,-1,-174",1,0,0,0,0,0,60,62,84,70,100,-18.15,9,35.0,0.0,-991.0,16:41:15.080634,192.168.0.111
473,3,-6,-4,86,"-4,-1,-174",1,0,0,0,0,0,60,62,83,70,100,-18.15,9,28.0,3.0,-991.0,16:41:15.182692,192.168.0.111
475,3,-6,-4,86,"-4,-1,-174",1,0,0,0,0,0,60,62,83,70,100,-18.09,9,34.0,-3.0,-992.0,16:41:15.234005,192.168.0.111
481,3,-6,-4,86,"-4,-1,-174",1,0,0,0,0,0,60,62,83,70,100,-18.15,9,34.0,-2.0,-996.0,16:41:15.335625,192.168.0.111
486,3,-4,0,87,"-2,0,-176",1,0,0,0,0,0,60,62,83,70,100,-18.24,9,24.0,-1.0,-999.0,16:41:15.437421,192.168.0.111
491,3,-4,0,87,"-2,0,-176",1,0,0,0,0,0,60,62,84,70,100,-18.25,9,29.0,-16.0,-1001.0,16:41:15.543729,192.168.0.111
496,3,-4,0,87,"-2,0,-176",1,0,0,0,0,0,60,63,84,70,100,-18.23,9,30.0,-5.0,-994.0,16:41:15.641702,192.168.0.111
501,3,-6,1,86,"-3,0,-176",1,0,0,0,0,0,60,63,83,70,100,-18.26,9,22.0,-6.0,-1007.0,16:41:15.743494,192.168.0.111
506,3,-6,1,86,"-3,0,-176",1,0,0,0,0,0,60,63,83,70,100,-18.21,9,28.0,-3.0,-998.0,16:41:15.845426,192.168.0.111
511,3,-6,1,86,"-3,0,-176",1,0,0,0,0,0,60,63,82,70,100,-18.24,10,27.0,0.0,-999.0,16:41:15.948206,192.168.0.111
516,3,-6,1,86,"-3,0,-176",1,0,0,0,0,0,60,63,83,70,100,-18.18,10,22.0,-2.0,-992.0,16:41:16.051375,192.168.0.111
523,3,-6,2,86,"-3,-1,-176",1,0,0,0,0,0,60,63,82,70,100,-18.09,10,27.0,-5.0,-982.0,16:41:16.151562,192.168.0.111
528,3,-6,2,86,"-3,-1,-176",1,0,0,0,0,0,60,63,82,70,100,-18.19,10,21.0,-7.0,-998.0,16:41:16.256516,192.168.0.111
533,3,-6,2,86,"-3,-1,-176",1,0,0,0,0,0,60,63,82,70,100,-18.12,10,27.0,-11.0,-992.0,16:41:16.355723,192.168.0.111
538,3,-6,2,86,"-3,-1,-176",1,0,0,0,0,0,60,63,83,70,100,-18.15,10,21.0,-9.0,-989.0,16:41:16.457843,192.168.0.111
543,3,-6,-3,86,"-3,-1,-173",1,0,0,0,0,0,60,63,82,70,100,-18.09,10,20.0,-3.0,-999.0,16:41:16.559430,192.168.0.111
548,3,-6,-3,86,"-3,-1,-173",1,0,0,0,0,0,59,63,82,70,100,-18.1,10,25.0,-6.0,-1001.0,16:41:16.661692,192.168.0.111
553,3,-6,-3,86,"-3,-1,-173",0,0,0,0,0,0,59,63,82,70,100,-18.14,10,17.0,-7.0,-1000.0,16:41:16.763878,192.168.0.111
558,3,-6,1,86,"-3,-1,-175",0,0,0,0,0,0,59,63,81,70,100,-18.14,10,32.0,-15.0,-1006.0,16:41:16.865911,192.168.0.111
563,3,-6,1,86,"-3,-1,-175",0,0,0,0,0,0,59,63,82,70,100,-18.08,11,23.0,-2.0,-999.0,16:41:16.967609,192.168.0.111
568,3,-6,1,86,"-3,-1,-175",0,0,0,0,0,0,59,63,82,70,100,-18.16,11,10.0,-2.0,-1012.0,16:41:17.069719,192.168.0.111
573,3,-6,1,86,"-3,-1,-175",0,0,0,0,0,0,59,63,83,70,100,-18.26,11,21.0,-11.0,-998.0,16:41:17.171732,192.168.0.111
578,3,-7,3,85,"-2,-1,-176",0,0,0,0,0,0,59,63,82,70,100,-18.17,11,30.0,-9.0,-991.0,16:41:17.275413,192.168.0.111
583,3,-7,3,85,"-2,-1,-176",0,0,0,0,0,0,59,63,83,70,100,-18.2,11,20.0,-2.0,-996.0,16:41:17.375250,192.168.0.111
588,3,-7,3,85,"-2,-1,-176",0,0,0,0,0,0,59,63,82,70,100,-18.21,11,29.0,-4.0,-994.0,16:41:17.478341,192.168.0.111
593,3,-7,3,85,"-2,-1,-176",0,0,0,0,0,0,59,63,82,70,100,-18.19,11,23.0,-3.0,-998.0,16:41:17.579689,192.168.0.111
598,3,-8,4,85,"-2,0,-176",0,0,0,0,0,0,60,63,82,70,100,-18.15,11,27.0,0.0,-999.0,16:41:17.684354,192.168.0.111
603,3,-8,4,85,"-2,0,-176",0,0,0,0,0,0,60,63,82,70,100,-18.17,11,18.0,-14.0,-1003.0,16:41:17.784227,192.168.0.111
608,3,-8,4,85,"-2,0,-176",0,0,0,0,0,0,60,63,83,70,100,-18.25,11,28.0,0.0,-1007.0,16:41:17.885551,192.168.0.111
613,3,-8,4,85,"-2,0,-176",0,0,0,0,0,0,60,63,82,70,100,-18.18,12,23.0,-3.0,-994.0,16:41:17.988055,192.168.0.111
618,3,-9,5,85,"-2,0,-177",0,0,0,0,0,0,60,63,82,70,100,-18.22,12,23.0,-3.0,-1000.0,16:41:18.089753,192.168.0.111
623,3,-9,5,85,"-2,0,-177",0,0,0,0,0,0,60,63,82,70,100,-18.19,12,25.0,-7.0,-998.0,16:41:18.191603,192.168.0.111
628,3,-9,5,85,"-2,0,-177",0,0,0,0,0,0,60,63,82,70,100,-18.2,12,22.0,0.0,-992.0,16:41:18.293786,192.168.0.111
633,3,-8,1,86,"-1,0,-175",0,0,0,0,0,0,60,63,82,70,100,-18.12,12,23.0,-5.0,-1002.0,16:41:18.396437,192.168.0.111
638,3,-8,1,86,"-1,0,-175",0,0,0,0,0,0,60,63,82,70,100,-18.25,12,22.0,-1.0,-1001.0,16:41:18.497568,192.168.0.111
643,3,-8,1,86,"-1,0,-175",0,0,0,0,0,0,60,63,82,70,100,-18.2,12,15.0,4.0,-1010.0,16:41:18.599809,192.168.0.111
648,3,-8,1,86,"-1,0,-175",0,0,0,0,0,0,60,63,82,70,100,-18.16,12,11.0,7.0,-1003.0,16:41:18.702142,192.168.0.111
653,3,-9,1,85,"-2,0,-174",0,0,0,0,0,0,60,63,82,70,100,-18.18,12,16.0,1.0,-1002.0,16:41:18.803748,192.168.0.111
656,3,-9,1,85,"-2,0,-174",0,0,0,0,0,0,60,63,82,70,100,-18.21,12,26.0,0.0,-1009.0,16:41:18.854988,192.168.0.111
661,3,-9,1,85,"-2,0,-174",0,0,0,0,0,0,60,63,82,70,100,-18.21,13,18.0,10.0,-1003.0,16:41:18.957243,192.168.0.111
666,3,-9,1,85,"-2,0,-174",0,0,0,0,0,0,60,63,82,70,100,-18.18,13,13.0,2.0,-1002.0,16:41:19.059256,192.168.0.111
672,3,-8,4,85,"-2,0,-178",0,0,0,0,0,0,60,63,82,70,100,-18.22,13,13.0,0.0,-994.0,16:41:19.161509,192.168.0.111
677,3,-8,4,85,"-2,0,-178",0,0,0,0,0,0,60,63,82,70,100,-18.21,13,21.0,4.0,-1002.0,16:41:19.263751,192.168.0.111
682,3,-8,4,85,"-2,0,-178",0,0,0,0,0,0,60,63,82,70,100,-18.14,13,22.0,-1.0,-1001.0,16:41:19.364640,192.168.0.111
688,3,-8,3,85,"-1,0,-178",0,0,0,0,0,0,60,63,82,70,100,-18.14,13,17.0,-4.0,-992.0,16:41:19.467051,192.168.0.111
693,3,-8,3,85,"-1,0,-178",0,0,0,0,0,0,60,63,82,70,100,-18.18,13,22.0,0.0,-995.0,16:41:19.568815,192.168.0.111
698,3,-8,3,85,"-1,0,-178",0,0,0,0,0,0,60,63,82,70,100,-18.26,13,25.0,0.0,-1000.0,16:41:19.670804,192.168.0.111
703,3,-8,3,85,"-1,0,-178",0,0,0,0,0,0,60,63,82,70,100,-18.18,13,21.0,12.0,-1005.0,16:41:19.774883,192.168.0.111
708,3,-8,4,85,"-1,0,-179",0,0,0,0,0,0,60,63,83,70,100,-18.21,13,27.0,-2.0,-997.0,16:41:19.874920,192.168.0.111
713,3,-8,4,85,"-1,0,-179",0,0,0,0,0,0,60,63,83,70,100,-18.24,14,22.0,3.0,-992.0,16:41:19.976911,192.168.0.111
718,3,-8,4,85,"-1,0,-179",0,0,0,0,0,0,60,63,83,70,100,-18.19,14,27.0,7.0,-994.0,16:41:20.078822,192.168.0.111
723,3,-8,4,85,"-1,0,-179",0,0,0,0,0,0,60,63,83,70,100,-18.17,14,25.0,0.0,-998.0,16:41:20.180785,192.168.0.111
728,3,-8,3,86,"-2,0,-178",0,0,0,0,0,0,60,63,83,70,100,-18.24,14,27.0,3.0,-994.0,16:41:20.282734,192.168.0.111
733,3,-8,3,86,"-2,0,-178",0,0,0,0,0,0,60,63,83,70,100,-18.15,14,24.0,3.0,-994.0,16:41:20.384903,192.168.0.111
738,3,-8,3,86,"-2,0,-178",0,0,0,0,0,0,60,63,82,70,100,-18.27,14,17.0,7.0,-1007.0,16:41:20.486899,192.168.0.111
743,3,-8,3,86,"-2,0,-178",0,0,0,0,0,0,60,63,82,70,100,-18.27,14,13.0,16.0,-1005.0,16:41:20.588852,192.168.0.111
748,3,-8,4,86,"-1,0,-178",0,0,0,0,0,0,60,62,82,70,100,-18.19,14,39.0,-16.0,-977.0,16:41:20.690802,192.168.0.111
753,3,-8,4,86,"-1,0,-178",0,0,0,0,0,0,60,62,83,70,100,-18.22,14,15.0,10.0,-1002.0,16:41:20.792876,192.168.0.111
758,3,-8,4,86,"-1,0,-178",0,0,0,0,0,0,60,62,82,70,100,-18.21,14,30.0,-11.0,-976.0,16:41:20.895169,192.168.0.111
763,3,-9,3,85,"-1,0,-178",0,0,0,0,0,0,60,62,82,70,100,-18.25,15,8.0,-3.0,-1024.0,16:41:20.996839,192.168.0.111
768,3,-9,3,85,"-1,0,-178",0,0,0,0,0,0,60,62,82,70,100,-18.28,15,2.0,6.0,-1012.0,16:41:21.098919,192.168.0.111
773,3,-9,3,85,"-1,0,-178",0,0,0,0,0,0,60,62,82,70,100,-18.25,15,10.0,0.0,-1004.0,16:41:21.200815,192.168.0.111
778,3,-9,3,85,"-1,0,-178",0,0,0,0,0,0,60,62,82,70,100,-18.2,15,6.0,-4.0,-1005.0,16:41:21.303461,192.168.0.111
783,3,-8,2,85,"-1,0,-177",0,0,0,0,0,0,60,62,82,70,100,-18.17,15,25.0,-21.0,-996.0,16:41:21.405361,192.168.0.111
788,3,-8,2,85,"-1,0,-177",0,0,0,0,0,0,60,62,82,70,100,-18.21,15,25.0,-14.0,-1001.0,16:41:21.506867,192.168.0.111
793,3,-8,2,85,"-1,0,-177",0,0,0,0,0,0,60,62,81,70,100,-18.24,15,20.0,-7.0,-992.0,16:41:21.609287,192.168.0.111
798,3,-8,2,85,"-1,0,-177",0,0,0,0,0,0,60,63,81,70,100,-18.2,15,24.0,-3.0,-985.0,16:41:21.711508,192.168.0.111
803,3,-9,4,85,"-1,0,-178",0,0,0,0,0,0,60,63,81,70,100,-18.2,15,12.0,11.0,-1005.0,16:41:21.814313,192.168.0.111
808,3,-9,4,85,"-1,0,-178",0,0,0,0,0,0,60,63,81,60,100,-18.1,15,5.0,7.0,-1020.0,16:41:21.915037,192.168.0.111
813,3,-9,4,85,"-1,0,-178",0,0,0,0,0,0,60,63,82,60,100,-18.12,16,43.0,-25.0,-998.0,16:41:22.016921,192.168.0.111
818,3,-10,0,84,"-2,0,-175",0,0,0,0,0,0,60,63,81,60,100,-18.19,16,0.0,-4.0,-1018.0,16:41:22.120069,192.168.0.111
821,3,-10,0,84,"-2,0,-175",0,0,0,0,0,0,60,63,82,60,100,-18.12,16,13.0,0.0,-1001.0,16:41:22.169863,192.168.0.111
826,3,-10,0,84,"-2,0,-175",0,0,0,0,0,0,60,63,82,60,100,-18.25,16,25.0,-2.0,-1013.0,16:41:22.271840,192.168.0.111
831,3,-10,0,84,"-2,0,-175",0,0,0,0,0,0,60,63,82,70,100,-18.21,16,22.0,-13.0,-1000.0,16:41:22.374183,192.168.0.111
836,3,-11,4,84,"-2,0,-178",0,0,0,0,0,0,60,63,83,70,100,-18.22,16,26.0,5.0,-994.0,16:41:22.476094,192.168.0.111
841,3,-11,4,84,"-2,0,-178",0,0,0,0,0,0,60,63,83,70,100,-18.22,16,1.0,13.0,-999.0,16:41:22.577988,192.168.0.111
846,3,-11,4,84,"-2,0,-178",0,0,0,0,0,0,60,63,83,70,100,-18.2,16,11.0,19.0,-999.0,16:41:22.680112,192.168.0.111
852,3,-11,4,84,"-2,0,-178",0,0,0,0,0,0,60,63,83,70,100,-18.24,16,21.0,5.0,-996.0,16:41:22.781773,192.168.0.111
857,3,-9,4,86,"-1,0,-177",0,0,0,0,0,0,60,63,83,70,100,-18.24,16,45.0,-13.0,-987.0,16:41:22.884324,192.168.0.111
863,3,-9,4,86,"-1,0,-177",0,0,0,0,0,0,60,63,83,70,100,-18.21,17,43.0,-3.0,-983.0,16:41:22.985879,192.168.0.111
868,3,-9,4,86,"-1,0,-177",1,0,0,0,0,0,60,63,83,70,100,-18.15,17,44.0,-1.0,-990.0,16:41:23.087943,192.168.0.111
873,3,-9,4,86,"-1,0,-178",1,0,0,0,0,0,60,63,82,70,100,-18.2,17,35.0,-1.0,-988.0,16:41:23.189909,192.168.0.111
878,3,-9,4,86,"-1,0,-178",1,0,0,0,0,0,60,63,83,70,100,-18.26,17,18.0,13.0,-999.0,16:41:23.294685,192.168.0.111
883,3,-9,4,86,"-1,0,-178",1,0,0,0,0,0,60,63,82,70,100,-18.17,17,14.0,-1.0,-998.0,16:41:23.394770,192.168.0.111
888,3,-9,4,86,"-1,0,-178",1,0,0,0,0,0,60,63,82,70,100,-18.2,17,28.0,4.0,-989.0,16:41:23.495756,192.168.0.111
893,3,-8,2,86,"-3,0,-177",1,0,0,0,0,0,60,63,82,70,100,-18.14,17,24.0,8.0,-1014.0,16:41:23.597790,192.168.0.111
898,3,-8,2,86,"-3,0,-177",1,0,0,0,0,0,60,63,82,70,100,-18.21,17,24.0,0.0,-994.0,16:41:23.699810,192.168.0.111
903,3,-8,2,86,"-3,0,-177",1,0,0,0,0,0,60,63,83,70,100,-18.22,17,37.0,2.0,-999.0,16:41:23.802021,192.168.0.111
908,3,-8,2,86,"-3,0,-177",1,0,0,0,0,0,60,63,83,70,100,-18.22,17,10.0,11.0,-998.0,16:41:23.903999,192.168.0.111
913,3,-7,1,85,"-2,0,-177",1,0,0,0,0,0,60,63,83,70,100,-18.24,18,7.0,11.0,-1008.0,16:41:24.005805,192.168.0.111
918,3,-7,1,85,"-2,0,-177",0,0,0,0,0,0,60,63,83,70,100,-18.2,18,16.0,19.0,-995.0,16:41:24.107868,192.168.0.111
923,3,-7,1,85,"-2,0,-177",0,0,0,0,0,0,60,63,83,70,100,-18.23,18,26.0,8.0,-988.0,16:41:24.209906,192.168.0.111
928,3,-6,1,86,"-1,0,-177",1,0,0,0,0,0,60,63,83,70,100,-18.19,18,28.0,0.0,-998.0,16:41:24.311876,192.168.0.111
933,3,-6,1,86,"-1,0,-177",1,0,0,0,0,0,60,63,83,70,100,-18.13,18,23.0,-4.0,-998.0,16:41:24.414485,192.168.0.111
938,3,-6,1,86,"-1,0,-177",1,0,0,0,0,0,60,63,82,70,100,-18.23,18,14.0,7.0,-998.0,16:41:24.515870,192.168.0.111
943,3,-6,1,86,"-1,0,-177",0,0,0,0,0,0,60,63,82,70,100,-18.22,18,34.0,4.0,-984.0,16:41:24.617824,192.168.0.111
948,3,-7,0,86,"-2,-1,-178",0,0,0,0,0,0,60,63,83,70,100,-18.28,18,23.0,8.0,-987.0,16:41:24.720729,192.168.0.111
953,3,-7,0,86,"-2,-1,-178",0,0,0,0,0,0,60,63,83,70,100,-18.28,18,44.0,2.0,-994.0,16:41:24.823004,192.168.0.111
958,3,-7,0,86,"-2,-1,-178",0,0,0,0,0,0,60,63,83,70,100,-18.29,18,42.0,0.0,-977.0,16:41:24.924892,192.168.0.111
963,3,-7,0,86,"-2,-1,-178",0,0,0,0,0,0,60,63,83,70,100,-18.2,19,23.0,11.0,-987.0,16:41:25.027076,192.168.0.111
968,3,-7,2,86,"-1,-1,-179",0,0,0,0,0,0,60,63,83,70,100,-18.25,19,33.0,0.0,-991.0,16:41:25.128741,192.168.0.111
973,3,-7,2,86,"-1,-1,-179",0,0,0,0,0,0,60,63,82,70,100,-18.16,19,17.0,15.0,-996.0,16:41:25.230895,192.168.0.111
976,3,-7,2,86,"-1,-1,-179",0,0,0,0,0,0,60,63,83,70,100,-18.16,19,29.0,15.0,-999.0,16:41:25.282345,192.168.0.111
981,3,-7,0,86,"-1,-1,-178",0,0,0,0,0,0,60,63,83,70,100,-18.18,19,12.0,22.0,-998.0,16:41:25.384014,192.168.0.111
986,3,-7,0,86,"-1,-1,-178",1,0,0,0,0,0,60,63,83,70,100,-18.17,19,16.0,18.0,-1005.0,16:41:25.486045,192.168.0.111
991,3,-7,0,86,"-1,-1,-178",1,0,0,0,0,0,60,63,82,70,100,-18.16,19,18.0,27.0,-1007.0,16:41:25.590992,192.168.0.111
996,3,-7,0,86,"-1,-1,-178",1,0,0,0,0,0,61,63,82,70,100,-18.18,19,30.0,3.0,-994.0,16:41:25.689993,192.168.0.111
1001,3,-7,1,85,"-2,0,-178",1,0,0,0,0,0,61,63,82,70,100,-18.17,19,43.0,-2.0,-1004.0,16:41:25.791668,192.168.0.111
1006,3,-7,1,85,"-2,0,-178",1,0,0,0,0,0,61,63,82,70,100,-18.16,20,43.0,4.0,-990.0,16:41:25.893930,192.168.0.111
1011,3,-7,1,85,"-2,0,-178",1,0,0,0,0,0,61,63,82,70,100,-18.13,20,31.0,17.0,-1006.0,16:41:25.995975,192.168.0.111
1017,3,-7,1,85,"-2,0,-178",1,0,0,0,0,0,61,63,82,70,100,-18.16,20,44.0,6.0,-1007.0,16:41:26.098012,192.168.0.111
1022,3,-5,1,85,"-2,0,-178",1,0,0,0,0,0,61,63,82,70,100,-18.18,20,39.0,6.0,-998.0,16:41:26.202094,192.168.0.111
1027,3,-5,1,85,"-2,0,-178",1,0,0,0,0,0,61,63,82,70,100,-18.21,20,39.0,9.0,-987.0,16:41:26.302002,192.168.0.111
1033,3,-5,1,85,"-2,0,-178",1,0,0,0,0,0,61,63,82,70,100,-18.14,20,29.0,12.0,-992.0,16:41:26.404048,192.168.0.111
1038,3,-7,-2,85,"-3,-1,-176",1,0,0,0,0,0,61,63,82,70,100,-18.16,20,32.0,18.0,-995.0,16:41:26.505975,192.168.0.111
1043,3,-7,-2,85,"-3,-1,-176",2,0,0,0,0,0,61,63,81,70,100,-18.19,20,34.0,16.0,-1005.0,16:41:26.608767,192.168.0.111
1048,3,-7,-2,85,"-3,-1,-176",2,0,0,0,0,0,60,63,82,70,100,-18.14,20,39.0,7.0,-1000.0,16:41:26.709962,192.168.0.111
1053,3,-7,-2,85,"-3,-1,-176",2,0,0,0,0,0,60,63,83,70,100,-18.21,20,35.0,11.0,-1003.0,16:41:26.811891,192.168.0.111
1058,3,-5,0,85,"-3,-1,-178",1,0,0,0,0,0,60,63,81,70,100,-18.27,21,37.0,13.0,-996.0,16:41:26.913873,192.168.0.111
1063,3,-5,0,85,"-3,-1,-178",1,0,0,0,0,0,60,63,83,70,100,-18.18,21,36.0,23.0,-990.0,16:41:27.015752,192.168.0.111
1068,3,-5,0,85,"-3,-1,-178",1,0,0,0,0,0,60,63,83,70,100,-18.18,21,25.0,5.0,-1005.0,16:41:27.117958,192.168.0.111
1073,3,-5,0,85,"-3,-1,-178",1,0,0,0,0,0,60,63,82,70,100,-18.27,21,33.0,5.0,-1003.0,16:41:27.220065,192.168.0.111
1078,3,-5,0,85,"-3,-1,-177",1,0,0,0,0,0,60,63,82,70,100,-18.2,21,37.0,16.0,-1004.0,16:41:27.321858,192.168.0.111
1083,3,-5,0,85,"-3,-1,-177",1,0,0,0,0,0,60,63,82,70,100,-18.19,21,33.0,15.0,-992.0,16:41:27.424073,192.168.0.111
1088,3,-5,0,85,"-3,-1,-177",1,0,0,0,0,0,60,63,81,70,100,-18.26,21,31.0,12.0,-997.0,16:41:27.525759,192.168.0.111
1093,3,-5,0,85,"-3,-1,-177",1,0,0,0,0,0,60,63,82,70,100,-18.19,21,32.0,11.0,-1003.0,16:41:27.628183,192.168.0.111
1098,3,-5,0,85,"-3,-1,-177",1,0,0,0,0,0,60,64,82,70,100,-18.19,21,26.0,15.0,-990.0,16:41:27.730074,192.168.0.111
1103,3,-5,0,85,"-3,-1,-177",1,0,0,0,0,0,60,64,82,70,100,-18.19,21,25.0,10.0,-997.0,16:41:27.832021,192.168.0.111
1108,3,-5,0,85,"-3,-1,-177",1,0,0,0,0,0,60,64,83,70,100,-18.25,22,27.0,15.0,-995.0,16:41:27.933846,192.168.0.111
1113,3,-5,2,85,"-3,-1,180",1,0,0,0,0,0,60,64,83,70,100,-18.3,22,26.0,11.0,-1000.0,16:41:28.036190,192.168.0.111
1118,3,-5,2,85,"-3,-1,180",1,0,0,0,0,0,60,64,83,70,100,-18.28,22,20.0,11.0,-1004.0,16:41:28.137829,192.168.0.111
1123,3,-5,2,85,"-3,-1,180",1,0,0,0,0,0,60,64,83,70,100,-18.19,22,15.0,7.0,-998.0,16:41:28.239999,192.168.0.111
1128,3,-5,2,85,"-3,-1,180",1,0,0,0,0,0,60,64,83,70,100,-18.22,22,22.0,23.0,-1007.0,16:41:28.341734,192.168.0.111
1133,3,-7,-1,86,"-3,-1,-177",1,0,0,0,0,0,60,64,83,70,100,-18.3,22,24.0,3.0,-996.0,16:41:28.444010,192.168.0.111
1138,3,-7,-1,86,"-3,-1,-177",0,0,0,0,0,0,60,64,83,70,100,-18.28,22,24.0,15.0,-996.0,16:41:28.545871,192.168.0.111
1143,3,-7,-1,86,"-3,-1,-177",0,0,0,0,0,0,60,64,82,70,100,-18.3,22,24.0,13.0,-998.0,16:41:28.647888,192.168.0.111
1148,3,-7,1,86,"-2,-1,-178",1,0,0,0,0,0,60,63,83,70,100,-18.28,22,17.0,18.0,-1001.0,16:41:28.750104,192.168.0.111
1153,3,-7,1,86,"-2,-1,-178",0,0,0,0,0,0,60,63,83,70,100,-18.28,22,23.0,1.0,-1011.0,16:41:28.852387,192.168.0.111
1156,3,-7,1,86,"-2,-1,-178",0,0,0,0,0,0,60,63,83,70,100,-18.28,23,14.0,12.0,-1006.0,16:41:28.904398,192.168.0.111
1161,3,-7,1,86,"-2,-1,-178",0,0,0,0,0,0,60,63,83,70,100,-18.23,23,22.0,12.0,-995.0,16:41:29.004914,192.168.0.111
1166,3,-7,1,86,"-1,-1,-178",0,0,0,0,0,0,60,63,83,70,100,-18.28,23,26.0,13.0,-994.0,16:41:29.107106,192.168.0.111
1171,3,-7,1,86,"-1,-1,-178",0,0,0,0,0,0,60,63,82,70,100,-18.28,23,21.0,10.0,-998.0,16:41:29.209140,192.168.0.111
1176,3,-7,1,86,"-1,-1,-178",0,0,0,0,0,0,60,63,83,70,100,-18.29,23,23.0,14.0,-1001.0,16:41:29.311053,192.168.0.111
1182,3,-7,1,86,"-1,-1,-178",0,0,0,0,0,0,60,63,83,70,100,-18.26,23,21.0,11.0,-993.0,16:41:29.413409,192.168.0.111
1188,3,-8,4,86,"-1,-1,-179",0,0,0,0,0,0,60,63,83,70,100,-18.24,23,27.0,7.0,-986.0,16:41:29.515468,192.168.0.111
1193,3,-8,4,86,"-1,-1,-179",0,0,0,0,0,0,60,63,83,70,100,-18.25,23,15.0,10.0,-996.0,16:41:29.617042,192.168.0.111
1198,3,-8,4,86,"-1,-1,-179",0,0,0,0,0,0,61,64,84,70,100,-18.23,23,15.0,15.0,-1005.0,16:41:29.719094,192.168.0.111
1202,3,-8,4,86,"-1,-1,-179",0,0,0,0,0,0,61,64,84,70,100,-18.25,23,18.0,20.0,-994.0,16:41:29.821069,192.168.0.111
1208,3,-8,3,86,"0,-1,-179",1,0,0,0,0,0,61,64,83,70,100,-18.3,24,23.0,7.0,-994.0,16:41:29.923039,192.168.0.111
1213,3,-8,3,86,"0,-1,-179",0,0,0,0,0,0,61,64,84,70,100,-18.24,24,22.0,17.0,-997.0,16:41:30.024991,192.168.0.111
1218,3,-8,3,86,"0,-1,-179",0,0,0,0,0,0,61,64,84,70,100,-18.25,24,19.0,11.0,-998.0,16:41:30.126868,192.168.0.111
1223,3,-7,4,86,"-1,-1,-179",1,0,0,0,0,0,61,64,83,70,100,-18.31,24,21.0,14.0,-993.0,16:41:30.228751,192.168.0.111
1228,3,-7,4,86,"-1,-1,-179",1,0,0,0,0,0,61,64,83,70,100,-18.3,24,23.0,12.0,-1001.0,16:41:30.330864,192.168.0.111
1233,3,-7,4,86,"-1,-1,-179",1,0,0,0,0,0,61,64,83,70,100,-18.2,24,25.0,11.0,-994.0,16:41:30.432851,192.168.0.111
1238,3,-7,4,86,"-1,-1,-179",1,0,0,0,0,0,61,64,83,70,100,-18.22,24,19.0,14.0,-999.0,16:41:30.535471,192.168.0.111
1243,3,-7,2,87,"-1,0,-178",1,0,0,0,0,0,61,64,83,70,100,-18.3,24,13.0,23.0,-1001.0,16:41:30.637083,192.168.0.111
1248,3,-7,2,87,"-1,0,-178",1,0,0,0,0,0,61,63,83,70,100,-18.29,24,20.0,14.0,-997.0,16:41:30.739018,192.168.0.111
1253,3,-7,2,87,"-1,0,-178",1,0,0,0,0,0,61,63,83,70,100,-18.26,24,25.0,20.0,-1009.0,16:41:30.841056,192.168.0.111
1258,3,-7,2,87,"-1,0,-178",1,0,0,0,0,0,61,63,83,70,100,-18.19,25,18.0,18.0,-1003.0,16:41:30.943282,192.168.0.111
1263,3,-7,2,86,"-1,-1,-178",1,0,0,0,0,0,61,63,83,70,100,-18.27,25,23.0,14.0,-1005.0,16:41:31.045024,192.168.0.111
1268,3,-7,2,86,"-1,-1,-178",1,0,0,0,0,0,61,63,83,70,100,-18.25,25,24.0,9.0,-1005.0,16:41:31.147073,192.168.0.111
1273,3,-7,2,86,"-1,-1,-178",1,0,0,0,0,0,61,63,82,70,100,-18.27,25,24.0,10.0,-997.0,16:41:31.248744,192.168.0.111
1278,3,-7,2,85,"-2,-1,-178",1,0,0,0,0,0,61,63,82,70,100,-18.25,25,22.0,11.0,-1011.0,16:41:31.350783,192.168.0.111
1283,3,-7,2,85,"-2,-1,-178",1,0,0,0,0,0,61,63,83,70,100,-18.22,25,25.0,8.0,-991.0,16:41:31.453071,192.168.0.111
1288,3,-7,2,85,"-2,-1,-178",1,0,0,0,0,0,61,63,83,70,100,-18.29,25,31.0,9.0,-1003.0,16:41:31.555101,192.168.0.111
1293,3,-7,2,85,"-2,-1,-178",1,0,0,0,0,0,61,63,83,70,100,-18.27,25,22.0,5.0,-986.0,16:41:31.656962,192.168.0.111
1298,3,-6,1,85,"-2,-1,-178",1,0,0,0,0,0,61,63,83,70,100,-18.22,25,25.0,8.0,-995.0,16:41:31.759010,192.168.0.111
1303,3,-6,1,85,"-2,-1,-178",1,0,0,0,0,0,61,63,82,70,100,-18.29,25,28.0,18.0,-1005.0,16:41:31.861128,192.168.0.111
1308,3,-6,1,85,"-2,-1,-178",1,0,0,0,0,0,61,63,82,70,100,-18.24,26,18.0,5.0,-1002.0,16:41:31.963037,192.168.0.111
1313,3,-6,1,85,"-2,-1,-178",1,0,0,0,0,0,61,63,83,70,100,-18.23,26,20.0,10.0,-995.0,16:41:32.065368,192.168.0.111
1318,3,-7,0,85,"-3,-1,-175",1,0,0,0,0,0,61,63,83,70,100,-18.29,26,19.0,16.0,-999.0,16:41:32.166740,192.168.0.111
1323,3,-7,0,85,"-3,-1,-175",1,0,0,0,0,0,61,63,83,70,100,-18.24,26,18.0,14.0,-1004.0,16:41:32.269022,192.168.0.111
1328,3,-7,0,85,"-3,-1,-175",1,0,0,0,0,0,61,63,82,70,100,-18.28,26,20.0,16.0,-1006.0,16:41:32.371450,192.168.0.111
1331,3,-7,0,85,"-3,-1,-175",1,0,0,0,0,0,61,63,82,70,100,-18.3,26,15.0,7.0,-1000.0,16:41:32.423542,192.168.0.111
1336,3,-7,2,85,"-3,-1,-177",1,0,0,0,0,0,61,63,83,70,100,-18.29,26,13.0,5.0,-993.0,16:41:32.525909,192.168.0.111
1341,3,-7,2,85,"-3,-1,-177",0,0,0,0,0,0,61,63,82,70,100,-18.35,26,23.0,13.0,-982.0,16:41:32.628273,192.168.0.111
1346,3,-7,2,85,"-3,-1,-177",0,0,0,0,0,0,61,64,82,70,100,-18.24,26,22.0,18.0,-996.0,16:41:32.730682,192.168.0.111
1351,3,-6,2,85,"-2,0,-177",0,0,0,0,0,0,61,64,82,70,100,-18.24,26,18.0,11.0,-1005.0,16:41:32.830153,192.168.0.111
1357,3,-6,2,85,"-2,0,-177",0,0,0,0,0,0,61,64,82,70,100,-18.27,27,20.0,12.0,-992.0,16:41:32.935494,192.168.0.111
1362,3,-6,2,85,"-2,0,-177",0,0,0,0,0,0,61,64,82,70,100,-18.26,27,27.0,16.0,-998.0,16:41:33.038139,192.168.0.111
1368,3,-6,2,85,"-2,0,-177",0,0,0,0,0,0,61,64,81,70,100,-18.26,27,12.0,20.0,-997.0,16:41:33.136040,192.168.0.111
1373,3,-6,1,85,"-1,-1,-178",1,0,0,0,0,0,61,64,81,70,100,-18.16,27,21.0,13.0,-1012.0,16:41:33.238237,192.168.0.111
1378,3,-6,1,85,"-1,-1,-178",1,0,0,0,0,0,61,64,81,70,100,-18.25,27,30.0,10.0,-1001.0,16:41:33.340008,192.168.0.111
1383,3,-6,1,85,"-1,-1,-178",1,0,0,0,0,0,61,64,82,70,100,-18.25,27,26.0,15.0,-997.0,16:41:33.442175,192.168.0.111
1388,3,-6,1,85,"-1,-1,-178",1,0,0,0,0,0,61,64,83,70,100,-18.23,27,19.0,9.0,-990.0,16:41:33.545172,192.168.0.111
1393,3,-6,1,85,"-1,-1,-178",1,0,0,0,0,0,61,64,83,70,100,-18.26,27,14.0,16.0,-1010.0,16:41:33.646122,192.168.0.111
1398,3,-6,1,85,"-1,-1,-178",1,0,0,0,0,0,62,63,83,70,100,-18.27,27,32.0,10.0,-996.0,16:41:33.748159,192.168.0.111
1403,3,-6,1,85,"-1,-1,-178",1,0,0,0,0,0,62,63,83,70,100,-18.25,27,20.0,19.0,-1003.0,16:41:33.850191,192.168.0.111
1408,3,-7,1,85,"-2,-1,-178",1,0,0,0,0,0,62,63,83,70,100,-18.18,28,20.0,7.0,-994.0,16:41:33.952130,192.168.0.111
1413,3,-7,1,85,"-2,-1,-178",1,0,0,0,0,0,62,63,82,70,100,-18.23,28,13.0,4.0,-997.0,16:41:34.054284,192.168.0.111
1418,3,-7,1,85,"-2,-1,-178",1,0,0,0,0,0,62,63,82,70,100,-18.28,28,28.0,11.0,-1000.0,16:41:34.156086,192.168.0.111
1423,3,-7,1,85,"-2,-1,-178",1,0,0,0,0,0,62,63,82,70,100,-18.25,28,14.0,16.0,-997.0,16:41:34.258261,192.168.0.111
1428,3,-7,1,85,"-2,-1,-178",0,0,0,0,0,0,62,63,82,70,100,-18.23,28,25.0,11.0,-1005.0,16:41:34.360034,192.168.0.111
1433,3,-7,1,85,"-2,-1,-178",0,0,0,0,0,0,62,63,83,70,100,-18.25,28,28.0,12.0,-1003.0,16:41:34.461929,192.168.0.111
1438,3,-7,1,85,"-2,-1,-178",1,0,0,0,0,0,62,63,82,70,100,-18.34,28,28.0,17.0,-1005.0,16:41:34.564230,192.168.0.111
1443,3,-7,1,85,"-2,-1,-178",1,0,0,0,0,0,62,63,83,70,100,-18.29,28,20.0,15.0,-996.0,16:41:34.665876,192.168.0.111
1448,3,-7,3,85,"-1,-1,-179",1,0,0,0,0,0,61,64,83,70,100,-18.2,28,25.0,19.0,-986.0,16:41:34.768130,192.168.0.111
1453,3,-7,3,85,"-1,-1,-179",1,-1,0,0,0,0,61,64,83,70,100,-18.26,28,22.0,11.0,-995.0,16:41:34.870123,192.168.0.111
1458,3,-7,3,85,"-1,-1,-179",1,-1,0,0,0,0,61,64,83,70,100,-18.28,29,26.0,1.0,-998.0,16:41:34.972171,192.168.0.111
1463,3,-6,2,86,"-1,-1,-179",1,0,0,0,0,0,61,64,83,70,100,-18.16,29,29.0,0.0,-999.0,16:41:35.074112,192.168.0.111
1468,3,-6,2,86,"-1,-1,-179",1,0,0,0,0,0,61,64,84,70,100,-18.2,29,20.0,1.0,-996.0,16:41:35.176719,192.168.0.111
1473,3,-6,2,86,"-1,-1,-179",1,0,0,0,0,0,61,64,83,70,100,-18.28,29,20.0,1.0,-1002.0,16:41:35.278218,192.168.0.111
1478,3,-6,2,86,"-1,-1,-179",1,0,0,0,0,0,61,64,83,70,100,-18.25,29,26.0,1.0,-996.0,16:41:35.380073,192.168.0.111
1483,3,-7,-1,86,"-1,-1,-175",1,0,0,0,0,0,61,64,83,70,100,-18.28,29,20.0,1.0,-1004.0,16:41:35.482242,192.168.0.111
1488,3,-7,-1,86,"-1,-1,-175",1,0,0,0,0,0,61,64,83,70,100,-18.23,29,16.0,4.0,-1000.0,16:41:35.584222,192.168.0.111
1491,3,-7,-1,86,"-1,-1,-175",1,0,0,0,0,0,61,64,83,70,100,-18.27,29,11.0,-8.0,-998.0,16:41:35.635250,192.168.0.111
1498,3,-7,-1,86,"-1,-1,-175",1,0,0,0,0,0,61,63,83,70,100,-18.2,29,19.0,-3.0,-983.0,16:41:35.787997,192.168.0.111
1501,3,-8,2,86,"-2,-1,-176",0,0,0,0,0,0,61,63,83,70,100,-18.21,29,20.0,-10.0,-988.0,16:41:35.838772,192.168.0.111
1506,3,-8,2,86,"-2,-1,-176",0,0,0,0,0,0,61,63,82,70,100,-18.27,30,18.0,5.0,-1002.0,16:41:35.941061,192.168.0.111
1511,3,-8,2,86,"-2,-1,-176",0,0,0,0,0,0,61,63,83,70,100,-18.26,30,35.0,0.0,-1010.0,16:41:36.043181,192.168.0.111
1516,3,-7,3,86,"-2,-1,-176",0,0,0,0,0,0,61,63,83,70,100,-18.26,30,19.0,-5.0,-1000.0,16:41:36.145135,192.168.0.111
1521,3,-7,3,86,"-2,-1,-176",1,0,0,0,0,0,61,63,83,70,100,-18.24,30,19.0,13.0,-994.0,16:41:36.247141,192.168.0.111
1526,3,-7,3,86,"-2,-1,-176",1,0,0,0,0,0,61,63,83,70,100,-18.26,30,25.0,3.0,-996.0,16:41:36.349148,192.168.0.111
1533,3,-7,3,86,"-2,-1,-176",1,0,0,0,0,0,61,63,83,70,100,-18.29,30,30.0,7.0,-991.0,16:41:36.452691,192.168.0.111
1538,3,-9,5,86,"-3,-1,-177",1,0,0,0,0,0,61,63,84,70,100,-18.18,30,22.0,-2.0,-992.0,16:41:36.552919,192.168.0.111
1543,3,-9,5,86,"-3,-1,-177",1,0,0,0,0,0,61,63,83,70,100,-18.2,30,27.0,-9.0,-996.0,16:41:36.655175,192.168.0.111
1548,3,-9,5,86,"-3,-1,-177",1,1,0,0,0,0,61,63,83,70,100,-18.21,30,24.0,-7.0,-982.0,16:41:36.757051,192.168.0.111
1553,3,-9,5,86,"-3,-1,-177",1,0,0,0,0,0,61,63,83,70,100,-18.22,30,36.0,-27.0,-979.0,16:41:36.859161,192.168.0.111
1558,3,-8,4,86,"-3,0,-176",1,0,0,0,0,0,61,63,82,70,100,-18.33,31,21.0,-16.0,-1016.0,16:41:36.961097,192.168.0.111
1563,3,-8,4,86,"-3,0,-176",1,0,0,0,0,0,61,63,82,70,100,-18.26,31,0.0,-6.0,-1006.0,16:41:37.062938,192.168.0.111
1568,3,-8,4,86,"-3,0,-176",1,1,0,0,0,0,61,63,82,70,100,-18.28,31,28.0,-23.0,-1002.0,16:41:37.165105,192.168.0.111
1573,3,-8,4,86,"-3,0,-176",1,1,0,0,0,0,61,63,82,70,100,-18.32,31,38.0,-25.0,-979.0,16:41:37.267242,192.168.0.111
1578,3,-8,4,86,"-4,0,-175",1,1,0,0,0,0,61,63,82,70,100,-18.26,31,20.0,-16.0,-1003.0,16:41:37.368960,192.168.0.111
1583,3,-8,4,86,"-4,0,-175",0,1,0,0,0,0,61,63,81,70,100,-18.3,31,5.0,5.0,-1013.0,16:41:37.471243,192.168.0.111
1588,3,-8,4,86,"-4,0,-175",1,0,0,0,0,0,61,63,82,70,100,-18.31,31,22.0,-14.0,-1002.0,16:41:37.573084,192.168.0.111
1593,3,-7,4,85,"-3,0,-174",0,0,0,0,0,0,61,63,82,70,100,-18.3,31,10.0,11.0,-1010.0,16:41:37.675229,192.168.0.111
1598,3,-7,4,85,"-3,0,-174",1,0,0,0,0,0,61,64,81,70,100,-18.32,31,29.0,-12.0,-980.0,16:41:37.777085,192.168.0.111
1603,3,-7,4,85,"-3,0,-174",0,0,0,0,0,0,61,64,82,70,100,-18.34,31,26.0,-4.0,-996.0,16:41:37.878804,192.168.0.111
1608,3,-7,4,85,"-3,0,-174",0,0,0,0,0,0,61,64,82,70,100,-18.33,32,10.0,5.0,-1010.0,16:41:37.980965,192.168.0.111
1613,3,-7,5,84,"-3,0,-175",0,0,0,0,0,0,61,64,82,70,100,-18.31,32,4.0,6.0,-1009.0,16:41:38.082705,192.168.0.111
1618,3,-7,5,84,"-3,0,-175",0,0,0,0,0,0,61,64,81,70,100,-18.33,32,18.0,-5.0,-1005.0,16:41:38.184763,192.168.0.111
1623,3,-7,5,84,"-3,0,-175",0,0,0,0,0,0,61,64,82,70,100,-18.31,32,3.0,19.0,-1023.0,16:41:38.287116,192.168.0.111
1628,3,-7,5,84,"-3,0,-175",0,0,0,0,0,0,61,64,81,70,100,-18.29,32,10.0,20.0,-999.0,16:41:38.389379,192.168.0.111
1633,3,-7,5,84,"-2,0,-175",0,0,0,0,0,0,61,64,81,70,100,-18.28,32,28.0,5.0,-1000.0,16:41:38.490941,192.168.0.111
1638,3,-7,5,84,"-2,0,-175",0,0,0,0,0,0,61,64,81,70,100,-18.37,32,14.0,25.0,-1002.0,16:41:38.593063,192.168.0.111
1643,3,-7,5,84,"-2,0,-175",0,0,0,0,0,0,61,64,80,70,100,-18.26,32,24.0,-14.0,-1010.0,16:41:38.695296,192.168.0.111
1648,3,-7,2,84,"-2,0,-175",0,0,0,0,0,0,61,65,81,70,100,-18.31,32,3.0,17.0,-1008.0,16:41:38.797139,192.168.0.111
1653,3,-7,2,84,"-2,0,-175",0,0,0,0,0,0,61,65,81,70,100,-18.31,32,22.0,4.0,-1004.0,16:41:38.901637,192.168.0.111
1658,3,-7,2,84,"-2,0,-175",0,0,0,0,0,0,61,65,81,70,100,-18.28,33,13.0,6.0,-982.0,16:41:39.000644,192.168.0.111
1663,3,-7,2,84,"-2,0,-175",0,0,0,0,0,0,61,65,81,70,100,-18.31,33,8.0,17.0,-1005.0,16:41:39.103200,192.168.0.111
1666,3,-7,4,84,"-1,0,-177",0,0,0,0,0,0,61,65,81,70,100,-18.33,33,13.0,15.0,-1006.0,16:41:39.155216,192.168.0.111
1671,3,-7,4,84,"-1,0,-177",0,0,0,0,0,0,61,65,81,70,100,-18.35,33,8.0,2.0,-1005.0,16:41:39.256133,192.168.0.111
1676,3,-7,4,84,"-1,0,-177",0,0,0,0,0,0,61,65,81,70,100,-18.3,33,-6.0,36.0,-1017.0,16:41:39.358375,192.168.0.111
1682,3,-7,4,84,"-1,0,-177",0,0,0,0,0,0,61,65,82,70,100,-18.33,33,25.0,2.0,-1002.0,16:41:39.460143,192.168.0.111
1687,3,-9,0,84,"-2,0,-175",0,-1,0,0,0,0,61,65,81,70,100,-18.32,33,39.0,-4.0,-994.0,16:41:39.562318,192.168.0.111
1692,3,-9,0,84,"-2,0,-175",0,0,0,0,0,0,61,65,81,70,100,-18.32,33,24.0,10.0,-1007.0,16:41:39.664368,192.168.0.111
1698,3,-9,0,84,"-2,0,-175",0,0,0,0,0,0,62,65,81,70,100,-18.34,33,24.0,12.0,-981.0,16:41:39.766273,192.168.0.111
1703,3,-9,0,84,"-2,0,-175",0,0,0,0,0,0,62,65,82,70,100,-18.33,33,0.0,25.0,-1013.0,16:41:39.868251,192.168.0.111
1708,3,-7,4,84,"0,-1,179",0,0,0,0,0,0,62,65,82,70,100,-18.28,34,18.0,11.0,-983.0,16:41:39.970357,192.168.0.111
1713,3,-7,4,84,"0,-1,179",0,0,0,0,0,0,62,65,82,70,100,-18.21,34,23.0,12.0,-982.0,16:41:40.072406,192.168.0.111
1718,3,-7,4,84,"0,-1,179",0,0,0,0,0,0,62,65,82,70,100,-18.27,34,39.0,-1.0,-977.0,16:41:40.174295,192.168.0.111
1723,3,-6,3,84,"0,-1,-179",0,0,0,0,0,0,62,65,82,70,100,-18.28,34,11.0,25.0,-1008.0,16:41:40.276151,192.168.0.111
1728,3,-6,3,84,"0,-1,-179",1,0,0,0,0,0,62,65,82,70,100,-18.32,34,33.0,9.0,-976.0,16:41:40.378193,192.168.0.111
1733,3,-6,3,84,"0,-1,-179",1,0,0,0,0,0,62,65,82,70,100,-18.3,34,40.0,-4.0,-988.0,16:41:40.480353,192.168.0.111
1738,3,-6,3,84,"0,-1,-179",1,0,0,0,0,0,62,65,82,70,100,-18.37,34,25.0,22.0,-1004.0,16:41:40.584282,192.168.0.111
1743,3,-6,1,85,"-1,0,-178",1,0,0,0,0,0,62,65,82,70,100,-18.32,34,9.0,21.0,-1007.0,16:41:40.684352,192.168.0.111
1748,3,-6,1,85,"-1,0,-178",1,0,0,0,0,0,62,64,82,70,100,-18.34,34,26.0,10.0,-993.0,16:41:40.785783,192.168.0.111
1753,3,-6,1,85,"-1,0,-178",1,0,0,0,0,0,62,64,81,70,100,-18.32,34,23.0,19.0,-1005.0,16:41:40.888217,192.168.0.111
1758,3,-6,1,85,"-1,0,-178",1,0,0,0,0,0,62,64,81,70,100,-18.41,35,19.0,11.0,-1001.0,16:41:40.990434,192.168.0.111
1763,3,-6,2,84,"-1,-1,-179",1,0,0,0,0,0,62,64,81,70,100,-18.38,35,20.0,24.0,-998.0,16:41:41.092643,192.168.0.111
1768,3,-6,2,84,"-1,-1,-179",1,0,0,0,0,0,62,64,81,70,100,-18.36,35,18.0,11.0,-1000.0,16:41:41.194238,192.168.0.111
1773,3,-6,2,84,"-1,-1,-179",1,0,0,0,0,0,62,64,80,70,100,-18.35,35,20.0,21.0,-1010.0,16:41:41.296158,192.168.0.111
1778,3,-6,2,84,"-1,-1,-179",1,0,0,0,0,0,62,64,81,70,100,-18.29,35,24.0,17.0,-987.0,16:41:41.398136,192.168.0.111
1783,3,-6,1,83,"-1,-1,-178",1,0,0,0,0,0,62,64,81,70,100,-18.26,35,30.0,15.0,-1001.0,16:41:41.500317,192.168.0.111
1788,3,-6,1,83,"-1,-1,-178",1,0,0,0,0,0,62,64,81,70,100,-18.38,35,21.0,18.0,-997.0,16:41:41.602325,192.168.0.111
1793,3,-6,1,83,"-1,-1,-178",1,0,0,0,0,0,62,64,80,70,100,-18.37,35,28.0,7.0,-993.0,16:41:41.704271,192.168.0.111
1798,3,-5,2,83,"-1,-1,-179",1,0,0,0,0,0,62,65,81,70,100,-18.34,35,17.0,24.0,-999.0,16:41:41.806006,192.168.0.111
1803,3,-5,2,83,"-1,-1,-179",1,0,0,0,0,0,62,65,81,70,100,-18.37,35,9.0,29.0,-1006.0,16:41:41.908258,192.168.0.111
1808,3,-5,2,83,"-1,-1,-179",1,0,0,0,0,0,62,65,80,70,100,-18.33,36,18.0,15.0,-1001.0,16:41:42.010341,192.168.0.111
1813,3,-5,2,83,"-1,-1,-179",1,0,0,0,0,0,62,65,81,70,100,-18.3,36,15.0,23.0,-1009.0,16:41:42.112324,192.168.0.111
1818,3,-6,1,83,"-2,-1,-178",1,-1,0,0,0,0,62,65,81,70,100,-18.35,36,19.0,26.0,-997.0,16:41:42.214301,192.168.0.111
1823,3,-6,1,83,"-2,-1,-178",1,-1,0,0,0,0,62,65,80,70,100,-18.37,36,25.0,13.0,-996.0,16:41:42.316128,192.168.0.111
1828,3,-6,1,83,"-2,-1,-178",1,-1,0,0,0,0,62,65,80,70,100,-18.34,36,20.0,18.0,-1003.0,16:41:42.417974,192.168.0.111
1833,3,-6,1,83,"-2,-1,-178",1,-1,0,0,0,0,62,65,80,70,100,-18.35,36,23.0,22.0,-1003.0,16:41:42.520312,192.168.0.111
1836,3,-5,0,83,"-2,-1,-177",1,-1,0,0,0,0,62,65,80,70,100,-18.29,36,27.0,30.0,-995.0,16:41:42.571206,192.168.0.111
1841,3,-5,0,83,"-2,-1,-177",1,-1,0,0,0,0,62,65,80,70,100,-18.28,36,18.0,32.0,-987.0,16:41:42.673150,192.168.0.111
1847,3,-5,0,83,"-2,-1,-177",1,-1,0,0,0,0,62,64,80,70,100,-18.36,36,21.0,27.0,-1006.0,16:41:42.778766,192.168.0.111
1851,3,-4,2,83,"-1,-1,-179",1,-1,0,0,0,0,62,64,79,60,100,-18.3,36,28.0,16.0,-1000.0,16:41:42.877305,192.168.0.111
1856,3,-4,2,83,"-1,-1,-179",1,-1,0,0,0,0,62,64,79,60,100,-18.35,37,35.0,15.0,-1014.0,16:41:42.979308,192.168.0.111
1862,3,-4,2,83,"-1,-1,-179",1,-1,0,0,0,0,62,64,80,60,100,-18.33,37,23.0,35.0,-1017.0,16:41:43.082311,192.168.0.111
1867,3,-4,2,83,"-1,-1,-179",1,-1,0,0,0,0,62,64,80,60,100,-18.37,37,30.0,28.0,-1008.0,16:41:43.183644,192.168.0.111
1873,3,-5,-1,82,"-2,-1,-176",1,-1,0,0,0,0,62,64,80,60,100,-18.37,37,35.0,16.0,-1006.0,16:41:43.285329,192.168.0.111
1878,3,-5,-1,82,"-2,-1,-176",1,-1,0,0,0,0,62,64,80,60,100,-18.4,37,27.0,16.0,-1006.0,16:41:43.387218,192.168.0.111
1883,3,-5,-1,82,"-2,-1,-176",1,-1,0,0,0,0,62,64,80,70,100,-18.39,37,38.0,19.0,-992.0,16:41:43.489197,192.168.0.111
1888,3,-5,-1,82,"-2,-1,-176",1,0,0,0,0,0,62,64,81,70,100,-18.36,37,30.0,12.0,-994.0,16:41:43.591224,192.168.0.111
1893,3,-4,1,82,"-2,-1,-179",1,0,0,0,0,0,62,64,81,70,100,-18.36,37,35.0,11.0,-1002.0,16:41:43.693878,192.168.0.111
1898,3,-4,1,82,"-2,-1,-179",1,0,0,0,0,0,62,64,81,70,100,-18.4,37,39.0,15.0,-996.0,16:41:43.795363,192.168.0.111
1903,3,-4,1,82,"-2,-1,-179",1,0,0,0,0,0,62,64,81,70,100,-18.41,37,36.0,10.0,-990.0,16:41:43.897130,192.168.0.111
1908,3,-6,0,83,"-3,-1,-177",2,0,0,0,0,0,62,64,82,70,100,-18.39,38,37.0,7.0,-992.0,16:41:43.999358,192.168.0.111
1913,3,-6,0,83,"-3,-1,-177",2,0,0,0,0,0,62,64,82,70,100,-18.29,38,42.0,5.0,-1002.0,16:41:44.100930,192.168.0.111
1918,3,-6,0,83,"-3,-1,-177",2,0,0,0,0,0,62,64,82,70,100,-18.34,38,43.0,8.0,-982.0,16:41:44.206246,192.168.0.111
1923,3,-6,0,83,"-3,-1,-177",2,0,0,0,0,0,62,64,81,70,100,-18.36,38,37.0,20.0,-999.0,16:41:44.305325,192.168.0.111
1928,3,-5,0,84,"-4,-1,-176",2,0,0,0,0,0,62,64,81,70,100,-18.35,38,32.0,13.0,-990.0,16:41:44.407281,192.168.0.111
1933,3,-5,0,84,"-4,-1,-176",2,0,0,0,0,0,62,64,82,70,100,-18.4,38,31.0,16.0,-1004.0,16:41:44.509531,192.168.0.111
1938,3,-5,0,84,"-4,-1,-176",2,0,0,0,0,0,62,64,81,70,100,-18.39,38,28.0,21.0,-1008.0,16:41:44.611408,192.168.0.111
1943,3,-5,0,84,"-4,-1,-176",2,0,0,0,0,0,62,64,81,70,100,-18.32,38,35.0,16.0,-1000.0,16:41:44.713267,192.168.0.111
1948,3,-4,1,84,"-4,-1,-176",2,0,0,0,0,0,62,64,81,70,100,-18.43,38,35.0,3.0,-1001.0,16:41:44.815200,192.168.0.111
1953,3,-4,1,84,"-4,-1,-176",1,0,0,0,0,0,62,64,82,70,100,-18.48,38,42.0,10.0,-995.0,16:41:44.917103,192.168.0.111
1958,3,-4,1,84,"-4,-1,-176",1,0,0,0,0,0,62,64,81,70,100,-18.37,39,31.0,22.0,-1003.0,16:41:45.019492,192.168.0.111
1963,3,-4,1,84,"-4,-1,-176",1,0,0,0,0,0,62,64,82,70,100,-18.38,39,38.0,10.0,-1008.0,16:41:45.121750,192.168.0.111
1968,3,-3,3,84,"-3,-1,-177",1,0,0,0,0,0,62,64,82,70,100,-18.29,39,31.0,12.0,-1000.0,16:41:45.224530,192.168.0.111
1973,3,-3,3,84,"-3,-1,-177",1,0,0,0,0,0,62,64,82,70,100,-18.43,39,28.0,14.0,-996.0,16:41:45.326746,192.168.0.111
1978,3,-3,3,84,"-3,-1,-177",1,0,0,0,0,0,62,64,81,70,100,-18.36,39,26.0,10.0,-994.0,16:41:45.429121,192.168.0.111
1983,3,-6,0,84,"-4,-1,-175",1,0,0,0,0,0,62,64,82,70,100,-18.48,39,26.0,9.0,-1000.0,16:41:45.531667,192.168.0.111
1988,3,-6,0,84,"-4,-1,-175",1,0,0,0,0,0,62,64,81,70,100,-18.35,39,16.0,14.0,-989.0,16:41:45.631227,192.168.0.111
1991,3,-6,0,84,"-4,-1,-175",1,0,0,0,0,0,62,64,82,70,100,-18.42,39,25.0,4.0,-1001.0,16:41:45.683285,192.168.0.111
1998,3,-6,0,84,"-4,-1,-175",1,0,0,0,0,0,62,65,82,70,100,-18.49,39,25.0,9.0,-990.0,16:41:45.838403,192.168.0.111
2003,3,-4,2,84,"-2,-1,-177",1,0,0,0,0,0,62,65,81,70,100,-18.44,40,23.0,12.0,-1001.0,16:41:45.938647,192.168.0.111
2006,3,-4,2,84,"-2,-1,-177",1,0,0,0,0,0,62,65,82,70,100,-18.34,40,30.0,6.0,-994.0,16:41:45.989329,192.168.0.111
2011,3,-4,2,84,"-2,-1,-177",1,0,0,0,0,0,62,65,82,70,100,-18.44,40,18.0,3.0,-999.0,16:41:46.091288,192.168.0.111
2016,3,-4,2,84,"-2,-1,-177",1,0,0,0,0,0,62,65,82,70,100,-18.4,40,29.0,4.0,-1000.0,16:41:46.193051,192.168.0.111
2021,3,-6,3,84,"-3,-1,-178",1,0,0,0,0,0,62,65,82,70,100,-18.43,40,27.0,6.0,-996.0,16:41:46.295444,192.168.0.111
2028,3,-6,3,84,"-3,-1,-178",1,0,0,0,0,0,62,65,82,70,100,-18.47,40,24.0,5.0,-999.0,16:41:46.397227,192.168.0.111
2033,3,-6,3,84,"-3,-1,-178",0,0,0,0,0,0,62,65,81,70,100,-18.42,40,15.0,15.0,-996.0,16:41:46.499366,192.168.0.111
2038,3,-6,3,84,"-2,0,-177",1,0,0,0,0,0,62,65,82,70,100,-18.36,40,24.0,7.0,-1010.0,16:41:46.601128,192.168.0.111
2043,3,-6,3,84,"-2,0,-177",1,0,0,0,0,0,62,65,82,70,100,-18.41,40,21.0,17.0,-999.0,16:41:46.703620,192.168.0.111
2048,3,-6,3,84,"-2,0,-177",1,0,0,0,0,0,62,65,81,70,100,-18.45,40,34.0,0.0,-984.0,16:41:46.805125,192.168.0.111
2053,3,-6,3,84,"-2,0,-177",0,0,0,0,0,0,62,65,82,70,100,-18.37,41,15.0,4.0,-997.0,16:41:46.907612,192.168.0.111
2058,3,-6,4,84,"-2,0,-177",0,0,0,0,0,0,62,65,82,70,100,-18.42,41,20.0,-5.0,-1001.0,16:41:47.009350,192.168.0.111
2063,3,-6,4,84,"-2,0,-177",0,0,0,0,0,0,62,65,82,70,100,-18.4,41,33.0,-20.0,-981.0,16:41:47.111254,192.168.0.111
2068,3,-6,4,84,"-2,0,-177",1,0,0,0,0,0,62,65,82,70,100,-18.41,41,10.0,24.0,-992.0,16:41:47.213203,192.168.0.111
2073,3,-6,4,84,"-2,0,-177",1,0,0,0,0,0,62,65,82,70,100,-18.29,41,13.0,24.0,-1014.0,16:41:47.315420,192.168.0.111
2078,3,-6,4,85,"-2,0,-177",1,0,0,0,0,0,62,65,82,70,100,-18.33,41,5.0,1.0,-1003.0,16:41:47.417415,192.168.0.111
2083,3,-6,4,85,"-2,0,-177",1,0,0,0,0,0,62,65,83,70,100,-18.39,41,14.0,1.0,-991.0,16:41:47.519339,192.168.0.111
2088,3,-6,4,85,"-2,0,-177",1,0,0,0,0,0,62,65,82,70,100,-18.37,41,10.0,24.0,-994.0,16:41:47.621307,192.168.0.111
2093,3,-6,4,85,"-2,0,-177",1,0,0,0,0,0,62,65,82,70,100,-18.44,41,0.0,22.0,-1013.0,16:41:47.723332,192.168.0.111
2098,3,-7,1,85,"-3,0,-175",1,0,0,0,0,0,62,65,82,70,100,-18.39,41,15.0,13.0,-1002.0,16:41:47.824848,192.168.0.111
2103,3,-7,1,85,"-3,0,-175",1,0,0,0,0,0,62,65,83,70,100,-18.38,42,21.0,-3.0,-993.0,16:41:47.927337,192.168.0.111
2108,3,-7,1,85,"-3,0,-175",1,0,0,0,0,0,62,65,82,70,100,-18.35,42,30.0,0.0,-980.0,16:41:48.029370,192.168.0.111
2112,3,-6,3,85,"-2,-1,-177",1,0,0,0,0,0,62,65,82,70,100,-18.41,42,17.0,6.0,-998.0,16:41:48.131305,192.168.0.111
2118,3,-6,3,85,"-2,-1,-177",1,0,0,0,0,0,62,65,81,70,100,-18.44,42,28.0,2.0,-990.0,16:41:48.233305,192.168.0.111
2123,3,-6,3,85,"-2,-1,-177",0,0,0,0,0,0,62,65,81,70,100,-18.46,42,13.0,16.0,-1012.0,16:41:48.335468,192.168.0.111
2128,3,-6,3,85,"-2,-1,-177",1,0,0,0,0,0,62,65,81,70,100,-18.41,42,20.0,13.0,-999.0,16:41:48.437257,192.168.0.111
2133,3,-7,5,84,"-3,-1,-178",0,0,0,0,0,0,62,65,81,70,100,-18.48,42,5.0,16.0,-1000.0,16:41:48.539371,192.168.0.111
2138,3,-7,5,84,"-3,-1,-178",0,0,0,0,0,0,62,65,80,70,100,-18.46,42,24.0,7.0,-997.0,16:41:48.641309,192.168.0.111
2143,3,-7,5,84,"-3,-1,-178",0,0,0,0,0,0,62,65,81,70,100,-18.42,42,5.0,20.0,-1001.0,16:41:48.743609,192.168.0.111
2148,3,-7,5,84,"-3,-1,-178",0,0,0,0,0,0,62,65,82,70,100,-18.45,42,10.0,24.0,-999.0,16:41:48.845384,192.168.0.111
2153,3,-7,2,84,"-3,-1,-176",0,0,0,0,0,0,62,65,81,70,100,-18.47,43,22.0,2.0,-1006.0,16:41:48.947348,192.168.0.111
2158,3,-7,2,84,"-3,-1,-176",0,0,0,0,0,0,62,65,81,70,100,-18.5,43,18.0,-6.0,-989.0,16:41:49.049180,192.168.0.111
2163,3,-7,2,84,"-3,-1,-176",0,0,0,0,0,0,62,65,82,70,100,-18.48,43,12.0,14.0,-1003.0,16:41:49.151409,192.168.0.111
2166,3,-5,4,84,"-2,-1,-177",0,0,0,0,0,0,62,65,82,70,100,-18.51,43,7.0,4.0,-1002.0,16:41:49.202574,192.168.0.111
2171,3,-5,4,84,"-2,-1,-177",0,0,0,0,0,0,62,65,82,70,100,-18.46,43,2.0,17.0,-1008.0,16:41:49.307336,192.168.0.111
2176,3,-5,4,84,"-2,-1,-177",0,0,0,0,0,0,62,65,82,70,100,-18.51,43,8.0,16.0,-1006.0,16:41:49.406428,192.168.0.111
2181,3,-5,4,84,"-2,-1,-177",0,0,0,0,0,0,62,65,81,70,100,-18.43,43,-1.0,9.0,-1003.0,16:41:49.508436,192.168.0.111
2186,3,-6,3,84,"-2,-1,-177",0,0,0,0,0,0,62,65,82,70,100,-18.51,43,4.0,7.0,-1008.0,16:41:49.610642,192.168.0.111
2192,3,-6,3,84,"-2,-1,-177",0,0,0,0,0,0,62,65,82,70,100,-18.45,43,18.0,12.0,-992.0,16:41:49.712478,192.168.0.111
2198,3,-6,3,84,"-2,-1,-177",0,0,0,0,0,0,62,66,82,70,100,-18.4,43,3.0,16.0,-991.0,16:41:49.814507,192.168.0.111
2203,3,-6,3,84,"-2,-1,-177",0,0,0,0,0,0,62,66,82,70,100,-18.45,44,19.0,4.0,-997.0,16:41:49.917359,192.168.0.111
2208,3,-5,4,85,"-1,-1,-178",0,0,0,0,0,0,62,66,82,70,100,-18.39,44,14.0,18.0,-998.0,16:41:50.020529,192.168.0.111
2213,3,-5,4,85,"-1,-1,-178",0,0,0,0,0,0,62,66,82,70,100,-18.41,44,15.0,11.0,-997.0,16:41:50.120614,192.168.0.111
2218,3,-5,4,85,"-1,-1,-178",0,0,0,0,0,0,62,66,82,70,100,-18.35,44,20.0,3.0,-993.0,16:41:50.222424,192.168.0.111
2223,3,-5,4,85,"-1,-1,-178",0,0,0,0,0,0,62,66,82,70,100,-18.37,44,9.0,12.0,-1014.0,16:41:50.324445,192.168.0.111
2228,3,-7,4,85,"-2,-1,-177",0,0,0,0,0,0,62,66,82,70,100,-18.37,44,14.0,0.0,-998.0,16:41:50.426365,192.168.0.111
2233,3,-7,4,85,"-2,-1,-177",0,0,0,0,0,0,62,66,82,70,100,-18.41,44,27.0,-6.0,-994.0,16:41:50.528382,192.168.0.111
2238,3,-7,4,85,"-2,-1,-177",1,0,0,0,0,0,62,66,82,70,100,-18.42,44,15.0,4.0,-1000.0,16:41:50.630307,192.168.0.111
2243,3,-7,3,85,"-2,-1,-176",1,0,0,0,0,0,62,66,81,70,100,-18.42,44,8.0,1.0,-1009.0,16:41:50.732406,192.168.0.111
2248,3,-7,3,85,"-2,-1,-176",1,0,0,0,0,0,62,64,82,70,100,-18.4,44,14.0,4.0,-1003.0,16:41:50.834307,192.168.0.111
2253,3,-7,3,85,"-2,-1,-176",1,0,0,0,0,0,62,64,81,70,100,-18.38,45,20.0,-11.0,-995.0,16:41:50.936442,192.168.0.111
2258,3,-7,3,85,"-2,-1,-176",1,0,0,0,0,0,62,64,82,70,100,-18.43,45,27.0,14.0,-997.0,16:41:51.038350,192.168.0.111
2263,3,-7,4,84,"-3,-1,-176",1,0,0,0,0,0,62,64,81,70,100,-18.5,45,22.0,-3.0,-994.0,16:41:51.140619,192.168.0.111
2268,3,-7,4,84,"-3,-1,-176",1,0,0,0,0,0,62,64,80,70,100,-18.4,45,38.0,-7.0,-979.0,16:41:51.242429,192.168.0.111
2273,3,-7,4,84,"-3,-1,-176",1,0,0,0,0,0,62,64,80,70,100,-18.4,45,42.0,-4.0,-988.0,16:41:51.344551,192.168.0.111
2278,3,-7,4,84,"-3,-1,-176",1,0,0,0,0,0,62,64,81,70,100,-18.42,45,29.0,-4.0,-1003.0,16:41:51.446452,192.168.0.111
2283,3,-5,4,84,"-3,0,-176",1,0,0,0,0,0,62,64,81,70,100,-18.45,45,4.0,17.0,-1008.0,16:41:51.548436,192.168.0.111
2288,3,-5,4,84,"-3,0,-176",1,0,0,0,0,0,62,64,81,70,100,-18.44,45,17.0,9.0,-1008.0,16:41:51.650912,192.168.0.111
2293,3,-5,4,84,"-3,0,-176",1,0,0,0,0,0,62,64,82,70,100,-18.44,45,27.0,25.0,-1007.0,16:41:51.752598,192.168.0.111
2298,3,-5,1,84,"-3,0,-175",1,0,0,0,0,0,62,65,81,70,100,-18.37,45,19.0,5.0,-998.0,16:41:51.854592,192.168.0.111
2303,3,-5,1,84,"-3,0,-175",1,0,0,0,0,0,62,65,81,70,100,-18.4,46,21.0,2.0,-992.0,16:41:51.956760,192.168.0.111
2308,3,-5,1,84,"-3,0,-175",1,0,0,0,0,0,62,65,80,70,100,-18.46,46,12.0,17.0,-1002.0,16:41:52.058579,192.168.0.111
2313,3,-5,1,84,"-3,0,-175",1,0,0,0,0,0,62,65,81,70,100,-18.47,46,21.0,14.0,-1009.0,16:41:52.160407,192.168.0.111
2318,3,-5,1,84,"-4,-1,-176",1,0,0,0,0,0,62,65,81,70,100,-18.45,46,18.0,14.0,-1006.0,16:41:52.262491,192.168.0.111
2323,3,-5,1,84,"-4,-1,-176",1,0,0,0,0,0,62,65,81,70,100,-18.43,46,20.0,18.0,-1001.0,16:41:52.364648,192.168.0.111
2328,3,-5,1,84,"-4,-1,-176",1,0,0,0,0,0,62,65,81,70,100,-18.35,46,10.0,18.0,-1000.0,16:41:52.467836,192.168.0.111
2333,3,-5,1,84,"-4,-1,-176",1,0,0,0,0,0,62,65,80,70,100,-18.38,46,18.0,15.0,-1003.0,16:41:52.568592,192.168.0.111
2336,3,-3,2,84,"-3,-1,-177",1,0,0,0,0,0,62,65,80,70,100,-18.41,46,19.0,14.0,-996.0,16:41:52.619416,192.168.0.111
2341,3,-3,2,84,"-3,-1,-177",1,0,0,0,0,0,62,65,80,70,100,-18.41,46,24.0,7.0,-1011.0,16:41:52.723042,192.168.0.111
2347,3,-3,2,84,"-3,-1,-177",1,0,0,0,0,0,62,65,80,70,100,-18.41,46,21.0,9.0,-1009.0,16:41:52.823462,192.168.0.111
2352,3,-3,2,84,"-3,-1,-177",1,0,0,0,0,0,62,65,80,70,100,-18.39,47,24.0,7.0,-1003.0,16:41:52.925690,192.168.0.111
2357,3,-3,-2,84,"-2,-1,-174",1,0,0,0,0,0,62,65,80,70,100,-18.4,47,23.0,12.0,-1002.0,16:41:53.027385,192.168.0.111
2362,3,-3,-2,84,"-2,-1,-174",1,0,0,0,0,0,62,65,81,70,100,-18.43,47,19.0,10.0,-999.0,16:41:53.129388,192.168.0.111
2368,3,-3,-2,84,"-2,-1,-174",1,0,0,0,0,0,62,65,81,70,100,-18.41,47,19.0,11.0,-1000.0,16:41:53.231438,192.168.0.111
2373,3,-5,0,83,"-4,-1,-176",1,0,0,0,0,0,62,65,81,70,100,-18.35,47,14.0,17.0,-1009.0,16:41:53.336521,192.168.0.111
2378,3,-5,0,83,"-4,-1,-176",1,0,0,0,0,0,62,65,80,70,100,-18.51,47,17.0,10.0,-992.0,16:41:53.435528,192.168.0.111
2383,3,-5,0,83,"-4,-1,-176",1,0,0,0,0,0,62,65,81,70,100,-18.47,47,29.0,6.0,-1000.0,16:41:53.539304,192.168.0.111
2388,3,-5,0,83,"-4,-1,-176",1,0,0,0,0,0,62,65,81,70,100,-18.36,47,19.0,8.0,-995.0,16:41:53.639500,192.168.0.111
2393,3,-4,1,84,"-3,-1,-176",1,0,0,0,0,0,62,65,80,70,100,-18.4,47,22.0,6.0,-999.0,16:41:53.741415,192.168.0.111
2398,3,-4,1,84,"-3,-1,-176",1,0,0,0,0,0,62,65,81,70,100,-18.48,47,20.0,7.0,-991.0,16:41:53.843442,192.168.0.111
2403,3,-4,1,84,"-3,-1,-176",1,0,0,0,0,0,62,65,80,70,100,-18.39,48,23.0,1.0,-1006.0,16:41:53.945401,192.168.0.111
2408,3,-4,1,84,"-3,-1,-176",1,0,0,0,0,0,62,65,81,70,100,-18.46,48,27.0,15.0,-994.0,16:41:54.047400,192.168.0.111
2413,3,-2,-1,84,"-2,-1,-174",1,0,0,0,0,0,62,65,80,70,100,-18.45,48,12.0,19.0,-993.0,16:41:54.149240,192.168.0.111
2418,3,-2,-1,84,"-2,-1,-174",1,0,0,0,0,0,62,65,80,70,100,-18.39,48,9.0,22.0,-1009.0,16:41:54.251390,192.168.0.111
2423,3,-2,-1,84,"-2,-1,-174",1,0,0,0,0,0,62,65,80,70,100,-18.41,48,11.0,9.0,-1001.0,16:41:54.353244,192.168.0.111
2428,3,-3,2,84,"-3,-1,-177",1,0,0,0,0,0,62,65,80,70,100,-18.42,48,11.0,20.0,-1000.0,16:41:54.455483,192.168.0.111
2433,3,-3,2,84,"-3,-1,-177",1,0,0,0,0,0,62,65,80,70,100,-18.42,48,17.0,9.0,-1008.0,16:41:54.557447,192.168.0.111
2438,3,-3,2,84,"-3,-1,-177",1,0,0,0,0,0,62,65,80,70,100,-18.47,48,13.0,10.0,-1002.0,16:41:54.659264,192.168.0.111
2443,3,-3,2,84,"-3,-1,-177",1,0,0,0,0,0,62,65,80,70,100,-18.46,48,16.0,15.0,-1000.0,16:41:54.761566,192.168.0.111
2448,3,-3,2,83,"-3,-1,-176",1,0,0,0,0,0,62,65,80,70,100,-18.46,48,21.0,18.0,-1004.0,16:41:54.863386,192.168.0.111
2453,3,-3,2,83,"-3,-1,-176",1,0,0,0,0,0,62,65,80,70,100,-18.46,49,18.0,15.0,-998.0,16:41:54.965391,192.168.0.111
2458,3,-3,2,83,"-3,-1,-176",1,0,0,0,0,0,62,65,80,70,100,-18.45,49,25.0,8.0,-1011.0,16:41:55.067351,192.168.0.111
2463,3,-3,2,83,"-3,-1,-176",1,0,0,0,0,0,62,65,80,70,100,-18.47,49,19.0,11.0,-1003.0,16:41:55.169439,192.168.0.111
2468,3,-3,2,83,"-3,-1,-177",1,0,0,0,0,0,62,65,80,70,100,-18.38,49,22.0,3.0,-987.0,16:41:55.271409,192.168.0.111
2473,3,-3,2,83,"-3,-1,-177",1,0,0,0,0,0,62,65,81,70,100,-18.42,49,23.0,5.0,-998.0,16:41:55.373475,192.168.0.111
2478,3,-3,2,83,"-3,-1,-177",1,0,0,0,0,0,62,65,81,70,100,-18.37,49,13.0,22.0,-1004.0,16:41:55.475531,192.168.0.111
2483,3,-3,2,83,"-3,-1,-177",1,0,0,0,0,0,62,65,81,70,100,-18.39,49,22.0,9.0,-1008.0,16:41:55.577404,192.168.0.111
2488,3,-4,0,84,"-2,-1,-175",1,0,0,0,0,0,62,65,81,70,100,-18.34,49,19.0,16.0,-996.0,16:41:55.679550,192.168.0.111
2493,3,-4,0,84,"-2,-1,-175",1,0,0,0,0,0,62,65,81,70,100,-18.41,49,15.0,13.0,-998.0,16:41:55.781150,192.168.0.111
2498,3,-4,0,84,"-2,-1,-175",1,0,0,0,0,0,62,64,82,70,100,-18.36,49,24.0,20.0,-997.0,16:41:55.883390,192.168.0.111
2503,3,-4,0,85,"-2,-1,-175",1,0,0,0,0,0,62,64,82,70,100,-18.43,50,20.0,4.0,-1007.0,16:41:55.985470,192.168.0.111
2506,3,-4,0,85,"-2,-1,-175",1,0,0,0,0,0,62,64,82,70,100,-18.34,50,13.0,14.0,-996.0,16:41:56.036480,192.168.0.111
2511,3,-4,0,85,"-2,-1,-175",0,0,0,0,0,0,62,64,82,70,100,-18.39,50,23.0,5.0,-995.0,16:41:56.138601,192.168.0.111
2516,3,-4,0,85,"-2,-1,-175",0,0,0,0,0,0,62,64,82,70,100,-18.33,50,17.0,11.0,-994.0,16:41:56.240703,192.168.0.111
2521,3,-4,1,85,"-2,-1,-177",0,0,0,0,0,0,62,64,82,70,100,-18.43,50,18.0,5.0,-998.0,16:41:56.342441,192.168.0.111
2527,3,-4,1,85,"-2,-1,-177",0,0,0,0,0,0,62,64,82,70,100,-18.34,50,19.0,11.0,-999.0,16:41:56.445731,192.168.0.111
2533,3,-4,1,85,"-2,-1,-177",0,0,0,0,0,0,62,64,81,70,100,-18.39,50,19.0,9.0,-1010.0,16:41:56.546386,192.168.0.111
2538,3,-4,1,85,"-2,-1,-177",0,0,0,0,0,0,62,64,81,70,100,-18.37,50,17.0,15.0,-1005.0,16:41:56.648679,192.168.0.111
2542,3,-4,1,85,"-2,-1,-177",0,0,0,0,0,0,62,64,82,70,100,-18.38,50,21.0,11.0,-1001.0,16:41:56.751145,192.168.0.111
2548,3,-4,1,85,"-2,-1,-177",0,0,0,0,0,0,62,65,82,70,100,-18.35,50,17.0,12.0,-1001.0,16:41:56.852266,192.168.0.111
2553,3,-4,1,85,"-2,-1,-177",0,0,0,0,0,0,62,65,81,70,100,-18.35,51,22.0,19.0,-1003.0,16:41:56.954650,192.168.0.111
2558,3,-5,2,85,"-2,-1,-177",1,0,0,0,0,0,62,65,82,70,100,-18.4,51,20.0,14.0,-1005.0,16:41:57.056537,192.168.0.111
2563,3,-5,2,85,"-2,-1,-177",1,0,0,0,0,0,62,65,82,70,100,-18.36,51,19.0,10.0,-991.0,16:41:57.158447,192.168.0.111
2568,3,-5,2,85,"-2,-1,-177",1,0,0,0,0,0,62,65,82,70,100,-18.37,51,20.0,3.0,-993.0,16:41:57.260540,192.168.0.111
2573,3,-5,2,85,"-2,-1,-177",1,0,0,0,0,0,62,65,83,70,100,-18.39,51,18.0,19.0,-997.0,16:41:57.362568,192.168.0.111
2578,3,-5,3,85,"-2,-1,-178",1,0,0,0,0,0,62,65,82,70,100,-18.38,51,18.0,13.0,-994.0,16:41:57.464477,192.168.0.111
2583,3,-5,3,85,"-2,-1,-178",1,0,0,0,0,0,62,65,83,70,100,-18.31,51,21.0,20.0,-993.0,16:41:57.566581,192.168.0.111
2588,3,-5,3,85,"-2,-1,-178",1,0,0,0,0,0,62,65,83,70,100,-18.33,51,18.0,7.0,-1005.0,16:41:57.671589,192.168.0.111
2593,3,-5,3,85,"-2,-1,-178",1,0,0,0,0,0,62,65,83,70,100,-18.32,51,22.0,12.0,-990.0,16:41:57.770562,192.168.0.111
2598,3,-5,2,86,"-2,-1,-177",1,0,0,0,0,0,63,65,82,70,100,-18.23,51,14.0,8.0,-999.0,16:41:57.872492,192.168.0.111
2603,3,-5,2,86,"-2,-1,-177",1,0,0,0,0,0,63,65,82,70,100,-18.39,52,19.0,19.0,-994.0,16:41:57.974672,192.168.0.111
2608,3,-5,2,86,"-2,-1,-177",1,0,0,0,0,0,63,65,82,70,100,-18.31,52,25.0,7.0,-994.0,16:41:58.076531,192.168.0.111
2613,3,-5,2,86,"-2,-1,-177",1,0,0,0,0,0,63,65,82,70,100,-18.34,52,15.0,18.0,-1003.0,16:41:58.179276,192.168.0.111
2618,3,-5,2,86,"-2,-1,-177",1,0,0,0,0,0,63,65,82,70,100,-18.25,52,19.0,18.0,-1001.0,16:41:58.280521,192.168.0.111
2623,3,-5,2,86,"-2,-1,-177",1,0,0,0,0,0,63,65,81,70,100,-18.35,52,24.0,0.0,-1001.0,16:41:58.382762,192.168.0.111
2628,3,-5,2,86,"-2,-1,-177",1,0,0,0,0,0,63,65,82,70,100,-18.33,52,15.0,4.0,-1008.0,16:41:58.485860,192.168.0.111
2633,3,-5,0,85,"-2,-1,-176",1,0,0,0,0,0,63,65,81,70,100,-18.29,52,19.0,14.0,-1005.0,16:41:58.586507,192.168.0.111
2638,3,-5,0,85,"-2,-1,-176",1,0,0,0,0,0,63,65,82,70,100,-18.33,52,25.0,12.0,-1005.0,16:41:58.688639,192.168.0.111
2643,3,-5,0,85,"-2,-1,-176",1,0,0,0,0,0,63,65,82,70,100,-18.37,52,28.0,13.0,-986.0,16:41:58.791123,192.168.0.111
2648,3,-5,0,85,"-2,-1,-176",1,0,0,0,0,0,63,65,82,70,100,-18.37,52,24.0,6.0,-1001.0,16:41:58.893850,192.168.0.111
2653,3,-6,-1,85,"-3,-1,-174",1,0,0,0,0,0,63,65,82,70,100,-18.4,53,29.0,8.0,-991.0,16:41:58.994618,192.168.0.111
2658,3,-6,-1,85,"-3,-1,-174",1,0,0,0,0,0,63,65,82,70,100,-18.38,53,32.0,8.0,-998.0,16:41:59.096187,192.168.0.111
2663,3,-6,-1,85,"-3,-1,-174",1,0,0,0,0,0,63,65,82,70,100,-18.39,53,34.0,12.0,-998.0,16:41:59.198225,192.168.0.111
