,mid,x,y,z,mpry,pitch,roll,yaw,vgx,vgy,vgz,templ,temph,tof,h,bat,baro,time,agx,agy,agz,timestamp,address
2,-1,-100,-100,-100,"0,0,0",0,0,-2,0,0,0,72,73,10,0,100,-19.5,0,-6.0,-4.0,-998.0,16:41:05.742859,192.168.0.114
7,-1,-100,-100,-100,"0,0,0",0,0,-2,0,0,0,72,73,10,0,100,-19.47,0,-6.0,-4.0,-1002.0,16:41:05.842969,192.168.0.114
12,-1,-100,-100,-100,"0,0,0",0,0,-2,0,0,0,72,73,10,0,100,-19.48,0,-5.0,-5.0,-998.0,16:41:05.944987,192.168.0.114
17,-1,-100,-100,-100,"0,0,0",0,0,-2,0,0,0,72,73,10,0,100,-19.48,0,-6.0,-2.0,-1000.0,16:41:06.046834,192.168.0.114
22,-1,-100,-100,-100,"0,0,0",0,0,-2,0,0,0,72,73,10,0,100,-19.48,0,-2.0,-5.0,-996.0,16:41:06.148891,192.168.0.114
27,-1,-100,-100,-100,"0,0,0",0,0,-2,0,0,0,72,73,10,0,100,-19.48,0,-1.0,8.0,-1002.0,16:41:06.251384,192.168.0.114
32,-1,-100,-100,-100,"0,0,0",0,0,-2,0,0,0,72,73,10,0,100,-19.48,0,0.0,-7.0,-1000.0,16:41:06.353424,192.168.0.114
38,-1,-100,-100,-100,"0,0,0",0,0,-2,0,0,1,72,73,10,0,100,-19.48,0,-14.0,18.0,-1025.0,16:41:06.455104,192.168.0.114
43,-1,-100,-100,-100,"0,0,0",0,1,-2,0,-1,4,72,73,10,0,100,-19.48,0,11.0,15.0,-1161.0,16:41:06.557584,192.168.0.114
48,-1,-100,-100,-100,"0,0,0",0,-4,-2,0,-1,7,72,73,13,10,100,-19.41,0,-25.0,50.0,-1426.0,16:41:06.659387,192.168.0.114
50,-1,-100,-100,-100,"0,0,0",0,-5,-2,0,-1,8,71,73,21,10,100,-18.98,0,-1.0,63.0,-991.0,16:41:06.710406,192.168.0.114
55,-1,-100,-100,-100,"0,0,0",0,-6,-2,0,-1,8,71,73,30,20,100,-19.06,0,-59.0,44.0,-986.0,16:41:06.812592,192.168.0.114
60,-1,-100,-100,-100,"0,0,0",0,-3,-2,0,0,8,71,73,38,30,100,-18.97,1,-27.0,20.0,-934.0,16:41:06.914330,192.168.0.114
65,-1,-100,-100,-100,"0,0,0",-1,-1,-2,0,0,7,71,73,43,40,100,-18.76,1,-41.0,91.0,-871.0,16:41:07.016198,192.168.0.114
70,-1,-100,-100,-100,"0,0,0",-2,-1,-2,0,0,6,71,73,50,40,100,-18.67,1,-32.0,76.0,-876.0,16:41:07.118025,192.168.0.114
75,-1,-100,-100,-100,"0,0,0",-2,-2,-3,0,0,5,71,73,55,50,100,-18.72,1,-22.0,58.0,-863.0,16:41:07.220366,192.168.0.114
80,-1,-100,-100,-100,"0,0,0",-1,-4,-3,0,-1,3,71,73,60,50,100,-18.63,1,-22.0,85.0,-885.0,16:41:07.322433,192.168.0.114
86,-1,-100,-100,-100,"0,0,0",-2,-6,-3,0,-1,2,71,73,63,60,100,-18.57,1,-48.0,54.0,-924.0,16:41:07.424418,192.168.0.114
91,-1,-100,-100,-100,"0,0,0",-2,-5,-3,0,0,2,71,73,64,60,100,-18.66,1,-31.0,68.0,-982.0,16:41:07.526359,192.168.0.114
97,-1,-100,-100,-100,"0,0,0",-2,-4,-3,0,0,1,71,73,66,60,100,-18.67,1,-34.0,53.0,-941.0,16:41:07.628396,192.168.0.114
102,-1,-100,-100,-100,"0,0,0",-2,-3,-3,0,0,1,71,75,68,60,100,-18.67,1,12.0,118.0,-954.0,16:41:07.730334,192.168.0.114
107,-1,-100,-100,-100,"0,0,0",-2,-3,-2,0,0,1,71,75,69,60,100,-18.49,1,7.0,39.0,-1015.0,16:41:07.832616,192.168.0.114
112,-1,-100,-100,-100,"0,0,0",0,-4,-2,0,0,1,71,75,71,60,100,-18.42,2,17.0,84.0,-1004.0,16:41:07.934565,192.168.0.114
117,-1,-100,-100,-100,"0,0,0",0,-4,-1,0,0,1,71,75,72,70,100,-18.51,2,57.0,85.0,-993.0,16:41:08.036087,192.168.0.114
122,-1,-100,-100,-100,"0,0,0",0,-5,-1,-1,0,1,71,75,72,70,100,-18.43,2,22.0,76.0,-969.0,16:41:08.143266,192.168.0.114
127,-1,-100,-100,-100,"0,0,0",2,-6,-1,-1,0,1,71,75,74,70,100,-18.78,2,23.0,70.0,-1000.0,16:41:08.240329,192.168.0.114
132,-1,-100,-100,-100,"0,0,0",3,-4,-2,-1,0,0,71,75,77,70,100,-18.4,2,12.0,90.0,-961.0,16:41:08.342734,192.168.0.114
137,-1,-100,-100,-100,"0,0,0",2,-4,-2,-1,0,0,71,75,78,70,100,-18.58,2,68.0,85.0,-993.0,16:41:08.444195,192.168.0.114
142,-1,-100,-100,-100,"0,0,0",2,-3,-2,-1,0,0,71,75,80,70,100,-18.41,2,51.0,90.0,-993.0,16:41:08.546538,192.168.0.114
147,-1,-100,-100,-100,"0,0,0",4,-4,-2,-1,0,1,71,75,81,70,100,-18.57,2,48.0,85.0,-972.0,16:41:08.651566,192.168.0.114
152,-1,-100,-100,-100,"0,0,0",3,-5,-2,-1,0,1,72,74,82,70,100,-18.5,2,38.0,64.0,-959.0,16:41:08.750516,192.168.0.114
157,-1,-100,-100,-100,"0,0,0",3,-4,-3,-1,0,0,72,74,83,80,100,-18.58,2,33.0,120.0,-945.0,16:41:08.852766,192.168.0.114
162,-1,-100,-100,-100,"0,0,0",3,-3,-3,0,0,0,72,74,83,80,100,-18.48,3,32.0,62.0,-955.0,16:41:08.954697,192.168.0.114
167,-1,-100,-100,-100,"0,0,0",3,-4,-3,0,0,0,72,74,83,80,100,-18.57,3,12.0,67.0,-1053.0,16:41:09.056397,192.168.0.114
172,-1,-100,-100,-100,"0,0,0",3,-5,-3,0,0,0,72,74,83,80,100,-18.36,3,-2.0,41.0,-986.0,16:41:09.158425,192.168.0.114
175,-1,-100,-100,-100,"0,0,0",2,-4,-3,0,0,0,72,74,83,80,100,-18.6,3,-19.0,117.0,-1088.0,16:41:09.209605,192.168.0.114
180,-1,-100,-100,-100,"0,0,0",0,-3,-3,0,0,0,72,74,84,80,100,-18.45,3,-12.0,60.0,-959.0,16:41:09.311428,192.168.0.114
185,-1,-100,-100,-100,"0,0,0",0,-4,-3,0,0,0,72,74,84,80,100,-18.57,3,-1.0,52.0,-1012.0,16:41:09.413589,192.168.0.114
190,-1,-100,-100,-100,"0,0,0",0,-3,-3,0,0,0,72,74,84,80,100,-18.57,3,-3.0,100.0,-980.0,16:41:09.515522,192.168.0.114
195,-1,-100,-100,-100,"0,0,0",0,-3,-3,0,0,0,72,74,84,80,100,-18.39,3,-41.0,59.0,-986.0,16:41:09.617679,192.168.0.114
200,-1,-100,-100,-100,"0,0,0",0,-3,-3,1,0,0,71,74,83,80,100,-18.48,3,-20.0,37.0,-1000.0,16:41:09.721759,192.168.0.114
205,-1,-100,-100,-100,"0,0,0",0,-4,-2,1,0,0,71,74,84,80,100,-18.45,3,8.0,46.0,-944.0,16:41:09.821489,192.168.0.114
210,-1,-100,-100,-100,"0,0,0",-3,-3,-2,1,0,0,71,74,83,80,100,-18.4,4,-4.0,80.0,-988.0,16:41:09.923524,192.168.0.114
216,-1,-100,-100,-100,"0,0,0",-3,-2,-3,0,0,0,71,74,82,80,100,-18.43,4,8.0,88.0,-944.0,16:41:10.025908,192.168.0.114
221,-1,-100,-100,-100,"0,0,0",-1,-3,-3,0,0,0,71,74,82,80,100,-18.55,4,-41.0,66.0,-1015.0,16:41:10.127982,192.168.0.114
227,-1,-100,-100,-100,"0,0,0",0,-2,-3,0,0,0,71,74,82,80,100,-18.52,4,6.0,101.0,-990.0,16:41:10.231548,192.168.0.114
232,-1,-100,-100,-100,"0,0,0",-1,-4,-2,0,0,0,71,74,82,80,100,-18.36,4,56.0,53.0,-1019.0,16:41:10.331433,192.168.0.114
237,-1,-100,-100,-100,"0,0,0",0,-5,-2,0,0,0,71,74,83,80,100,-18.41,4,25.0,120.0,-983.0,16:41:10.433948,192.168.0.114
242,-1,-100,-100,-100,"0,0,0",1,-3,-2,0,0,0,71,74,83,80,100,-18.45,4,24.0,134.0,-1044.0,16:41:10.535718,192.168.0.114
247,-1,-100,-100,-100,"0,0,0",1,-5,-2,0,0,0,71,74,83,80,100,-18.44,4,27.0,76.0,-966.0,16:41:10.637147,192.168.0.114
252,-1,-100,-100,-100,"0,0,0",2,-6,-2,0,0,0,71,73,84,80,100,-18.57,4,22.0,74.0,-1005.0,16:41:10.739568,192.168.0.114
257,-1,-100,-100,-100,"0,0,0",2,-5,-3,0,0,0,71,73,84,80,100,-18.49,4,57.0,61.0,-940.0,16:41:10.841349,192.168.0.114
262,-1,-100,-100,-100,"0,0,0",1,-4,-2,0,0,0,71,73,84,80,100,-18.41,5,29.0,80.0,-950.0,16:41:10.943533,192.168.0.114
267,-1,-100,-100,-100,"0,0,0",1,-5,-1,0,0,0,71,73,84,80,100,-18.68,5,-5.0,76.0,-997.0,16:41:11.045620,192.168.0.114
272,-1,-100,-100,-100,"0,0,0",2,-4,-2,0,0,0,71,73,84,80,100,-18.59,5,-16.0,45.0,-994.0,16:41:11.147567,192.168.0.114
277,-1,-100,-100,-100,"0,0,0",1,-4,-1,0,0,0,71,73,85,80,100,-18.56,5,38.0,36.0,-998.0,16:41:11.250503,192.168.0.114
282,-1,-100,-100,-100,"0,0,0",0,-3,-1,0,0,0,71,73,86,80,100,-18.6,5,60.0,36.0,-986.0,16:41:11.351477,192.168.0.114
287,-1,-100,-100,-100,"0,0,0",0,-2,-1,0,0,0,71,73,85,80,100,-18.67,5,29.0,43.0,-998.0,16:41:11.455179,192.168.0.114
292,-1,-100,-100,-100,"0,0,0",2,-2,-2,0,1,0,71,73,86,80,100,-18.57,5,2.0,30.0,-972.0,16:41:11.555658,192.168.0.114
297,-1,-100,-100,-100,"0,0,0",2,-1,-2,0,1,0,71,73,85,80,100,-18.61,5,-21.0,21.0,-996.0,16:41:11.657662,192.168.0.114
302,-1,-100,-100,-100,"0,0,0",1,0,-2,0,1,0,71,73,85,80,100,-18.71,5,-12.0,31.0,-1028.0,16:41:11.759661,192.168.0.114
307,-1,-100,-100,-100,"0,0,0",0,0,-2,0,0,0,71,73,86,80,100,-18.59,5,-35.0,62.0,-1005.0,16:41:11.861526,192.168.0.114
312,-1,-100,-100,-100,"0,0,0",-1,0,-2,1,0,0,71,73,86,80,100,-18.71,6,-3.0,43.0,-995.0,16:41:11.963659,192.168.0.114
318,-1,-100,-100,-100,"0,0,0",-2,-1,-2,1,0,0,71,73,87,80,100,-18.65,6,0.0,32.0,-1007.0,16:41:12.065536,192.168.0.114
323,-1,-100,-100,-100,"0,0,0",-2,-1,-2,0,0,0,71,73,87,80,100,-18.7,6,-2.0,44.0,-989.0,16:41:12.167256,192.168.0.114
328,-1,-100,-100,-100,"0,0,0",0,-1,-2,0,0,0,71,73,86,80,100,-18.58,6,1.0,43.0,-997.0,16:41:12.269493,192.168.0.114
333,-1,-100,-100,-100,"0,0,0",0,-1,-2,0,0,0,71,73,87,80,100,-18.52,6,8.0,53.0,-991.0,16:41:12.371459,192.168.0.114
338,-1,-100,-100,-100,"0,0,0",0,-2,-2,0,0,0,71,73,87,80,100,-18.42,6,12.0,46.0,-991.0,16:41:12.473647,192.168.0.114
343,-1,-100,-100,-100,"0,0,0",0,-1,-3,0,0,0,71,73,86,80,100,-18.52,6,25.0,23.0,-1013.0,16:41:12.575408,192.168.0.114
348,-1,-100,-100,-100,"0,0,0",0,-2,-3,0,0,0,71,73,86,80,100,-18.59,6,-9.0,69.0,-978.0,16:41:12.677619,192.168.0.114
353,-1,-100,-100,-100,"0,0,0",0,-2,-3,0,0,0,71,72,86,80,100,-18.76,6,15.0,55.0,-1028.0,16:41:12.779559,192.168.0.114
357,-1,-100,-100,-100,"0,0,0",0,-2,-2,0,0,0,71,72,86,80,100,-18.42,6,7.0,47.0,-953.0,16:41:12.830645,192.168.0.114
362,-1,-100,-100,-100,"0,0,0",0,-2,-2,0,0,0,71,72,86,80,100,-18.44,7,39.0,47.0,-1023.0,16:41:12.932798,192.168.0.114
367,-1,-100,-100,-100,"0,0,0",0,-2,-2,0,0,0,71,72,86,80,100,-18.55,7,50.0,41.0,-999.0,16:41:13.034400,192.168.0.114
372,-1,-100,-100,-100,"0,0,0",1,-1,-2,0,0,0,71,72,87,80,100,-18.49,7,3.0,33.0,-1007.0,16:41:13.136706,192.168.0.114
377,-1,-100,-100,-100,"0,0,0",2,-1,-2,0,0,0,71,72,86,80,100,-18.62,7,9.0,39.0,-1006.0,16:41:13.238721,192.168.0.114
382,-1,-100,-100,-100,"0,0,0",1,-1,-2,0,0,0,71,72,86,80,100,-18.56,7,27.0,28.0,-992.0,16:41:13.340636,192.168.0.114
387,-1,-100,-100,-100,"0,0,0",1,-2,-2,0,0,0,71,72,88,80,100,-18.65,7,-8.0,29.0,-1009.0,16:41:13.442807,192.168.0.114
392,-1,-100,-100,-100,"0,0,0",0,-2,-2,0,0,0,71,72,88,80,100,-18.53,7,6.0,21.0,-1002.0,16:41:13.544702,192.168.0.114
397,-1,-100,-100,-100,"0,0,0",1,-1,-2,0,0,0,71,72,88,80,100,-18.64,7,-15.0,21.0,-1004.0,16:41:13.646687,192.168.0.114
402,-1,-100,-100,-100,"0,0,0",0,0,-2,0,0,0,71,73,89,80,100,-18.44,7,-6.0,28.0,-965.0,16:41:13.748754,192.168.0.114
407,-1,-100,-100,-100,"0,0,0",0,0,-2,0,0,0,71,73,91,80,100,-18.57,7,-1.0,24.0,-976.0,16:41:13.850762,192.168.0.114
412,-1,-100,-100,-100,"0,0,0",0,0,-2,0,0,0,71,73,91,80,100,-18.48,8,0.0,43.0,-997.0,16:41:13.952687,192.168.0.114
417,-1,-100,-100,-100,"0,0,0",0,0,-2,0,0,0,71,73,92,80,100,-18.55,8,-13.0,40.0,-989.0,16:41:14.054210,192.168.0.114
422,-1,-100,-100,-100,"0,0,0",0,0,-2,0,0,0,71,73,92,80,100,-18.5,8,-16.0,6.0,-979.0,16:41:14.156207,192.168.0.114
427,-1,-100,-100,-100,"0,0,0",0,-1,-2,0,0,0,71,73,91,80,100,-18.52,8,-5.0,12.0,-994.0,16:41:14.258649,192.168.0.114
432,-1,-100,-100,-100,"0,0,0",0,-1,-2,0,0,0,71,73,91,80,100,-18.49,8,-8.0,36.0,-998.0,16:41:14.361616,192.168.0.114
437,-1,-100,-100,-100,"0,0,0",0,0,-2,0,0,0,71,73,92,80,100,-18.49,8,2.0,23.0,-976.0,16:41:14.462587,192.168.0.114
442,-1,-100,-100,-100,"0,0,0",0,0,-1,0,0,0,71,73,90,80,100,-18.55,8,16.0,19.0,-982.0,16:41:14.566944,192.168.0.114
447,-1,-100,-100,-100,"0,0,0",0,0,-1,0,0,0,71,73,90,80,100,-18.51,8,-1.0,25.0,-962.0,16:41:14.666950,192.168.0.114
452,-1,-100,-100,-100,"0,0,0",0,0,-1,0,0,0,70,73,89,80,100,-18.53,8,22.0,38.0,-992.0,16:41:14.768729,192.168.0.114
457,-1,-100,-100,-100,"0,0,0",0,0,-1,0,0,0,70,73,89,80,100,-18.56,8,18.0,29.0,-1003.0,16:41:14.870150,192.168.0.114
462,-1,-100,-100,-100,"0,0,0",1,0,-1,0,0,0,70,73,90,80,100,-18.55,9,17.0,35.0,-1016.0,16:41:14.972667,192.168.0.114
467,-1,-100,-100,-100,"0,0,0",0,-1,-2,0,0,0,70,73,88,80,100,-18.52,9,6.0,43.0,-1010.0,16:41:15.074731,192.168.0.114
472,-1,-100,-100,-100,"0,0,0",1,0,-2,0,0,0,70,73,89,80,100,-18.5,9,-20.0,53.0,-1046.0,16:41:15.176753,192.168.0.114
478,-1,-100,-100,-100,"0,0,0",1,0,-2,0,0,0,70,73,89,80,100,-18.5,9,13.0,23.0,-1002.0,16:41:15.278596,192.168.0.114
483,-1,-100,-100,-100,"0,0,0",1,-1,-2,0,0,0,70,73,90,80,100,-18.43,9,0.0,11.0,-968.0,16:41:15.381530,192.168.0.114
488,-1,-100,-100,-100,"0,0,0",1,0,-3,0,0,0,70,73,90,80,100,-18.55,9,21.0,14.0,-1007.0,16:41:15.482754,192.168.0.114
493,-1,-100,-100,-100,"0,0,0",1,0,-3,0,0,0,70,73,90,80,100,-18.64,9,-30.0,22.0,-992.0,16:41:15.584742,192.168.0.114
498,-1,-100,-100,-100,"0,0,0",1,0,-2,0,0,0,70,73,89,80,100,-18.52,9,-22.0,16.0,-1006.0,16:41:15.687915,192.168.0.114
503,-1,-100,-100,-100,"0,0,0",0,0,-2,0,0,0,71,72,89,80,100,-18.68,9,-19.0,21.0,-1026.0,16:41:15.788190,192.168.0.114
508,-1,-100,-100,-100,"0,0,0",0,-1,-2,0,0,0,71,72,89,80,100,-18.56,9,-14.0,28.0,-1008.0,16:41:15.891851,192.168.0.114
513,-1,-100,-100,-100,"0,0,0",-1,-1,-2,1,0,0,71,72,90,80,100,-18.54,10,-13.0,42.0,-1018.0,16:41:15.992604,192.168.0.114
518,-1,-100,-100,-100,"0,0,0",-1,-1,-2,0,0,0,71,72,91,80,100,-18.47,10,-11.0,38.0,-1017.0,16:41:16.094637,192.168.0.114
522,-1,-100,-100,-100,"0,0,0",-1,-1,-2,0,0,0,71,72,91,80,100,-18.53,10,0.0,17.0,-972.0,16:41:16.145881,192.168.0.114
527,-1,-100,-100,-100,"0,0,0",0,-1,-2,0,0,0,71,72,91,80,100,-18.45,10,-30.0,52.0,-1004.0,16:41:16.247396,192.168.0.114
532,-1,-100,-100,-100,"0,0,0",0,-1,-2,0,0,0,71,72,91,80,100,-18.45,10,-1.0,16.0,-976.0,16:41:16.349738,192.168.0.114
537,-1,-100,-100,-100,"0,0,0",0,-1,-2,0,0,0,71,72,90,80,100,-18.47,10,-5.0,15.0,-987.0,16:41:16.452138,192.168.0.114
542,-1,-100,-100,-100,"0,0,0",0,-1,-3,0,0,0,71,72,90,80,100,-18.4,10,-36.0,37.0,-950.0,16:41:16.554036,192.168.0.114
547,-1,-100,-100,-100,"0,0,0",0,0,-3,0,0,0,71,72,89,80,100,-18.42,10,-12.0,54.0,-952.0,16:41:16.655765,192.168.0.114
552,-1,-100,-100,-100,"0,0,0",-1,0,-3,0,0,0,70,73,88,80,100,-18.48,10,-22.0,53.0,-1005.0,16:41:16.757732,192.168.0.114
557,-1,-100,-100,-100,"0,0,0",0,-1,-3,0,0,-1,70,73,87,80,100,-18.45,10,-14.0,63.0,-1100.0,16:41:16.859603,192.168.0.114
562,-1,-100,-100,-100,"0,0,0",0,-2,-3,0,0,0,70,73,87,80,100,-18.47,11,-25.0,47.0,-975.0,16:41:16.961472,192.168.0.114
567,-1,-100,-100,-100,"0,0,0",0,-2,-3,0,0,0,70,73,86,80,100,-18.4,11,-52.0,63.0,-1042.0,16:41:17.069494,192.168.0.114
572,-1,-100,-100,-100,"0,0,0",-1,-3,-3,0,0,0,70,73,84,80,100,-18.46,11,-11.0,40.0,-1031.0,16:41:17.167131,192.168.0.114
577,-1,-100,-100,-100,"0,0,0",-2,-3,-2,0,0,0,70,73,85,80,100,-18.49,11,-13.0,82.0,-1057.0,16:41:17.267615,192.168.0.114
582,-1,-100,-100,-100,"0,0,0",-1,-3,-2,0,0,0,70,73,84,80,100,-18.52,11,-37.0,69.0,-1025.0,16:41:17.369379,192.168.0.114
587,-1,-100,-100,-100,"0,0,0",-1,-3,-2,0,0,0,70,73,85,80,100,-18.51,11,-38.0,30.0,-1036.0,16:41:17.472026,192.168.0.114
592,-1,-100,-100,-100,"0,0,0",-1,-2,-2,0,0,0,70,73,85,80,100,-18.54,11,-6.0,49.0,-993.0,16:41:17.574418,192.168.0.114
597,-1,-100,-100,-100,"0,0,0",-1,-2,-2,0,0,0,70,73,86,80,100,-18.51,11,42.0,17.0,-987.0,16:41:17.676669,192.168.0.114
602,-1,-100,-100,-100,"0,0,0",-1,-2,-2,0,0,0,71,72,86,80,100,-18.48,11,11.0,32.0,-987.0,16:41:17.779268,192.168.0.114
607,-1,-100,-100,-100,"0,0,0",0,-2,-2,0,0,0,71,72,86,80,100,-18.59,11,-25.0,68.0,-997.0,16:41:17.881635,192.168.0.114
612,-1,-100,-100,-100,"0,0,0",-1,-3,-2,0,0,0,71,72,87,80,100,-18.55,12,-25.0,41.0,-1025.0,16:41:17.984404,192.168.0.114
617,-1,-100,-100,-100,"0,0,0",0,-2,-2,0,0,0,71,72,87,80,100,-18.55,12,-18.0,51.0,-997.0,16:41:18.083526,192.168.0.114
622,-1,-100,-100,-100,"0,0,0",-1,-1,-2,0,0,0,71,72,87,80,100,-18.55,12,12.0,29.0,-1022.0,16:41:18.185753,192.168.0.114
627,-1,-100,-100,-100,"0,0,0",0,-2,-2,0,0,0,71,72,87,80,100,-18.46,12,-15.0,29.0,-932.0,16:41:18.291287,192.168.0.114
632,-1,-100,-100,-100,"0,0,0",0,-1,-2,0,0,0,71,72,87,80,100,-18.32,12,-35.0,57.0,-969.0,16:41:18.390361,192.168.0.114
637,-1,-100,-100,-100,"0,0,0",0,0,-3,0,0,0,71,72,88,80,100,-18.51,12,-34.0,37.0,-895.0,16:41:18.491419,192.168.0.114
642,-1,-100,-100,-100,"0,0,0",0,0,-2,0,0,0,71,72,88,80,100,-18.47,12,-25.0,37.0,-1005.0,16:41:18.593815,192.168.0.114
647,-1,-100,-100,-100,"0,0,0",0,0,-2,0,0,0,71,72,88,80,100,-18.37,12,-34.0,35.0,-995.0,16:41:18.695708,192.168.0.114
652,-1,-100,-100,-100,"0,0,0",-1,-1,-2,0,0,0,71,72,87,80,100,-18.45,12,0.0,45.0,-1034.0,16:41:18.797595,192.168.0.114
658,-1,-100,-100,-100,"0,0,0",0,-1,-2,0,0,0,71,72,87,80,100,-18.47,13,30.0,-1.0,-1040.0,16:41:18.899657,192.168.0.114
663,-1,-100,-100,-100,"0,0,0",0,-1,-2,0,0,0,71,72,87,80,100,-18.55,13,-4.0,39.0,-1011.0,16:41:19.001542,192.168.0.114
668,-1,-100,-100,-100,"0,0,0",0,0,-2,0,0,0,71,72,87,80,100,-18.51,13,5.0,16.0,-971.0,16:41:19.103662,192.168.0.114
673,-1,-100,-100,-100,"0,0,0",0,-1,-2,0,0,0,71,72,86,80,100,-18.55,13,-3.0,26.0,-1017.0,16:41:19.205708,192.168.0.114
678,-1,-100,-100,-100,"0,0,0",1,0,-2,0,0,0,71,72,87,80,100,-18.56,13,-20.0,18.0,-1010.0,16:41:19.307907,192.168.0.114
683,-1,-100,-100,-100,"0,0,0",0,0,-2,0,0,0,71,72,87,80,100,-18.45,13,-34.0,26.0,-984.0,16:41:19.409843,192.168.0.114
687,-1,-100,-100,-100,"0,0,0",0,0,-2,0,0,0,71,72,90,80,100,-18.51,13,-33.0,9.0,-950.0,16:41:19.460807,192.168.0.114
692,-1,-100,-100,-100,"0,0,0",-1,-1,-2,0,0,0,71,72,88,80,100,-18.52,13,-17.0,17.0,-1002.0,16:41:19.565135,192.168.0.114
697,-1,-100,-100,-100,"0,0,0",-1,-1,-2,0,0,0,71,72,88,80,100,-18.47,13,-64.0,31.0,-989.0,16:41:19.664792,192.168.0.114
702,-1,-100,-100,-100,"0,0,0",-1,-1,-2,0,0,0,71,73,88,80,100,-18.55,13,-20.0,21.0,-1004.0,16:41:19.766849,192.168.0.114
707,-1,-100,-100,-100,"0,0,0",-1,0,-2,0,0,0,71,73,89,80,100,-18.57,14,2.0,9.0,-987.0,16:41:19.868839,192.168.0.114
712,-1,-100,-100,-100,"0,0,0",0,0,-2,0,0,0,71,73,89,80,100,-18.47,14,-20.0,25.0,-997.0,16:41:19.971870,192.168.0.114
717,-1,-100,-100,-100,"0,0,0",0,0,-2,0,0,0,71,73,89,80,100,-18.53,14,-6.0,6.0,-1009.0,16:41:20.073188,192.168.0.114
722,-1,-100,-100,-100,"0,0,0",0,0,-2,0,0,0,71,73,89,80,100,-18.51,14,0.0,-11.0,-992.0,16:41:20.175894,192.168.0.114
727,-1,-100,-100,-100,"0,0,0",0,1,-2,0,0,0,71,73,90,80,100,-18.72,14,-22.0,15.0,-986.0,16:41:20.276937,192.168.0.114
732,-1,-100,-100,-100,"0,0,0",-1,0,-2,0,0,0,71,73,90,80,100,-18.64,14,4.0,17.0,-994.0,16:41:20.379204,192.168.0.114
737,-1,-100,-100,-100,"0,0,0",-1,0,-2,0,0,0,71,73,92,80,100,-18.65,14,14.0,63.0,-996.0,16:41:20.482101,192.168.0.114
742,-1,-100,-100,-100,"0,0,0",0,0,-2,0,0,0,71,73,92,80,100,-18.64,14,11.0,87.0,-937.0,16:41:20.586022,192.168.0.114
747,-1,-100,-100,-100,"0,0,0",1,-2,-2,0,0,0,71,73,90,80,100,-18.58,14,-13.0,18.0,-989.0,16:41:20.684913,192.168.0.114
752,-1,-100,-100,-100,"0,0,0",1,-2,-2,0,0,0,71,73,90,80,100,-18.61,14,-20.0,16.0,-1005.0,16:41:20.786568,192.168.0.114
757,-1,-100,-100,-100,"0,0,0",0,-1,-2,0,0,0,71,73,89,80,100,-18.7,15,-24.0,36.0,-988.0,16:41:20.888801,192.168.0.114
762,-1,-100,-100,-100,"0,0,0",-1,0,-2,0,0,0,71,73,90,80,100,-18.52,15,48.0,67.0,-1014.0,16:41:20.990817,192.168.0.114
767,-1,-100,-100,-100,"0,0,0",0,-2,-2,0,0,0,71,73,89,80,100,-18.47,15,20.0,45.0,-1003.0,16:41:21.092964,192.168.0.114
772,-1,-100,-100,-100,"0,0,0",1,-3,-2,0,0,0,71,73,88,80,100,-18.38,15,13.0,29.0,-986.0,16:41:21.194678,192.168.0.114
777,-1,-100,-100,-100,"0,0,0",2,-2,-3,0,0,0,71,73,89,80,100,-18.47,15,-24.0,55.0,-1049.0,16:41:21.296729,192.168.0.114
782,-1,-100,-100,-100,"0,0,0",0,-2,-3,0,0,0,71,73,88,80,100,-18.66,15,-13.0,36.0,-1025.0,16:41:21.400468,192.168.0.114
787,-1,-100,-100,-100,"0,0,0",0,-2,-2,0,0,0,71,73,87,80,100,-18.5,15,4.0,34.0,-1001.0,16:41:21.500855,192.168.0.114
792,-1,-100,-100,-100,"0,0,0",0,-1,-2,0,0,0,71,73,86,80,100,-18.59,15,-6.0,63.0,-995.0,16:41:21.603089,192.168.0.114
797,-1,-100,-100,-100,"0,0,0",0,-1,-2,0,0,0,71,73,86,80,100,-18.52,15,-25.0,33.0,-1021.0,16:41:21.704822,192.168.0.114
802,-1,-100,-100,-100,"0,0,0",1,-1,-2,0,0,0,71,73,85,80,100,-18.61,15,-14.0,49.0,-999.0,16:41:21.806666,192.168.0.114
807,-1,-100,-100,-100,"0,0,0",0,-2,-2,0,0,0,71,73,84,80,100,-18.59,16,-15.0,41.0,-1048.0,16:41:21.908822,192.168.0.114
812,-1,-100,-100,-100,"0,0,0",0,-2,-2,0,0,0,71,73,84,80,100,-18.49,16,-19.0,52.0,-1053.0,16:41:22.010990,192.168.0.114
817,-1,-100,-100,-100,"0,0,0",0,-2,-2,0,0,0,71,73,84,80,100,-18.55,16,-10.0,26.0,-1011.0,16:41:22.112878,192.168.0.114
823,-1,-100,-100,-100,"0,0,0",0,-2,-2,0,0,0,71,73,85,80,100,-18.65,16,0.0,40.0,-1005.0,16:41:22.214784,192.168.0.114
828,-1,-100,-100,-100,"0,0,0",0,-2,-2,0,0,0,71,73,85,80,100,-18.53,16,25.0,22.0,-996.0,16:41:22.317219,192.168.0.114
833,-1,-100,-100,-100,"0,0,0",0,-2,-2,0,0,0,71,73,86,80,100,-18.61,16,-17.0,41.0,-985.0,16:41:22.418773,192.168.0.114
838,-1,-100,-100,-100,"0,0,0",0,-2,-2,0,0,0,71,73,85,80,100,-18.68,16,-3.0,38.0,-1001.0,16:41:22.520998,192.168.0.114
843,-1,-100,-100,-100,"0,0,0",0,-2,-2,0,0,0,71,73,85,80,100,-18.59,16,0.0,34.0,-977.0,16:41:22.623279,192.168.0.114
848,-1,-100,-100,-100,"0,0,0",0,-1,-2,0,0,0,71,73,86,80,100,-18.57,16,1.0,13.0,-985.0,16:41:22.725130,192.168.0.114
853,-1,-100,-100,-100,"0,0,0",0,-1,-1,0,0,0,71,72,85,80,100,-18.63,16,17.0,36.0,-988.0,16:41:22.827504,192.168.0.114
858,-1,-100,-100,-100,"0,0,0",0,-1,-2,0,0,0,71,72,85,80,100,-18.6,17,19.0,28.0,-1021.0,16:41:22.928853,192.168.0.114
862,-1,-100,-100,-100,"0,0,0",1,0,-2,0,0,0,71,72,85,80,100,-18.7,17,36.0,34.0,-992.0,16:41:22.979639,192.168.0.114
867,-1,-100,-100,-100,"0,0,0",1,-1,-2,0,0,0,71,72,85,80,100,-18.72,17,11.0,60.0,-1005.0,16:41:23.081871,192.168.0.114
872,-1,-100,-100,-100,"0,0,0",1,-2,-2,0,0,0,71,72,84,80,100,-18.64,17,-13.0,63.0,-970.0,16:41:23.183676,192.168.0.114
877,-1,-100,-100,-100,"0,0,0",1,-2,-2,0,0,0,71,72,84,80,100,-18.66,17,-13.0,49.0,-968.0,16:41:23.285793,192.168.0.114
882,-1,-100,-100,-100,"0,0,0",1,-2,-2,0,0,0,71,72,83,80,100,-18.6,17,-8.0,41.0,-1042.0,16:41:23.387791,192.168.0.114
887,-1,-100,-100,-100,"0,0,0",0,-2,-2,0,0,0,71,72,84,80,100,-18.62,17,-7.0,91.0,-1064.0,16:41:23.489519,192.168.0.114
892,-1,-100,-100,-100,"0,0,0",0,-2,-2,0,0,0,71,72,83,80,100,-18.64,17,12.0,61.0,-972.0,16:41:23.592882,192.168.0.114
897,-1,-100,-100,-100,"0,0,0",0,-4,-2,0,0,0,71,72,84,80,100,-18.64,17,-16.0,60.0,-993.0,16:41:23.695024,192.168.0.114
902,-1,-100,-100,-100,"0,0,0",0,-4,-2,0,0,0,71,73,84,80,100,-18.6,17,-23.0,48.0,-985.0,16:41:23.796987,192.168.0.114
907,-1,-100,-100,-100,"0,0,0",0,-3,-3,0,0,0,71,73,84,80,100,-18.47,18,0.0,24.0,-957.0,16:41:23.898908,192.168.0.114
912,-1,-100,-100,-100,"0,0,0",0,-2,-3,0,0,0,71,73,84,80,100,-18.44,18,-66.0,19.0,-867.0,16:41:24.000957,192.168.0.114
917,-1,-100,-100,-100,"0,0,0",-1,-3,-3,1,0,0,71,73,83,80,100,-18.64,18,-41.0,54.0,-962.0,16:41:24.102931,192.168.0.114
922,-1,-100,-100,-100,"0,0,0",-2,-3,-3,0,0,0,71,73,83,80,100,-18.69,18,-10.0,44.0,-999.0,16:41:24.204758,192.168.0.114
927,-1,-100,-100,-100,"0,0,0",-1,-3,-2,0,0,0,71,73,82,80,100,-18.6,18,-48.0,43.0,-993.0,16:41:24.310293,192.168.0.114
932,-1,-100,-100,-100,"0,0,0",-1,-3,-3,0,0,0,71,73,82,80,100,-18.58,18,-26.0,58.0,-1003.0,16:41:24.409038,192.168.0.114
937,-1,-100,-100,-100,"0,0,0",0,-3,-3,0,0,0,71,73,82,80,100,-18.57,18,-22.0,43.0,-985.0,16:41:24.511003,192.168.0.114
942,-1,-100,-100,-100,"0,0,0",0,-2,-2,0,0,0,71,73,82,80,100,-18.55,18,-13.0,30.0,-1019.0,16:41:24.612828,192.168.0.114
947,-1,-100,-100,-100,"0,0,0",-1,-1,-2,0,0,0,71,73,82,80,100,-18.59,18,45.0,0.0,-1022.0,16:41:24.714922,192.168.0.114
952,-1,-100,-100,-100,"0,0,0",0,0,-2,0,0,0,70,72,83,80,100,-18.74,18,3.0,20.0,-1003.0,16:41:24.816931,192.168.0.114
957,-1,-100,-100,-100,"0,0,0",0,-1,-2,0,0,0,70,72,83,80,100,-18.67,19,5.0,23.0,-1027.0,16:41:24.918947,192.168.0.114
962,-1,-100,-100,-100,"0,0,0",0,-1,-2,0,0,0,70,72,85,80,100,-18.6,19,12.0,17.0,-973.0,16:41:25.020919,192.168.0.114
967,-1,-100,-100,-100,"0,0,0",0,-1,-2,0,0,0,70,72,85,80,100,-18.62,19,-26.0,28.0,-952.0,16:41:25.122943,192.168.0.114
972,-1,-100,-100,-100,"0,0,0",0,0,-2,0,0,0,70,72,86,80,100,-18.64,19,-13.0,18.0,-964.0,16:41:25.225359,192.168.0.114
978,-1,-100,-100,-100,"0,0,0",0,-1,-2,0,0,0,70,72,86,80,100,-18.58,19,-12.0,26.0,-1020.0,16:41:25.327240,192.168.0.114
983,-1,-100,-100,-100,"0,0,0",0,-1,-2,0,0,0,70,72,86,80,100,-18.69,19,-16.0,15.0,-1006.0,16:41:25.428673,192.168.0.114
988,-1,-100,-100,-100,"0,0,0",0,-1,-2,0,0,0,70,72,87,80,100,-18.63,19,-12.0,34.0,-992.0,16:41:25.531374,192.168.0.114
993,-1,-100,-100,-100,"0,0,0",0,-1,-2,0,0,0,70,72,87,80,100,-18.41,19,-15.0,48.0,-990.0,16:41:25.633028,192.168.0.114
998,-1,-100,-100,-100,"0,0,0",0,-2,-1,0,0,0,70,72,86,80,100,-18.48,19,-32.0,53.0,-1007.0,16:41:25.735253,192.168.0.114
1003,-1,-100,-100,-100,"0,0,0",-1,-1,-1,0,0,0,71,72,87,80,100,-18.61,19,4.0,53.0,-943.0,16:41:25.836967,192.168.0.114
1008,-1,-100,-100,-100,"0,0,0",0,-1,-1,0,0,0,71,72,86,80,100,-18.44,20,-32.0,61.0,-996.0,16:41:25.938940,192.168.0.114
1013,-1,-100,-100,-100,"0,0,0",0,-2,-1,0,0,0,71,72,86,80,100,-18.64,20,-33.0,46.0,-969.0,16:41:26.040998,192.168.0.114
1018,-1,-100,-100,-100,"0,0,0",0,-2,-2,0,0,0,71,72,86,80,100,-18.52,20,-12.0,61.0,-1014.0,16:41:26.143073,192.168.0.114
1023,-1,-100,-100,-100,"0,0,0",-1,-2,-2,0,0,0,71,72,86,80,100,-18.59,20,8.0,90.0,-985.0,16:41:26.245443,192.168.0.114
1028,-1,-100,-100,-100,"0,0,0",-1,-3,-2,0,0,0,71,72,86,80,100,-18.56,20,1.0,45.0,-978.0,16:41:26.346843,192.168.0.114
1032,-1,-100,-100,-100,"0,0,0",0,-4,-2,0,0,0,71,72,85,80,100,-18.67,20,-30.0,79.0,-1016.0,16:41:26.399266,192.168.0.114
1037,-1,-100,-100,-100,"0,0,0",0,-4,-2,0,0,0,71,72,84,80,100,-18.73,20,-15.0,61.0,-985.0,16:41:26.499725,192.168.0.114
1042,-1,-100,-100,-100,"0,0,0",0,-4,-2,0,0,0,71,72,84,80,100,-18.76,20,-14.0,56.0,-1044.0,16:41:26.604142,192.168.0.114
1047,-1,-100,-100,-100,"0,0,0",0,-3,-2,0,0,0,71,72,84,80,100,-18.76,20,5.0,74.0,-999.0,16:41:26.703867,192.168.0.114
1052,-1,-100,-100,-100,"0,0,0",0,-3,-2,0,0,0,71,73,84,80,100,-18.69,20,-2.0,54.0,-1031.0,16:41:26.805854,192.168.0.114
1057,-1,-100,-100,-100,"0,0,0",0,-3,-2,0,0,0,71,73,84,80,100,-18.73,21,8.0,60.0,-992.0,16:41:26.907857,192.168.0.114
1062,-1,-100,-100,-100,"0,0,0",-1,-4,-2,0,0,0,71,73,84,80,100,-18.73,21,3.0,46.0,-1001.0,16:41:27.010737,192.168.0.114
1067,-1,-100,-100,-100,"0,0,0",-1,-3,-2,0,0,0,71,73,85,80,100,-18.66,21,-3.0,61.0,-1017.0,16:41:27.111914,192.168.0.114
1072,-1,-100,-100,-100,"0,0,0",0,-3,-2,0,0,0,71,73,84,80,100,-18.66,21,-3.0,66.0,-1038.0,16:41:27.213865,192.168.0.114
1077,-1,-100,-100,-100,"0,0,0",0,-3,-2,0,0,0,71,73,84,80,100,-18.6,21,-5.0,64.0,-966.0,16:41:27.315881,192.168.0.114
1082,-1,-100,-100,-100,"0,0,0",0,-4,-2,0,0,0,71,73,85,80,100,-18.58,21,-22.0,90.0,-989.0,16:41:27.417872,192.168.0.114
1087,-1,-100,-100,-100,"0,0,0",-1,-4,-2,0,0,0,71,73,86,80,100,-18.69,21,-13.0,106.0,-925.0,16:41:27.519806,192.168.0.114
1092,-1,-100,-100,-100,"0,0,0",0,-5,-2,0,0,0,71,73,86,80,100,-18.58,21,24.0,103.0,-918.0,16:41:27.621953,192.168.0.114
1097,-1,-100,-100,-100,"0,0,0",0,-6,-2,0,0,0,71,73,86,80,100,-18.58,21,46.0,76.0,-1060.0,16:41:27.723909,192.168.0.114
1102,-1,-100,-100,-100,"0,0,0",0,-5,-2,0,0,0,71,72,86,80,100,-18.53,21,27.0,79.0,-964.0,16:41:27.825860,192.168.0.114
1107,-1,-100,-100,-100,"0,0,0",0,-3,-2,0,0,0,71,72,86,80,100,-18.61,22,-67.0,116.0,-1020.0,16:41:27.928005,192.168.0.114
1112,-1,-100,-100,-100,"0,0,0",0,-4,-3,0,0,0,71,72,85,80,100,-18.73,22,-6.0,64.0,-988.0,16:41:28.029491,192.168.0.114
1117,-1,-100,-100,-100,"0,0,0",0,-4,-2,0,0,0,71,72,85,80,100,-18.65,22,1.0,70.0,-976.0,16:41:28.131979,192.168.0.114
1122,-1,-100,-100,-100,"0,0,0",0,-4,-2,0,0,0,71,72,84,80,100,-18.75,22,-18.0,83.0,-1017.0,16:41:28.234880,192.168.0.114
1127,-1,-100,-100,-100,"0,0,0",0,-4,-2,0,0,0,71,72,84,80,100,-18.6,22,-11.0,49.0,-1002.0,16:41:28.336299,192.168.0.114
1132,-1,-100,-100,-100,"0,0,0",0,-5,-2,0,0,0,71,72,84,80,100,-18.65,22,-16.0,83.0,-1008.0,16:41:28.442799,192.168.0.114
1137,-1,-100,-100,-100,"0,0,0",0,-4,-2,0,0,0,71,72,83,80,100,-18.77,22,-26.0,82.0,-985.0,16:41:28.539901,192.168.0.114
1142,-1,-100,-100,-100,"0,0,0",0,-3,-2,0,0,0,71,72,84,80,100,-18.66,22,-24.0,83.0,-998.0,16:41:28.641950,192.168.0.114
1147,-1,-100,-100,-100,"0,0,0",0,-4,-2,0,0,0,71,72,84,80,100,-18.7,22,-32.0,77.0,-1016.0,16:41:28.743786,192.168.0.114
1152,-1,-100,-100,-100,"0,0,0",0,-4,-2,0,0,0,70,72,85,80,100,-18.7,22,0.0,106.0,-988.0,16:41:28.845961,192.168.0.114
1158,-1,-100,-100,-100,"0,0,0",0,-4,-2,0,0,0,70,72,85,80,100,-18.74,23,-8.0,85.0,-1013.0,16:41:28.947957,192.168.0.114
1163,-1,-100,-100,-100,"0,0,0",0,-3,-2,0,0,0,70,72,85,80,100,-18.9,23,-28.0,78.0,-956.0,16:41:29.049868,192.168.0.114
1168,-1,-100,-100,-100,"0,0,0",0,-3,-2,0,0,0,70,72,85,80,100,-18.82,23,-33.0,77.0,-966.0,16:41:29.152917,192.168.0.114
1173,-1,-100,-100,-100,"0,0,0",0,-4,-2,0,0,0,70,72,85,80,100,-18.79,23,-11.0,79.0,-978.0,16:41:29.255192,192.168.0.114
1178,-1,-100,-100,-100,"0,0,0",-1,-4,-2,0,0,0,70,72,85,80,100,-18.82,23,-11.0,70.0,-1005.0,16:41:29.357104,192.168.0.114
1183,-1,-100,-100,-100,"0,0,0",0,-4,-2,0,0,0,70,72,86,80,100,-18.9,23,-21.0,53.0,-962.0,16:41:29.459126,192.168.0.114
1187,-1,-100,-100,-100,"0,0,0",0,-3,-2,0,0,0,70,72,86,80,100,-18.77,23,-2.0,48.0,-995.0,16:41:29.509946,192.168.0.114
1192,-1,-100,-100,-100,"0,0,0",-1,-3,-2,0,0,0,70,72,86,80,100,-18.76,23,-17.0,51.0,-962.0,16:41:29.611842,192.168.0.114
1197,-1,-100,-100,-100,"0,0,0",0,-3,-2,0,0,0,70,72,85,80,100,-18.77,23,-26.0,83.0,-1061.0,16:41:29.713911,192.168.0.114
1203,-1,-100,-100,-100,"0,0,0",-1,-3,-2,0,0,0,70,72,86,80,100,-18.77,23,-1.0,68.0,-986.0,16:41:29.867188,192.168.0.114
1207,-1,-100,-100,-100,"0,0,0",-1,-3,-2,0,0,0,70,72,86,80,100,-18.7,24,18.0,64.0,-1003.0,16:41:29.918059,192.168.0.114
1212,-1,-100,-100,-100,"0,0,0",0,-2,-2,0,0,0,70,72,86,80,100,-18.66,24,1.0,62.0,-1002.0,16:41:30.019697,192.168.0.114
1217,-1,-100,-100,-100,"0,0,0",0,-3,-2,0,0,0,70,72,86,80,100,-18.82,24,-31.0,44.0,-992.0,16:41:30.123314,192.168.0.114
1222,-1,-100,-100,-100,"0,0,0",0,-2,-2,0,0,0,70,72,86,80,100,-18.78,24,-16.0,46.0,-1009.0,16:41:30.223879,192.168.0.114
1227,-1,-100,-100,-100,"0,0,0",0,-1,-2,0,0,0,70,72,85,80,100,-18.76,24,-19.0,66.0,-1020.0,16:41:30.325695,192.168.0.114
1232,-1,-100,-100,-100,"0,0,0",0,-2,-2,0,0,0,70,72,86,80,100,-18.68,24,19.0,29.0,-959.0,16:41:30.427772,192.168.0.114
1237,-1,-100,-100,-100,"0,0,0",0,-2,-2,0,0,0,70,72,85,80,100,-18.62,24,-19.0,67.0,-982.0,16:41:30.530009,192.168.0.114
1242,-1,-100,-100,-100,"0,0,0",0,-2,-2,0,0,0,70,72,85,80,100,-18.73,24,-7.0,85.0,-983.0,16:41:30.632049,192.168.0.114
1247,-1,-100,-100,-100,"0,0,0",0,-3,-2,0,0,0,70,72,85,80,100,-18.7,24,0.0,52.0,-1015.0,16:41:30.733978,192.168.0.114
1252,-1,-100,-100,-100,"0,0,0",0,-3,-2,0,0,0,70,71,85,80,100,-18.72,24,0.0,51.0,-1007.0,16:41:30.836043,192.168.0.114
1257,-1,-100,-100,-100,"0,0,0",0,-2,-2,0,0,0,70,71,85,80,100,-18.73,25,-8.0,66.0,-968.0,16:41:30.940467,192.168.0.114
1262,-1,-100,-100,-100,"0,0,0",1,-3,-2,0,0,0,70,71,86,80,100,-18.79,25,-19.0,83.0,-1030.0,16:41:31.039866,192.168.0.114
1267,-1,-100,-100,-100,"0,0,0",0,-3,-2,0,0,0,70,71,86,80,100,-18.66,25,-9.0,52.0,-986.0,16:41:31.142386,192.168.0.114
1272,-1,-100,-100,-100,"0,0,0",0,-4,-2,0,0,0,70,71,86,80,100,-18.58,25,6.0,26.0,-978.0,16:41:31.243590,192.168.0.114
1277,-1,-100,-100,-100,"0,0,0",0,-3,-3,0,0,0,70,71,86,80,100,-18.72,25,-15.0,51.0,-974.0,16:41:31.345547,192.168.0.114
1282,-1,-100,-100,-100,"0,0,0",0,-2,-3,0,0,0,70,71,85,80,100,-18.75,25,-2.0,38.0,-992.0,16:41:31.447907,192.168.0.114
1287,-1,-100,-100,-100,"0,0,0",0,-2,-3,0,0,0,70,71,86,80,100,-18.74,25,-30.0,56.0,-999.0,16:41:31.550815,192.168.0.114
1292,-1,-100,-100,-100,"0,0,0",0,-2,-3,0,0,0,70,71,86,80,100,-18.66,25,-42.0,36.0,-992.0,16:41:31.653776,192.168.0.114
1297,-1,-100,-100,-100,"0,0,0",-1,-2,-3,0,0,0,70,71,85,80,100,-18.7,25,-17.0,61.0,-1012.0,16:41:31.754036,192.168.0.114
1302,-1,-100,-100,-100,"0,0,0",-1,-3,-2,0,0,0,70,72,85,80,100,-18.76,25,-16.0,47.0,-1025.0,16:41:31.855799,192.168.0.114
1307,-1,-100,-100,-100,"0,0,0",-1,-3,-2,0,0,0,70,72,85,80,100,-18.74,26,-7.0,45.0,-1053.0,16:41:31.958059,192.168.0.114
1312,-1,-100,-100,-100,"0,0,0",-1,-2,-2,0,0,0,70,72,85,80,100,-18.69,26,-2.0,62.0,-1011.0,16:41:32.059957,192.168.0.114
1317,-1,-100,-100,-100,"0,0,0",0,-2,-2,0,0,0,70,72,86,80,100,-18.73,26,-9.0,45.0,-978.0,16:41:32.161386,192.168.0.114
1322,-1,-100,-100,-100,"0,0,0",0,-2,-2,0,0,0,70,72,85,80,100,-18.61,26,-22.0,67.0,-1012.0,16:41:32.263827,192.168.0.114
1327,-1,-100,-100,-100,"0,0,0",0,-2,-2,0,0,0,70,72,86,80,100,-18.71,26,-36.0,47.0,-983.0,16:41:32.365652,192.168.0.114
1333,-1,-100,-100,-100,"0,0,0",0,-2,-2,0,0,0,70,72,87,80,100,-18.72,26,-10.0,35.0,-992.0,16:41:32.471020,192.168.0.114
1338,-1,-100,-100,-100,"0,0,0",0,-2,-2,0,0,0,70,72,87,80,100,-18.8,26,1.0,48.0,-1009.0,16:41:32.570052,192.168.0.114
1343,-1,-100,-100,-100,"0,0,0",0,-2,-2,0,0,0,70,72,88,80,100,-18.89,26,-21.0,26.0,-961.0,16:41:32.671950,192.168.0.114
1348,-1,-100,-100,-100,"0,0,0",0,-2,-2,0,0,0,70,72,87,80,100,-18.68,26,-27.0,38.0,-980.0,16:41:32.773894,192.168.0.114
1353,-1,-100,-100,-100,"0,0,0",0,-2,-2,0,0,0,70,71,87,80,100,-18.85,26,-7.0,31.0,-1023.0,16:41:32.875998,192.168.0.114
1358,-1,-100,-100,-100,"0,0,0",0,-2,-2,0,0,0,70,71,88,80,100,-18.71,27,5.0,33.0,-984.0,16:41:32.978066,192.168.0.114
1363,-1,-100,-100,-100,"0,0,0",0,-1,-2,0,0,0,70,71,88,80,100,-18.72,27,-41.0,53.0,-1021.0,16:41:33.079941,192.168.0.114
1367,-1,-100,-100,-100,"0,0,0",0,-1,-2,0,0,0,70,71,87,80,100,-18.78,27,3.0,33.0,-1015.0,16:41:33.131288,192.168.0.114
1372,-1,-100,-100,-100,"0,0,0",0,-2,-2,0,0,0,70,71,88,80,100,-18.81,27,-27.0,33.0,-1004.0,16:41:33.233225,192.168.0.114
1377,-1,-100,-100,-100,"0,0,0",0,-2,-2,0,0,0,70,71,88,80,100,-18.82,27,4.0,4.0,-948.0,16:41:33.335098,192.168.0.114
1382,-1,-100,-100,-100,"0,0,0",-1,-2,-2,0,0,0,70,71,88,80,100,-18.84,27,-53.0,64.0,-1000.0,16:41:33.437196,192.168.0.114
1387,-1,-100,-100,-100,"0,0,0",-1,-2,-2,0,0,0,70,71,88,80,100,-18.79,27,-20.0,31.0,-1029.0,16:41:33.539438,192.168.0.114
1392,-1,-100,-100,-100,"0,0,0",-2,-2,-2,0,0,0,70,71,88,80,100,-18.8,27,-2.0,10.0,-976.0,16:41:33.641236,192.168.0.114
1397,-1,-100,-100,-100,"0,0,0",-2,-2,-2,0,0,0,70,71,88,80,100,-18.43,27,-6.0,48.0,-982.0,16:41:33.743703,192.168.0.114
1402,-1,-100,-100,-100,"0,0,0",-1,-2,-2,0,0,0,70,71,88,80,100,-18.44,27,-16.0,32.0,-999.0,16:41:33.845252,192.168.0.114
1407,-1,-100,-100,-100,"0,0,0",-1,-2,-1,0,0,0,70,71,88,80,100,-18.53,28,0.0,50.0,-974.0,16:41:33.947264,192.168.0.114
1412,-1,-100,-100,-100,"0,0,0",-1,-1,-2,0,0,0,70,71,88,80,100,-18.67,28,8.0,69.0,-993.0,16:41:34.049280,192.168.0.114
1417,-1,-100,-100,-100,"0,0,0",0,-1,-2,0,0,0,70,71,88,80,100,-18.65,28,35.0,28.0,-1003.0,16:41:34.151242,192.168.0.114
1422,-1,-100,-100,-100,"0,0,0",-1,-3,-1,0,0,0,70,71,88,80,100,-18.65,28,35.0,45.0,-980.0,16:41:34.253357,192.168.0.114
1427,-1,-100,-100,-100,"0,0,0",0,-3,-1,0,0,0,70,71,88,80,100,-18.56,28,-32.0,62.0,-969.0,16:41:34.355174,192.168.0.114
1432,-1,-100,-100,-100,"0,0,0",1,-3,-2,0,0,0,70,71,88,80,100,-18.63,28,12.0,41.0,-1002.0,16:41:34.457139,192.168.0.114
1437,-1,-100,-100,-100,"0,0,0",0,-2,-2,0,0,0,70,71,88,80,100,-18.69,28,23.0,36.0,-974.0,16:41:34.559060,192.168.0.114
1442,-1,-100,-100,-100,"0,0,0",0,-2,-2,0,0,0,70,71,88,80,100,-18.63,28,25.0,30.0,-1016.0,16:41:34.660970,192.168.0.114
1447,-1,-100,-100,-100,"0,0,0",1,-2,-2,0,0,0,70,71,88,80,100,-18.67,28,2.0,46.0,-1002.0,16:41:34.763166,192.168.0.114
1452,-1,-100,-100,-100,"0,0,0",1,-1,-2,0,0,0,70,71,88,80,100,-18.66,28,-2.0,33.0,-991.0,16:41:34.865368,192.168.0.114
1457,-1,-100,-100,-100,"0,0,0",1,-1,-2,0,0,0,70,71,88,80,100,-18.66,29,-18.0,50.0,-983.0,16:41:34.967193,192.168.0.114
1462,-1,-100,-100,-100,"0,0,0",1,-1,-2,0,0,0,70,71,88,80,100,-18.68,29,5.0,20.0,-1013.0,16:41:35.069555,192.168.0.114
1467,-1,-100,-100,-100,"0,0,0",0,-1,-2,0,0,0,70,71,88,80,100,-18.61,29,-15.0,34.0,-987.0,16:41:35.171190,192.168.0.114
1472,-1,-100,-100,-100,"0,0,0",1,-1,-2,0,0,0,70,71,88,80,100,-18.56,29,-8.0,21.0,-1010.0,16:41:35.273113,192.168.0.114
1477,-1,-100,-100,-100,"0,0,0",0,-1,-2,0,0,0,70,71,88,80,100,-18.65,29,11.0,21.0,-1003.0,16:41:35.375158,192.168.0.114
1482,-1,-100,-100,-100,"0,0,0",0,-1,-2,0,0,0,70,71,88,80,100,-18.73,29,8.0,48.0,-994.0,16:41:35.477102,192.168.0.114
1487,-1,-100,-100,-100,"0,0,0",0,-1,-2,0,0,0,70,71,88,80,100,-18.71,29,2.0,33.0,-954.0,16:41:35.579170,192.168.0.114
1493,-1,-100,-100,-100,"0,0,0",0,-1,-2,0,0,0,70,71,87,80,100,-18.71,29,37.0,2.0,-1030.0,16:41:35.680738,192.168.0.114
1497,-1,-100,-100,-100,"0,0,0",0,-1,-2,0,0,0,70,71,87,80,100,-18.66,29,17.0,15.0,-983.0,16:41:35.783096,192.168.0.114
1503,-1,-100,-100,-100,"0,0,0",0,-1,-2,0,0,0,70,71,87,80,100,-18.65,29,6.0,59.0,-1014.0,16:41:35.888224,192.168.0.114
1508,-1,-100,-100,-100,"0,0,0",0,0,-2,0,0,0,70,71,87,80,100,-18.64,30,13.0,38.0,-992.0,16:41:35.987766,192.168.0.114
1513,-1,-100,-100,-100,"0,0,0",0,-1,-2,0,0,0,70,71,87,80,100,-18.63,30,31.0,6.0,-1021.0,16:41:36.089478,192.168.0.114
1518,-1,-100,-100,-100,"0,0,0",1,-1,-2,0,0,0,70,71,88,80,100,-18.71,30,20.0,14.0,-973.0,16:41:36.191187,192.168.0.114
1523,-1,-100,-100,-100,"0,0,0",1,-1,-2,0,0,0,70,71,88,80,100,-18.63,30,13.0,34.0,-997.0,16:41:36.293267,192.168.0.114
1528,-1,-100,-100,-100,"0,0,0",0,-1,-2,0,0,0,70,71,88,80,100,-18.77,30,6.0,20.0,-993.0,16:41:36.395120,192.168.0.114
1532,-1,-100,-100,-100,"0,0,0",0,-2,-2,0,0,0,70,71,87,80,100,-18.77,30,3.0,36.0,-1005.0,16:41:36.445998,192.168.0.114
1537,-1,-100,-100,-100,"0,0,0",0,-1,-2,0,0,0,70,71,88,80,100,-18.7,30,12.0,39.0,-974.0,16:41:36.547940,192.168.0.114
1542,-1,-100,-100,-100,"0,0,0",0,-1,-3,0,0,0,70,71,87,80,100,-18.72,30,14.0,40.0,-974.0,16:41:36.650169,192.168.0.114
1547,-1,-100,-100,-100,"0,0,0",0,-1,-3,0,0,0,70,71,87,80,100,-18.74,30,-9.0,40.0,-1008.0,16:41:36.751875,192.168.0.114
1552,-1,-100,-100,-100,"0,0,0",0,-2,-3,0,0,0,69,71,86,80,100,-18.69,30,-10.0,44.0,-996.0,16:41:36.854088,192.168.0.114
1557,-1,-100,-100,-100,"0,0,0",0,-1,-3,0,0,0,69,71,86,80,100,-18.63,31,-17.0,44.0,-1006.0,16:41:36.955962,192.168.0.114
1562,-1,-100,-100,-100,"0,0,0",0,-2,-3,0,0,0,69,71,86,80,100,-18.63,31,-42.0,74.0,-1017.0,16:41:37.058022,192.168.0.114
1567,-1,-100,-100,-100,"0,0,0",0,-2,-2,0,0,0,69,71,86,80,100,-18.71,31,-17.0,62.0,-1029.0,16:41:37.159973,192.168.0.114
1572,-1,-100,-100,-100,"0,0,0",0,-3,-2,0,0,0,69,71,86,80,100,-18.69,31,-16.0,60.0,-1004.0,16:41:37.261987,192.168.0.114
1577,-1,-100,-100,-100,"0,0,0",0,-3,-2,0,0,0,69,71,86,80,100,-18.76,31,22.0,18.0,-1007.0,16:41:37.364037,192.168.0.114
1582,-1,-100,-100,-100,"0,0,0",-1,-2,-2,0,0,0,69,71,85,80,100,-18.76,31,6.0,21.0,-1011.0,16:41:37.466027,192.168.0.114
1587,-1,-100,-100,-100,"0,0,0",0,-2,-2,0,0,0,69,71,85,80,100,-18.69,31,2.0,37.0,-1001.0,16:41:37.568050,192.168.0.114
1592,-1,-100,-100,-100,"0,0,0",0,-1,-2,0,0,0,69,71,85,80,100,-18.7,31,1.0,29.0,-979.0,16:41:37.670008,192.168.0.114
1597,-1,-100,-100,-100,"0,0,0",0,-1,-2,0,0,0,69,71,85,80,100,-18.75,31,-41.0,48.0,-1002.0,16:41:37.772006,192.168.0.114
1602,-1,-100,-100,-100,"0,0,0",0,-1,-2,0,0,0,70,71,85,80,100,-18.71,31,-9.0,21.0,-989.0,16:41:37.876153,192.168.0.114
1607,-1,-100,-100,-100,"0,0,0",0,-1,-2,0,0,0,70,71,84,80,100,-18.73,32,12.0,33.0,-1029.0,16:41:37.976002,192.168.0.114
1612,-1,-100,-100,-100,"0,0,0",0,-2,-2,0,0,0,70,71,84,80,100,-18.76,32,23.0,26.0,-1001.0,16:41:38.077721,192.168.0.114
1617,-1,-100,-100,-100,"0,0,0",0,-1,-2,0,0,0,70,71,84,80,100,-18.75,32,2.0,33.0,-1012.0,16:41:38.179537,192.168.0.114
1622,-1,-100,-100,-100,"0,0,0",0,-1,-2,0,0,0,70,71,83,80,100,-18.76,32,23.0,10.0,-1016.0,16:41:38.283207,192.168.0.114
1627,-1,-100,-100,-100,"0,0,0",0,-1,-2,0,0,0,70,71,83,80,100,-18.75,32,-6.0,36.0,-1006.0,16:41:38.384095,192.168.0.114
1632,-1,-100,-100,-100,"0,0,0",0,-1,-2,0,0,0,70,71,83,80,100,-18.69,32,11.0,35.0,-984.0,16:41:38.490210,192.168.0.114
1637,-1,-100,-100,-100,"0,0,0",0,-1,-2,0,0,0,70,71,83,80,100,-18.71,32,-9.0,47.0,-1007.0,16:41:38.588096,192.168.0.114
1642,-1,-100,-100,-100,"0,0,0",0,-1,-2,0,0,0,70,71,83,80,100,-18.75,32,14.0,22.0,-1001.0,16:41:38.689986,192.168.0.114
1647,-1,-100,-100,-100,"0,0,0",0,-2,-2,0,0,0,70,71,82,80,100,-18.71,32,-9.0,48.0,-1011.0,16:41:38.792638,192.168.0.114
1652,-1,-100,-100,-100,"0,0,0",0,-1,-2,0,0,0,70,71,83,80,100,-18.75,33,-13.0,55.0,-994.0,16:41:38.895777,192.168.0.114
1657,-1,-100,-100,-100,"0,0,0",0,-1,-2,0,0,0,70,71,83,80,100,-18.75,33,-43.0,50.0,-974.0,16:41:38.995776,192.168.0.114
1662,-1,-100,-100,-100,"0,0,0",0,-1,-2,0,0,0,70,71,83,80,100,-18.57,33,-43.0,52.0,-992.0,16:41:39.098065,192.168.0.114
1668,-1,-100,-100,-100,"0,0,0",-1,-3,-2,0,0,0,70,71,82,80,100,-18.74,33,-9.0,11.0,-1043.0,16:41:39.199934,192.168.0.114
1673,-1,-100,-100,-100,"0,0,0",-1,-2,-2,0,0,0,70,71,83,80,100,-18.73,33,-48.0,27.0,-1020.0,16:41:39.307114,192.168.0.114
1678,-1,-100,-100,-100,"0,0,0",-1,-1,-2,0,0,0,70,71,83,80,100,-18.73,33,-29.0,31.0,-1010.0,16:41:39.404238,192.168.0.114
1683,-1,-100,-100,-100,"0,0,0",-1,-1,-3,0,0,0,70,71,83,80,100,-18.6,33,-1.0,38.0,-938.0,16:41:39.505980,192.168.0.114
1688,-1,-100,-100,-100,"0,0,0",-2,-1,-3,0,0,0,70,71,83,80,100,-18.69,33,10.0,55.0,-1001.0,16:41:39.608345,192.168.0.114
1693,-1,-100,-100,-100,"0,0,0",-1,-2,-2,0,0,0,70,71,83,80,100,-18.6,33,-17.0,42.0,-1016.0,16:41:39.711052,192.168.0.114
1697,-1,-100,-100,-100,"0,0,0",0,-3,-2,0,0,0,70,71,83,80,100,-18.8,33,7.0,45.0,-1006.0,16:41:39.761279,192.168.0.114
1702,-1,-100,-100,-100,"0,0,0",0,-3,-2,0,0,0,70,71,83,80,100,-18.68,34,-22.0,58.0,-1016.0,16:41:39.863376,192.168.0.114
1707,-1,-100,-100,-100,"0,0,0",-1,-3,-2,0,0,0,70,71,83,80,100,-18.58,34,-26.0,49.0,-1015.0,16:41:39.965205,192.168.0.114
1712,-1,-100,-100,-100,"0,0,0",-1,-3,-2,0,0,0,70,71,83,80,100,-18.75,34,12.0,38.0,-1037.0,16:41:40.067257,192.168.0.114
1717,-1,-100,-100,-100,"0,0,0",0,-3,-2,0,0,0,70,71,84,80,100,-18.74,34,1.0,27.0,-1009.0,16:41:40.169309,192.168.0.114
1722,-1,-100,-100,-100,"0,0,0",0,-2,-2,0,0,0,70,71,85,80,100,-18.78,34,8.0,41.0,-983.0,16:41:40.271308,192.168.0.114
1727,-1,-100,-100,-100,"0,0,0",0,-2,-2,0,0,0,70,71,85,80,100,-18.79,34,13.0,50.0,-969.0,16:41:40.373635,192.168.0.114
1732,-1,-100,-100,-100,"0,0,0",0,-2,-2,0,0,0,70,71,84,80,100,-18.66,34,-40.0,60.0,-955.0,16:41:40.476636,192.168.0.114
1737,-1,-100,-100,-100,"0,0,0",0,-2,-2,0,0,0,70,71,84,80,100,-18.83,34,21.0,79.0,-1010.0,16:41:40.577411,192.168.0.114
1742,-1,-100,-100,-100,"0,0,0",0,-3,-2,0,0,0,70,71,85,80,100,-18.75,34,-28.0,47.0,-993.0,16:41:40.679340,192.168.0.114
1747,-1,-100,-100,-100,"0,0,0",0,-3,-2,0,0,0,70,71,85,80,100,-18.83,34,-59.0,59.0,-998.0,16:41:40.780896,192.168.0.114
1752,-1,-100,-100,-100,"0,0,0",-1,-2,-2,0,0,0,70,72,84,80,100,-18.69,35,-46.0,48.0,-993.0,16:41:40.883372,192.168.0.114
1757,-1,-100,-100,-100,"0,0,0",-1,-2,-2,0,0,0,70,72,84,80,100,-18.79,35,-2.0,11.0,-994.0,16:41:40.985226,192.168.0.114
1762,-1,-100,-100,-100,"0,0,0",-1,-2,-2,0,0,0,70,72,84,80,100,-18.81,35,-10.0,7.0,-1011.0,16:41:41.087298,192.168.0.114
1767,-1,-100,-100,-100,"0,0,0",-1,-1,-2,0,0,0,70,72,84,80,100,-18.86,35,-21.0,27.0,-1018.0,16:41:41.189268,192.168.0.114
1772,-1,-100,-100,-100,"0,0,0",-1,-1,-2,0,0,0,70,72,84,80,100,-18.78,35,-6.0,20.0,-1000.0,16:41:41.291502,192.168.0.114
1777,-1,-100,-100,-100,"0,0,0",-1,-1,-2,0,0,0,70,72,84,80,100,-18.86,35,-19.0,38.0,-1004.0,16:41:41.393343,192.168.0.114
1782,-1,-100,-100,-100,"0,0,0",-1,-1,-2,0,0,0,70,72,84,80,100,-18.79,35,-35.0,51.0,-997.0,16:41:41.495308,192.168.0.114
1787,-1,-100,-100,-100,"0,0,0",-1,-2,-2,0,0,0,70,72,85,80,100,-18.85,35,-23.0,27.0,-994.0,16:41:41.597298,192.168.0.114
1792,-1,-100,-100,-100,"0,0,0",-1,-2,-2,0,0,0,70,72,85,80,100,-18.71,35,-17.0,48.0,-997.0,16:41:41.699403,192.168.0.114
1797,-1,-100,-100,-100,"0,0,0",-1,-2,-2,0,0,0,70,72,84,80,100,-18.72,35,-21.0,44.0,-952.0,16:41:41.801138,192.168.0.114
1802,-1,-100,-100,-100,"0,0,0",0,-2,-2,0,0,0,70,71,85,80,100,-18.79,36,-4.0,7.0,-977.0,16:41:41.903275,192.168.0.114
1807,-1,-100,-100,-100,"0,0,0",0,-1,-2,0,0,0,70,71,85,80,100,-18.87,36,-18.0,26.0,-1029.0,16:41:42.005166,192.168.0.114
1812,-1,-100,-100,-100,"0,0,0",-1,-1,-2,0,0,0,70,71,85,80,100,-18.73,36,-3.0,20.0,-990.0,16:41:42.107317,192.168.0.114
1817,-1,-100,-100,-100,"0,0,0",0,-1,-2,0,0,0,70,71,84,80,100,-18.77,36,-4.0,22.0,-1004.0,16:41:42.209238,192.168.0.114
1822,-1,-100,-100,-100,"0,0,0",0,-1,-2,0,0,0,70,71,85,80,100,-18.79,36,-3.0,5.0,-971.0,16:41:42.311157,192.168.0.114
1827,-1,-100,-100,-100,"0,0,0",0,0,-2,0,0,0,70,71,85,80,100,-18.69,36,-5.0,33.0,-987.0,16:41:42.412977,192.168.0.114
1832,-1,-100,-100,-100,"0,0,0",0,-1,-2,0,0,0,70,71,85,80,100,-18.61,36,8.0,46.0,-1006.0,16:41:42.515363,192.168.0.114
1838,-1,-100,-100,-100,"0,0,0",0,-2,-2,0,0,0,70,71,85,80,100,-18.65,36,20.0,14.0,-1013.0,16:41:42.617425,192.168.0.114
1843,-1,-100,-100,-100,"0,0,0",0,-2,-2,0,0,0,70,71,84,80,100,-18.72,36,-15.0,48.0,-1055.0,16:41:42.719335,192.168.0.114
1846,-1,-100,-100,-100,"0,0,0",0,-1,-1,0,0,0,70,71,85,80,100,-18.62,36,24.0,49.0,-962.0,16:41:42.770142,192.168.0.114
1853,-1,-100,-100,-100,"0,0,0",0,-2,-2,0,0,0,70,71,85,80,100,-18.81,37,35.0,42.0,-985.0,16:41:42.923378,192.168.0.114
1858,-1,-100,-100,-100,"0,0,0",0,-3,-2,0,0,0,70,71,85,80,100,-18.76,37,3.0,34.0,-973.0,16:41:43.025535,192.168.0.114
1863,-1,-100,-100,-100,"0,0,0",0,-3,-2,0,0,0,70,71,85,80,100,-18.52,37,32.0,32.0,-1001.0,16:41:43.127320,192.168.0.114
1868,-1,-100,-100,-100,"0,0,0",0,-3,-2,0,0,0,70,71,85,80,100,-18.59,37,4.0,52.0,-1011.0,16:41:43.229179,192.168.0.114
1872,-1,-100,-100,-100,"0,0,0",0,-2,-2,0,0,0,70,71,85,80,100,-18.7,37,22.0,33.0,-1005.0,16:41:43.280071,192.168.0.114
1877,-1,-100,-100,-100,"0,0,0",0,-2,-2,0,0,0,70,71,85,80,100,-18.69,37,-3.0,57.0,-1005.0,16:41:43.382024,192.168.0.114
1882,-1,-100,-100,-100,"0,0,0",1,-2,-2,0,0,0,70,71,85,80,100,-18.73,37,-9.0,30.0,-984.0,16:41:43.484178,192.168.0.114
1887,-1,-100,-100,-100,"0,0,0",0,-2,-2,0,0,0,70,71,85,80,100,-18.68,37,-12.0,32.0,-1022.0,16:41:43.586169,192.168.0.114
1892,-1,-100,-100,-100,"0,0,0",0,-2,-2,0,0,0,70,71,84,80,100,-18.77,37,-26.0,30.0,-1020.0,16:41:43.688290,192.168.0.114
1897,-1,-100,-100,-100,"0,0,0",0,-1,-2,0,0,0,70,71,84,80,100,-18.57,37,2.0,31.0,-1022.0,16:41:43.790629,192.168.0.114
1902,-1,-100,-100,-100,"0,0,0",0,-2,-2,0,0,0,70,71,84,80,100,-18.57,38,5.0,29.0,-1019.0,16:41:43.893017,192.168.0.114
1907,-1,-100,-100,-100,"0,0,0",0,-2,-2,0,0,0,70,71,84,80,100,-18.74,38,10.0,10.0,-1000.0,16:41:43.995413,192.168.0.114
1912,-1,-100,-100,-100,"0,0,0",0,-1,-2,0,0,0,70,71,84,80,100,-18.8,38,0.0,27.0,-996.0,16:41:44.097515,192.168.0.114
1917,-1,-100,-100,-100,"0,0,0",0,-1,-2,0,0,0,70,71,83,80,100,-18.72,38,0.0,13.0,-965.0,16:41:44.200334,192.168.0.114
1922,-1,-100,-100,-100,"0,0,0",0,-1,-2,0,0,0,70,71,83,80,100,-18.71,38,7.0,31.0,-1003.0,16:41:44.302617,192.168.0.114
1927,-1,-100,-100,-100,"0,0,0",0,0,-2,0,0,0,70,71,84,80,100,-18.71,38,6.0,35.0,-992.0,16:41:44.402268,192.168.0.114
1932,-1,-100,-100,-100,"0,0,0",0,-1,-2,0,0,0,70,71,83,80,100,-18.74,38,4.0,31.0,-996.0,16:41:44.507440,192.168.0.114
1937,-1,-100,-100,-100,"0,0,0",0,-1,-2,0,0,0,70,71,84,80,100,-18.76,38,1.0,28.0,-992.0,16:41:44.606269,192.168.0.114
1942,-1,-100,-100,-100,"0,0,0",0,-1,-2,0,0,0,70,71,83,80,100,-18.77,38,19.0,14.0,-969.0,16:41:44.708091,192.168.0.114
1947,-1,-100,-100,-100,"0,0,0",1,-1,-2,0,0,0,70,71,84,80,100,-18.76,38,19.0,19.0,-975.0,16:41:44.810243,192.168.0.114
1952,-1,-100,-100,-100,"0,0,0",1,-1,-2,0,0,0,69,71,84,80,100,-18.78,39,0.0,33.0,-1010.0,16:41:44.912191,192.168.0.114
1957,-1,-100,-100,-100,"0,0,0",0,-1,-3,0,0,0,69,71,84,80,100,-18.83,39,16.0,12.0,-995.0,16:41:45.014309,192.168.0.114
1962,-1,-100,-100,-100,"0,0,0",0,-1,-3,0,0,0,69,71,84,80,100,-18.8,39,-10.0,27.0,-1002.0,16:41:45.116538,192.168.0.114
1967,-1,-100,-100,-100,"0,0,0",0,-1,-3,0,0,0,69,71,84,80,100,-18.72,39,-3.0,24.0,-982.0,16:41:45.218234,192.168.0.114
1972,-1,-100,-100,-100,"0,0,0",0,-1,-3,0,0,0,69,71,84,80,100,-18.79,39,0.0,15.0,-1015.0,16:41:45.320262,192.168.0.114
1977,-1,-100,-100,-100,"0,0,0",0,-1,-3,0,0,0,69,71,84,80,100,-18.89,39,-38.0,32.0,-1007.0,16:41:45.422327,192.168.0.114
1982,-1,-100,-100,-100,"0,0,0",-1,-1,-3,0,0,0,69,71,84,80,100,-18.85,39,-29.0,11.0,-1023.0,16:41:45.524371,192.168.0.114
1987,-1,-100,-100,-100,"0,0,0",-1,-1,-2,0,0,0,69,71,85,80,100,-18.78,39,17.0,-5.0,-994.0,16:41:45.626282,192.168.0.114
1993,-1,-100,-100,-100,"0,0,0",-1,-1,-2,0,0,0,69,71,85,80,100,-18.78,39,13.0,18.0,-1011.0,16:41:45.728296,192.168.0.114
1997,-1,-100,-100,-100,"0,0,0",0,-1,-2,0,0,0,69,71,85,80,100,-18.79,39,-16.0,56.0,-1003.0,16:41:45.829714,192.168.0.114
2002,-1,-100,-100,-100,"0,0,0",0,-1,-2,0,0,0,69,71,86,80,100,-18.61,40,2.0,12.0,-999.0,16:41:45.932309,192.168.0.114
2008,-1,-100,-100,-100,"0,0,0",0,-2,-2,0,0,0,69,71,85,80,100,-18.73,40,-13.0,23.0,-1001.0,16:41:46.034638,192.168.0.114
2013,-1,-100,-100,-100,"0,0,0",0,-2,-2,0,0,0,69,71,86,80,100,-18.82,40,-4.0,7.0,-1014.0,16:41:46.137173,192.168.0.114
2018,-1,-100,-100,-100,"0,0,0",0,-1,-2,0,0,0,69,71,86,80,100,-18.84,40,-32.0,34.0,-1008.0,16:41:46.239198,192.168.0.114
2023,-1,-100,-100,-100,"0,0,0",-1,0,-2,0,0,0,69,71,86,80,100,-18.73,40,-11.0,29.0,-1012.0,16:41:46.343743,192.168.0.114
2027,-1,-100,-100,-100,"0,0,0",-1,-1,-2,0,0,0,69,71,86,80,100,-18.67,40,-11.0,13.0,-996.0,16:41:46.391495,192.168.0.114
2032,-1,-100,-100,-100,"0,0,0",0,-2,-2,0,0,0,69,71,86,80,100,-18.71,40,-16.0,19.0,-988.0,16:41:46.493368,192.168.0.114
2037,-1,-100,-100,-100,"0,0,0",-1,-2,-2,0,0,0,69,71,85,80,100,-18.78,40,-29.0,26.0,-1002.0,16:41:46.595587,192.168.0.114
2042,-1,-100,-100,-100,"0,0,0",-2,-1,-2,0,0,0,69,71,85,80,100,-18.71,40,22.0,20.0,-984.0,16:41:46.697380,192.168.0.114
2047,-1,-100,-100,-100,"0,0,0",0,-1,-2,0,0,0,69,71,84,80,100,-18.78,40,-14.0,13.0,-972.0,16:41:46.799430,192.168.0.114
2052,-1,-100,-100,-100,"0,0,0",0,0,-2,0,0,0,70,71,84,80,100,-18.78,41,-37.0,36.0,-1010.0,16:41:46.901580,192.168.0.114
2057,-1,-100,-100,-100,"0,0,0",0,0,-2,0,0,0,70,71,83,80,100,-18.8,41,-3.0,55.0,-1002.0,16:41:47.003636,192.168.0.114
2062,-1,-100,-100,-100,"0,0,0",-1,-2,-2,0,0,0,70,71,83,80,100,-18.75,41,0.0,25.0,-1010.0,16:41:47.107851,192.168.0.114
2067,-1,-100,-100,-100,"0,0,0",-1,-3,-2,0,0,0,70,71,82,80,100,-18.73,41,23.0,27.0,-1043.0,16:41:47.211053,192.168.0.114
2072,-1,-100,-100,-100,"0,0,0",0,-2,-2,0,0,0,70,71,83,80,100,-18.74,41,7.0,47.0,-986.0,16:41:47.309420,192.168.0.114
2077,-1,-100,-100,-100,"0,0,0",0,-2,-2,0,0,0,70,71,83,80,100,-18.72,41,0.0,64.0,-1007.0,16:41:47.415741,192.168.0.114
2082,-1,-100,-100,-100,"0,0,0",0,-2,-2,0,0,0,70,71,84,80,100,-18.75,41,1.0,26.0,-1002.0,16:41:47.513357,192.168.0.114
2087,-1,-100,-100,-100,"0,0,0",0,-2,-2,0,0,0,70,71,84,80,100,-18.76,41,5.0,21.0,-984.0,16:41:47.615412,192.168.0.114
2092,-1,-100,-100,-100,"0,0,0",0,-2,-2,0,0,0,70,71,84,80,100,-18.66,41,-2.0,43.0,-993.0,16:41:47.717423,192.168.0.114
2097,-1,-100,-100,-100,"0,0,0",0,-2,-2,0,0,0,70,71,83,80,100,-18.8,41,0.0,36.0,-1019.0,16:41:47.819185,192.168.0.114
2102,-1,-100,-100,-100,"0,0,0",0,-2,-2,0,0,0,69,70,84,80,100,-18.85,42,-20.0,22.0,-1012.0,16:41:47.921554,192.168.0.114
2107,-1,-100,-100,-100,"0,0,0",0,-2,-2,0,0,0,69,70,84,80,100,-18.87,42,-17.0,15.0,-1015.0,16:41:48.023359,192.168.0.114
2113,-1,-100,-100,-100,"0,0,0",0,-2,-2,0,0,0,69,70,85,80,100,-18.89,42,-33.0,35.0,-1031.0,16:41:48.131967,192.168.0.114
2117,-1,-100,-100,-100,"0,0,0",0,-2,-2,0,0,0,69,70,85,80,100,-18.83,42,-20.0,27.0,-997.0,16:41:48.227544,192.168.0.114
2122,-1,-100,-100,-100,"0,0,0",-1,-1,-2,0,0,0,69,70,85,80,100,-18.71,42,-14.0,33.0,-984.0,16:41:48.329511,192.168.0.114
2127,-1,-100,-100,-100,"0,0,0",-1,-1,-2,0,0,0,69,70,86,80,100,-18.71,42,18.0,4.0,-1004.0,16:41:48.431513,192.168.0.114
2132,-1,-100,-100,-100,"0,0,0",0,-1,-2,0,0,0,69,70,86,80,100,-18.86,42,-17.0,13.0,-1016.0,16:41:48.533380,192.168.0.114
2137,-1,-100,-100,-100,"0,0,0",0,0,-2,0,0,0,69,70,86,80,100,-18.78,42,-15.0,17.0,-982.0,16:41:48.636767,192.168.0.114
2142,-1,-100,-100,-100,"0,0,0",0,-1,-2,0,0,0,69,70,86,80,100,-18.81,42,-4.0,6.0,-999.0,16:41:48.737352,192.168.0.114
2147,-1,-100,-100,-100,"0,0,0",-1,0,-2,0,0,0,69,70,85,80,100,-18.84,42,-1.0,8.0,-1006.0,16:41:48.842032,192.168.0.114
2152,-1,-100,-100,-100,"0,0,0",-1,0,-2,0,0,0,69,71,86,80,100,-18.81,43,-7.0,9.0,-1004.0,16:41:48.941470,192.168.0.114
2157,-1,-100,-100,-100,"0,0,0",-1,0,-2,0,0,0,69,71,86,80,100,-18.78,43,-14.0,17.0,-974.0,16:41:49.043547,192.168.0.114
2162,-1,-100,-100,-100,"0,0,0",-1,-1,-2,0,0,0,69,71,86,80,100,-18.83,43,0.0,29.0,-1015.0,16:41:49.146441,192.168.0.114
2168,-1,-100,-100,-100,"0,0,0",0,-1,-2,0,0,0,69,71,85,80,100,-18.75,43,-9.0,25.0,-1004.0,16:41:49.247478,192.168.0.114
2173,-1,-100,-100,-100,"0,0,0",-1,-1,-2,0,0,0,69,71,85,80,100,-18.87,43,-28.0,45.0,-1018.0,16:41:49.349367,192.168.0.114
2178,-1,-100,-100,-100,"0,0,0",0,-1,-2,0,0,0,69,71,84,80,100,-18.78,43,-37.0,48.0,-993.0,16:41:49.452115,192.168.0.114
2183,-1,-100,-100,-100,"0,0,0",-1,-1,-2,0,0,0,69,71,84,80,100,-18.83,43,-24.0,24.0,-1001.0,16:41:49.553592,192.168.0.114
2188,-1,-100,-100,-100,"0,0,0",-1,-1,-2,0,0,0,69,71,83,80,100,-18.9,43,13.0,39.0,-1010.0,16:41:49.655499,192.168.0.114
2191,-1,-100,-100,-100,"0,0,0",-1,-1,-2,0,0,0,69,71,84,80,100,-18.88,43,-11.0,23.0,-1012.0,16:41:49.706339,192.168.0.114
2197,-1,-100,-100,-100,"0,0,0",-1,-1,-2,0,0,0,69,71,84,80,100,-18.78,43,-24.0,35.0,-1014.0,16:41:49.808305,192.168.0.114
2202,-1,-100,-100,-100,"0,0,0",0,-2,-2,0,0,0,69,72,84,80,100,-18.82,44,-16.0,0.0,-1009.0,16:41:49.910295,192.168.0.114
2207,-1,-100,-100,-100,"0,0,0",0,-1,-2,0,0,0,69,72,85,80,100,-18.92,44,-25.0,20.0,-997.0,16:41:50.012409,192.168.0.114
2212,-1,-100,-100,-100,"0,0,0",-1,-1,-2,0,0,0,69,72,85,80,100,-18.83,44,20.0,12.0,-1013.0,16:41:50.114421,192.168.0.114
2217,-1,-100,-100,-100,"0,0,0",-1,-1,-2,0,0,0,69,72,84,80,100,-18.72,44,2.0,44.0,-1001.0,16:41:50.216223,192.168.0.114
2222,-1,-100,-100,-100,"0,0,0",0,-1,-2,0,0,0,69,72,85,80,100,-18.7,44,10.0,19.0,-997.0,16:41:50.318229,192.168.0.114
2227,-1,-100,-100,-100,"0,0,0",0,-2,-2,0,0,0,69,72,85,80,100,-18.71,44,-8.0,45.0,-993.0,16:41:50.420213,192.168.0.114
2232,-1,-100,-100,-100,"0,0,0",0,-1,-2,0,0,0,69,72,84,80,100,-18.77,44,8.0,31.0,-1016.0,16:41:50.522234,192.168.0.114
2237,-1,-100,-100,-100,"0,0,0",0,-2,-2,0,0,0,69,72,84,80,100,-18.67,44,-20.0,58.0,-991.0,16:41:50.624206,192.168.0.114
2242,-1,-100,-100,-100,"0,0,0",0,-2,-2,0,0,0,69,72,84,80,100,-18.71,44,-23.0,52.0,-999.0,16:41:50.726213,192.168.0.114
2247,-1,-100,-100,-100,"0,0,0",0,-1,-2,0,0,0,69,72,84,80,100,-18.79,44,-4.0,35.0,-1011.0,16:41:50.828149,192.168.0.114
2252,-1,-100,-100,-100,"0,0,0",0,-2,-2,0,0,0,69,71,84,80,100,-18.81,45,-19.0,53.0,-1011.0,16:41:50.930356,192.168.0.114
2257,-1,-100,-100,-100,"0,0,0",0,-2,-2,0,0,0,69,71,84,80,100,-18.8,45,-14.0,49.0,-1019.0,16:41:51.032434,192.168.0.114
2262,-1,-100,-100,-100,"0,0,0",0,-2,-2,0,0,0,69,71,85,80,100,-18.87,45,-4.0,32.0,-1014.0,16:41:51.134374,192.168.0.114
2267,-1,-100,-100,-100,"0,0,0",0,-2,-2,0,0,0,69,71,85,80,100,-18.9,45,-31.0,53.0,-1003.0,16:41:51.236488,192.168.0.114
2272,-1,-100,-100,-100,"0,0,0",0,-3,-2,0,0,0,69,71,85,80,100,-18.81,45,-24.0,3.0,-979.0,16:41:51.338327,192.168.0.114
2277,-1,-100,-100,-100,"0,0,0",0,-2,-2,0,0,0,69,71,86,80,100,-18.68,45,-60.0,30.0,-998.0,16:41:51.440160,192.168.0.114
2282,-1,-100,-100,-100,"0,0,0",-1,-2,-2,0,0,0,69,71,87,80,100,-18.81,45,-11.0,27.0,-991.0,16:41:51.542125,192.168.0.114
2287,-1,-100,-100,-100,"0,0,0",-2,-1,-2,0,0,0,69,71,86,80,100,-18.86,45,-17.0,2.0,-975.0,16:41:51.644135,192.168.0.114
2292,-1,-100,-100,-100,"0,0,0",-2,0,-2,0,0,0,69,71,87,80,100,-18.83,45,-26.0,39.0,-1013.0,16:41:51.746267,192.168.0.114
2297,-1,-100,-100,-100,"0,0,0",-1,-1,-2,0,0,0,69,71,86,80,100,-18.95,45,-44.0,38.0,-1016.0,16:41:51.848394,192.168.0.114
2302,-1,-100,-100,-100,"0,0,0",-1,-1,-2,0,0,0,70,72,86,80,100,-18.79,46,-45.0,29.0,-983.0,16:41:51.950327,192.168.0.114
2307,-1,-100,-100,-100,"0,0,0",-1,-2,-2,0,0,0,70,72,86,80,100,-18.63,46,-49.0,42.0,-978.0,16:41:52.052262,192.168.0.114
2312,-1,-100,-100,-100,"0,0,0",-2,-1,-2,0,0,0,70,72,86,80,100,-18.73,46,-6.0,61.0,-973.0,16:41:52.154320,192.168.0.114
2317,-1,-100,-100,-100,"0,0,0",-2,-1,-2,0,0,0,70,72,86,80,100,-18.81,46,5.0,28.0,-979.0,16:41:52.260271,192.168.0.114
2322,-1,-100,-100,-100,"0,0,0",-1,-2,-2,0,0,0,70,72,86,80,100,-18.76,46,3.0,19.0,-1004.0,16:41:52.358426,192.168.0.114
2327,-1,-100,-100,-100,"0,0,0",-1,-3,-2,0,0,0,70,72,85,80,100,-18.85,46,1.0,19.0,-1011.0,16:41:52.460124,192.168.0.114
2332,-1,-100,-100,-100,"0,0,0",0,-3,-2,0,0,0,70,72,85,80,100,-18.72,46,7.0,18.0,-976.0,16:41:52.562330,192.168.0.114
2338,-1,-100,-100,-100,"0,0,0",0,-1,-2,0,0,0,70,72,85,80,100,-18.74,46,-14.0,39.0,-1007.0,16:41:52.664268,192.168.0.114
2343,-1,-100,-100,-100,"0,0,0",0,-1,-2,0,0,0,70,72,85,80,100,-18.72,46,-16.0,31.0,-996.0,16:41:52.766465,192.168.0.114
2348,-1,-100,-100,-100,"0,0,0",0,-2,-2,0,0,0,70,72,86,80,100,-18.67,46,-9.0,26.0,-1001.0,16:41:52.868268,192.168.0.114
2353,-1,-100,-100,-100,"0,0,0",0,-2,-2,0,0,0,69,71,85,80,100,-18.66,47,16.0,10.0,-1031.0,16:41:52.970352,192.168.0.114
2358,-1,-100,-100,-100,"0,0,0",0,-1,-2,0,0,0,69,71,85,80,100,-18.62,47,11.0,43.0,-1006.0,16:41:53.072373,192.168.0.114
2363,-1,-100,-100,-100,"0,0,0",0,0,-2,0,0,0,69,71,84,80,100,-18.59,47,5.0,49.0,-991.0,16:41:53.175993,192.168.0.114
2367,-1,-100,-100,-100,"0,0,0",0,-1,-3,0,0,0,69,71,84,80,100,-18.7,47,-11.0,51.0,-966.0,16:41:53.225604,192.168.0.114
2372,-1,-100,-100,-100,"0,0,0",0,-1,-3,0,0,0,69,71,84,80,100,-18.67,47,-2.0,31.0,-1015.0,16:41:53.327454,192.168.0.114
2377,-1,-100,-100,-100,"0,0,0",0,-2,-3,0,0,0,69,71,83,80,100,-18.7,47,-24.0,25.0,-1036.0,16:41:53.429642,192.168.0.114
2382,-1,-100,-100,-100,"0,0,0",0,-2,-3,0,0,0,69,71,83,80,100,-18.73,47,2.0,21.0,-1018.0,16:41:53.531461,192.168.0.114
2387,-1,-100,-100,-100,"0,0,0",0,-1,-2,0,0,0,69,71,84,80,100,-18.73,47,-34.0,37.0,-1035.0,16:41:53.633664,192.168.0.114
2392,-1,-100,-100,-100,"0,0,0",0,-2,-2,0,0,0,69,71,84,80,100,-18.92,47,-21.0,34.0,-1014.0,16:41:53.735364,192.168.0.114
2397,-1,-100,-100,-100,"0,0,0",-1,-1,-2,0,0,0,69,71,83,80,100,-18.76,47,14.0,3.0,-971.0,16:41:53.837487,192.168.0.114
2402,-1,-100,-100,-100,"0,0,0",-1,-1,-2,0,0,0,69,71,84,80,100,-18.85,48,2.0,9.0,-1026.0,16:41:53.939477,192.168.0.114
2407,-1,-100,-100,-100,"0,0,0",-1,-1,-2,0,0,0,69,71,84,80,100,-18.87,48,-18.0,43.0,-1017.0,16:41:54.043416,192.168.0.114
2412,-1,-100,-100,-100,"0,0,0",-1,0,-2,0,0,0,69,71,84,80,100,-18.87,48,-1.0,34.0,-1025.0,16:41:54.143555,192.168.0.114
2417,-1,-100,-100,-100,"0,0,0",-1,0,-2,0,0,0,69,71,85,80,100,-18.82,48,-9.0,24.0,-970.0,16:41:54.245546,192.168.0.114
2422,-1,-100,-100,-100,"0,0,0",-1,-1,-2,0,0,0,69,71,85,80,100,-18.74,48,-34.0,32.0,-987.0,16:41:54.347479,192.168.0.114
2427,-1,-100,-100,-100,"0,0,0",0,-1,-2,0,0,0,69,71,86,80,100,-18.74,48,-24.0,34.0,-1007.0,16:41:54.449469,192.168.0.114
2432,-1,-100,-100,-100,"0,0,0",-1,-1,-2,0,0,0,69,71,85,80,100,-18.77,48,-32.0,46.0,-1004.0,16:41:54.551593,192.168.0.114
2437,-1,-100,-100,-100,"0,0,0",-1,-2,-2,0,0,0,69,71,85,80,100,-18.77,48,-13.0,30.0,-1017.0,16:41:54.654149,192.168.0.114
2442,-1,-100,-100,-100,"0,0,0",-1,-2,-2,0,0,0,69,71,86,80,100,-18.75,48,-30.0,45.0,-1014.0,16:41:54.755515,192.168.0.114
2447,-1,-100,-100,-100,"0,0,0",-1,-2,-2,0,0,0,69,71,86,80,100,-18.73,48,5.0,15.0,-1013.0,16:41:54.858424,192.168.0.114
2452,-1,-100,-100,-100,"0,0,0",-1,-2,-2,0,0,0,70,72,87,80,100,-18.78,49,-18.0,6.0,-949.0,16:41:54.959496,192.168.0.114
2457,-1,-100,-100,-100,"0,0,0",-1,-1,-2,0,0,0,70,72,86,80,100,-18.65,49,-21.0,41.0,-1008.0,16:41:55.061576,192.168.0.114
2462,-1,-100,-100,-100,"0,0,0",-1,0,-2,0,0,0,70,72,87,80,100,-18.7,49,5.0,27.0,-1032.0,16:41:55.163622,192.168.0.114
2467,-1,-100,-100,-100,"0,0,0",0,-1,-2,0,0,0,70,72,87,80,100,-18.78,49,0.0,48.0,-1022.0,16:41:55.265296,192.168.0.114
2472,-1,-100,-100,-100,"0,0,0",0,-1,-2,0,0,0,70,72,87,80,100,-18.81,49,-21.0,59.0,-975.0,16:41:55.367726,192.168.0.114
2477,-1,-100,-100,-100,"0,0,0",0,-1,-2,0,0,0,70,72,87,80,100,-18.71,49,-16.0,48.0,-984.0,16:41:55.469553,192.168.0.114
2482,-1,-100,-100,-100,"0,0,0",0,-2,-2,0,0,0,70,72,87,80,100,-18.78,49,-34.0,49.0,-985.0,16:41:55.571688,192.168.0.114
2487,-1,-100,-100,-100,"0,0,0",0,-3,-2,0,0,0,70,72,87,80,100,-18.61,49,16.0,43.0,-966.0,16:41:55.674415,192.168.0.114
2492,-1,-100,-100,-100,"0,0,0",-1,-3,-2,0,0,0,70,72,86,80,100,-18.8,49,-15.0,40.0,-1011.0,16:41:55.775243,192.168.0.114
2497,-1,-100,-100,-100,"0,0,0",0,-3,-2,0,0,0,70,72,86,80,100,-18.78,49,-49.0,54.0,-1049.0,16:41:55.877576,192.168.0.114
2502,-1,-100,-100,-100,"0,0,0",-1,-3,-3,0,0,0,69,71,85,80,100,-18.67,50,-14.0,46.0,-960.0,16:41:55.979552,192.168.0.114
2508,-1,-100,-100,-100,"0,0,0",-2,-2,-3,0,0,0,69,71,85,80,100,-18.79,50,-50.0,73.0,-996.0,16:41:56.081510,192.168.0.114
2513,-1,-100,-100,-100,"0,0,0",-1,-3,-3,0,0,0,69,71,86,80,100,-18.68,50,-51.0,85.0,-1002.0,16:41:56.183581,192.168.0.114
2518,-1,-100,-100,-100,"0,0,0",-1,-3,-3,0,0,0,69,71,85,80,100,-18.8,50,-78.0,63.0,-1025.0,16:41:56.285831,192.168.0.114
2523,-1,-100,-100,-100,"0,0,0",-2,-4,-2,0,0,0,69,71,85,80,100,-18.84,50,-27.0,60.0,-987.0,16:41:56.387510,192.168.0.114
2528,-1,-100,-100,-100,"0,0,0",-2,-4,-2,0,0,0,69,71,84,80,100,-18.63,50,-12.0,87.0,-1020.0,16:41:56.490036,192.168.0.114
