,mid,x,y,z,mpry,pitch,roll,yaw,vgx,vgy,vgz,templ,temph,tof,h,bat,baro,time,agx,agy,agz,timestamp,address
0,-1,-100,-100,-100,"0,0,0",0,0,109,0,0,0,65,67,10,0,100,-18.89,0,-2.0,-4.0,-1001.0,16:41:05.727548,192.168.0.112
5,-1,-100,-100,-100,"0,0,0",0,0,109,0,0,0,65,67,10,0,100,-18.83,0,-3.0,-5.0,-1001.0,16:41:05.829570,192.168.0.112
10,-1,-100,-100,-100,"0,0,0",0,0,109,0,0,0,65,67,10,0,100,-18.82,0,0.0,-2.0,-1003.0,16:41:05.931424,192.168.0.112
15,-1,-100,-100,-100,"0,0,0",0,0,109,0,0,0,65,67,10,0,100,-18.82,0,-2.0,-11.0,-999.0,16:41:06.033613,192.168.0.112
20,-1,-100,-100,-100,"0,0,0",0,0,109,0,0,0,65,67,10,0,100,-18.82,0,3.0,-9.0,-992.0,16:41:06.136457,192.168.0.112
25,-1,-100,-100,-100,"0,0,0",0,0,109,0,0,0,65,67,10,0,100,-18.82,0,-12.0,-23.0,-1003.0,16:41:06.237904,192.168.0.112
30,-1,-100,-100,-100,"0,0,0",0,0,110,0,0,0,65,67,10,0,100,-18.82,0,-4.0,6.0,-1140.0,16:41:06.339945,192.168.0.112
36,-1,-100,-100,-100,"0,0,0",-1,0,110,0,0,1,64,67,10,0,100,-18.82,0,25.0,-2.0,-1354.0,16:41:06.441938,192.168.0.112
41,-1,-100,-100,-100,"0,0,0",0,0,110,0,0,4,64,67,10,0,100,-18.82,0,29.0,10.0,-1292.0,16:41:06.543955,192.168.0.112
46,-1,-100,-100,-100,"0,0,0",1,0,110,0,0,7,64,67,18,10,100,-18.6,0,-12.0,19.0,-1121.0,16:41:06.645930,192.168.0.112
52,-1,-100,-100,-100,"0,0,0",1,0,110,0,0,8,64,67,24,10,100,-18.31,0,14.0,18.0,-1008.0,16:41:06.751226,192.168.0.112
57,-1,-100,-100,-100,"0,0,0",1,0,110,0,0,8,64,67,32,20,100,-18.06,0,-5.0,77.0,-937.0,16:41:06.849681,192.168.0.112
63,-1,-100,-100,-100,"0,0,0",1,-1,110,0,0,8,64,67,40,30,100,-18.23,1,47.0,51.0,-895.0,16:41:06.951704,192.168.0.112
68,-1,-100,-100,-100,"0,0,0",0,-3,110,1,0,7,64,67,47,40,100,-18.11,1,62.0,22.0,-839.0,16:41:07.053430,192.168.0.112
73,-1,-100,-100,-100,"0,0,0",1,-3,110,1,0,5,64,67,52,50,100,-17.95,1,13.0,89.0,-821.0,16:41:07.156104,192.168.0.112
78,-1,-100,-100,-100,"0,0,0",3,-2,110,1,0,4,64,67,56,50,100,-18.08,1,21.0,71.0,-934.0,16:41:07.257393,192.168.0.112
83,-1,-100,-100,-100,"0,0,0",3,-3,110,1,0,3,64,67,59,50,100,-17.82,1,45.0,95.0,-946.0,16:41:07.359850,192.168.0.112
89,-1,-100,-100,-100,"0,0,0",0,-7,111,1,0,2,64,67,62,60,100,-17.93,1,37.0,46.0,-910.0,16:41:07.462304,192.168.0.112
94,-1,-100,-100,-100,"0,0,0",3,-6,110,1,0,2,64,67,64,60,100,-17.71,1,41.0,51.0,-963.0,16:41:07.564670,192.168.0.112
95,-1,-100,-100,-100,"0,0,0",3,-3,111,0,0,1,64,67,66,60,100,-17.91,1,30.0,94.0,-987.0,16:41:07.615106,192.168.0.112
100,-1,-100,-100,-100,"0,0,0",2,-4,111,1,0,2,64,67,68,60,100,-17.89,1,46.0,88.0,-1016.0,16:41:07.717033,192.168.0.112
105,-1,-100,-100,-100,"0,0,0",1,-6,111,1,0,1,64,67,69,70,100,-17.99,1,69.0,84.0,-954.0,16:41:07.819110,192.168.0.112
110,-1,-100,-100,-100,"0,0,0",3,-6,110,0,0,1,64,67,70,70,100,-17.81,2,36.0,123.0,-960.0,16:41:07.921096,192.168.0.112
115,-1,-100,-100,-100,"0,0,0",4,-5,110,1,0,1,64,67,71,70,100,-17.69,2,-9.0,149.0,-987.0,16:41:08.023655,192.168.0.112
120,-1,-100,-100,-100,"0,0,0",3,-5,110,1,0,1,64,67,72,70,100,-17.79,2,-5.0,120.0,-980.0,16:41:08.125049,192.168.0.112
125,-1,-100,-100,-100,"0,0,0",1,-7,110,0,1,1,64,67,73,70,100,-17.85,2,44.0,110.0,-1087.0,16:41:08.227075,192.168.0.112
130,-1,-100,-100,-100,"0,0,0",0,-7,110,0,0,1,64,67,75,70,100,-17.79,2,36.0,122.0,-962.0,16:41:08.329004,192.168.0.112
135,-1,-100,-100,-100,"0,0,0",1,-8,109,1,0,1,64,67,76,70,100,-17.84,2,29.0,105.0,-1046.0,16:41:08.431440,192.168.0.112
140,-1,-100,-100,-100,"0,0,0",3,-7,109,0,0,1,64,67,77,70,100,-17.59,2,26.0,153.0,-954.0,16:41:08.533473,192.168.0.112
145,-1,-100,-100,-100,"0,0,0",1,-6,109,0,0,0,64,67,78,70,100,-17.69,2,19.0,113.0,-969.0,16:41:08.635108,192.168.0.112
150,-1,-100,-100,-100,"0,0,0",0,-8,109,0,0,0,64,67,79,70,100,-17.69,2,-4.0,139.0,-1026.0,16:41:08.737466,192.168.0.112
155,-1,-100,-100,-100,"0,0,0",0,-7,109,0,0,0,64,67,81,80,100,-17.69,2,-20.0,87.0,-1012.0,16:41:08.840000,192.168.0.112
160,-1,-100,-100,-100,"0,0,0",0,-10,109,0,0,0,64,67,81,80,100,-17.72,3,37.0,99.0,-926.0,16:41:08.941110,192.168.0.112
165,-1,-100,-100,-100,"0,0,0",0,-7,109,0,0,0,64,67,80,80,100,-17.91,3,1.0,133.0,-1026.0,16:41:09.043250,192.168.0.112
170,-1,-100,-100,-100,"0,0,0",0,-6,109,0,0,0,64,67,81,80,100,-18.0,3,10.0,117.0,-1115.0,16:41:09.145160,192.168.0.112
176,-1,-100,-100,-100,"0,0,0",0,-6,109,0,0,0,64,67,82,80,100,-17.7,3,49.0,108.0,-940.0,16:41:09.248940,192.168.0.112
181,-1,-100,-100,-100,"0,0,0",0,-8,110,0,0,0,64,67,82,80,100,-17.81,3,52.0,62.0,-1022.0,16:41:09.348882,192.168.0.112
186,-1,-100,-100,-100,"0,0,0",1,-6,110,-1,0,0,63,66,83,80,100,-17.71,3,56.0,50.0,-1073.0,16:41:09.451188,192.168.0.112
193,-1,-100,-100,-100,"0,0,0",1,-5,111,-1,0,0,63,66,83,80,100,-18.01,3,47.0,24.0,-936.0,16:41:09.553163,192.168.0.112
198,-1,-100,-100,-100,"0,0,0",2,-4,110,-1,-1,0,63,66,83,80,100,-17.78,3,30.0,45.0,-983.0,16:41:09.655201,192.168.0.112
202,-1,-100,-100,-100,"0,0,0",3,-1,110,-2,-1,0,63,66,83,80,100,-17.8,3,56.0,49.0,-984.0,16:41:09.756999,192.168.0.112
207,-1,-100,-100,-100,"0,0,0",2,0,110,-1,-1,0,63,66,84,80,100,-17.85,3,61.0,62.0,-1004.0,16:41:09.859090,192.168.0.112
212,-1,-100,-100,-100,"0,0,0",1,0,110,-1,-1,0,63,66,84,80,100,-17.82,4,60.0,84.0,-951.0,16:41:09.961007,192.168.0.112
219,-1,-100,-100,-100,"0,0,0",4,0,110,0,-1,0,63,66,85,80,100,-18.0,4,23.0,121.0,-1034.0,16:41:10.063320,192.168.0.112
224,-1,-100,-100,-100,"0,0,0",3,-2,110,0,0,0,63,66,85,80,100,-17.96,4,40.0,77.0,-942.0,16:41:10.165040,192.168.0.112
225,-1,-100,-100,-100,"0,0,0",3,-3,109,0,0,0,63,66,84,80,100,-17.67,4,-2.0,80.0,-971.0,16:41:10.216089,192.168.0.112
230,-1,-100,-100,-100,"0,0,0",3,-3,110,0,0,0,63,66,84,80,100,-18.12,4,24.0,110.0,-1052.0,16:41:10.318314,192.168.0.112
235,-1,-100,-100,-100,"0,0,0",1,-4,110,0,0,0,63,66,85,80,100,-17.75,4,64.0,35.0,-966.0,16:41:10.422537,192.168.0.112
240,-1,-100,-100,-100,"0,0,0",2,-5,110,0,0,0,63,66,84,80,100,-17.79,4,56.0,49.0,-1008.0,16:41:10.522548,192.168.0.112
245,-1,-100,-100,-100,"0,0,0",2,-4,110,0,0,0,63,66,84,80,100,-17.75,4,57.0,21.0,-1010.0,16:41:10.623845,192.168.0.112
250,-1,-100,-100,-100,"0,0,0",2,-4,110,0,0,0,63,66,83,80,100,-17.89,4,109.0,13.0,-995.0,16:41:10.725890,192.168.0.112
255,-1,-100,-100,-100,"0,0,0",3,-2,110,0,-1,0,63,66,83,80,100,-18.03,4,76.0,50.0,-1018.0,16:41:10.828794,192.168.0.112
260,-1,-100,-100,-100,"0,0,0",4,0,110,0,-1,0,63,66,83,80,100,-18.17,5,40.0,115.0,-1034.0,16:41:10.930125,192.168.0.112
265,-1,-100,-100,-100,"0,0,0",4,-1,110,0,0,0,63,66,84,80,100,-17.76,5,0.0,137.0,-921.0,16:41:11.036332,192.168.0.112
270,-1,-100,-100,-100,"0,0,0",4,-4,110,0,0,0,63,66,84,80,100,-17.71,5,43.0,102.0,-992.0,16:41:11.134071,192.168.0.112
275,-1,-100,-100,-100,"0,0,0",3,-5,110,0,0,0,63,66,84,80,100,-17.95,5,89.0,97.0,-1011.0,16:41:11.236084,192.168.0.112
280,-1,-100,-100,-100,"0,0,0",3,-5,110,0,0,0,63,66,85,80,100,-18.18,5,42.0,125.0,-972.0,16:41:11.339407,192.168.0.112
285,-1,-100,-100,-100,"0,0,0",3,-7,110,1,0,0,64,66,84,80,100,-17.88,5,65.0,139.0,-895.0,16:41:11.440489,192.168.0.112
290,-1,-100,-100,-100,"0,0,0",4,-6,109,1,0,0,64,66,85,80,100,-17.8,5,64.0,96.0,-1009.0,16:41:11.542148,192.168.0.112
295,-1,-100,-100,-100,"0,0,0",4,-7,110,0,0,0,64,66,85,80,100,-17.78,5,95.0,77.0,-1025.0,16:41:11.644144,192.168.0.112
300,-1,-100,-100,-100,"0,0,0",2,-8,110,0,0,0,64,66,85,80,100,-17.97,5,50.0,141.0,-963.0,16:41:11.746073,192.168.0.112
305,-1,-100,-100,-100,"0,0,0",4,-5,109,0,0,0,64,66,85,80,100,-17.87,5,39.0,121.0,-933.0,16:41:11.847981,192.168.0.112
310,-1,-100,-100,-100,"0,0,0",4,-5,109,0,0,0,64,66,85,80,100,-17.91,6,59.0,105.0,-975.0,16:41:11.950400,192.168.0.112
316,-1,-100,-100,-100,"0,0,0",3,-6,109,0,0,0,64,66,86,80,100,-18.2,6,59.0,116.0,-945.0,16:41:12.054396,192.168.0.112
321,-1,-100,-100,-100,"0,0,0",3,-5,109,0,0,0,64,66,86,80,100,-17.95,6,85.0,81.0,-954.0,16:41:12.153685,192.168.0.112
326,-1,-100,-100,-100,"0,0,0",2,-5,110,0,0,0,64,66,86,80,100,-17.74,6,57.0,19.0,-921.0,16:41:12.255880,192.168.0.112
331,-1,-100,-100,-100,"0,0,0",3,-5,110,0,0,0,64,66,86,80,100,-18.02,6,66.0,77.0,-1045.0,16:41:12.358043,192.168.0.112
336,-1,-100,-100,-100,"0,0,0",2,-3,110,0,0,0,63,66,86,80,100,-17.82,6,97.0,107.0,-889.0,16:41:12.460014,192.168.0.112
341,-1,-100,-100,-100,"0,0,0",2,-4,109,0,0,0,63,66,86,80,100,-18.13,6,29.0,63.0,-1040.0,16:41:12.562164,192.168.0.112
347,-1,-100,-100,-100,"0,0,0",3,-4,109,0,0,0,63,66,86,80,100,-18.03,6,13.0,88.0,-979.0,16:41:12.664197,192.168.0.112
352,-1,-100,-100,-100,"0,0,0",2,-3,110,0,0,0,63,66,85,80,100,-17.47,6,37.0,91.0,-933.0,16:41:12.766221,192.168.0.112
355,-1,-100,-100,-100,"0,0,0",1,-5,110,0,0,0,63,66,85,80,100,-17.65,6,76.0,96.0,-1013.0,16:41:12.817194,192.168.0.112
360,-1,-100,-100,-100,"0,0,0",2,-6,110,0,0,0,63,66,85,80,100,-18.02,7,81.0,57.0,-1084.0,16:41:12.919022,192.168.0.112
365,-1,-100,-100,-100,"0,0,0",2,-4,112,0,0,0,63,66,86,80,100,-18.19,7,98.0,66.0,-997.0,16:41:13.020750,192.168.0.112
370,-1,-100,-100,-100,"0,0,0",3,-4,115,0,0,0,63,66,87,80,100,-18.37,7,97.0,80.0,-937.0,16:41:13.123327,192.168.0.112
375,-1,-100,-100,-100,"0,0,0",4,-3,113,0,-1,0,63,66,86,80,100,-18.18,7,71.0,74.0,-957.0,16:41:13.225207,192.168.0.112
380,-1,-100,-100,-100,"0,0,0",5,-3,110,0,-1,0,63,66,87,80,100,-17.99,7,29.0,61.0,-970.0,16:41:13.327762,192.168.0.112
385,-1,-100,-100,-100,"0,0,0",5,-2,109,0,0,0,63,65,86,80,100,-17.93,7,61.0,80.0,-996.0,16:41:13.429426,192.168.0.112
391,-1,-100,-100,-100,"0,0,0",4,-2,109,0,0,-1,63,65,85,80,100,-17.66,7,56.0,97.0,-1021.0,16:41:13.537644,192.168.0.112
395,-1,-100,-100,-100,"0,0,0",4,-3,110,0,0,0,63,65,86,80,100,-18.16,7,79.0,115.0,-1055.0,16:41:13.634555,192.168.0.112
400,-1,-100,-100,-100,"0,0,0",3,-5,109,0,0,0,63,65,86,80,100,-18.04,7,14.0,100.0,-920.0,16:41:13.735356,192.168.0.112
405,-1,-100,-100,-100,"0,0,0",5,-6,109,0,0,0,63,65,86,80,100,-17.73,7,116.0,57.0,-1089.0,16:41:13.837294,192.168.0.112
410,-1,-100,-100,-100,"0,0,0",4,-4,114,0,0,0,63,65,87,80,100,-17.74,8,107.0,57.0,-979.0,16:41:13.939294,192.168.0.112
415,-1,-100,-100,-100,"0,0,0",4,-5,123,0,0,0,63,65,88,80,100,-18.42,8,97.0,53.0,-1012.0,16:41:14.040823,192.168.0.112
420,-1,-100,-100,-100,"0,0,0",5,-4,131,0,0,0,63,65,88,80,100,-18.35,8,86.0,75.0,-1021.0,16:41:14.142671,192.168.0.112
425,-1,-100,-100,-100,"0,0,0",6,-3,137,0,0,0,63,65,88,80,100,-18.56,8,104.0,74.0,-1000.0,16:41:14.248947,192.168.0.112
430,-1,-100,-100,-100,"0,0,0",6,-2,140,0,0,0,63,65,88,80,100,-18.52,8,94.0,54.0,-1066.0,16:41:14.347497,192.168.0.112
435,-1,-100,-100,-100,"0,0,0",5,-2,139,0,0,0,63,65,89,80,100,-17.94,8,25.0,76.0,-924.0,16:41:14.450365,192.168.0.112
440,-1,-100,-100,-100,"0,0,0",5,-3,133,0,0,0,63,65,89,80,100,-18.15,8,48.0,80.0,-925.0,16:41:14.551423,192.168.0.112
445,-1,-100,-100,-100,"0,0,0",4,-3,120,0,0,0,63,65,88,80,100,-17.99,8,70.0,112.0,-907.0,16:41:14.653018,192.168.0.112
450,-1,-100,-100,-100,"0,0,0",4,-1,109,0,0,-1,63,65,88,80,100,-17.83,8,67.0,137.0,-1000.0,16:41:14.759112,192.168.0.112
455,-1,-100,-100,-100,"0,0,0",3,-5,108,1,0,0,63,65,88,80,100,-17.82,8,31.0,135.0,-954.0,16:41:14.856870,192.168.0.112
460,-1,-100,-100,-100,"0,0,0",2,-8,107,1,0,0,63,65,88,80,100,-17.83,9,29.0,135.0,-1046.0,16:41:14.958794,192.168.0.112
465,-1,-100,-100,-100,"0,0,0",3,-7,108,0,1,0,63,65,87,80,100,-17.88,9,36.0,123.0,-1044.0,16:41:15.061238,192.168.0.112
470,-1,-100,-100,-100,"0,0,0",2,-8,108,0,1,0,63,65,86,80,100,-17.99,9,11.0,145.0,-991.0,16:41:15.163290,192.168.0.112
476,-1,-100,-100,-100,"0,0,0",2,-8,109,0,1,0,63,65,86,80,100,-17.89,9,39.0,120.0,-1007.0,16:41:15.265200,192.168.0.112
480,-1,-100,-100,-100,"0,0,0",1,-8,109,0,1,0,63,65,86,80,100,-17.82,9,114.0,47.0,-986.0,16:41:15.316369,192.168.0.112
485,-1,-100,-100,-100,"0,0,0",1,-8,109,0,0,0,64,65,85,80,100,-18.07,9,75.0,97.0,-1035.0,16:41:15.417757,192.168.0.112
490,-1,-100,-100,-100,"0,0,0",3,-5,109,0,0,0,64,65,86,80,100,-18.07,9,19.0,108.0,-1013.0,16:41:15.520379,192.168.0.112
495,-1,-100,-100,-100,"0,0,0",3,-5,109,0,0,0,64,65,85,80,100,-18.07,9,67.0,57.0,-1004.0,16:41:15.624257,192.168.0.112
500,-1,-100,-100,-100,"0,0,0",2,-3,109,-1,0,0,64,65,85,80,100,-18.15,9,37.0,116.0,-987.0,16:41:15.723847,192.168.0.112
505,-1,-100,-100,-100,"0,0,0",2,-3,109,0,0,0,64,65,85,80,100,-17.78,9,42.0,77.0,-923.0,16:41:15.825782,192.168.0.112
510,-1,-100,-100,-100,"0,0,0",2,-4,109,0,0,0,64,65,85,80,100,-18.18,10,68.0,82.0,-1061.0,16:41:15.928220,192.168.0.112
515,-1,-100,-100,-100,"0,0,0",3,-4,109,0,0,0,64,65,85,80,100,-17.95,10,25.0,108.0,-972.0,16:41:16.030302,192.168.0.112
520,-1,-100,-100,-100,"0,0,0",3,-5,108,0,0,0,64,65,85,80,100,-17.89,10,22.0,73.0,-1057.0,16:41:16.132100,192.168.0.112
525,-1,-100,-100,-100,"0,0,0",2,-5,109,0,0,0,64,65,85,80,100,-17.88,10,38.0,113.0,-950.0,16:41:16.234599,192.168.0.112
530,-1,-100,-100,-100,"0,0,0",2,-5,109,0,0,0,64,65,85,80,100,-17.85,10,50.0,54.0,-1021.0,16:41:16.336265,192.168.0.112
535,-1,-100,-100,-100,"0,0,0",2,-5,109,0,0,0,63,66,85,80,100,-17.88,10,33.0,119.0,-980.0,16:41:16.442295,192.168.0.112
540,-1,-100,-100,-100,"0,0,0",2,-5,109,0,0,0,63,66,85,80,100,-18.03,10,44.0,104.0,-976.0,16:41:16.540197,192.168.0.112
545,-1,-100,-100,-100,"0,0,0",1,-6,109,0,0,0,63,66,86,80,100,-17.93,10,86.0,76.0,-976.0,16:41:16.643205,192.168.0.112
550,-1,-100,-100,-100,"0,0,0",2,-4,109,0,0,0,63,66,85,80,100,-17.94,10,106.0,46.0,-984.0,16:41:16.744422,192.168.0.112
555,-1,-100,-100,-100,"0,0,0",2,-4,110,0,0,0,63,66,85,80,100,-18.11,10,69.0,88.0,-1007.0,16:41:16.845785,192.168.0.112
560,-1,-100,-100,-100,"0,0,0",4,-3,109,0,0,0,63,66,85,80,100,-18.11,11,54.0,103.0,-976.0,16:41:16.948044,192.168.0.112
565,-1,-100,-100,-100,"0,0,0",4,-3,109,0,0,0,63,66,86,80,100,-18.37,11,44.0,130.0,-1042.0,16:41:17.050632,192.168.0.112
570,-1,-100,-100,-100,"0,0,0",4,-5,110,0,0,0,63,66,87,80,100,-18.27,11,63.0,81.0,-943.0,16:41:17.152253,192.168.0.112
575,-1,-100,-100,-100,"0,0,0",4,-6,109,0,0,0,63,66,87,80,100,-18.06,11,54.0,118.0,-972.0,16:41:17.254321,192.168.0.112
580,-1,-100,-100,-100,"0,0,0",3,-6,109,0,0,0,63,66,86,80,100,-18.13,11,70.0,119.0,-977.0,16:41:17.356535,192.168.0.112
585,-1,-100,-100,-100,"0,0,0",3,-6,109,0,0,0,63,65,86,80,100,-18.13,11,61.0,111.0,-959.0,16:41:17.458297,192.168.0.112
590,-1,-100,-100,-100,"0,0,0",4,-5,109,0,0,0,63,65,85,80,100,-18.14,11,89.0,73.0,-1015.0,16:41:17.562782,192.168.0.112
595,-1,-100,-100,-100,"0,0,0",4,-4,109,0,0,0,63,65,85,80,100,-18.2,11,33.0,56.0,-963.0,16:41:17.661859,192.168.0.112
600,-1,-100,-100,-100,"0,0,0",3,-5,109,0,0,0,63,65,84,80,100,-18.15,11,76.0,50.0,-1003.0,16:41:17.764386,192.168.0.112
605,-1,-100,-100,-100,"0,0,0",3,-3,110,0,0,0,63,65,85,80,100,-18.3,11,92.0,89.0,-1012.0,16:41:17.866365,192.168.0.112
610,-1,-100,-100,-100,"0,0,0",2,-3,110,0,0,0,63,65,85,80,100,-18.43,12,39.0,97.0,-958.0,16:41:17.917385,192.168.0.112
615,-1,-100,-100,-100,"0,0,0",3,-4,110,0,0,0,63,65,85,80,100,-18.37,12,44.0,97.0,-1009.0,16:41:18.019463,192.168.0.112
620,-1,-100,-100,-100,"0,0,0",4,-5,109,0,0,0,63,65,85,80,100,-18.08,12,47.0,63.0,-952.0,16:41:18.128271,192.168.0.112
625,-1,-100,-100,-100,"0,0,0",3,-4,110,0,0,0,63,65,85,80,100,-18.24,12,94.0,38.0,-987.0,16:41:18.223359,192.168.0.112
630,-1,-100,-100,-100,"0,0,0",3,-3,110,0,0,0,63,65,84,80,100,-18.23,12,43.0,77.0,-1055.0,16:41:18.325387,192.168.0.112
635,-1,-100,-100,-100,"0,0,0",3,-2,110,0,0,0,63,66,85,80,100,-18.2,12,38.0,128.0,-948.0,16:41:18.429054,192.168.0.112
640,-1,-100,-100,-100,"0,0,0",3,-4,110,0,0,0,63,66,85,80,100,-18.4,12,97.0,51.0,-1027.0,16:41:18.529338,192.168.0.112
645,-1,-100,-100,-100,"0,0,0",3,-5,110,0,0,0,63,66,85,80,100,-18.16,12,53.0,63.0,-944.0,16:41:18.631502,192.168.0.112
650,-1,-100,-100,-100,"0,0,0",3,-5,109,0,0,0,63,66,85,80,100,-18.15,12,102.0,29.0,-991.0,16:41:18.736311,192.168.0.112
655,-1,-100,-100,-100,"0,0,0",4,-2,110,0,0,0,63,66,84,80,100,-17.96,12,30.0,123.0,-1034.0,16:41:18.835336,192.168.0.112
660,-1,-100,-100,-100,"0,0,0",4,-2,110,0,0,0,63,66,85,80,100,-17.95,13,88.0,110.0,-969.0,16:41:18.937293,192.168.0.112
665,-1,-100,-100,-100,"0,0,0",3,-3,110,0,0,0,63,66,84,80,100,-17.92,13,19.0,78.0,-1035.0,16:41:19.040355,192.168.0.112
670,-1,-100,-100,-100,"0,0,0",4,-5,110,0,0,0,63,66,84,80,100,-18.26,13,99.0,56.0,-1032.0,16:41:19.141311,192.168.0.112
675,-1,-100,-100,-100,"0,0,0",3,-5,110,0,0,0,63,66,84,80,100,-17.99,13,30.0,97.0,-958.0,16:41:19.243344,192.168.0.112
680,-1,-100,-100,-100,"0,0,0",4,-5,109,0,0,0,63,66,84,80,100,-17.98,13,56.0,80.0,-985.0,16:41:19.345338,192.168.0.112
685,-1,-100,-100,-100,"0,0,0",4,-3,109,0,0,0,62,65,83,80,100,-18.05,13,28.0,64.0,-1031.0,16:41:19.447315,192.168.0.112
690,-1,-100,-100,-100,"0,0,0",4,-3,110,0,0,0,62,65,84,80,100,-17.94,13,65.0,87.0,-1017.0,16:41:19.549306,192.168.0.112
695,-1,-100,-100,-100,"0,0,0",2,-5,110,0,0,0,62,65,84,80,100,-18.21,13,100.0,58.0,-997.0,16:41:19.651458,192.168.0.112
700,-1,-100,-100,-100,"0,0,0",2,-5,110,0,0,0,62,65,84,80,100,-18.4,13,65.0,69.0,-952.0,16:41:19.756609,192.168.0.112
705,-1,-100,-100,-100,"0,0,0",5,-4,110,0,0,0,62,65,85,80,100,-18.42,13,59.0,93.0,-1005.0,16:41:19.855403,192.168.0.112
710,-1,-100,-100,-100,"0,0,0",5,-3,109,0,0,0,62,65,85,80,100,-17.97,14,33.0,55.0,-955.0,16:41:19.958678,192.168.0.112
715,-1,-100,-100,-100,"0,0,0",3,-5,110,0,0,0,62,65,85,80,100,-17.93,14,90.0,11.0,-1004.0,16:41:20.059358,192.168.0.112
720,-1,-100,-100,-100,"0,0,0",2,-5,110,0,0,0,62,65,84,80,100,-18.09,14,87.0,33.0,-1016.0,16:41:20.161344,192.168.0.112
725,-1,-100,-100,-100,"0,0,0",4,-1,110,0,0,0,62,65,85,80,100,-18.32,14,69.0,56.0,-999.0,16:41:20.263200,192.168.0.112
730,-1,-100,-100,-100,"0,0,0",4,0,110,0,0,0,62,65,85,80,100,-18.17,14,88.0,43.0,-982.0,16:41:20.365400,192.168.0.112
735,-1,-100,-100,-100,"0,0,0",4,-2,110,0,0,0,62,65,85,80,100,-18.12,14,92.0,23.0,-1014.0,16:41:20.416331,192.168.0.112
740,-1,-100,-100,-100,"0,0,0",5,-1,110,0,0,0,62,65,85,80,100,-18.5,14,74.0,47.0,-989.0,16:41:20.518409,192.168.0.112
745,-1,-100,-100,-100,"0,0,0",5,0,111,0,0,0,62,65,85,80,100,-18.44,14,93.0,127.0,-1015.0,16:41:20.620207,192.168.0.112
750,-1,-100,-100,-100,"0,0,0",4,-1,113,0,0,0,62,65,86,80,100,-18.49,14,30.0,133.0,-985.0,16:41:20.723416,192.168.0.112
755,-1,-100,-100,-100,"0,0,0",4,-4,112,1,0,0,62,65,87,80,100,-18.22,14,82.0,110.0,-976.0,16:41:20.824164,192.168.0.112
760,-1,-100,-100,-100,"0,0,0",4,-5,109,1,0,0,62,65,87,80,100,-18.08,15,39.0,103.0,-941.0,16:41:20.926304,192.168.0.112
765,-1,-100,-100,-100,"0,0,0",5,-6,109,1,0,0,62,65,86,80,100,-17.84,15,52.0,92.0,-993.0,16:41:21.028231,192.168.0.112
770,-1,-100,-100,-100,"0,0,0",4,-6,109,1,1,0,62,65,87,80,100,-17.69,15,31.0,98.0,-987.0,16:41:21.130364,192.168.0.112
775,-1,-100,-100,-100,"0,0,0",3,-7,110,0,0,0,62,65,86,80,100,-17.91,15,87.0,49.0,-1007.0,16:41:21.234419,192.168.0.112
780,-1,-100,-100,-100,"0,0,0",2,-6,110,0,0,0,62,65,86,80,100,-18.2,15,121.0,78.0,-1060.0,16:41:21.334354,192.168.0.112
785,-1,-100,-100,-100,"0,0,0",3,-5,111,0,0,0,63,65,86,80,100,-18.39,15,74.0,92.0,-975.0,16:41:21.436174,192.168.0.112
790,-1,-100,-100,-100,"0,0,0",5,-3,112,0,0,0,63,65,87,80,100,-18.51,15,67.0,72.0,-967.0,16:41:21.538262,192.168.0.112
795,-1,-100,-100,-100,"0,0,0",5,-5,111,0,0,0,63,65,88,80,100,-18.28,15,77.0,84.0,-922.0,16:41:21.640358,192.168.0.112
800,-1,-100,-100,-100,"0,0,0",6,-3,109,0,0,0,63,65,87,80,100,-18.09,15,82.0,98.0,-930.0,16:41:21.742432,192.168.0.112
805,-1,-100,-100,-100,"0,0,0",4,-5,109,0,0,0,63,65,86,80,100,-18.32,15,67.0,104.0,-995.0,16:41:21.844313,192.168.0.112
810,-1,-100,-100,-100,"0,0,0",4,-4,109,0,0,0,63,65,86,80,100,-18.27,16,48.0,156.0,-1035.0,16:41:21.946238,192.168.0.112
815,-1,-100,-100,-100,"0,0,0",4,-6,109,0,0,0,63,65,86,80,100,-17.88,16,7.0,112.0,-954.0,16:41:22.051817,192.168.0.112
820,-1,-100,-100,-100,"0,0,0",4,-6,110,0,1,-1,63,65,85,80,100,-17.98,16,120.0,110.0,-1042.0,16:41:22.150352,192.168.0.112
825,-1,-100,-100,-100,"0,0,0",2,-6,112,0,0,0,63,65,85,80,100,-18.37,16,115.0,73.0,-1015.0,16:41:22.253388,192.168.0.112
830,-1,-100,-100,-100,"0,0,0",4,-7,114,0,0,0,63,65,85,80,100,-18.37,16,84.0,68.0,-991.0,16:41:22.354317,192.168.0.112
835,-1,-100,-100,-100,"0,0,0",4,-5,113,0,0,0,63,65,84,80,100,-18.34,16,50.0,114.0,-984.0,16:41:22.456205,192.168.0.112
840,-1,-100,-100,-100,"0,0,0",5,-4,110,0,0,0,63,65,84,80,100,-18.32,16,59.0,78.0,-975.0,16:41:22.559796,192.168.0.112
845,-1,-100,-100,-100,"0,0,0",4,-4,109,0,0,0,63,65,84,80,100,-18.44,16,86.0,103.0,-1057.0,16:41:22.660425,192.168.0.112
850,-1,-100,-100,-100,"0,0,0",3,-4,109,0,0,0,63,65,85,80,100,-18.43,16,77.0,98.0,-947.0,16:41:22.762660,192.168.0.112
855,-1,-100,-100,-100,"0,0,0",4,-7,109,0,0,0,63,65,84,80,100,-18.24,16,34.0,98.0,-961.0,16:41:22.864402,192.168.0.112
860,-1,-100,-100,-100,"0,0,0",4,-5,109,0,0,0,63,65,84,80,100,-17.97,17,19.0,76.0,-976.0,16:41:22.966500,192.168.0.112
865,-1,-100,-100,-100,"0,0,0",4,-5,108,0,0,0,63,65,84,80,100,-18.06,17,22.0,98.0,-970.0,16:41:23.069849,192.168.0.112
870,-1,-100,-100,-100,"0,0,0",1,-5,109,0,1,0,63,65,82,80,100,-18.18,17,69.0,95.0,-1059.0,16:41:23.170418,192.168.0.112
875,-1,-100,-100,-100,"0,0,0",1,-4,109,0,0,0,63,65,83,80,100,-18.09,17,5.0,148.0,-1004.0,16:41:23.272356,192.168.0.112
880,-1,-100,-100,-100,"0,0,0",1,-6,109,0,1,0,63,65,83,80,100,-18.23,17,57.0,92.0,-1034.0,16:41:23.374349,192.168.0.112
885,-1,-100,-100,-100,"0,0,0",2,-6,109,0,0,0,62,65,82,80,100,-18.04,17,22.0,141.0,-999.0,16:41:23.476295,192.168.0.112
890,-1,-100,-100,-100,"0,0,0",1,-5,109,0,0,0,62,65,83,80,100,-18.15,17,-6.0,207.0,-993.0,16:41:23.527638,192.168.0.112
895,-1,-100,-100,-100,"0,0,0",1,-6,109,0,1,0,62,65,84,80,100,-17.94,17,26.0,145.0,-973.0,16:41:23.629245,192.168.0.112
900,-1,-100,-100,-100,"0,0,0",0,-8,109,1,1,0,62,65,83,80,100,-18.2,17,53.0,116.0,-1017.0,16:41:23.731517,192.168.0.112
905,-1,-100,-100,-100,"0,0,0",1,-8,109,1,1,0,62,65,84,80,100,-18.05,17,-56.0,150.0,-1005.0,16:41:23.836632,192.168.0.112
910,-1,-100,-100,-100,"0,0,0",1,-9,109,0,1,0,62,65,85,80,100,-17.87,18,1.0,138.0,-931.0,16:41:23.935454,192.168.0.112
915,-1,-100,-100,-100,"0,0,0",0,-10,109,0,1,0,62,65,85,80,100,-18.13,18,64.0,155.0,-981.0,16:41:24.037128,192.168.0.112
920,-1,-100,-100,-100,"0,0,0",0,-9,110,0,0,0,62,65,84,80,100,-18.13,18,29.0,89.0,-1045.0,16:41:24.139636,192.168.0.112
925,-1,-100,-100,-100,"0,0,0",0,-7,110,0,0,0,62,65,84,80,100,-18.15,18,-9.0,158.0,-997.0,16:41:24.241456,192.168.0.112
930,-1,-100,-100,-100,"0,0,0",0,-7,109,0,0,0,62,65,83,80,100,-18.12,18,22.0,136.0,-999.0,16:41:24.343477,192.168.0.112
935,-1,-100,-100,-100,"0,0,0",0,-7,109,0,0,0,62,65,83,80,100,-17.97,18,12.0,110.0,-938.0,16:41:24.445667,192.168.0.112
940,-1,-100,-100,-100,"0,0,0",0,-8,109,0,0,0,62,65,83,80,100,-17.85,18,37.0,116.0,-1058.0,16:41:24.547459,192.168.0.112
945,-1,-100,-100,-100,"0,0,0",-1,-8,110,0,0,0,62,65,83,80,100,-17.9,18,5.0,143.0,-976.0,16:41:24.649426,192.168.0.112
950,-1,-100,-100,-100,"0,0,0",0,-7,110,0,0,0,62,65,83,80,100,-18.09,18,-3.0,115.0,-1049.0,16:41:24.751489,192.168.0.112
955,-1,-100,-100,-100,"0,0,0",1,-6,109,0,0,0,62,65,83,80,100,-18.08,18,24.0,114.0,-1012.0,16:41:24.853569,192.168.0.112
960,-1,-100,-100,-100,"0,0,0",0,-6,110,0,0,0,62,65,83,80,100,-18.16,19,11.0,113.0,-1003.0,16:41:24.955530,192.168.0.112
965,-1,-100,-100,-100,"0,0,0",0,-6,110,0,0,0,62,65,84,80,100,-18.05,19,12.0,158.0,-992.0,16:41:25.057515,192.168.0.112
970,-1,-100,-100,-100,"0,0,0",0,-7,110,0,0,0,62,65,84,80,100,-18.14,19,52.0,68.0,-1004.0,16:41:25.159609,192.168.0.112
975,-1,-100,-100,-100,"0,0,0",0,-7,110,0,0,0,62,65,84,80,100,-18.07,19,19.0,139.0,-1051.0,16:41:25.261396,192.168.0.112
980,-1,-100,-100,-100,"0,0,0",1,-5,110,0,0,0,62,65,83,80,100,-18.15,19,-1.0,112.0,-981.0,16:41:25.363664,192.168.0.112
985,-1,-100,-100,-100,"0,0,0",1,-4,110,0,0,0,63,64,83,80,100,-18.16,19,-7.0,127.0,-978.0,16:41:25.465500,192.168.0.112
990,-1,-100,-100,-100,"0,0,0",1,-6,109,0,0,0,63,64,83,80,100,-18.17,19,15.0,148.0,-956.0,16:41:25.567517,192.168.0.112
995,-1,-100,-100,-100,"0,0,0",0,-7,109,0,0,0,63,64,83,80,100,-17.97,19,8.0,134.0,-1014.0,16:41:25.669416,192.168.0.112
1000,-1,-100,-100,-100,"0,0,0",0,-9,110,0,0,0,63,64,83,80,100,-17.99,19,2.0,114.0,-1031.0,16:41:25.771131,192.168.0.112
1005,-1,-100,-100,-100,"0,0,0",0,-6,110,0,0,0,63,64,83,80,100,-18.14,19,-27.0,107.0,-1023.0,16:41:25.873532,192.168.0.112
1010,-1,-100,-100,-100,"0,0,0",0,-6,110,0,0,0,63,64,83,80,100,-18.26,20,59.0,122.0,-992.0,16:41:25.975492,192.168.0.112
1015,-1,-100,-100,-100,"0,0,0",-1,-7,110,0,0,0,63,64,82,80,100,-18.28,20,22.0,100.0,-1007.0,16:41:26.077473,192.168.0.112
1020,-1,-100,-100,-100,"0,0,0",1,-5,110,0,0,0,63,64,83,80,100,-18.26,20,-8.0,90.0,-1048.0,16:41:26.179695,192.168.0.112
1025,-1,-100,-100,-100,"0,0,0",2,-5,110,0,0,0,63,64,83,80,100,-18.29,20,-11.0,117.0,-984.0,16:41:26.282463,192.168.0.112
1030,-1,-100,-100,-100,"0,0,0",1,-5,110,0,0,0,63,64,83,80,100,-18.17,20,26.0,73.0,-934.0,16:41:26.383579,192.168.0.112
1035,-1,-100,-100,-100,"0,0,0",0,-5,110,0,0,0,62,64,83,80,100,-18.01,20,-26.0,116.0,-1029.0,16:41:26.485367,192.168.0.112
1040,-1,-100,-100,-100,"0,0,0",1,-4,110,0,0,0,62,64,83,80,100,-18.16,20,37.0,67.0,-985.0,16:41:26.536457,192.168.0.112
1045,-1,-100,-100,-100,"0,0,0",1,-4,110,0,0,0,62,64,83,80,100,-18.02,20,35.0,79.0,-1010.0,16:41:26.642821,192.168.0.112
1050,-1,-100,-100,-100,"0,0,0",0,-5,111,0,0,0,62,64,85,80,100,-18.29,20,37.0,74.0,-979.0,16:41:26.740489,192.168.0.112
1054,-1,-100,-100,-100,"0,0,0",2,-5,110,0,-1,0,62,64,84,80,100,-18.03,20,113.0,95.0,-997.0,16:41:26.842499,192.168.0.112
1059,-1,-100,-100,-100,"0,0,0",4,-5,109,0,-1,0,62,64,84,80,100,-18.16,21,54.0,75.0,-984.0,16:41:26.944432,192.168.0.112
1064,-1,-100,-100,-100,"0,0,0",3,-4,109,0,-1,0,62,64,84,80,100,-18.17,21,10.0,39.0,-959.0,16:41:27.046430,192.168.0.112
1070,-1,-100,-100,-100,"0,0,0",3,-2,109,0,-1,0,62,64,84,80,100,-18.08,21,46.0,37.0,-1065.0,16:41:27.148548,192.168.0.112
1075,-1,-100,-100,-100,"0,0,0",3,-2,109,0,-1,0,62,64,84,80,100,-18.08,21,78.0,35.0,-970.0,16:41:27.250276,192.168.0.112
1080,-1,-100,-100,-100,"0,0,0",5,-1,109,0,0,0,62,64,84,80,100,-17.94,21,90.0,67.0,-980.0,16:41:27.352234,192.168.0.112
1085,-1,-100,-100,-100,"0,0,0",3,-5,110,0,0,0,62,65,84,80,100,-18.13,21,71.0,102.0,-986.0,16:41:27.456195,192.168.0.112
1090,-1,-100,-100,-100,"0,0,0",3,-5,110,0,0,0,62,65,84,80,100,-18.09,21,60.0,79.0,-1000.0,16:41:27.556567,192.168.0.112
1095,-1,-100,-100,-100,"0,0,0",3,-5,112,0,0,0,62,65,84,80,100,-18.23,21,52.0,84.0,-950.0,16:41:27.658519,192.168.0.112
1100,-1,-100,-100,-100,"0,0,0",4,-4,111,0,0,0,62,65,84,80,100,-18.14,21,69.0,117.0,-987.0,16:41:27.760327,192.168.0.112
1105,-1,-100,-100,-100,"0,0,0",3,-4,110,0,0,0,62,65,84,80,100,-18.42,22,41.0,157.0,-988.0,16:41:27.862412,192.168.0.112
1110,-1,-100,-100,-100,"0,0,0",4,-8,109,0,0,0,62,65,86,80,100,-18.33,22,33.0,71.0,-916.0,16:41:27.964779,192.168.0.112
1115,-1,-100,-100,-100,"0,0,0",4,-6,109,0,0,0,62,65,86,80,100,-18.34,22,69.0,70.0,-1004.0,16:41:28.066551,192.168.0.112
1120,-1,-100,-100,-100,"0,0,0",3,-4,109,0,0,0,62,65,84,80,100,-18.11,22,29.0,87.0,-940.0,16:41:28.168367,192.168.0.112
1125,-1,-100,-100,-100,"0,0,0",2,-5,109,0,0,0,62,65,83,80,100,-18.04,22,52.0,45.0,-997.0,16:41:28.270335,192.168.0.112
1130,-1,-100,-100,-100,"0,0,0",2,-4,109,0,0,0,62,65,83,80,100,-18.3,22,22.0,107.0,-1072.0,16:41:28.372500,192.168.0.112
1135,-1,-100,-100,-100,"0,0,0",1,-3,110,0,0,0,62,65,82,80,100,-18.16,22,22.0,150.0,-962.0,16:41:28.474431,192.168.0.112
1140,-1,-100,-100,-100,"0,0,0",1,-6,110,0,0,0,62,65,82,80,100,-18.24,22,88.0,115.0,-1001.0,16:41:28.576472,192.168.0.112
1145,-1,-100,-100,-100,"0,0,0",2,-5,109,0,0,0,62,65,83,80,100,-18.11,22,34.0,106.0,-967.0,16:41:28.678505,192.168.0.112
1150,-1,-100,-100,-100,"0,0,0",3,-5,109,0,0,0,62,65,83,80,100,-18.3,22,3.0,123.0,-1021.0,16:41:28.780546,192.168.0.112
1155,-1,-100,-100,-100,"0,0,0",2,-5,109,0,0,0,62,65,83,80,100,-18.2,23,42.0,109.0,-990.0,16:41:28.882478,192.168.0.112
1160,-1,-100,-100,-100,"0,0,0",2,-5,109,0,0,0,62,65,83,80,100,-18.04,23,-12.0,148.0,-955.0,16:41:28.984417,192.168.0.112
1165,-1,-100,-100,-100,"0,0,0",1,-5,109,0,0,0,62,65,83,80,100,-18.14,23,58.0,99.0,-967.0,16:41:29.086509,192.168.0.112
1170,-1,-100,-100,-100,"0,0,0",1,-6,109,0,0,0,62,65,82,80,100,-18.14,23,34.0,133.0,-984.0,16:41:29.188538,192.168.0.112
1175,-1,-100,-100,-100,"0,0,0",1,-8,110,0,0,0,62,65,83,80,100,-17.85,23,90.0,49.0,-1037.0,16:41:29.290597,192.168.0.112
1180,-1,-100,-100,-100,"0,0,0",2,-6,110,0,0,0,62,65,82,80,100,-18.21,23,38.0,117.0,-980.0,16:41:29.393850,192.168.0.112
1185,-1,-100,-100,-100,"0,0,0",2,-6,110,0,0,0,62,65,83,80,100,-18.11,23,42.0,83.0,-979.0,16:41:29.495447,192.168.0.112
1190,-1,-100,-100,-100,"0,0,0",3,-5,109,0,0,0,62,65,83,80,100,-18.0,23,0.0,132.0,-1045.0,16:41:29.596503,192.168.0.112
1195,-1,-100,-100,-100,"0,0,0",3,-5,109,0,0,0,62,65,82,80,100,-18.31,23,-5.0,111.0,-1096.0,16:41:29.699729,192.168.0.112
1200,-1,-100,-100,-100,"0,0,0",1,-7,109,0,0,0,62,65,83,80,100,-17.93,23,46.0,132.0,-1004.0,16:41:29.801601,192.168.0.112
1205,-1,-100,-100,-100,"0,0,0",2,-8,109,0,0,0,62,65,84,80,100,-18.18,24,5.0,103.0,-986.0,16:41:29.904893,192.168.0.112
1210,-1,-100,-100,-100,"0,0,0",2,-7,109,0,0,0,62,65,83,80,100,-18.29,24,8.0,87.0,-936.0,16:41:30.007945,192.168.0.112
1215,-1,-100,-100,-100,"0,0,0",1,-7,109,0,0,0,62,65,83,80,100,-18.16,24,30.0,104.0,-1025.0,16:41:30.106734,192.168.0.112
1219,-1,-100,-100,-100,"0,0,0",1,-6,109,0,0,0,62,65,83,80,100,-18.35,24,-16.0,156.0,-1037.0,16:41:30.157895,192.168.0.112
1224,-1,-100,-100,-100,"0,0,0",1,-6,109,0,0,0,62,65,83,80,100,-18.21,24,29.0,140.0,-928.0,16:41:30.259534,192.168.0.112
1229,-1,-100,-100,-100,"0,0,0",1,-7,109,0,0,0,62,65,83,80,100,-18.44,24,37.0,70.0,-1027.0,16:41:30.361665,192.168.0.112
1235,-1,-100,-100,-100,"0,0,0",1,-6,110,0,0,0,62,65,83,80,100,-18.3,24,35.0,113.0,-1027.0,16:41:30.514488,192.168.0.112
1240,-1,-100,-100,-100,"0,0,0",1,-6,110,0,0,0,62,65,83,80,100,-18.13,24,27.0,149.0,-1029.0,16:41:30.566360,192.168.0.112
1245,-1,-100,-100,-100,"0,0,0",2,-6,110,0,0,0,62,65,84,80,100,-17.85,24,0.0,148.0,-949.0,16:41:30.668005,192.168.0.112
1250,-1,-100,-100,-100,"0,0,0",2,-6,110,0,0,0,62,65,83,80,100,-18.06,24,29.0,137.0,-927.0,16:41:30.769182,192.168.0.112
1255,-1,-100,-100,-100,"0,0,0",1,-7,109,0,0,0,62,65,83,80,100,-18.08,25,5.0,135.0,-1018.0,16:41:30.879380,192.168.0.112
1260,-1,-100,-100,-100,"0,0,0",0,-8,110,0,0,0,62,65,84,80,100,-17.92,25,56.0,81.0,-993.0,16:41:30.973599,192.168.0.112
1265,-1,-100,-100,-100,"0,0,0",1,-7,110,0,0,0,62,65,83,80,100,-17.94,25,37.0,148.0,-972.0,16:41:31.075559,192.168.0.112
1270,-1,-100,-100,-100,"0,0,0",1,-8,110,0,0,0,62,65,83,80,100,-17.91,25,59.0,105.0,-964.0,16:41:31.177612,192.168.0.112
1275,-1,-100,-100,-100,"0,0,0",3,-7,110,0,0,0,62,65,83,80,100,-18.13,25,9.0,168.0,-1025.0,16:41:31.281372,192.168.0.112
1280,-1,-100,-100,-100,"0,0,0",2,-7,110,0,0,0,62,65,83,80,100,-18.12,25,53.0,142.0,-1007.0,16:41:31.381512,192.168.0.112
1285,-1,-100,-100,-100,"0,0,0",2,-7,110,0,0,0,63,65,83,80,100,-18.17,25,41.0,139.0,-1018.0,16:41:31.483704,192.168.0.112
1290,-1,-100,-100,-100,"0,0,0",2,-7,109,0,0,0,63,65,83,80,100,-17.92,25,38.0,130.0,-984.0,16:41:31.586388,192.168.0.112
1295,-1,-100,-100,-100,"0,0,0",2,-7,109,0,0,0,63,65,84,80,100,-18.04,25,50.0,101.0,-1033.0,16:41:31.687647,192.168.0.112
1300,-1,-100,-100,-100,"0,0,0",1,-7,110,0,0,0,63,65,84,80,100,-18.13,25,68.0,143.0,-959.0,16:41:31.789488,192.168.0.112
1305,-1,-100,-100,-100,"0,0,0",2,-7,110,0,0,0,63,65,83,80,100,-18.32,26,0.0,159.0,-1036.0,16:41:31.891590,192.168.0.112
1310,-1,-100,-100,-100,"0,0,0",3,-8,109,0,0,0,63,65,84,80,100,-18.3,26,11.0,107.0,-1088.0,16:41:31.993237,192.168.0.112
1315,-1,-100,-100,-100,"0,0,0",2,-7,109,0,0,0,63,65,83,80,100,-18.08,26,-2.0,137.0,-1017.0,16:41:32.095529,192.168.0.112
1320,-1,-100,-100,-100,"0,0,0",1,-7,110,0,0,0,63,65,84,80,100,-18.41,26,57.0,116.0,-985.0,16:41:32.197246,192.168.0.112
1325,-1,-100,-100,-100,"0,0,0",1,-8,110,0,0,0,63,65,83,80,100,-18.37,26,55.0,81.0,-1020.0,16:41:32.300308,192.168.0.112
1330,-1,-100,-100,-100,"0,0,0",2,-6,110,0,0,0,63,65,84,80,100,-18.03,26,37.0,94.0,-961.0,16:41:32.401638,192.168.0.112
1335,-1,-100,-100,-100,"0,0,0",1,-7,110,0,0,0,63,64,84,80,100,-18.07,26,26.0,109.0,-955.0,16:41:32.503689,192.168.0.112
1340,-1,-100,-100,-100,"0,0,0",1,-4,109,0,0,0,63,64,83,80,100,-18.28,26,0.0,109.0,-1009.0,16:41:32.605563,192.168.0.112
1345,-1,-100,-100,-100,"0,0,0",1,-5,109,0,0,0,63,64,83,80,100,-18.15,26,15.0,138.0,-1040.0,16:41:32.708240,192.168.0.112
1350,-1,-100,-100,-100,"0,0,0",1,-7,110,0,0,0,63,64,83,80,100,-18.1,26,52.0,120.0,-1025.0,16:41:32.809813,192.168.0.112
1355,-1,-100,-100,-100,"0,0,0",1,-7,110,0,0,0,63,64,83,80,100,-18.07,27,59.0,106.0,-893.0,16:41:32.914213,192.168.0.112
1360,-1,-100,-100,-100,"0,0,0",1,-6,110,0,0,0,63,64,82,80,100,-18.15,27,50.0,147.0,-991.0,16:41:33.013766,192.168.0.112
1365,-1,-100,-100,-100,"0,0,0",1,-6,110,0,0,0,63,64,83,80,100,-18.21,27,-6.0,133.0,-976.0,16:41:33.115649,192.168.0.112
1370,-1,-100,-100,-100,"0,0,0",1,-8,109,0,0,0,63,64,84,80,100,-18.31,27,15.0,137.0,-996.0,16:41:33.217660,192.168.0.112
1375,-1,-100,-100,-100,"0,0,0",1,-8,109,0,0,0,63,64,83,80,100,-18.3,27,-19.0,151.0,-1038.0,16:41:33.319668,192.168.0.112
1380,-1,-100,-100,-100,"0,0,0",0,-8,109,0,0,0,63,64,83,80,100,-18.17,27,31.0,121.0,-995.0,16:41:33.421837,192.168.0.112
1385,-1,-100,-100,-100,"0,0,0",0,-8,110,0,0,0,63,65,83,80,100,-18.11,27,3.0,136.0,-969.0,16:41:33.523557,192.168.0.112
1389,-1,-100,-100,-100,"0,0,0",1,-8,109,0,0,0,63,65,83,80,100,-18.15,27,-15.0,118.0,-1052.0,16:41:33.574363,192.168.0.112
1394,-1,-100,-100,-100,"0,0,0",1,-7,110,0,0,0,63,65,82,80,100,-18.46,27,6.0,127.0,-1076.0,16:41:33.676419,192.168.0.112
1399,-1,-100,-100,-100,"0,0,0",0,-7,110,0,0,0,63,65,83,80,100,-18.18,27,-19.0,185.0,-883.0,16:41:33.778560,192.168.0.112
1404,-1,-100,-100,-100,"0,0,0",0,-7,110,0,0,0,63,65,82,80,100,-18.18,28,6.0,144.0,-961.0,16:41:33.880596,192.168.0.112
1409,-1,-100,-100,-100,"0,0,0",0,-7,110,0,0,0,63,65,83,80,100,-18.14,28,54.0,148.0,-921.0,16:41:33.982537,192.168.0.112
1415,-1,-100,-100,-100,"0,0,0",0,-8,110,0,0,0,63,65,83,80,100,-18.05,28,53.0,136.0,-971.0,16:41:34.084560,192.168.0.112
1420,-1,-100,-100,-100,"0,0,0",1,-8,110,0,0,0,63,65,83,80,100,-18.1,28,20.0,120.0,-986.0,16:41:34.186654,192.168.0.112
1425,-1,-100,-100,-100,"0,0,0",2,-7,110,0,0,0,63,65,82,80,100,-18.02,28,15.0,135.0,-1007.0,16:41:34.288685,192.168.0.112
1430,-1,-100,-100,-100,"0,0,0",2,-7,110,0,0,0,63,65,83,80,100,-18.27,28,62.0,106.0,-979.0,16:41:34.390726,192.168.0.112
1435,-1,-100,-100,-100,"0,0,0",2,-6,110,0,0,0,62,64,82,80,100,-18.24,28,60.0,102.0,-938.0,16:41:34.492707,192.168.0.112
1440,-1,-100,-100,-100,"0,0,0",3,-6,110,0,0,0,62,64,82,80,100,-18.35,28,42.0,91.0,-1020.0,16:41:34.595088,192.168.0.112
1445,-1,-100,-100,-100,"0,0,0",3,-5,110,-1,0,0,62,64,82,80,100,-18.38,28,41.0,64.0,-993.0,16:41:34.696452,192.168.0.112
1450,-1,-100,-100,-100,"0,0,0",3,-3,110,-1,-1,0,62,64,82,80,100,-18.53,28,90.0,55.0,-1014.0,16:41:34.799247,192.168.0.112
1455,-1,-100,-100,-100,"0,0,0",3,0,110,-1,-1,0,62,64,82,80,100,-18.35,29,43.0,134.0,-960.0,16:41:34.900517,192.168.0.112
1460,-1,-100,-100,-100,"0,0,0",3,-3,110,0,0,0,62,64,82,80,100,-18.19,29,68.0,117.0,-954.0,16:41:35.002556,192.168.0.112
1465,-1,-100,-100,-100,"0,0,0",4,-5,110,0,0,0,62,64,82,80,100,-18.11,29,23.0,145.0,-1060.0,16:41:35.104532,192.168.0.112
1470,-1,-100,-100,-100,"0,0,0",3,-5,110,0,0,0,62,64,82,80,100,-18.1,29,74.0,140.0,-957.0,16:41:35.206655,192.168.0.112
1475,-1,-100,-100,-100,"0,0,0",3,-6,110,0,0,0,62,64,83,80,100,-18.35,29,58.0,104.0,-1019.0,16:41:35.308536,192.168.0.112
1480,-1,-100,-100,-100,"0,0,0",3,-6,110,0,0,0,62,64,84,80,100,-18.54,29,63.0,92.0,-954.0,16:41:35.410731,192.168.0.112
1485,-1,-100,-100,-100,"0,0,0",5,-5,110,0,0,0,62,65,84,80,100,-18.17,29,64.0,73.0,-983.0,16:41:35.515214,192.168.0.112
1490,-1,-100,-100,-100,"0,0,0",4,-5,110,0,0,0,62,65,84,80,100,-18.47,29,97.0,103.0,-1018.0,16:41:35.614539,192.168.0.112
1495,-1,-100,-100,-100,"0,0,0",4,-6,110,0,0,0,62,65,85,80,100,-18.18,29,19.0,126.0,-927.0,16:41:35.716509,192.168.0.112
1500,-1,-100,-100,-100,"0,0,0",4,-6,110,0,0,0,62,65,84,80,100,-18.22,29,39.0,124.0,-977.0,16:41:35.818691,192.168.0.112
1505,-1,-100,-100,-100,"0,0,0",3,-6,110,0,0,0,62,65,84,80,100,-18.16,30,75.0,70.0,-992.0,16:41:35.920549,192.168.0.112
1510,-1,-100,-100,-100,"0,0,0",3,-6,110,0,0,0,62,65,83,80,100,-18.05,30,68.0,119.0,-1048.0,16:41:36.022564,192.168.0.112
1515,-1,-100,-100,-100,"0,0,0",3,-5,110,0,0,0,62,65,82,80,100,-18.22,30,68.0,140.0,-998.0,16:41:36.124512,192.168.0.112
1520,-1,-100,-100,-100,"0,0,0",3,-7,110,0,0,0,62,65,84,80,100,-18.23,30,39.0,116.0,-959.0,16:41:36.226617,192.168.0.112
1525,-1,-100,-100,-100,"0,0,0",3,-8,110,0,0,0,62,65,84,80,100,-18.11,30,98.0,60.0,-1033.0,16:41:36.328628,192.168.0.112
1530,-1,-100,-100,-100,"0,0,0",3,-6,110,0,0,0,62,65,84,80,100,-18.17,30,78.0,103.0,-974.0,16:41:36.430629,192.168.0.112
1535,-1,-100,-100,-100,"0,0,0",3,-6,110,0,0,0,62,64,85,80,100,-18.54,30,71.0,91.0,-1021.0,16:41:36.532499,192.168.0.112
1540,-1,-100,-100,-100,"0,0,0",5,-6,110,0,0,0,62,64,84,80,100,-18.51,30,61.0,83.0,-1032.0,16:41:36.634550,192.168.0.112
1545,-1,-100,-100,-100,"0,0,0",5,-6,110,0,0,0,62,64,85,80,100,-18.45,30,107.0,135.0,-975.0,16:41:36.736519,192.168.0.112
1550,-1,-100,-100,-100,"0,0,0",4,-7,109,0,0,0,62,64,84,80,100,-18.24,30,38.0,172.0,-888.0,16:41:36.838591,192.168.0.112
1554,-1,-100,-100,-100,"0,0,0",3,-7,109,0,0,0,62,64,83,80,100,-18.14,31,58.0,156.0,-913.0,16:41:36.889624,192.168.0.112
1559,-1,-100,-100,-100,"0,0,0",3,-6,109,0,0,0,62,64,83,80,100,-18.16,31,88.0,127.0,-997.0,16:41:36.991602,192.168.0.112
1564,-1,-100,-100,-100,"0,0,0",2,-8,109,0,0,0,62,64,84,80,100,-18.21,31,36.0,184.0,-1026.0,16:41:37.093639,192.168.0.112
1570,-1,-100,-100,-100,"0,0,0",2,-9,109,0,0,0,62,64,84,80,100,-17.99,31,60.0,96.0,-1011.0,16:41:37.195704,192.168.0.112
1575,-1,-100,-100,-100,"0,0,0",2,-9,110,0,0,0,62,64,85,80,100,-18.15,31,42.0,139.0,-997.0,16:41:37.297962,192.168.0.112
1580,-1,-100,-100,-100,"0,0,0",3,-8,110,0,0,0,62,64,84,80,100,-18.36,31,77.0,93.0,-924.0,16:41:37.399582,192.168.0.112
1585,-1,-100,-100,-100,"0,0,0",3,-5,110,0,0,0,62,65,84,80,100,-18.51,31,49.0,141.0,-1022.0,16:41:37.501637,192.168.0.112
1590,-1,-100,-100,-100,"0,0,0",3,-5,110,0,0,0,62,65,83,80,100,-18.58,31,76.0,125.0,-972.0,16:41:37.604553,192.168.0.112
1595,-1,-100,-100,-100,"0,0,0",3,-5,110,0,0,0,62,65,83,80,100,-18.59,31,65.0,150.0,-955.0,16:41:37.706981,192.168.0.112
1600,-1,-100,-100,-100,"0,0,0",3,-5,109,0,0,0,62,65,83,80,100,-18.35,31,19.0,116.0,-959.0,16:41:37.807649,192.168.0.112
1605,-1,-100,-100,-100,"0,0,0",4,-5,109,0,0,0,62,65,83,80,100,-18.24,32,25.0,130.0,-1026.0,16:41:37.911195,192.168.0.112
1610,-1,-100,-100,-100,"0,0,0",2,-6,110,0,0,0,62,65,83,80,100,-18.41,32,79.0,130.0,-950.0,16:41:38.011694,192.168.0.112
1615,-1,-100,-100,-100,"0,0,0",3,-6,109,0,0,0,62,65,84,80,100,-18.27,32,70.0,127.0,-880.0,16:41:38.113371,192.168.0.112
1620,-1,-100,-100,-100,"0,0,0",3,-7,109,0,0,0,62,65,84,80,100,-18.25,32,97.0,74.0,-1047.0,16:41:38.215190,192.168.0.112
1625,-1,-100,-100,-100,"0,0,0",3,-7,110,0,0,0,62,65,84,80,100,-18.53,32,64.0,116.0,-1013.0,16:41:38.318723,192.168.0.112
1630,-1,-100,-100,-100,"0,0,0",3,-6,110,0,0,0,62,65,84,80,100,-18.38,32,80.0,102.0,-903.0,16:41:38.419496,192.168.0.112
1635,-1,-100,-100,-100,"0,0,0",4,-7,110,0,0,0,62,65,84,80,100,-18.22,32,30.0,158.0,-1060.0,16:41:38.521636,192.168.0.112
1640,-1,-100,-100,-100,"0,0,0",4,-5,110,0,0,0,62,65,83,80,100,-18.67,32,33.0,196.0,-918.0,16:41:38.623580,192.168.0.112
1645,-1,-100,-100,-100,"0,0,0",3,-7,109,0,0,0,62,65,85,80,100,-18.22,32,39.0,182.0,-935.0,16:41:38.725699,192.168.0.112
1650,-1,-100,-100,-100,"0,0,0",3,-7,109,0,0,0,62,65,85,80,100,-18.23,32,65.0,147.0,-915.0,16:41:38.828166,192.168.0.112
1655,-1,-100,-100,-100,"0,0,0",2,-8,109,0,0,0,62,65,84,80,100,-18.31,33,6.0,140.0,-974.0,16:41:38.929678,192.168.0.112
1660,-1,-100,-100,-100,"0,0,0",3,-8,109,0,0,0,62,65,84,80,100,-18.29,33,61.0,155.0,-1010.0,16:41:39.031993,192.168.0.112
1665,-1,-100,-100,-100,"0,0,0",1,-8,109,0,0,0,62,65,84,80,100,-18.28,33,41.0,151.0,-972.0,16:41:39.133585,192.168.0.112
1670,-1,-100,-100,-100,"0,0,0",1,-10,109,0,0,0,62,65,85,80,100,-18.16,33,40.0,101.0,-1015.0,16:41:39.235643,192.168.0.112
1675,-1,-100,-100,-100,"0,0,0",2,-8,110,0,0,0,62,65,84,80,100,-18.02,33,36.0,129.0,-957.0,16:41:39.337757,192.168.0.112
1680,-1,-100,-100,-100,"0,0,0",2,-9,110,0,0,0,62,65,84,80,100,-18.09,33,60.0,68.0,-1065.0,16:41:39.439710,192.168.0.112
1685,-1,-100,-100,-100,"0,0,0",2,-6,110,0,0,0,62,64,83,80,100,-18.26,33,33.0,161.0,-1006.0,16:41:39.541738,192.168.0.112
1690,-1,-100,-100,-100,"0,0,0",2,-7,110,0,0,0,62,64,84,80,100,-18.4,33,68.0,111.0,-975.0,16:41:39.643764,192.168.0.112
1695,-1,-100,-100,-100,"0,0,0",3,-8,109,0,0,0,62,64,85,80,100,-18.28,33,91.0,70.0,-1001.0,16:41:39.746816,192.168.0.112
1700,-1,-100,-100,-100,"0,0,0",4,-5,109,0,0,0,62,64,83,80,100,-18.41,33,-4.0,127.0,-1010.0,16:41:39.847771,192.168.0.112
1705,-1,-100,-100,-100,"0,0,0",4,-4,109,0,0,0,62,64,84,80,100,-18.54,34,2.0,92.0,-1032.0,16:41:39.950536,192.168.0.112
1710,-1,-100,-100,-100,"0,0,0",3,-3,109,0,0,0,62,64,83,80,100,-18.46,34,-10.0,202.0,-964.0,16:41:40.051757,192.168.0.112
1715,-1,-100,-100,-100,"0,0,0",1,-5,109,0,0,0,62,64,83,80,100,-18.3,34,46.0,135.0,-980.0,16:41:40.154547,192.168.0.112
1720,-1,-100,-100,-100,"0,0,0",1,-7,110,0,0,0,62,64,84,80,100,-18.55,34,42.0,161.0,-905.0,16:41:40.257680,192.168.0.112
1724,-1,-100,-100,-100,"0,0,0",1,-6,110,0,0,0,62,64,83,80,100,-18.19,34,26.0,91.0,-962.0,16:41:40.308838,192.168.0.112
1729,-1,-100,-100,-100,"0,0,0",2,-8,110,0,0,0,62,64,83,80,100,-18.23,34,40.0,118.0,-995.0,16:41:40.411295,192.168.0.112
1735,-1,-100,-100,-100,"0,0,0",3,-6,110,0,0,0,62,65,83,80,100,-18.37,34,35.0,109.0,-1016.0,16:41:40.561803,192.168.0.112
1740,-1,-100,-100,-100,"0,0,0",2,-5,110,0,0,0,62,65,82,80,100,-18.23,34,28.0,127.0,-959.0,16:41:40.612739,192.168.0.112
1745,-1,-100,-100,-100,"0,0,0",2,-6,110,0,0,0,62,65,83,80,100,-18.33,34,37.0,169.0,-940.0,16:41:40.714730,192.168.0.112
1750,-1,-100,-100,-100,"0,0,0",2,-7,110,0,0,0,62,65,83,80,100,-18.35,34,45.0,127.0,-993.0,16:41:40.816698,192.168.0.112
1755,-1,-100,-100,-100,"0,0,0",2,-7,110,0,0,0,62,65,83,80,100,-18.11,35,51.0,160.0,-979.0,16:41:40.918726,192.168.0.112
1760,-1,-100,-100,-100,"0,0,0",2,-7,110,0,0,0,62,65,82,80,100,-18.1,35,23.0,179.0,-983.0,16:41:41.020650,192.168.0.112
1765,-1,-100,-100,-100,"0,0,0",1,-8,110,0,0,0,62,65,83,80,100,-18.02,35,28.0,178.0,-939.0,16:41:41.122642,192.168.0.112
1770,-1,-100,-100,-100,"0,0,0",1,-9,109,0,0,0,62,65,83,80,100,-18.41,35,-12.0,145.0,-1041.0,16:41:41.224684,192.168.0.112
1775,-1,-100,-100,-100,"0,0,0",1,-9,109,0,0,0,62,65,83,80,100,-18.46,35,6.0,174.0,-1010.0,16:41:41.326659,192.168.0.112
1780,-1,-100,-100,-100,"0,0,0",0,-10,109,0,1,0,62,65,83,80,100,-18.35,35,10.0,145.0,-985.0,16:41:41.428655,192.168.0.112
1785,-1,-100,-100,-100,"0,0,0",0,-10,110,0,0,0,62,63,83,80,100,-18.39,35,13.0,155.0,-951.0,16:41:41.531193,192.168.0.112
1790,-1,-100,-100,-100,"0,0,0",1,-9,109,0,0,0,62,63,84,80,100,-18.27,35,50.0,204.0,-905.0,16:41:41.632655,192.168.0.112
1795,-1,-100,-100,-100,"0,0,0",1,-10,109,0,0,0,62,63,83,80,100,-18.27,35,15.0,182.0,-983.0,16:41:41.735327,192.168.0.112
1800,-1,-100,-100,-100,"0,0,0",1,-8,109,0,0,0,62,63,84,80,100,-18.46,35,-17.0,157.0,-1027.0,16:41:41.836518,192.168.0.112
1805,-1,-100,-100,-100,"0,0,0",1,-9,109,0,0,0,62,63,84,80,100,-18.37,36,4.0,157.0,-979.0,16:41:41.938714,192.168.0.112
1810,-1,-100,-100,-100,"0,0,0",0,-9,109,0,0,0,62,63,85,80,100,-18.19,36,-15.0,183.0,-931.0,16:41:42.040781,192.168.0.112
1815,-1,-100,-100,-100,"0,0,0",1,-10,109,0,0,0,62,63,84,80,100,-18.35,36,0.0,154.0,-995.0,16:41:42.142702,192.168.0.112
1820,-1,-100,-100,-100,"0,0,0",1,-9,109,0,0,0,62,63,85,80,100,-18.27,36,-17.0,131.0,-974.0,16:41:42.245293,192.168.0.112
1825,-1,-100,-100,-100,"0,0,0",0,-9,110,0,0,0,62,63,85,80,100,-18.22,36,-16.0,130.0,-969.0,16:41:42.346974,192.168.0.112
1830,-1,-100,-100,-100,"0,0,0",0,-10,110,0,0,0,62,63,83,80,100,-18.28,36,-25.0,165.0,-938.0,16:41:42.448744,192.168.0.112
1835,-1,-100,-100,-100,"0,0,0",0,-8,110,0,0,0,62,64,83,80,100,-18.53,36,31.0,142.0,-965.0,16:41:42.550751,192.168.0.112
1840,-1,-100,-100,-100,"0,0,0",-1,-7,110,0,0,0,62,64,83,80,100,-18.4,36,-4.0,111.0,-1036.0,16:41:42.652808,192.168.0.112
1845,-1,-100,-100,-100,"0,0,0",0,-7,110,0,0,0,62,64,82,80,100,-18.5,36,14.0,122.0,-966.0,16:41:42.754651,192.168.0.112
1850,-1,-100,-100,-100,"0,0,0",1,-5,110,-1,0,0,62,64,83,80,100,-18.2,36,14.0,118.0,-984.0,16:41:42.856686,192.168.0.112
1855,-1,-100,-100,-100,"0,0,0",0,-6,110,-1,0,0,62,64,82,80,100,-18.59,37,56.0,112.0,-1103.0,16:41:42.958785,192.168.0.112
1860,-1,-100,-100,-100,"0,0,0",2,-4,110,-1,-1,0,62,64,82,80,100,-18.39,37,29.0,146.0,-923.0,16:41:43.060772,192.168.0.112
1865,-1,-100,-100,-100,"0,0,0",2,-4,110,0,0,0,62,64,82,80,100,-18.47,37,21.0,74.0,-1048.0,16:41:43.162782,192.168.0.112
1870,-1,-100,-100,-100,"0,0,0",3,-5,110,0,0,0,62,64,83,80,100,-18.25,37,48.0,147.0,-1026.0,16:41:43.264702,192.168.0.112
1875,-1,-100,-100,-100,"0,0,0",2,-6,109,0,0,0,62,64,82,80,100,-18.15,37,54.0,138.0,-985.0,16:41:43.369235,192.168.0.112
1880,-1,-100,-100,-100,"0,0,0",2,-6,109,0,0,0,62,64,83,80,100,-18.45,37,32.0,103.0,-984.0,16:41:43.468688,192.168.0.112
1885,-1,-100,-100,-100,"0,0,0",2,-6,109,0,0,0,62,64,83,80,100,-18.12,37,1.0,112.0,-944.0,16:41:43.570801,192.168.0.112
1890,-1,-100,-100,-100,"0,0,0",3,-6,110,0,0,0,62,64,84,80,100,-18.39,37,66.0,118.0,-1007.0,16:41:43.675064,192.168.0.112
1895,-1,-100,-100,-100,"0,0,0",2,-7,110,0,0,0,62,64,84,80,100,-18.4,37,20.0,175.0,-957.0,16:41:43.774770,192.168.0.112
1900,-1,-100,-100,-100,"0,0,0",3,-8,110,0,0,0,62,64,84,80,100,-18.21,37,64.0,116.0,-966.0,16:41:43.877389,192.168.0.112
1904,-1,-100,-100,-100,"0,0,0",3,-7,110,0,0,0,62,64,84,80,100,-18.08,38,54.0,143.0,-928.0,16:41:43.927738,192.168.0.112
1909,-1,-100,-100,-100,"0,0,0",3,-7,110,0,0,0,62,64,83,80,100,-18.37,38,0.0,161.0,-1056.0,16:41:44.029896,192.168.0.112
1915,-1,-100,-100,-100,"0,0,0",3,-7,110,0,0,0,62,64,82,80,100,-18.3,38,6.0,186.0,-918.0,16:41:44.131700,192.168.0.112
1920,-1,-100,-100,-100,"0,0,0",3,-6,110,0,0,0,62,64,82,80,100,-18.3,38,34.0,114.0,-992.0,16:41:44.233758,192.168.0.112
1925,-1,-100,-100,-100,"0,0,0",3,-8,110,0,0,0,62,64,82,80,100,-18.14,38,-6.0,160.0,-961.0,16:41:44.335907,192.168.0.112
1930,-1,-100,-100,-100,"0,0,0",2,-8,110,0,0,0,62,64,82,80,100,-18.16,38,37.0,155.0,-1046.0,16:41:44.437882,192.168.0.112
1935,-1,-100,-100,-100,"0,0,0",2,-8,110,0,0,0,62,64,82,80,100,-18.41,38,83.0,107.0,-988.0,16:41:44.540626,192.168.0.112
1940,-1,-100,-100,-100,"0,0,0",2,-8,110,0,0,0,62,64,82,80,100,-18.39,38,24.0,106.0,-905.0,16:41:44.642825,192.168.0.112
1945,-1,-100,-100,-100,"0,0,0",4,-6,110,0,0,0,62,64,81,80,100,-18.35,38,44.0,98.0,-1002.0,16:41:44.744637,192.168.0.112
1950,-1,-100,-100,-100,"0,0,0",4,-5,110,0,0,0,62,64,81,80,100,-18.34,38,54.0,113.0,-1018.0,16:41:44.846729,192.168.0.112
1955,-1,-100,-100,-100,"0,0,0",3,-5,110,0,0,0,62,64,81,80,100,-18.37,39,80.0,135.0,-977.0,16:41:44.948693,192.168.0.112
1960,-1,-100,-100,-100,"0,0,0",4,-5,110,0,0,0,62,64,81,80,100,-18.56,39,58.0,138.0,-1065.0,16:41:45.050982,192.168.0.112
1965,-1,-100,-100,-100,"0,0,0",3,-6,110,0,0,0,62,64,81,80,100,-18.42,39,63.0,132.0,-911.0,16:41:45.152951,192.168.0.112
1970,-1,-100,-100,-100,"0,0,0",4,-6,110,0,0,0,62,64,82,80,100,-18.3,39,20.0,116.0,-1022.0,16:41:45.255460,192.168.0.112
1975,-1,-100,-100,-100,"0,0,0",4,-7,109,0,0,0,62,64,81,80,100,-18.34,39,65.0,152.0,-940.0,16:41:45.356780,192.168.0.112
1980,-1,-100,-100,-100,"0,0,0",3,-6,109,0,0,0,62,64,82,80,100,-18.29,39,38.0,143.0,-1031.0,16:41:45.458929,192.168.0.112
1985,-1,-100,-100,-100,"0,0,0",2,-9,109,0,1,0,62,64,82,80,100,-18.31,39,19.0,146.0,-980.0,16:41:45.560737,192.168.0.112
1990,-1,-100,-100,-100,"0,0,0",1,-9,110,0,1,0,62,64,82,80,100,-18.36,39,58.0,113.0,-961.0,16:41:45.662838,192.168.0.112
1995,-1,-100,-100,-100,"0,0,0",1,-8,110,0,0,0,62,64,81,80,100,-18.27,39,55.0,61.0,-1007.0,16:41:45.764545,192.168.0.112
2000,-1,-100,-100,-100,"0,0,0",2,-6,109,0,0,0,62,64,81,80,100,-18.14,39,20.0,116.0,-951.0,16:41:45.866514,192.168.0.112
2005,-1,-100,-100,-100,"0,0,0",2,-6,109,0,0,0,62,64,81,80,100,-18.43,40,39.0,125.0,-972.0,16:41:45.968736,192.168.0.112
2010,-1,-100,-100,-100,"0,0,0",1,-9,109,0,0,0,62,64,81,80,100,-18.36,40,15.0,113.0,-1050.0,16:41:46.070763,192.168.0.112
2015,-1,-100,-100,-100,"0,0,0",1,-6,109,0,0,0,62,64,81,80,100,-18.63,40,19.0,161.0,-1005.0,16:41:46.172798,192.168.0.112
2020,-1,-100,-100,-100,"0,0,0",0,-6,110,0,0,0,62,64,81,80,100,-18.31,40,29.0,111.0,-971.0,16:41:46.274717,192.168.0.112
2025,-1,-100,-100,-100,"0,0,0",0,-8,110,0,0,0,62,64,81,80,100,-18.28,40,12.0,155.0,-1063.0,16:41:46.377320,192.168.0.112
2030,-1,-100,-100,-100,"0,0,0",1,-7,110,0,0,0,62,64,81,80,100,-18.29,40,13.0,114.0,-994.0,16:41:46.478771,192.168.0.112
2035,-1,-100,-100,-100,"0,0,0",1,-7,110,0,0,0,62,64,81,80,100,-18.26,40,35.0,145.0,-957.0,16:41:46.580777,192.168.0.112
2040,-1,-100,-100,-100,"0,0,0",1,-5,110,0,0,0,62,64,82,80,100,-18.33,40,62.0,129.0,-949.0,16:41:46.683035,192.168.0.112
2045,-1,-100,-100,-100,"0,0,0",2,-6,110,0,0,0,62,64,81,80,100,-18.34,40,58.0,145.0,-978.0,16:41:46.787384,192.168.0.112
2050,-1,-100,-100,-100,"0,0,0",3,-7,110,0,0,0,62,64,82,80,100,-18.69,40,47.0,158.0,-996.0,16:41:46.886940,192.168.0.112
2054,-1,-100,-100,-100,"0,0,0",2,-8,110,0,0,0,62,64,83,80,100,-18.4,41,48.0,184.0,-991.0,16:41:46.939483,192.168.0.112
2059,-1,-100,-100,-100,"0,0,0",3,-8,110,0,0,0,62,64,82,80,100,-18.22,41,42.0,123.0,-980.0,16:41:47.039868,192.168.0.112
2064,-1,-100,-100,-100,"0,0,0",3,-8,110,0,0,0,62,64,82,80,100,-18.31,41,75.0,123.0,-951.0,16:41:47.143223,192.168.0.112
2069,-1,-100,-100,-100,"0,0,0",4,-7,110,0,0,0,62,64,82,80,100,-18.48,41,88.0,97.0,-989.0,16:41:47.244087,192.168.0.112
2074,-1,-100,-100,-100,"0,0,0",4,-7,109,0,0,0,62,64,82,80,100,-18.31,41,23.0,140.0,-965.0,16:41:47.345900,192.168.0.112
2080,-1,-100,-100,-100,"0,0,0",3,-5,109,0,0,0,62,64,82,80,100,-18.42,41,31.0,114.0,-995.0,16:41:47.448482,192.168.0.112
2085,-1,-100,-100,-100,"0,0,0",1,-9,109,0,0,0,62,63,83,80,100,-18.42,41,15.0,186.0,-1015.0,16:41:47.551977,192.168.0.112
2090,-1,-100,-100,-100,"0,0,0",1,-10,109,0,0,0,62,63,83,80,100,-18.41,41,39.0,122.0,-1052.0,16:41:47.651846,192.168.0.112
2095,-1,-100,-100,-100,"0,0,0",2,-9,110,0,0,0,62,63,83,80,100,-18.41,41,47.0,145.0,-945.0,16:41:47.753972,192.168.0.112
2100,-1,-100,-100,-100,"0,0,0",2,-8,109,0,0,0,62,63,84,80,100,-18.6,42,8.0,128.0,-1060.0,16:41:47.855936,192.168.0.112
2105,-1,-100,-100,-100,"0,0,0",2,-9,110,0,0,0,62,63,84,80,100,-18.25,42,38.0,118.0,-1004.0,16:41:47.957804,192.168.0.112
2110,-1,-100,-100,-100,"0,0,0",2,-10,110,0,0,0,62,63,84,80,100,-18.53,42,91.0,83.0,-1084.0,16:41:48.060005,192.168.0.112
2115,-1,-100,-100,-100,"0,0,0",2,-7,110,0,0,0,62,63,84,80,100,-18.6,42,83.0,71.0,-1024.0,16:41:48.161958,192.168.0.112
2120,-1,-100,-100,-100,"0,0,0",3,-6,110,0,0,0,62,63,83,80,100,-18.48,42,100.0,108.0,-956.0,16:41:48.266283,192.168.0.112
2125,-1,-100,-100,-100,"0,0,0",4,-5,110,0,0,0,62,63,84,80,100,-18.36,42,30.0,184.0,-967.0,16:41:48.365954,192.168.0.112
2130,-1,-100,-100,-100,"0,0,0",4,-6,110,0,0,0,62,63,84,80,100,-18.59,42,22.0,133.0,-981.0,16:41:48.467780,192.168.0.112
2135,-1,-100,-100,-100,"0,0,0",3,-7,110,0,0,0,62,64,84,80,100,-18.4,42,76.0,113.0,-955.0,16:41:48.569989,192.168.0.112
2140,-1,-100,-100,-100,"0,0,0",3,-6,110,0,0,0,62,64,83,80,99,-18.28,42,72.0,143.0,-1034.0,16:41:48.671714,192.168.0.112
2145,-1,-100,-100,-100,"0,0,0",4,-7,110,0,0,0,62,64,83,80,99,-18.2,42,63.0,138.0,-968.0,16:41:48.773901,192.168.0.112
2150,-1,-100,-100,-100,"0,0,0",4,-8,110,0,0,0,62,64,84,80,99,-18.46,43,65.0,133.0,-971.0,16:41:48.876016,192.168.0.112
2155,-1,-100,-100,-100,"0,0,0",4,-8,110,0,0,0,62,64,84,80,99,-18.54,43,61.0,180.0,-991.0,16:41:48.977782,192.168.0.112
2160,-1,-100,-100,-100,"0,0,0",4,-8,109,0,0,0,62,64,84,80,99,-18.37,43,15.0,158.0,-987.0,16:41:49.080126,192.168.0.112
2165,-1,-100,-100,-100,"0,0,0",3,-7,109,0,0,0,62,64,84,80,99,-18.43,43,42.0,148.0,-965.0,16:41:49.181904,192.168.0.112
2170,-1,-100,-100,-100,"0,0,0",3,-9,110,0,0,0,62,64,83,80,99,-18.38,43,25.0,154.0,-1008.0,16:41:49.285649,192.168.0.112
2175,-1,-100,-100,-100,"0,0,0",3,-8,110,0,0,0,62,64,84,80,99,-18.59,43,79.0,92.0,-1018.0,16:41:49.385891,192.168.0.112
2180,-1,-100,-100,-100,"0,0,0",3,-7,110,0,0,0,62,64,84,80,99,-18.52,43,59.0,123.0,-990.0,16:41:49.487890,192.168.0.112
2185,-1,-100,-100,-100,"0,0,0",4,-5,110,0,0,0,62,65,83,80,99,-18.39,43,54.0,128.0,-960.0,16:41:49.589900,192.168.0.112
2190,-1,-100,-100,-100,"0,0,0",4,-6,110,0,0,0,62,65,83,80,99,-18.65,43,53.0,152.0,-1002.0,16:41:49.691789,192.168.0.112
2195,-1,-100,-100,-100,"0,0,0",3,-6,110,0,0,0,62,65,83,80,99,-18.64,43,55.0,152.0,-1024.0,16:41:49.793951,192.168.0.112
2200,-1,-100,-100,-100,"0,0,0",4,-7,110,0,0,0,62,65,83,80,99,-18.39,44,39.0,169.0,-952.0,16:41:49.895806,192.168.0.112
2205,-1,-100,-100,-100,"0,0,0",3,-7,110,0,0,0,62,65,83,80,99,-18.45,44,117.0,161.0,-948.0,16:41:49.997940,192.168.0.112
2210,-1,-100,-100,-100,"0,0,0",4,-8,109,0,0,0,62,65,83,80,99,-18.49,44,52.0,139.0,-978.0,16:41:50.100034,192.168.0.112
2215,-1,-100,-100,-100,"0,0,0",4,-8,109,0,0,0,62,65,83,80,99,-18.43,44,53.0,141.0,-985.0,16:41:50.202791,192.168.0.112
2220,-1,-100,-100,-100,"0,0,0",4,-7,110,0,0,0,62,65,82,80,99,-18.05,44,43.0,169.0,-895.0,16:41:50.304879,192.168.0.112
2224,-1,-100,-100,-100,"0,0,0",4,-6,110,0,0,0,62,65,82,80,99,-18.46,44,75.0,129.0,-1026.0,16:41:50.356141,192.168.0.112
2229,-1,-100,-100,-100,"0,0,0",4,-8,110,0,0,0,62,65,82,80,99,-18.42,44,-16.0,174.0,-952.0,16:41:50.458017,192.168.0.112
2235,-1,-100,-100,-100,"0,0,0",4,-9,109,0,0,0,62,64,82,80,99,-18.21,44,90.0,144.0,-988.0,16:41:50.615549,192.168.0.112
2240,-1,-100,-100,-100,"0,0,0",3,-9,110,0,0,0,62,64,82,80,98,-18.3,44,20.0,130.0,-1024.0,16:41:50.712751,192.168.0.112
2244,-1,-100,-100,-100,"0,0,0",2,-8,110,0,0,0,62,64,82,80,98,-18.6,44,64.0,150.0,-996.0,16:41:50.763453,192.168.0.112
2250,-1,-100,-100,-100,"0,0,0",2,-7,110,0,0,0,62,64,82,80,98,-18.2,45,66.0,140.0,-981.0,16:41:50.865980,192.168.0.112
2255,-1,-100,-100,-100,"0,0,0",2,-7,110,0,0,0,62,64,82,80,98,-18.21,45,64.0,128.0,-938.0,16:41:50.968071,192.168.0.112
2260,-1,-100,-100,-100,"0,0,0",2,-8,110,0,0,0,62,64,82,80,98,-18.47,45,39.0,159.0,-1018.0,16:41:51.070079,192.168.0.112
2265,-1,-100,-100,-100,"0,0,0",3,-7,110,0,0,0,62,64,82,80,98,-18.51,45,64.0,181.0,-951.0,16:41:51.171688,192.168.0.112
2270,-1,-100,-100,-100,"0,0,0",3,-8,109,0,0,0,62,64,82,80,98,-18.36,45,1.0,142.0,-989.0,16:41:51.278423,192.168.0.112
2275,-1,-100,-100,-100,"0,0,0",3,-6,109,0,0,0,62,64,81,80,98,-18.62,45,36.0,183.0,-1088.0,16:41:51.375885,192.168.0.112
2280,-1,-100,-100,-100,"0,0,0",1,-10,109,0,0,0,62,64,82,80,98,-18.71,45,46.0,188.0,-973.0,16:41:51.479161,192.168.0.112
2285,-1,-100,-100,-100,"0,0,0",2,-10,109,0,0,0,62,64,84,80,98,-18.29,45,39.0,166.0,-977.0,16:41:51.580015,192.168.0.112
2290,-1,-100,-100,-100,"0,0,0",1,-10,109,0,0,0,62,64,83,80,98,-18.48,45,47.0,142.0,-1005.0,16:41:51.682041,192.168.0.112
2295,-1,-100,-100,-100,"0,0,0",1,-9,109,0,0,0,62,64,83,80,98,-18.43,45,25.0,208.0,-971.0,16:41:51.784212,192.168.0.112
2300,-1,-100,-100,-100,"0,0,0",2,-9,109,0,0,0,62,64,83,80,98,-18.3,46,57.0,161.0,-978.0,16:41:51.886039,192.168.0.112
2305,-1,-100,-100,-100,"0,0,0",1,-10,110,0,0,0,62,64,83,80,98,-18.34,46,79.0,149.0,-977.0,16:41:51.988065,192.168.0.112
2310,-1,-100,-100,-100,"0,0,0",1,-10,110,0,0,0,62,64,84,80,98,-18.27,46,22.0,146.0,-994.0,16:41:52.089965,192.168.0.112
2315,-1,-100,-100,-100,"0,0,0",2,-9,109,0,0,0,62,64,83,80,98,-18.44,46,11.0,176.0,-999.0,16:41:52.191780,192.168.0.112
2320,-1,-100,-100,-100,"0,0,0",1,-8,109,0,0,0,62,64,83,80,98,-18.32,46,9.0,146.0,-994.0,16:41:52.293895,192.168.0.112
2325,-1,-100,-100,-100,"0,0,0",0,-8,110,0,0,0,62,64,82,80,98,-18.23,46,25.0,192.0,-905.0,16:41:52.395906,192.168.0.112
2330,-1,-100,-100,-100,"0,0,0",1,-9,110,0,0,0,62,64,82,80,98,-18.2,46,28.0,156.0,-952.0,16:41:52.498006,192.168.0.112
2335,-1,-100,-100,-100,"0,0,0",1,-9,110,0,0,0,62,63,82,80,98,-18.35,46,58.0,144.0,-981.0,16:41:52.599893,192.168.0.112
2340,-1,-100,-100,-100,"0,0,0",0,-10,110,0,0,0,62,63,82,80,97,-18.22,46,11.0,160.0,-1012.0,16:41:52.701922,192.168.0.112
2345,-1,-100,-100,-100,"0,0,0",1,-10,110,0,0,0,62,63,81,80,97,-18.25,46,53.0,118.0,-1026.0,16:41:52.804054,192.168.0.112
2350,-1,-100,-100,-100,"0,0,0",1,-9,110,0,0,0,62,63,81,80,97,-18.16,47,101.0,62.0,-1012.0,16:41:52.906448,192.168.0.112
2355,-1,-100,-100,-100,"0,0,0",1,-7,110,-1,-1,0,62,63,81,80,97,-18.55,47,96.0,89.0,-1011.0,16:41:53.007960,192.168.0.112
2360,-1,-100,-100,-100,"0,0,0",4,-5,110,-1,-1,0,62,63,81,80,97,-18.39,47,120.0,62.0,-963.0,16:41:53.110172,192.168.0.112
2365,-1,-100,-100,-100,"0,0,0",5,-2,110,-1,-1,0,62,63,81,80,97,-18.44,47,9.0,158.0,-979.0,16:41:53.212158,192.168.0.112
2370,-1,-100,-100,-100,"0,0,0",5,-3,109,0,0,0,62,63,81,80,97,-18.52,47,-25.0,135.0,-1058.0,16:41:53.316430,192.168.0.112
2375,-1,-100,-100,-100,"0,0,0",2,-6,109,0,0,0,62,63,81,80,97,-18.22,47,38.0,99.0,-948.0,16:41:53.416798,192.168.0.112
2380,-1,-100,-100,-100,"0,0,0",1,-4,108,0,0,0,62,63,81,80,97,-18.33,47,-38.0,163.0,-1047.0,16:41:53.519387,192.168.0.112
2385,-1,-100,-100,-100,"0,0,0",1,-6,106,0,1,0,62,63,82,80,97,-18.73,47,13.0,133.0,-1047.0,16:41:53.622109,192.168.0.112
2390,-1,-100,-100,-100,"0,0,0",0,-9,108,0,0,0,62,63,83,80,97,-18.57,47,77.0,71.0,-917.0,16:41:53.724038,192.168.0.112
2395,-1,-100,-100,-100,"0,0,0",1,-7,109,0,0,0,62,63,83,80,97,-18.65,47,30.0,74.0,-944.0,16:41:53.826396,192.168.0.112
2400,-1,-100,-100,-100,"0,0,0",1,-7,109,0,0,0,62,63,83,80,97,-18.55,48,14.0,100.0,-964.0,16:41:53.874911,192.168.0.112
2404,-1,-100,-100,-100,"0,0,0",2,-5,110,0,0,0,62,63,83,80,97,-18.65,48,7.0,165.0,-986.0,16:41:53.977079,192.168.0.112
2409,-1,-100,-100,-100,"0,0,0",0,-7,110,0,0,0,62,63,84,80,97,-18.16,48,28.0,155.0,-943.0,16:41:54.078892,192.168.0.112
2414,-1,-100,-100,-100,"0,0,0",1,-7,109,0,0,0,62,63,84,80,97,-18.48,48,65.0,110.0,-991.0,16:41:54.180866,192.168.0.112
2419,-1,-100,-100,-100,"0,0,0",2,-5,109,0,0,0,62,63,83,80,97,-18.36,48,5.0,146.0,-997.0,16:41:54.282900,192.168.0.112
2425,-1,-100,-100,-100,"0,0,0",2,-7,109,0,0,0,62,63,83,80,97,-18.31,48,34.0,125.0,-974.0,16:41:54.384956,192.168.0.112
2430,-1,-100,-100,-100,"0,0,0",1,-7,110,0,0,0,62,63,83,80,97,-18.58,48,37.0,102.0,-1066.0,16:41:54.486810,192.168.0.112
2435,-1,-100,-100,-100,"0,0,0",3,-6,110,0,0,0,61,63,83,80,97,-18.25,48,1.0,132.0,-1015.0,16:41:54.588859,192.168.0.112
2440,-1,-100,-100,-100,"0,0,0",1,-6,110,0,0,0,61,63,83,80,96,-18.52,48,70.0,141.0,-1033.0,16:41:54.691774,192.168.0.112
2445,-1,-100,-100,-100,"0,0,0",3,-6,110,0,0,0,61,63,83,80,96,-18.27,48,37.0,129.0,-969.0,16:41:54.792805,192.168.0.112
2450,-1,-100,-100,-100,"0,0,0",4,-5,110,0,0,0,61,63,84,80,96,-18.48,49,58.0,114.0,-987.0,16:41:54.894858,192.168.0.112
2455,-1,-100,-100,-100,"0,0,0",3,-4,110,0,0,0,61,63,83,80,96,-18.4,49,68.0,114.0,-1003.0,16:41:54.996842,192.168.0.112
2460,-1,-100,-100,-100,"0,0,0",3,-6,110,0,0,0,61,63,84,80,96,-18.64,49,66.0,142.0,-997.0,16:41:55.099353,192.168.0.112
2465,-1,-100,-100,-100,"0,0,0",3,-7,110,0,0,0,61,63,84,80,96,-18.36,49,17.0,150.0,-921.0,16:41:55.200919,192.168.0.112
2470,-1,-100,-100,-100,"0,0,0",3,-7,109,0,0,0,61,63,85,80,96,-18.37,49,3.0,166.0,-940.0,16:41:55.302736,192.168.0.112
2475,-1,-100,-100,-100,"0,0,0",1,-8,110,0,0,0,61,63,85,80,96,-18.48,49,14.0,193.0,-1010.0,16:41:55.404880,192.168.0.112
2480,-1,-100,-100,-100,"0,0,0",1,-9,110,0,0,0,61,63,86,80,96,-18.27,49,74.0,88.0,-943.0,16:41:55.506808,192.168.0.112
2485,-1,-100,-100,-100,"0,0,0",2,-8,109,0,0,0,62,63,85,80,96,-18.23,49,16.0,153.0,-942.0,16:41:55.608919,192.168.0.112
2490,-1,-100,-100,-100,"0,0,0",2,-9,110,0,0,0,62,63,85,80,96,-18.28,49,47.0,131.0,-967.0,16:41:55.711890,192.168.0.112
2495,-1,-100,-100,-100,"0,0,0",2,-8,110,0,0,0,62,63,84,80,96,-18.37,49,33.0,154.0,-1014.0,16:41:55.813741,192.168.0.112
2500,-1,-100,-100,-100,"0,0,0",1,-9,110,0,0,0,62,63,85,80,96,-18.34,50,45.0,133.0,-957.0,16:41:55.916075,192.168.0.112
2505,-1,-100,-100,-100,"0,0,0",1,-9,109,0,0,0,62,63,84,80,96,-18.17,50,14.0,131.0,-1003.0,16:41:56.018221,192.168.0.112
