,mid,x,y,z,mpry,pitch,roll,yaw,vgx,vgy,vgz,templ,temph,tof,h,bat,baro,time,agx,agy,agz,timestamp,address
3,-1,-100,-100,-100,"0,0,0",0,0,0,0,0,0,57,60,10,0,100,-17.24,0,0.0,-3.0,-999.0,11:23:07.677090,192.168.0.112
9,-1,-100,-100,-100,"0,0,0",0,0,0,0,0,0,57,60,10,0,100,-17.23,0,2.0,-4.0,-999.0,11:23:07.778388,192.168.0.112
14,-1,-100,-100,-100,"0,0,0",0,0,0,0,0,0,57,60,10,0,100,-17.23,0,2.0,-6.0,-1004.0,11:23:07.880414,192.168.0.112
19,-1,-100,-100,-100,"0,0,0",0,0,0,0,0,0,57,60,10,0,100,-17.23,0,0.0,-5.0,-994.0,11:23:07.982848,192.168.0.112
24,-1,-100,-100,-100,"0,0,0",0,0,0,0,0,0,57,60,10,0,100,-17.23,0,2.0,-6.0,-984.0,11:23:08.084380,192.168.0.112
26,-1,-100,-100,-100,"0,0,0",0,0,0,0,0,0,57,60,10,0,100,-17.23,0,-23.0,-20.0,-1001.0,11:23:08.135505,192.168.0.112
30,-1,-100,-100,-100,"0,0,0",0,0,0,0,0,0,57,60,10,0,100,-17.23,0,-12.0,8.0,-1077.0,11:23:08.237252,192.168.0.112
36,-1,-100,-100,-100,"0,0,0",0,0,1,0,0,0,57,60,10,0,100,-17.23,0,-31.0,2.0,-1243.0,11:23:08.339078,192.168.0.112
41,-1,-100,-100,-100,"0,0,0",0,0,1,0,0,3,57,60,10,0,100,-17.23,0,-44.0,6.0,-1334.0,11:23:08.441621,192.168.0.112
46,-1,-100,-100,-100,"0,0,0",0,0,1,0,0,6,57,60,16,0,100,-17.16,0,-16.0,-39.0,-1158.0,11:23:08.543554,192.168.0.112
51,-1,-100,-100,-100,"0,0,0",0,0,1,0,0,7,58,60,21,0,100,-16.91,0,-38.0,-28.0,-1034.0,11:23:08.645460,192.168.0.112
57,-1,-100,-100,-100,"0,0,0",-2,0,1,0,0,7,58,60,31,10,100,-16.82,0,-29.0,-24.0,-954.0,11:23:08.747632,192.168.0.112
62,-1,-100,-100,-100,"0,0,0",-2,1,1,0,0,7,58,60,40,20,100,-16.66,0,-52.0,0.0,-931.0,11:23:08.849557,192.168.0.112
67,-1,-100,-100,-100,"0,0,0",-2,1,1,0,0,6,58,60,47,20,100,-16.66,1,-53.0,16.0,-908.0,11:23:08.951611,192.168.0.112
72,-1,-100,-100,-100,"0,0,0",-2,0,1,1,0,5,58,60,54,30,100,-16.56,1,-32.0,5.0,-892.0,11:23:09.053494,192.168.0.112
76,-1,-100,-100,-100,"0,0,0",-3,0,1,1,0,4,58,60,60,30,100,-16.52,1,-27.0,14.0,-901.0,11:23:09.155321,192.168.0.112
82,-1,-100,-100,-100,"0,0,0",-5,-1,1,1,0,3,58,60,64,40,100,-16.41,1,-21.0,26.0,-931.0,11:23:09.257509,192.168.0.112
86,-1,-100,-100,-100,"0,0,0",-4,-1,0,0,0,2,58,60,69,40,100,-16.39,1,-19.0,35.0,-928.0,11:23:09.359949,192.168.0.112
92,-1,-100,-100,-100,"0,0,0",-4,-1,0,0,0,2,58,60,73,40,100,-16.28,1,-10.0,40.0,-936.0,11:23:09.461541,192.168.0.112
98,-1,-100,-100,-100,"0,0,0",-3,-2,1,0,0,1,58,60,75,40,100,-16.23,1,-13.0,34.0,-973.0,11:23:09.563456,192.168.0.112
103,-1,-100,-100,-100,"0,0,0",-2,-2,0,0,0,1,58,61,78,50,100,-16.35,1,-30.0,33.0,-975.0,11:23:09.665539,192.168.0.112
108,-1,-100,-100,-100,"0,0,0",-2,-2,0,0,0,1,58,61,81,50,100,-16.36,1,-31.0,28.0,-946.0,11:23:09.767017,192.168.0.112
112,-1,-100,-100,-100,"0,0,0",-3,-2,0,0,0,0,58,61,83,50,100,-16.37,1,-33.0,23.0,-968.0,11:23:09.869259,192.168.0.112
118,-1,-100,-100,-100,"0,0,0",-3,-2,0,0,0,0,58,61,85,50,100,-16.32,2,-53.0,7.0,-973.0,11:23:09.971227,192.168.0.112
123,-1,-100,-100,-100,"0,0,0",-2,-2,0,0,0,0,58,61,87,50,100,-16.35,2,-32.0,-1.0,-1002.0,11:23:10.073597,192.168.0.112
128,-1,-100,-100,-100,"0,0,0",-3,-1,1,0,0,0,58,61,88,50,100,-16.25,2,-39.0,20.0,-955.0,11:23:10.175051,192.168.0.112
133,-1,-100,-100,-100,"0,0,0",-3,0,1,0,0,0,58,61,90,60,100,-16.28,2,-35.0,30.0,-972.0,11:23:10.276978,192.168.0.112
138,-1,-100,-100,-100,"0,0,0",-3,0,1,0,0,0,58,61,90,60,100,-16.31,2,-31.0,37.0,-982.0,11:23:10.380055,192.168.0.112
144,-1,-100,-100,-100,"0,0,0",-3,-1,1,0,0,0,58,61,92,60,100,-16.3,2,-51.0,39.0,-975.0,11:23:10.481285,192.168.0.112
149,-1,-100,-100,-100,"0,0,0",-3,-1,1,0,0,0,58,61,92,60,100,-16.25,2,-38.0,37.0,-982.0,11:23:10.583427,192.168.0.112
154,-1,-100,-100,-100,"0,0,0",-3,-1,0,0,0,0,57,61,92,60,100,-16.33,2,-44.0,20.0,-989.0,11:23:10.684692,192.168.0.112
156,-1,-100,-100,-100,"0,0,0",-3,-2,0,0,0,0,57,61,93,60,100,-16.43,2,-47.0,13.0,-989.0,11:23:10.736314,192.168.0.112
161,-1,-100,-100,-100,"0,0,0",-2,-1,0,0,0,0,57,61,93,60,100,-16.3,2,-48.0,28.0,-961.0,11:23:10.838265,192.168.0.112
166,-1,-100,-100,-100,"0,0,0",-3,-1,0,0,0,0,57,61,93,60,100,-16.25,3,-11.0,17.0,-982.0,11:23:10.940195,192.168.0.112
171,-1,-100,-100,-100,"0,0,0",-3,-1,0,0,0,0,57,61,92,60,100,-16.33,3,-29.0,15.0,-980.0,11:23:11.042131,192.168.0.112
176,-1,-100,-100,-100,"0,0,0",-3,-1,0,0,0,0,57,61,92,60,100,-16.29,3,-34.0,15.0,-986.0,11:23:11.144444,192.168.0.112
181,-1,-100,-100,-100,"0,0,0",-2,-1,0,0,0,-1,57,61,91,60,100,-16.15,3,-43.0,12.0,-988.0,11:23:11.246336,192.168.0.112
186,-1,-100,-100,-100,"0,0,0",-2,0,1,0,0,0,57,61,89,60,100,-16.27,3,-25.0,29.0,-995.0,11:23:11.348204,192.168.0.112
191,-1,-100,-100,-100,"0,0,0",-2,0,1,0,0,-1,57,61,89,60,100,-16.25,3,-10.0,28.0,-998.0,11:23:11.450149,192.168.0.112
196,-1,-100,-100,-100,"0,0,0",-2,-1,1,0,0,0,57,61,88,60,100,-16.25,3,-11.0,39.0,-1007.0,11:23:11.551903,192.168.0.112
201,-1,-100,-100,-100,"0,0,0",-2,-1,1,0,0,0,58,61,87,60,100,-16.21,3,-7.0,29.0,-985.0,11:23:11.761946,192.168.0.112
206,-1,-100,-100,-100,"0,0,0",-1,-1,1,-1,0,0,58,61,87,60,100,-16.3,3,-8.0,37.0,-998.0,11:23:11.762775,192.168.0.112
211,-1,-100,-100,-100,"0,0,0",-1,-2,1,-1,0,0,58,61,85,60,100,-16.36,3,-4.0,29.0,-1003.0,11:23:11.968658,192.168.0.112
217,-1,-100,-100,-100,"0,0,0",0,-1,1,-1,0,0,58,61,85,60,100,-16.43,4,2.0,35.0,-1003.0,11:23:11.970132,192.168.0.112
221,-1,-100,-100,-100,"0,0,0",0,-1,1,-1,0,0,58,61,84,60,100,-16.4,4,0.0,7.0,-996.0,11:23:12.174732,192.168.0.112
228,-1,-100,-100,-100,"0,0,0",0,-1,0,0,0,0,58,61,84,60,100,-16.39,4,-36.0,20.0,-990.0,11:23:12.175726,192.168.0.112
232,-1,-100,-100,-100,"0,0,0",0,-1,0,0,0,0,58,61,83,60,100,-16.5,4,-1.0,17.0,-1000.0,11:23:12.266014,192.168.0.112
238,-1,-100,-100,-100,"0,0,0",-1,-1,0,0,0,0,58,61,83,60,100,-16.44,4,-8.0,14.0,-997.0,11:23:12.368358,192.168.0.112
242,-1,-100,-100,-100,"0,0,0",-1,-1,0,0,0,0,58,61,82,60,100,-16.55,4,-8.0,18.0,-1004.0,11:23:12.583578,192.168.0.112
248,-1,-100,-100,-100,"0,0,0",-1,-1,0,0,0,0,58,61,81,50,100,-16.47,4,-10.0,18.0,-997.0,11:23:12.584540,192.168.0.112
252,-1,-100,-100,-100,"0,0,0",-1,-1,0,0,0,0,58,61,81,50,100,-16.45,4,-31.0,24.0,-1013.0,11:23:12.787371,192.168.0.112
258,-1,-100,-100,-100,"0,0,0",-1,-1,0,0,0,0,58,61,81,50,100,-16.4,4,-12.0,23.0,-1010.0,11:23:12.789320,192.168.0.112
264,-1,-100,-100,-100,"0,0,0",-1,-1,0,0,0,0,58,61,81,50,100,-16.36,4,-9.0,26.0,-1002.0,11:23:12.992471,192.168.0.112
269,-1,-100,-100,-100,"0,0,0",-1,-1,1,0,0,0,58,61,81,50,100,-16.44,5,-3.0,16.0,-1017.0,11:23:12.992722,192.168.0.112
273,-1,-100,-100,-100,"0,0,0",-1,-1,1,0,0,0,58,61,81,50,100,-16.41,5,0.0,29.0,-1010.0,11:23:13.199039,192.168.0.112
279,-1,-100,-100,-100,"0,0,0",-1,0,1,0,0,0,58,61,81,50,100,-16.45,5,11.0,23.0,-1007.0,11:23:13.200817,192.168.0.112
280,-1,-100,-100,-100,"0,0,0",0,0,1,0,0,0,58,61,80,50,100,-16.37,5,14.0,21.0,-1008.0,11:23:13.235016,192.168.0.112
285,-1,-100,-100,-100,"0,0,0",0,-1,1,0,0,0,58,61,81,50,100,-16.35,5,20.0,17.0,-1008.0,11:23:13.405503,192.168.0.112
290,-1,-100,-100,-100,"0,0,0",0,-1,1,0,0,0,58,61,81,50,100,-16.38,5,16.0,17.0,-993.0,11:23:13.438913,192.168.0.112
295,-1,-100,-100,-100,"0,0,0",0,-1,1,0,0,0,58,61,82,50,100,-16.38,5,2.0,26.0,-1006.0,11:23:13.612256,192.168.0.112
301,-1,-100,-100,-100,"0,0,0",0,-1,1,0,0,0,58,61,82,50,100,-16.43,5,17.0,30.0,-995.0,11:23:13.643130,192.168.0.112
305,-1,-100,-100,-100,"0,0,0",0,-1,1,0,0,0,58,61,82,50,100,-16.41,5,21.0,19.0,-993.0,11:23:13.829433,192.168.0.112
310,-1,-100,-100,-100,"0,0,0",0,-1,1,0,0,0,58,61,82,50,100,-16.37,5,32.0,6.0,-1000.0,11:23:13.847176,192.168.0.112
315,-1,-100,-100,-100,"0,0,0",0,-1,1,-1,0,0,58,61,83,50,100,-16.38,6,33.0,0.0,-995.0,11:23:13.948954,192.168.0.112
320,-1,-100,-100,-100,"0,0,0",1,0,1,-1,0,0,58,61,82,50,100,-16.31,6,24.0,19.0,-1008.0,11:23:14.051196,192.168.0.112
325,-1,-100,-100,-100,"0,0,0",1,0,1,0,0,0,58,61,82,50,100,-16.29,6,36.0,9.0,-1003.0,11:23:14.153055,192.168.0.112
331,-1,-100,-100,-100,"0,0,0",1,0,1,0,0,0,58,61,83,50,100,-16.35,6,33.0,29.0,-985.0,11:23:14.257329,192.168.0.112
335,-1,-100,-100,-100,"0,0,0",1,0,1,0,0,0,58,61,83,50,100,-16.32,6,27.0,25.0,-1012.0,11:23:14.357219,192.168.0.112
341,-1,-100,-100,-100,"0,0,0",1,0,1,0,0,0,58,61,83,60,100,-16.28,6,22.0,34.0,-996.0,11:23:14.460120,192.168.0.112
345,-1,-100,-100,-100,"0,0,0",1,-1,1,0,0,0,58,61,83,60,100,-16.38,6,38.0,16.0,-988.0,11:23:14.560661,192.168.0.112
352,-1,-100,-100,-100,"0,0,0",1,-1,0,0,0,0,58,62,83,60,100,-16.24,6,21.0,38.0,-1001.0,11:23:14.662938,192.168.0.112
357,-1,-100,-100,-100,"0,0,0",1,-1,0,0,0,0,58,62,84,60,100,-16.33,6,25.0,20.0,-1013.0,11:23:14.765143,192.168.0.112
362,-1,-100,-100,-100,"0,0,0",0,-2,0,0,0,0,58,62,83,60,100,-16.35,6,22.0,28.0,-1003.0,11:23:14.868148,192.168.0.112
367,-1,-100,-100,-100,"0,0,0",0,-1,0,0,0,0,58,62,83,60,100,-16.37,7,28.0,16.0,-988.0,11:23:14.969231,192.168.0.112
372,-1,-100,-100,-100,"0,0,0",0,-1,0,0,0,0,58,62,84,60,100,-16.3,7,17.0,33.0,-993.0,11:23:15.071388,192.168.0.112
377,-1,-100,-100,-100,"0,0,0",0,-1,0,0,0,0,58,62,83,60,100,-16.2,7,40.0,24.0,-996.0,11:23:15.173674,192.168.0.112
383,-1,-100,-100,-100,"0,0,0",0,-2,0,0,0,0,58,62,83,60,100,-16.25,7,5.0,49.0,-1014.0,11:23:15.274925,192.168.0.112
387,-1,-100,-100,-100,"0,0,0",0,-2,0,0,0,0,58,62,83,60,100,-16.21,7,22.0,29.0,-998.0,11:23:15.377015,192.168.0.112
394,-1,-100,-100,-100,"0,0,0",0,-2,0,0,0,0,58,62,83,60,100,-16.26,7,28.0,24.0,-1002.0,11:23:15.478969,192.168.0.112
399,-1,-100,-100,-100,"0,0,0",0,-2,0,0,0,0,58,62,84,60,100,-16.18,7,37.0,18.0,-973.0,11:23:15.581198,192.168.0.112
404,-1,-100,-100,-100,"0,0,0",0,-2,0,0,0,0,58,61,84,60,100,-16.24,7,29.0,23.0,-992.0,11:23:15.682909,192.168.0.112
409,-1,-100,-100,-100,"0,0,0",0,-1,0,0,0,0,58,61,84,60,100,-16.31,7,31.0,13.0,-978.0,11:23:15.784807,192.168.0.112
414,-1,-100,-100,-100,"0,0,0",0,-1,1,0,0,0,58,61,84,60,100,-16.24,7,17.0,20.0,-966.0,11:23:15.887514,192.168.0.112
419,-1,-100,-100,-100,"0,0,0",1,-1,1,0,0,0,58,61,84,60,100,-16.27,8,14.0,22.0,-998.0,11:23:15.989408,192.168.0.112
424,-1,-100,-100,-100,"0,0,0",1,0,1,0,0,0,58,61,85,60,100,-16.35,8,21.0,18.0,-1015.0,11:23:16.091128,192.168.0.112
425,-1,-100,-100,-100,"0,0,0",1,0,1,0,0,0,58,61,85,60,100,-16.26,8,28.0,15.0,-1006.0,11:23:16.142181,192.168.0.112
430,-1,-100,-100,-100,"0,0,0",1,0,0,0,0,0,58,61,84,60,100,-16.29,8,20.0,27.0,-995.0,11:23:16.243953,192.168.0.112
435,-1,-100,-100,-100,"0,0,0",1,0,1,0,0,0,58,61,84,60,100,-16.27,8,31.0,16.0,-993.0,11:23:16.345981,192.168.0.112
440,-1,-100,-100,-100,"0,0,0",1,0,1,0,0,0,58,61,84,60,100,-16.36,8,25.0,12.0,-981.0,11:23:16.447478,192.168.0.112
445,-1,-100,-100,-100,"0,0,0",1,0,1,0,0,0,58,61,85,60,100,-16.26,8,27.0,4.0,-989.0,11:23:16.549882,192.168.0.112
450,-1,-100,-100,-100,"0,0,0",1,0,1,0,0,0,59,62,84,60,100,-16.29,8,35.0,4.0,-988.0,11:23:16.652197,192.168.0.112
455,-1,-100,-100,-100,"0,0,0",1,0,1,0,0,0,59,62,85,60,100,-16.32,8,42.0,0.0,-1001.0,11:23:16.753828,192.168.0.112
460,-1,-100,-100,-100,"0,0,0",1,0,1,0,0,0,59,62,84,60,100,-16.22,8,33.0,-4.0,-1010.0,11:23:16.855964,192.168.0.112
465,-1,-100,-100,-100,"0,0,0",1,0,1,0,0,0,59,62,84,60,100,-16.22,9,40.0,-11.0,-1001.0,11:23:16.957623,192.168.0.112
470,-1,-100,-100,-100,"0,0,0",1,0,1,0,0,0,59,62,84,60,100,-16.2,9,37.0,-15.0,-1007.0,11:23:17.059619,192.168.0.112
475,-1,-100,-100,-100,"0,0,0",1,1,1,0,0,0,59,62,84,60,100,-16.22,9,41.0,-11.0,-999.0,11:23:17.162203,192.168.0.112
480,-1,-100,-100,-100,"0,0,0",1,0,0,0,0,0,59,62,84,60,100,-16.24,9,31.0,-12.0,-997.0,11:23:17.264409,192.168.0.112
485,-1,-100,-100,-100,"0,0,0",1,1,0,0,0,0,59,62,84,60,100,-16.17,9,46.0,-31.0,-989.0,11:23:17.366801,192.168.0.112
491,-1,-100,-100,-100,"0,0,0",1,1,1,0,0,0,59,62,83,60,100,-16.11,9,28.0,-25.0,-974.0,11:23:17.471696,192.168.0.112
495,-1,-100,-100,-100,"0,0,0",1,1,0,0,0,0,59,62,83,60,100,-16.06,9,34.0,-18.0,-1012.0,11:23:17.573294,192.168.0.112
500,-1,-100,-100,-100,"0,0,0",0,1,0,0,0,0,59,62,84,60,100,-16.04,9,6.0,-16.0,-1021.0,11:23:17.673936,192.168.0.112
505,-1,-100,-100,-100,"0,0,0",0,1,0,0,0,0,59,62,84,60,100,-16.16,9,11.0,-9.0,-998.0,11:23:17.776385,192.168.0.112
512,-1,-100,-100,-100,"0,0,0",0,1,0,0,0,0,59,62,83,60,100,-16.2,9,15.0,0.0,-1017.0,11:23:17.878252,192.168.0.112
518,-1,-100,-100,-100,"0,0,0",0,0,0,0,0,0,59,62,83,60,100,-16.17,10,16.0,1.0,-1029.0,11:23:17.977837,192.168.0.112
522,-1,-100,-100,-100,"0,0,0",0,0,0,0,0,0,59,62,84,60,100,-16.23,10,16.0,-2.0,-991.0,11:23:18.080010,192.168.0.112
527,-1,-100,-100,-100,"0,0,0",0,0,0,0,0,0,59,62,83,60,100,-16.17,10,25.0,5.0,-1002.0,11:23:18.181851,192.168.0.112
533,-1,-100,-100,-100,"0,0,0",0,0,0,0,0,0,59,62,83,60,100,-16.32,10,19.0,2.0,-1011.0,11:23:18.284006,192.168.0.112
538,-1,-100,-100,-100,"0,0,0",0,0,0,0,0,0,59,62,83,60,100,-16.23,10,4.0,5.0,-1003.0,11:23:18.390498,192.168.0.112
543,-1,-100,-100,-100,"0,0,0",0,0,0,0,0,0,59,62,82,60,100,-16.21,10,15.0,-8.0,-969.0,11:23:18.488148,192.168.0.112
548,-1,-100,-100,-100,"0,0,0",0,0,0,0,0,0,59,62,84,60,100,-16.2,10,0.0,13.0,-1004.0,11:23:18.590162,192.168.0.112
553,-1,-100,-100,-100,"0,0,0",0,0,0,0,0,0,59,61,83,60,100,-16.23,10,1.0,15.0,-975.0,11:23:18.692276,192.168.0.112
559,-1,-100,-100,-100,"0,0,0",0,0,0,0,0,0,59,61,83,60,100,-16.15,10,-3.0,3.0,-978.0,11:23:18.793633,192.168.0.112
564,-1,-100,-100,-100,"0,0,0",0,0,0,0,0,0,59,61,83,60,100,-16.13,11,0.0,30.0,-979.0,11:23:18.895659,192.168.0.112
569,-1,-100,-100,-100,"0,0,0",0,-1,0,0,0,0,59,61,82,50,100,-16.13,11,11.0,12.0,-1008.0,11:23:18.997748,192.168.0.112
574,-1,-100,-100,-100,"0,0,0",0,-1,0,0,0,0,59,61,82,50,100,-16.22,11,22.0,15.0,-1019.0,11:23:19.099728,192.168.0.112
579,-1,-100,-100,-100,"0,0,0",0,-1,0,0,0,0,59,61,82,50,100,-16.11,11,13.0,8.0,-980.0,11:23:19.201930,192.168.0.112
584,-1,-100,-100,-100,"0,0,0",0,-1,0,0,0,0,59,61,82,50,100,-16.13,11,25.0,-8.0,-1019.0,11:23:19.304392,192.168.0.112
589,-1,-100,-100,-100,"0,0,0",0,0,0,0,0,0,59,61,81,50,100,-16.18,11,10.0,9.0,-1024.0,11:23:19.406213,192.168.0.112
590,-1,-100,-100,-100,"0,0,0",0,0,0,0,0,0,59,61,81,50,100,-16.23,11,9.0,-14.0,-1014.0,11:23:19.456839,192.168.0.112
595,-1,-100,-100,-100,"0,0,0",0,0,0,0,0,0,59,61,81,50,100,-16.14,11,0.0,-5.0,-1005.0,11:23:19.559055,192.168.0.112
600,-1,-100,-100,-100,"0,0,0",0,0,0,0,0,0,58,62,81,50,100,-16.21,11,11.0,8.0,-1033.0,11:23:19.660935,192.168.0.112
605,-1,-100,-100,-100,"0,0,0",0,0,1,0,0,0,58,62,80,50,100,-16.21,11,14.0,-11.0,-1013.0,11:23:19.762745,192.168.0.112
610,-1,-100,-100,-100,"0,0,0",0,0,1,0,0,0,58,62,81,50,100,-16.13,12,6.0,-14.0,-994.0,11:23:19.864842,192.168.0.112
615,-1,-100,-100,-100,"0,0,0",0,0,1,0,0,0,58,62,81,50,100,-16.17,12,-2.0,0.0,-984.0,11:23:19.966380,192.168.0.112
620,-1,-100,-100,-100,"0,0,0",0,0,1,0,0,0,58,62,81,50,100,-16.19,12,-11.0,9.0,-1011.0,11:23:20.068851,192.168.0.112
625,-1,-100,-100,-100,"0,0,0",0,0,1,0,0,0,58,62,80,50,100,-16.11,12,0.0,5.0,-1010.0,11:23:20.170791,192.168.0.112
630,-1,-100,-100,-100,"0,0,0",0,0,1,0,0,0,58,62,81,50,100,-16.16,12,8.0,5.0,-998.0,11:23:20.272761,192.168.0.112
635,-1,-100,-100,-100,"0,0,0",0,0,1,0,0,0,58,62,81,50,100,-16.12,12,17.0,16.0,-1008.0,11:23:20.374822,192.168.0.112
640,-1,-100,-100,-100,"0,0,0",0,0,1,0,0,0,58,62,81,50,100,-16.13,12,29.0,9.0,-1005.0,11:23:20.476692,192.168.0.112
646,-1,-100,-100,-100,"0,0,0",0,0,1,0,0,0,58,62,81,50,100,-16.15,12,16.0,10.0,-1006.0,11:23:20.578973,192.168.0.112
652,-1,-100,-100,-100,"0,0,0",0,0,1,0,0,0,59,62,80,50,100,-16.15,12,16.0,1.0,-996.0,11:23:20.680720,192.168.0.112
656,-1,-100,-100,-100,"0,0,0",0,0,1,0,0,0,59,62,81,50,100,-16.18,12,0.0,3.0,-986.0,11:23:20.782716,192.168.0.112
662,-1,-100,-100,-100,"0,0,0",0,0,1,0,0,0,59,62,81,50,100,-16.06,13,-13.0,13.0,-970.0,11:23:20.885112,192.168.0.112
668,-1,-100,-100,-100,"0,0,0",0,0,0,0,0,0,59,62,81,50,100,-16.08,13,-7.0,23.0,-973.0,11:23:20.986587,192.168.0.112
672,-1,-100,-100,-100,"0,0,0",0,0,0,0,0,0,59,62,80,50,100,-16.14,13,6.0,13.0,-981.0,11:23:21.088690,192.168.0.112
677,-1,-100,-100,-100,"0,0,0",0,0,0,0,0,0,59,62,80,50,100,-15.96,13,-9.0,13.0,-966.0,11:23:21.190777,192.168.0.112
682,-1,-100,-100,-100,"0,0,0",0,0,0,0,0,0,59,62,79,50,100,-16.0,13,-16.0,16.0,-1015.0,11:23:21.293009,192.168.0.112
687,-1,-100,-100,-100,"0,0,0",0,-1,0,0,0,0,59,62,79,50,100,-16.07,13,-12.0,14.0,-1015.0,11:23:21.395141,192.168.0.112
693,-1,-100,-100,-100,"0,0,0",0,-1,0,0,0,0,59,62,79,50,100,-16.12,13,10.0,25.0,-993.0,11:23:21.496720,192.168.0.112
698,-1,-100,-100,-100,"0,0,0",-1,0,0,0,0,0,59,62,78,50,100,-16.15,13,-11.0,11.0,-1005.0,11:23:21.599656,192.168.0.112
703,-1,-100,-100,-100,"0,0,0",-1,0,0,0,0,0,59,62,78,50,100,-16.09,13,9.0,21.0,-1035.0,11:23:21.701172,192.168.0.112
707,-1,-100,-100,-100,"0,0,0",-1,0,0,0,0,0,59,62,79,50,100,-16.0,13,-8.0,21.0,-973.0,11:23:21.803795,192.168.0.112
713,-1,-100,-100,-100,"0,0,0",-1,-1,1,0,0,0,59,62,78,50,100,-16.07,14,0.0,17.0,-1002.0,11:23:21.904907,192.168.0.112
718,-1,-100,-100,-100,"0,0,0",0,-1,1,0,0,0,59,62,78,50,100,-16.13,14,-1.0,23.0,-1005.0,11:23:22.007363,192.168.0.112
723,-1,-100,-100,-100,"0,0,0",0,-1,1,0,0,0,59,62,79,50,100,-16.06,14,13.0,17.0,-1005.0,11:23:22.108597,192.168.0.112
728,-1,-100,-100,-100,"0,0,0",0,-1,1,0,0,0,59,62,78,50,100,-16.14,14,23.0,26.0,-1006.0,11:23:22.210596,192.168.0.112
734,-1,-100,-100,-100,"0,0,0",0,-1,1,0,0,0,59,62,78,50,100,-16.1,14,1.0,27.0,-991.0,11:23:22.313070,192.168.0.112
739,-1,-100,-100,-100,"0,0,0",0,-1,1,0,0,0,59,62,79,50,100,-16.13,14,9.0,31.0,-994.0,11:23:22.414962,192.168.0.112
744,-1,-100,-100,-100,"0,0,0",0,-1,1,0,0,0,59,62,79,50,100,-16.13,14,20.0,12.0,-1017.0,11:23:22.516844,192.168.0.112
749,-1,-100,-100,-100,"0,0,0",0,-1,1,0,0,0,59,62,79,50,100,-16.0,14,25.0,6.0,-992.0,11:23:22.618882,192.168.0.112
753,-1,-100,-100,-100,"0,0,0",0,0,1,0,0,0,60,62,79,50,100,-16.08,14,3.0,6.0,-991.0,11:23:22.720625,192.168.0.112
758,-1,-100,-100,-100,"0,0,0",0,0,1,0,0,0,60,62,79,50,100,-16.04,14,2.0,5.0,-994.0,11:23:22.822666,192.168.0.112
764,-1,-100,-100,-100,"0,0,0",0,0,1,0,0,0,60,62,79,50,100,-16.08,15,10.0,10.0,-1010.0,11:23:22.924800,192.168.0.112
765,-1,-100,-100,-100,"0,0,0",0,0,0,0,0,0,60,62,79,50,100,-16.1,15,9.0,9.0,-974.0,11:23:22.975657,192.168.0.112
770,-1,-100,-100,-100,"0,0,0",0,0,0,0,0,0,60,62,79,50,100,-15.96,15,19.0,-4.0,-997.0,11:23:23.079914,192.168.0.112
775,-1,-100,-100,-100,"0,0,0",0,0,0,0,0,0,60,62,79,50,100,-16.05,15,6.0,1.0,-957.0,11:23:23.180278,192.168.0.112
780,-1,-100,-100,-100,"0,0,0",0,0,0,0,0,0,60,62,80,50,100,-16.11,15,3.0,-10.0,-1017.0,11:23:23.281355,192.168.0.112
785,-1,-100,-100,-100,"0,0,0",0,0,0,0,0,0,60,62,79,50,100,-16.0,15,6.0,-14.0,-973.0,11:23:23.383444,192.168.0.112
790,-1,-100,-100,-100,"0,0,0",0,0,0,0,0,0,60,62,78,50,100,-16.05,15,18.0,17.0,-1008.0,11:23:23.485291,192.168.0.112
795,-1,-100,-100,-100,"0,0,0",0,0,0,0,0,0,60,62,78,50,100,-16.07,15,16.0,7.0,-1046.0,11:23:23.587269,192.168.0.112
800,-1,-100,-100,-100,"0,0,0",0,0,0,0,0,0,60,62,78,50,100,-16.11,15,30.0,3.0,-984.0,11:23:23.689306,192.168.0.112
806,-1,-100,-100,-100,"0,0,0",0,0,1,0,0,0,60,62,78,50,100,-16.15,15,23.0,37.0,-1050.0,11:23:23.791641,192.168.0.112
811,-1,-100,-100,-100,"0,0,0",0,0,1,0,0,0,60,62,77,50,100,-16.2,16,12.0,14.0,-1047.0,11:23:23.893549,192.168.0.112
816,-1,-100,-100,-100,"0,0,0",0,0,1,0,0,0,60,62,77,50,100,-16.13,16,40.0,-6.0,-1029.0,11:23:23.995620,192.168.0.112
821,-1,-100,-100,-100,"0,0,0",0,0,1,0,0,0,60,62,77,50,100,-16.16,16,36.0,-4.0,-997.0,11:23:24.097853,192.168.0.112
827,-1,-100,-100,-100,"0,0,0",0,0,1,0,0,0,60,62,78,50,100,-16.04,16,35.0,-1.0,-1001.0,11:23:24.199892,192.168.0.112
832,-1,-100,-100,-100,"0,0,0",0,0,1,0,0,0,60,62,78,50,100,-16.17,16,18.0,0.0,-1019.0,11:23:24.301471,192.168.0.112
837,-1,-100,-100,-100,"0,0,0",0,0,1,0,0,0,60,62,78,50,100,-16.09,16,20.0,0.0,-1003.0,11:23:24.403650,192.168.0.112
842,-1,-100,-100,-100,"0,0,0",0,0,1,0,0,0,60,62,78,50,100,-16.08,16,49.0,-4.0,-1006.0,11:23:24.505760,192.168.0.112
848,-1,-100,-100,-100,"0,0,0",0,0,1,0,0,0,60,62,78,50,100,-16.07,16,41.0,-1.0,-1001.0,11:23:24.608021,192.168.0.112
853,-1,-100,-100,-100,"0,0,0",0,0,1,0,0,0,60,62,78,50,100,-16.14,16,33.0,-2.0,-991.0,11:23:24.709534,192.168.0.112
858,-1,-100,-100,-100,"0,0,0",0,0,1,0,0,0,60,62,79,50,100,-16.06,16,36.0,-10.0,-1000.0,11:23:24.811568,192.168.0.112
863,-1,-100,-100,-100,"0,0,0",0,0,1,0,0,0,60,62,78,50,100,-16.1,17,13.0,6.0,-989.0,11:23:24.914132,192.168.0.112
868,-1,-100,-100,-100,"0,0,0",0,0,1,0,0,0,60,62,79,50,100,-16.11,17,11.0,23.0,-979.0,11:23:25.015785,192.168.0.112
873,-1,-100,-100,-100,"0,0,0",0,0,1,0,0,0,60,62,80,50,100,-16.07,17,37.0,-10.0,-999.0,11:23:25.119515,192.168.0.112
878,-1,-100,-100,-100,"0,0,0",0,0,1,0,0,0,60,62,79,50,100,-16.05,17,29.0,-7.0,-1001.0,11:23:25.220040,192.168.0.112
883,-1,-100,-100,-100,"0,0,0",0,0,1,0,0,0,60,62,80,50,100,-16.08,17,36.0,11.0,-1015.0,11:23:25.322532,192.168.0.112
888,-1,-100,-100,-100,"0,0,0",0,0,1,0,0,0,60,62,80,50,100,-16.08,17,33.0,6.0,-1024.0,11:23:25.423451,192.168.0.112
893,-1,-100,-100,-100,"0,0,0",0,0,1,0,0,0,60,62,80,50,100,-16.1,17,15.0,-1.0,-1014.0,11:23:25.525718,192.168.0.112
899,-1,-100,-100,-100,"0,0,0",0,0,1,0,0,0,60,62,80,50,100,-16.08,17,19.0,14.0,-997.0,11:23:25.628137,192.168.0.112
903,-1,-100,-100,-100,"0,0,0",0,0,1,0,0,0,60,62,81,50,100,-16.11,17,19.0,3.0,-1000.0,11:23:25.729689,192.168.0.112
909,-1,-100,-100,-100,"0,0,0",0,0,1,0,0,0,60,62,81,50,100,-16.19,17,17.0,11.0,-996.0,11:23:25.833328,192.168.0.112
914,-1,-100,-100,-100,"0,0,0",0,0,1,0,0,0,60,62,81,50,100,-16.09,18,40.0,-2.0,-990.0,11:23:25.934398,192.168.0.112
919,-1,-100,-100,-100,"0,0,0",0,0,1,0,0,0,60,62,80,50,100,-16.06,18,12.0,3.0,-999.0,11:23:26.035895,192.168.0.112
920,-1,-100,-100,-100,"0,0,0",0,0,1,0,0,0,60,62,82,50,100,-16.09,18,18.0,0.0,-1007.0,11:23:26.088381,192.168.0.112
925,-1,-100,-100,-100,"0,0,0",0,0,1,0,0,0,60,62,81,50,100,-16.06,18,29.0,2.0,-994.0,11:23:26.188549,192.168.0.112
930,-1,-100,-100,-100,"0,0,0",0,0,1,0,0,0,60,62,81,50,100,-16.06,18,17.0,19.0,-991.0,11:23:26.290543,192.168.0.112
935,-1,-100,-100,-100,"0,0,0",0,0,1,0,0,0,60,62,81,50,100,-16.04,18,32.0,11.0,-990.0,11:23:26.392823,192.168.0.112
940,-1,-100,-100,-100,"0,0,0",0,0,1,0,0,0,60,62,80,50,100,-15.97,18,28.0,14.0,-1003.0,11:23:26.494505,192.168.0.112
945,-1,-100,-100,-100,"0,0,0",0,0,1,0,0,0,60,62,81,50,100,-15.96,18,11.0,21.0,-993.0,11:23:26.596577,192.168.0.112
950,-1,-100,-100,-100,"0,0,0",0,0,1,0,0,0,60,62,80,50,100,-16.0,18,34.0,9.0,-994.0,11:23:26.698393,192.168.0.112
955,-1,-100,-100,-100,"0,0,0",0,0,1,0,0,0,60,62,80,50,100,-15.97,18,25.0,21.0,-1003.0,11:23:26.800715,192.168.0.112
960,-1,-100,-100,-100,"0,0,0",0,0,1,0,0,0,60,62,81,50,100,-15.99,19,33.0,16.0,-1003.0,11:23:26.902703,192.168.0.112
965,-1,-100,-100,-100,"0,0,0",0,-1,1,0,0,0,60,62,80,50,100,-15.97,19,35.0,9.0,-999.0,11:23:27.004524,192.168.0.112
971,-1,-100,-100,-100,"0,0,0",0,-1,1,0,0,0,60,62,80,50,100,-16.02,19,16.0,18.0,-1002.0,11:23:27.106486,192.168.0.112
976,-1,-100,-100,-100,"0,0,0",0,-1,1,0,0,0,60,62,80,50,100,-16.04,19,26.0,12.0,-1005.0,11:23:27.208821,192.168.0.112
981,-1,-100,-100,-100,"0,0,0",0,-1,1,0,0,0,60,62,80,50,100,-16.01,19,17.0,9.0,-1003.0,11:23:27.310679,192.168.0.112
986,-1,-100,-100,-100,"0,0,0",0,0,1,0,0,0,60,62,81,50,100,-15.99,19,18.0,14.0,-996.0,11:23:27.412486,192.168.0.112
992,-1,-100,-100,-100,"0,0,0",0,0,1,0,0,0,60,62,81,50,100,-15.99,19,30.0,-4.0,-989.0,11:23:27.515194,192.168.0.112
997,-1,-100,-100,-100,"0,0,0",0,0,1,0,0,0,60,62,82,50,100,-16.11,19,15.0,17.0,-992.0,11:23:27.616865,192.168.0.112
1002,-1,-100,-100,-100,"0,0,0",0,0,1,0,0,0,60,63,81,50,100,-16.08,19,25.0,4.0,-987.0,11:23:27.718844,192.168.0.112
1007,-1,-100,-100,-100,"0,0,0",0,0,1,0,0,0,60,63,81,50,100,-16.08,19,14.0,9.0,-981.0,11:23:27.820997,192.168.0.112
1013,-1,-100,-100,-100,"0,0,0",0,0,1,0,0,0,60,63,81,50,100,-16.06,20,16.0,14.0,-996.0,11:23:27.922790,192.168.0.112
1017,-1,-100,-100,-100,"0,0,0",0,0,1,0,0,0,60,63,81,50,100,-16.09,20,44.0,-14.0,-1000.0,11:23:28.024534,192.168.0.112
1022,-1,-100,-100,-100,"0,0,0",0,0,1,0,0,0,60,63,81,50,100,-16.11,20,20.0,6.0,-1000.0,11:23:28.127080,192.168.0.112
1027,-1,-100,-100,-100,"0,0,0",0,0,1,0,0,0,60,63,81,50,100,-16.1,20,27.0,6.0,-1006.0,11:23:28.228787,192.168.0.112
1033,-1,-100,-100,-100,"0,0,0",0,0,1,0,0,0,60,63,81,50,100,-16.07,20,35.0,-12.0,-985.0,11:23:28.331085,192.168.0.112
1038,-1,-100,-100,-100,"0,0,0",0,0,1,0,0,0,60,63,81,50,100,-16.13,20,9.0,9.0,-1006.0,11:23:28.432732,192.168.0.112
1043,-1,-100,-100,-100,"0,0,0",0,0,1,0,0,0,60,63,81,50,100,-16.1,20,25.0,-6.0,-990.0,11:23:28.534852,192.168.0.112
1048,-1,-100,-100,-100,"0,0,0",0,0,1,0,0,0,60,63,81,50,100,-16.08,20,27.0,4.0,-996.0,11:23:28.637685,192.168.0.112
1053,-1,-100,-100,-100,"0,0,0",0,0,1,0,0,0,61,63,82,50,100,-16.1,20,12.0,3.0,-1007.0,11:23:28.738753,192.168.0.112
1058,-1,-100,-100,-100,"0,0,0",0,0,1,0,0,0,61,63,81,50,100,-16.05,20,17.0,-3.0,-986.0,11:23:28.840509,192.168.0.112
1063,-1,-100,-100,-100,"0,0,0",0,0,1,0,0,0,61,63,81,50,100,-16.09,21,12.0,-1.0,-1006.0,11:23:28.942447,192.168.0.112
1068,-1,-100,-100,-100,"0,0,0",0,0,1,0,0,0,61,63,82,50,100,-16.1,21,16.0,8.0,-1006.0,11:23:29.045088,192.168.0.112
1074,-1,-100,-100,-100,"0,0,0",0,0,1,0,0,0,61,63,81,50,100,-16.05,21,18.0,1.0,-998.0,11:23:29.146460,192.168.0.112
1079,-1,-100,-100,-100,"0,0,0",0,0,1,0,0,0,61,63,81,50,100,-16.12,21,18.0,5.0,-993.0,11:23:29.248498,192.168.0.112
1084,-1,-100,-100,-100,"0,0,0",0,0,1,0,0,0,61,63,81,50,100,-16.08,21,30.0,-12.0,-986.0,11:23:29.350329,192.168.0.112
1089,-1,-100,-100,-100,"0,0,0",0,0,1,0,0,0,61,63,81,50,100,-16.15,21,11.0,11.0,-1004.0,11:23:29.452270,192.168.0.112
1094,-1,-100,-100,-100,"0,0,0",0,0,1,0,0,0,61,63,81,50,100,-16.17,21,8.0,4.0,-1005.0,11:23:29.554760,192.168.0.112
1095,-1,-100,-100,-100,"0,0,0",0,0,1,0,0,0,61,63,81,50,100,-16.07,21,20.0,-8.0,-1007.0,11:23:29.605445,192.168.0.112
1100,-1,-100,-100,-100,"0,0,0",0,0,1,0,0,0,60,63,81,50,100,-16.01,21,32.0,-19.0,-1004.0,11:23:29.707228,192.168.0.112
1105,-1,-100,-100,-100,"0,0,0",0,0,1,0,0,0,60,63,81,50,100,-16.09,21,16.0,-4.0,-997.0,11:23:29.809760,192.168.0.112
1110,-1,-100,-100,-100,"0,0,0",0,0,1,0,0,0,60,63,80,50,100,-16.17,22,13.0,13.0,-1004.0,11:23:29.911418,192.168.0.112
1115,-1,-100,-100,-100,"0,0,0",0,0,1,0,0,0,60,63,81,50,100,-16.15,22,19.0,-8.0,-1006.0,11:23:30.013605,192.168.0.112
1120,-1,-100,-100,-100,"0,0,0",0,0,1,0,0,0,60,63,80,50,100,-16.18,22,15.0,7.0,-1001.0,11:23:30.115539,192.168.0.112
1126,-1,-100,-100,-100,"0,0,0",0,0,1,0,0,0,60,63,81,50,100,-16.07,22,16.0,3.0,-1001.0,11:23:30.217525,192.168.0.112
1131,-1,-100,-100,-100,"0,0,0",0,0,1,0,0,0,60,63,80,50,100,-16.06,22,23.0,-11.0,-1003.0,11:23:30.319423,192.168.0.112
1136,-1,-100,-100,-100,"0,0,0",0,0,1,0,0,0,60,63,80,50,100,-16.11,22,25.0,-16.0,-999.0,11:23:30.428016,192.168.0.112
1141,-1,-100,-100,-100,"0,0,0",0,0,1,0,0,0,60,63,80,50,100,-16.08,22,31.0,0.0,-1001.0,11:23:30.523522,192.168.0.112
1145,-1,-100,-100,-100,"0,0,0",0,0,1,0,0,0,60,63,80,50,100,-16.11,22,29.0,-7.0,-1005.0,11:23:30.625190,192.168.0.112
1151,-1,-100,-100,-100,"0,0,0",0,0,1,0,0,0,60,63,80,50,100,-16.11,22,33.0,-6.0,-999.0,11:23:30.727072,192.168.0.112
1156,-1,-100,-100,-100,"0,0,0",0,0,1,0,0,0,60,63,81,50,100,-16.09,22,20.0,-2.0,-991.0,11:23:30.829248,192.168.0.112
1161,-1,-100,-100,-100,"0,0,0",0,0,1,0,0,0,60,63,80,50,100,-16.18,23,20.0,-4.0,-1002.0,11:23:30.931241,192.168.0.112
1166,-1,-100,-100,-100,"0,0,0",0,0,1,0,0,0,60,63,81,50,100,-16.09,23,17.0,2.0,-997.0,11:23:31.033570,192.168.0.112
1172,-1,-100,-100,-100,"0,0,0",0,0,1,0,0,0,60,63,80,50,100,-16.16,23,23.0,15.0,-1001.0,11:23:31.135399,192.168.0.112
1177,-1,-100,-100,-100,"0,0,0",0,0,1,0,0,0,60,63,81,50,100,-16.12,23,29.0,-4.0,-1000.0,11:23:31.237710,192.168.0.112
1182,-1,-100,-100,-100,"0,0,0",0,0,1,0,0,0,60,63,81,50,100,-16.15,23,21.0,4.0,-994.0,11:23:31.339326,192.168.0.112
1187,-1,-100,-100,-100,"0,0,0",0,0,1,0,0,0,60,63,80,50,100,-16.15,23,34.0,0.0,-987.0,11:23:31.441457,192.168.0.112
1192,-1,-100,-100,-100,"0,0,0",0,0,0,0,0,0,60,63,80,50,100,-16.15,23,26.0,5.0,-998.0,11:23:31.543304,192.168.0.112
1196,-1,-100,-100,-100,"0,0,0",0,0,0,0,0,0,60,63,80,50,100,-16.24,23,29.0,5.0,-1001.0,11:23:31.646224,192.168.0.112
1203,-1,-100,-100,-100,"0,0,0",0,0,0,0,0,0,60,63,80,50,100,-16.17,23,32.0,-4.0,-995.0,11:23:31.747259,192.168.0.112
1208,-1,-100,-100,-100,"0,0,0",0,0,0,0,0,0,60,63,80,50,100,-16.19,23,15.0,19.0,-1010.0,11:23:31.849102,192.168.0.112
1213,-1,-100,-100,-100,"0,0,0",0,0,1,0,0,0,60,63,81,50,100,-16.19,24,23.0,1.0,-999.0,11:23:31.951237,192.168.0.112
1218,-1,-100,-100,-100,"0,0,0",0,0,1,0,0,0,60,63,80,50,100,-16.18,24,42.0,-4.0,-1009.0,11:23:32.053344,192.168.0.112
1222,-1,-100,-100,-100,"0,0,0",0,0,1,0,0,0,60,63,80,50,100,-16.12,24,48.0,-10.0,-1005.0,11:23:32.155186,192.168.0.112
1228,-1,-100,-100,-100,"0,0,0",0,0,1,0,0,0,60,63,80,50,100,-16.23,24,31.0,1.0,-997.0,11:23:32.257235,192.168.0.112
1234,-1,-100,-100,-100,"0,0,0",0,0,1,0,0,0,60,63,80,50,100,-16.17,24,24.0,13.0,-1008.0,11:23:32.359332,192.168.0.112
1239,-1,-100,-100,-100,"0,0,0",0,0,1,0,0,0,60,63,80,50,100,-16.22,24,22.0,2.0,-1005.0,11:23:32.461466,192.168.0.112
1244,-1,-100,-100,-100,"0,0,0",0,0,1,0,0,0,60,63,80,50,100,-16.24,24,25.0,2.0,-1006.0,11:23:32.563701,192.168.0.112
1249,-1,-100,-100,-100,"0,0,0",0,0,1,0,0,0,60,63,80,50,100,-16.18,24,22.0,-4.0,-998.0,11:23:32.665213,192.168.0.112
1254,-1,-100,-100,-100,"0,0,0",0,0,1,0,0,0,60,63,80,50,100,-16.24,24,34.0,1.0,-1003.0,11:23:32.767530,192.168.0.112
1259,-1,-100,-100,-100,"0,0,0",0,0,1,0,0,0,60,63,80,50,100,-16.16,24,31.0,-7.0,-1000.0,11:23:32.869131,192.168.0.112
1264,-1,-100,-100,-100,"0,0,0",0,0,0,0,0,0,60,63,80,50,100,-16.17,25,26.0,0.0,-999.0,11:23:32.971415,192.168.0.112
1269,-1,-100,-100,-100,"0,0,0",0,0,0,0,0,0,60,63,80,50,100,-16.19,25,29.0,-1.0,-991.0,11:23:33.074764,192.168.0.112
1270,-1,-100,-100,-100,"0,0,0",0,0,0,0,0,0,60,63,80,50,100,-16.14,25,30.0,-3.0,-992.0,11:23:33.124316,192.168.0.112
1275,-1,-100,-100,-100,"0,0,0",0,0,0,0,0,0,60,63,80,50,100,-16.14,25,44.0,-4.0,-999.0,11:23:33.227411,192.168.0.112
1280,-1,-100,-100,-100,"0,0,0",0,0,0,0,0,0,60,63,80,50,100,-16.18,25,32.0,0.0,-1000.0,11:23:33.328338,192.168.0.112
1285,-1,-100,-100,-100,"0,0,0",0,0,0,0,0,0,60,63,80,50,100,-16.17,25,37.0,-4.0,-1008.0,11:23:33.430328,192.168.0.112
1290,-1,-100,-100,-100,"0,0,0",0,0,0,0,0,0,60,63,80,50,100,-16.13,25,21.0,10.0,-1013.0,11:23:33.532483,192.168.0.112
1295,-1,-100,-100,-100,"0,0,0",0,0,0,0,0,0,60,63,80,50,100,-16.21,25,23.0,15.0,-1000.0,11:23:33.634278,192.168.0.112
1300,-1,-100,-100,-100,"0,0,0",0,0,0,0,0,0,61,63,80,50,100,-16.12,25,21.0,8.0,-1002.0,11:23:33.738036,192.168.0.112
1305,-1,-100,-100,-100,"0,0,0",0,0,0,0,0,0,61,63,80,50,100,-16.12,25,-5.0,21.0,-989.0,11:23:33.838549,192.168.0.112
1310,-1,-100,-100,-100,"0,0,0",0,0,0,0,0,0,61,63,80,50,100,-16.2,26,-1.0,16.0,-1001.0,11:23:33.940344,192.168.0.112
1315,-1,-100,-100,-100,"0,0,0",0,0,0,0,0,0,61,63,80,50,100,-16.2,26,18.0,0.0,-998.0,11:23:34.042421,192.168.0.112
1321,-1,-100,-100,-100,"0,0,0",0,0,0,0,0,0,61,63,80,50,100,-16.21,26,8.0,8.0,-997.0,11:23:34.144057,192.168.0.112
1326,-1,-100,-100,-100,"0,0,0",0,0,1,0,0,0,61,63,80,50,100,-16.15,26,13.0,13.0,-1001.0,11:23:34.246367,192.168.0.112
1331,-1,-100,-100,-100,"0,0,0",0,0,1,0,0,0,61,63,80,50,100,-16.19,26,28.0,3.0,-998.0,11:23:34.348327,192.168.0.112
1336,-1,-100,-100,-100,"0,0,0",0,0,1,0,0,0,61,63,80,50,100,-16.2,26,29.0,0.0,-995.0,11:23:34.450341,192.168.0.112
1341,-1,-100,-100,-100,"0,0,0",0,0,1,0,0,0,61,63,80,50,100,-16.12,26,31.0,-2.0,-998.0,11:23:34.552450,192.168.0.112
1346,-1,-100,-100,-100,"0,0,0",0,0,1,0,0,0,61,63,80,50,100,-16.15,26,27.0,2.0,-1005.0,11:23:34.654351,192.168.0.112
1351,-1,-100,-100,-100,"0,0,0",0,0,1,0,0,0,60,63,80,50,100,-16.22,26,23.0,7.0,-998.0,11:23:34.756347,192.168.0.112
1356,-1,-100,-100,-100,"0,0,0",0,0,1,0,0,0,60,63,80,50,100,-16.16,26,23.0,-2.0,-1001.0,11:23:34.858360,192.168.0.112
1362,-1,-100,-100,-100,"0,0,0",0,0,1,0,0,0,60,63,80,50,100,-16.19,27,22.0,4.0,-1008.0,11:23:34.961055,192.168.0.112
1367,-1,-100,-100,-100,"0,0,0",0,0,1,0,0,0,60,63,80,50,100,-16.18,27,27.0,3.0,-990.0,11:23:35.062335,192.168.0.112
1371,-1,-100,-100,-100,"0,0,0",0,0,1,0,0,0,60,63,80,50,100,-16.17,27,10.0,6.0,-997.0,11:23:35.164022,192.168.0.112
1377,-1,-100,-100,-100,"0,0,0",0,0,1,0,0,0,60,63,80,50,100,-16.19,27,2.0,6.0,-1003.0,11:23:35.266918,192.168.0.112
1382,-1,-100,-100,-100,"0,0,0",0,0,1,0,0,0,60,63,80,50,100,-16.16,27,24.0,-12.0,-1003.0,11:23:35.368270,192.168.0.112
1387,-1,-100,-100,-100,"0,0,0",0,0,1,0,0,0,60,63,80,50,100,-16.14,27,15.0,-2.0,-1001.0,11:23:35.470166,192.168.0.112
1392,-1,-100,-100,-100,"0,0,0",0,0,1,0,0,0,60,63,79,50,100,-16.19,27,19.0,-2.0,-1000.0,11:23:35.572417,192.168.0.112
1397,-1,-100,-100,-100,"0,0,0",0,0,1,0,0,0,60,63,79,50,100,-16.24,27,13.0,0.0,-1001.0,11:23:35.674296,192.168.0.112
1402,-1,-100,-100,-100,"0,0,0",0,0,1,0,0,0,60,63,79,50,100,-16.19,27,28.0,3.0,-1009.0,11:23:35.776198,192.168.0.112
1407,-1,-100,-100,-100,"0,0,0",0,0,1,0,0,0,60,63,79,50,100,-16.28,27,23.0,-4.0,-1005.0,11:23:35.878186,192.168.0.112
1412,-1,-100,-100,-100,"0,0,0",0,0,1,0,0,0,60,63,78,50,100,-16.2,28,26.0,0.0,-991.0,11:23:35.979908,192.168.0.112
1418,-1,-100,-100,-100,"0,0,0",0,0,1,0,0,0,60,63,79,50,100,-16.18,28,27.0,0.0,-999.0,11:23:36.083633,192.168.0.112
1423,-1,-100,-100,-100,"0,0,0",0,0,1,0,0,0,60,63,79,50,100,-16.11,28,24.0,0.0,-1008.0,11:23:36.184085,192.168.0.112
1428,-1,-100,-100,-100,"0,0,0",0,0,1,0,0,0,60,63,79,50,100,-16.19,28,28.0,-8.0,-996.0,11:23:36.286039,192.168.0.112
1430,-1,-100,-100,-100,"0,0,0",0,0,1,0,0,0,60,63,79,50,100,-16.18,28,13.0,12.0,-1018.0,11:23:36.337322,192.168.0.112
1435,-1,-100,-100,-100,"0,0,0",0,0,1,0,0,0,60,63,80,50,100,-16.15,28,14.0,1.0,-1003.0,11:23:36.439672,192.168.0.112
1440,-1,-100,-100,-100,"0,0,0",0,0,1,0,0,0,60,63,79,50,100,-16.12,28,14.0,7.0,-1001.0,11:23:36.541582,192.168.0.112
1445,-1,-100,-100,-100,"0,0,0",0,0,1,0,0,0,60,63,80,50,100,-16.12,28,28.0,-11.0,-992.0,11:23:36.643232,192.168.0.112
1450,-1,-100,-100,-100,"0,0,0",0,0,1,0,0,0,61,63,80,50,100,-16.07,28,22.0,-18.0,-999.0,11:23:36.745230,192.168.0.112
1455,-1,-100,-100,-100,"0,0,0",0,0,1,0,0,0,61,63,79,50,100,-16.12,28,23.0,-8.0,-1007.0,11:23:36.847171,192.168.0.112
1460,-1,-100,-100,-100,"0,0,0",0,0,1,0,0,0,61,63,79,50,100,-16.18,29,12.0,5.0,-1009.0,11:23:36.949294,192.168.0.112
1465,-1,-100,-100,-100,"0,0,0",0,0,1,0,0,0,61,63,80,50,100,-16.09,29,24.0,-9.0,-998.0,11:23:37.051210,192.168.0.112
1470,-1,-100,-100,-100,"0,0,0",0,0,1,0,0,0,61,63,80,50,100,-16.09,29,36.0,-20.0,-997.0,11:23:37.155647,192.168.0.112
1476,-1,-100,-100,-100,"0,0,0",0,0,1,0,0,0,61,63,81,50,100,-16.15,29,28.0,-5.0,-1007.0,11:23:37.255427,192.168.0.112
1481,-1,-100,-100,-100,"0,0,0",0,0,1,0,0,0,61,63,80,50,100,-16.15,29,35.0,-15.0,-1007.0,11:23:37.357239,192.168.0.112
1486,-1,-100,-100,-100,"0,0,0",0,0,1,0,0,0,61,63,80,50,100,-16.12,29,24.0,2.0,-1008.0,11:23:37.459063,192.168.0.112
1491,-1,-100,-100,-100,"0,0,0",0,0,1,0,0,0,61,63,80,50,100,-16.13,29,29.0,-4.0,-992.0,11:23:37.561245,192.168.0.112
1496,-1,-100,-100,-100,"0,0,0",0,0,1,0,0,0,61,63,80,50,100,-16.1,29,26.0,1.0,-1007.0,11:23:37.663179,192.168.0.112
1502,-1,-100,-100,-100,"0,0,0",0,0,1,0,0,0,62,63,80,50,100,-16.2,29,23.0,-22.0,-1013.0,11:23:37.766375,192.168.0.112
1506,-1,-100,-100,-100,"0,0,0",0,0,1,0,0,0,62,63,80,50,100,-16.05,29,19.0,12.0,-1000.0,11:23:37.867364,192.168.0.112
1511,-1,-100,-100,-100,"0,0,0",0,0,1,0,0,0,62,63,80,50,100,-16.09,30,32.0,-6.0,-1000.0,11:23:37.969207,192.168.0.112
1516,-1,-100,-100,-100,"0,0,0",0,0,1,0,0,0,62,63,80,50,100,-16.02,30,16.0,-3.0,-986.0,11:23:38.071375,192.168.0.112
1521,-1,-100,-100,-100,"0,0,0",0,0,1,0,0,0,62,63,79,50,100,-16.04,30,14.0,-6.0,-1009.0,11:23:38.173315,192.168.0.112
1526,-1,-100,-100,-100,"0,0,0",0,0,1,0,0,0,62,63,79,50,100,-16.06,30,24.0,-4.0,-987.0,11:23:38.275203,192.168.0.112
1531,-1,-100,-100,-100,"0,0,0",0,0,1,0,0,0,62,63,79,50,100,-16.07,30,33.0,-13.0,-1014.0,11:23:38.377179,192.168.0.112
1536,-1,-100,-100,-100,"0,0,0",0,0,1,0,0,0,62,63,79,50,100,-16.1,30,23.0,-15.0,-990.0,11:23:38.479296,192.168.0.112
1541,-1,-100,-100,-100,"0,0,0",0,0,1,0,0,0,62,63,79,50,100,-16.1,30,10.0,-3.0,-1003.0,11:23:38.582916,192.168.0.112
1548,-1,-100,-100,-100,"0,0,0",0,0,1,0,0,0,62,63,78,50,100,-16.11,30,4.0,16.0,-1030.0,11:23:38.685000,192.168.0.112
1552,-1,-100,-100,-100,"0,0,0",0,0,1,0,0,0,61,63,79,50,100,-16.12,30,8.0,-11.0,-1015.0,11:23:38.785197,192.168.0.112
1557,-1,-100,-100,-100,"0,0,0",0,0,1,0,0,0,61,63,79,50,100,-16.18,31,19.0,-15.0,-1018.0,11:23:38.887145,192.168.0.112
1562,-1,-100,-100,-100,"0,0,0",0,0,0,0,0,0,61,63,79,50,100,-16.19,31,7.0,-12.0,-1004.0,11:23:38.989140,192.168.0.112
1568,-1,-100,-100,-100,"0,0,0",0,0,0,0,0,0,61,63,80,50,100,-16.2,31,0.0,-8.0,-993.0,11:23:39.091237,192.168.0.112
1573,-1,-100,-100,-100,"0,0,0",-1,0,1,0,0,0,61,63,80,50,100,-16.15,31,-21.0,10.0,-990.0,11:23:39.193030,192.168.0.112
1578,-1,-100,-100,-100,"0,0,0",-1,0,1,0,0,0,61,63,80,50,100,-16.07,31,-6.0,3.0,-995.0,11:23:39.295710,192.168.0.112
1583,-1,-100,-100,-100,"0,0,0",-2,0,1,0,0,0,61,63,80,50,100,-15.96,31,-5.0,0.0,-986.0,11:23:39.397169,192.168.0.112
1588,-1,-100,-100,-100,"0,0,0",-1,0,1,0,0,0,61,63,80,50,100,-16.13,31,-20.0,8.0,-981.0,11:23:39.499084,192.168.0.112
1593,-1,-100,-100,-100,"0,0,0",-2,0,1,0,0,0,61,63,80,50,100,-16.11,31,-8.0,-13.0,-999.0,11:23:39.601196,192.168.0.112
1599,-1,-100,-100,-100,"0,0,0",-2,0,1,0,0,0,61,63,80,50,100,-16.21,31,-7.0,7.0,-1019.0,11:23:39.704472,192.168.0.112
1603,-1,-100,-100,-100,"0,0,0",-2,0,1,0,0,0,62,63,80,50,100,-16.19,31,-1.0,2.0,-1009.0,11:23:39.805454,192.168.0.112
1608,-1,-100,-100,-100,"0,0,0",-2,0,1,0,0,0,62,63,80,50,100,-16.25,32,-17.0,0.0,-994.0,11:23:39.906929,192.168.0.112
1613,-1,-100,-100,-100,"0,0,0",-2,0,1,0,0,0,62,63,80,50,100,-16.27,32,-13.0,10.0,-1013.0,11:23:40.009726,192.168.0.112
1618,-1,-100,-100,-100,"0,0,0",-2,0,1,0,0,0,62,63,80,50,100,-16.18,32,0.0,3.0,-1008.0,11:23:40.111096,192.168.0.112
1623,-1,-100,-100,-100,"0,0,0",-1,0,1,0,0,0,62,63,80,50,100,-16.18,32,-6.0,7.0,-1014.0,11:23:40.213195,192.168.0.112
1625,-1,-100,-100,-100,"0,0,0",-1,0,1,0,0,0,62,63,81,50,100,-16.16,32,4.0,2.0,-986.0,11:23:40.264079,192.168.0.112
1630,-1,-100,-100,-100,"0,0,0",-1,0,1,0,0,0,62,63,80,50,100,-16.12,32,-1.0,0.0,-1037.0,11:23:40.366161,192.168.0.112
1635,-1,-100,-100,-100,"0,0,0",-1,0,1,0,0,0,62,63,80,50,100,-16.16,32,-1.0,10.0,-1011.0,11:23:40.468315,192.168.0.112
1640,-1,-100,-100,-100,"0,0,0",-1,0,1,0,0,0,62,63,81,50,100,-16.14,32,-14.0,10.0,-974.0,11:23:40.570191,192.168.0.112
1645,-1,-100,-100,-100,"0,0,0",-1,-1,1,0,0,0,62,63,81,50,100,-16.23,32,-18.0,0.0,-1037.0,11:23:40.671924,192.168.0.112
1650,-1,-100,-100,-100,"0,0,0",-1,-1,1,0,0,0,62,64,81,50,100,-16.21,32,-18.0,-4.0,-988.0,11:23:40.773893,192.168.0.112
1655,-1,-100,-100,-100,"0,0,0",-1,0,1,0,0,0,62,64,81,50,100,-16.07,33,0.0,-11.0,-995.0,11:23:40.876132,192.168.0.112
1661,-1,-100,-100,-100,"0,0,0",-1,0,1,0,0,0,62,64,80,50,100,-16.07,33,-17.0,0.0,-1003.0,11:23:40.978184,192.168.0.112
1666,-1,-100,-100,-100,"0,0,0",-1,0,1,0,0,0,62,64,82,50,100,-16.11,33,1.0,-1.0,-1003.0,11:23:41.079884,192.168.0.112
1671,-1,-100,-100,-100,"0,0,0",-1,1,1,0,0,0,62,64,81,50,100,-16.14,33,-6.0,5.0,-942.0,11:23:41.181754,192.168.0.112
1676,-1,-100,-100,-100,"0,0,0",-1,0,1,0,0,0,62,64,81,50,100,-16.0,33,-6.0,17.0,-1011.0,11:23:41.284089,192.168.0.112
1681,-1,-100,-100,-100,"0,0,0",-1,0,1,0,0,0,62,64,81,50,100,-16.11,33,-16.0,23.0,-1003.0,11:23:41.386143,192.168.0.112
1686,-1,-100,-100,-100,"0,0,0",-1,0,1,0,0,0,62,64,80,50,100,-16.13,33,2.0,32.0,-1013.0,11:23:41.487928,192.168.0.112
1691,-1,-100,-100,-100,"0,0,0",-1,-1,1,0,0,0,62,64,81,50,100,-16.16,33,11.0,30.0,-1022.0,11:23:41.590021,192.168.0.112
1696,-1,-100,-100,-100,"0,0,0",0,-2,1,0,0,0,62,64,80,50,100,-16.15,33,-3.0,21.0,-1022.0,11:23:41.692270,192.168.0.112
1701,-1,-100,-100,-100,"0,0,0",0,-2,1,0,0,0,61,64,81,50,100,-16.19,33,9.0,12.0,-986.0,11:23:41.795858,192.168.0.112
1706,-1,-100,-100,-100,"0,0,0",0,-2,1,0,0,0,61,64,81,50,100,-16.15,34,-16.0,20.0,-971.0,11:23:41.896235,192.168.0.112
1711,-1,-100,-100,-100,"0,0,0",0,-2,1,0,0,0,61,64,82,50,100,-16.18,34,-5.0,23.0,-1003.0,11:23:41.997848,192.168.0.112
1716,-1,-100,-100,-100,"0,0,0",0,-1,1,0,0,0,61,64,81,50,100,-16.2,34,-7.0,35.0,-986.0,11:23:42.100059,192.168.0.112
1721,-1,-100,-100,-100,"0,0,0",-1,-2,1,0,0,0,61,64,81,50,100,-16.12,34,21.0,7.0,-997.0,11:23:42.202016,192.168.0.112
1726,-1,-100,-100,-100,"0,0,0",-1,-2,1,0,0,0,61,64,81,50,100,-16.28,34,1.0,24.0,-1009.0,11:23:42.304059,192.168.0.112
1732,-1,-100,-100,-100,"0,0,0",-1,-2,1,0,0,0,61,64,81,50,100,-16.2,34,-5.0,4.0,-1016.0,11:23:42.406651,192.168.0.112
1739,-1,-100,-100,-100,"0,0,0",-1,-1,1,0,0,0,61,64,81,50,100,-16.14,34,16.0,10.0,-1009.0,11:23:42.521470,192.168.0.112
1743,-1,-100,-100,-100,"0,0,0",-1,0,1,0,0,0,61,64,81,50,100,-16.19,34,0.0,16.0,-1007.0,11:23:42.610485,192.168.0.112
1748,-1,-100,-100,-100,"0,0,0",-1,0,0,0,0,0,61,64,82,50,100,-16.19,34,0.0,12.0,-984.0,11:23:42.711626,192.168.0.112
1753,-1,-100,-100,-100,"0,0,0",-1,0,0,0,0,0,62,63,81,50,100,-16.31,34,-7.0,13.0,-987.0,11:23:42.814160,192.168.0.112
1758,-1,-100,-100,-100,"0,0,0",-1,0,0,0,0,0,62,63,81,50,100,-16.14,35,-12.0,36.0,-1009.0,11:23:42.915765,192.168.0.112
1763,-1,-100,-100,-100,"0,0,0",-1,-1,0,0,0,0,62,63,81,50,100,-16.14,35,-5.0,25.0,-991.0,11:23:43.018032,192.168.0.112
1768,-1,-100,-100,-100,"0,0,0",-1,-1,0,0,0,0,62,63,81,50,100,-16.23,35,-12.0,19.0,-997.0,11:23:43.120152,192.168.0.112
1773,-1,-100,-100,-100,"0,0,0",-1,-1,0,0,0,0,62,63,81,50,100,-16.14,35,-2.0,10.0,-967.0,11:23:43.223053,192.168.0.112
1778,-1,-100,-100,-100,"0,0,0",-1,-1,0,0,0,0,62,63,80,50,100,-16.24,35,-16.0,17.0,-995.0,11:23:43.324100,192.168.0.112
1780,-1,-100,-100,-100,"0,0,0",-1,-1,0,0,0,0,62,63,80,50,100,-16.19,35,10.0,17.0,-997.0,11:23:43.376936,192.168.0.112
1785,-1,-100,-100,-100,"0,0,0",-1,-1,0,0,0,0,62,63,80,50,100,-16.18,35,-6.0,28.0,-1012.0,11:23:43.479288,192.168.0.112
1790,-1,-100,-100,-100,"0,0,0",0,-1,0,0,0,0,62,63,79,50,100,-16.08,35,0.0,30.0,-1031.0,11:23:43.578973,192.168.0.112
1795,-1,-100,-100,-100,"0,0,0",0,-1,0,0,0,0,62,63,81,50,100,-16.15,35,-18.0,39.0,-1014.0,11:23:43.681195,192.168.0.112
1800,-1,-100,-100,-100,"0,0,0",0,-1,0,0,0,0,62,64,80,50,100,-16.24,35,-10.0,42.0,-1003.0,11:23:43.783047,192.168.0.112
1805,-1,-100,-100,-100,"0,0,0",-1,-1,0,0,0,0,62,64,81,50,100,-16.11,36,0.0,40.0,-975.0,11:23:43.885231,192.168.0.112
1810,-1,-100,-100,-100,"0,0,0",-1,-1,0,0,0,0,62,64,81,50,100,-16.17,36,0.0,38.0,-995.0,11:23:43.987052,192.168.0.112
1815,-1,-100,-100,-100,"0,0,0",-1,-1,0,0,0,0,62,64,81,50,100,-16.22,36,1.0,46.0,-1000.0,11:23:44.089578,192.168.0.112
1820,-1,-100,-100,-100,"0,0,0",0,-2,0,0,0,0,62,64,81,50,100,-16.17,36,-6.0,50.0,-981.0,11:23:44.191389,192.168.0.112
1826,-1,-100,-100,-100,"0,0,0",0,-2,0,0,0,0,62,64,81,50,100,-16.17,36,9.0,27.0,-979.0,11:23:44.293227,192.168.0.112
1831,-1,-100,-100,-100,"0,0,0",0,-2,0,0,0,0,62,64,80,50,100,-16.17,36,-2.0,40.0,-1015.0,11:23:44.397191,192.168.0.112
1836,-1,-100,-100,-100,"0,0,0",0,-2,0,0,0,0,62,64,80,50,100,-16.2,36,-6.0,44.0,-1014.0,11:23:44.498464,192.168.0.112
1841,-1,-100,-100,-100,"0,0,0",0,-2,0,0,0,0,62,64,81,50,100,-16.23,36,9.0,24.0,-993.0,11:23:44.598933,192.168.0.112
1846,-1,-100,-100,-100,"0,0,0",0,-2,0,0,0,0,62,64,81,50,100,-16.25,36,4.0,27.0,-994.0,11:23:44.701326,192.168.0.112
1851,-1,-100,-100,-100,"0,0,0",0,-2,1,0,0,0,61,63,81,50,100,-16.23,36,2.0,24.0,-992.0,11:23:44.803051,192.168.0.112
1856,-1,-100,-100,-100,"0,0,0",0,-2,1,0,0,0,61,63,81,50,100,-16.28,37,-3.0,21.0,-992.0,11:23:44.904997,192.168.0.112
1861,-1,-100,-100,-100,"0,0,0",0,-1,0,0,0,0,61,63,81,50,100,-16.2,37,1.0,16.0,-1005.0,11:23:45.008259,192.168.0.112
1866,-1,-100,-100,-100,"0,0,0",0,-1,0,0,0,0,61,63,81,50,100,-16.2,37,8.0,19.0,-1022.0,11:23:45.109151,192.168.0.112
1871,-1,-100,-100,-100,"0,0,0",0,-1,1,0,0,0,61,63,81,50,100,-16.17,37,30.0,14.0,-1007.0,11:23:45.212323,192.168.0.112
1876,-1,-100,-100,-100,"0,0,0",0,0,1,0,0,0,61,63,81,50,100,-16.09,37,16.0,24.0,-984.0,11:23:45.313018,192.168.0.112
1881,-1,-100,-100,-100,"0,0,0",0,0,1,0,0,0,61,63,81,50,100,-16.18,37,2.0,20.0,-998.0,11:23:45.415024,192.168.0.112
1886,-1,-100,-100,-100,"0,0,0",0,-1,1,0,0,0,61,63,81,50,100,-16.21,37,6.0,23.0,-988.0,11:23:45.517226,192.168.0.112
1892,-1,-100,-100,-100,"0,0,0",0,0,1,0,0,0,61,63,81,50,100,-16.11,37,12.0,19.0,-1010.0,11:23:45.619252,192.168.0.112
1897,-1,-100,-100,-100,"0,0,0",0,0,0,0,0,0,61,63,81,50,100,-16.27,37,27.0,7.0,-975.0,11:23:45.720754,192.168.0.112
1902,-1,-100,-100,-100,"0,0,0",0,-1,0,0,0,0,62,65,82,50,100,-16.18,37,5.0,19.0,-981.0,11:23:45.822942,192.168.0.112
1907,-1,-100,-100,-100,"0,0,0",0,-1,1,0,0,0,62,65,81,50,100,-16.18,38,0.0,31.0,-996.0,11:23:45.925050,192.168.0.112
1912,-1,-100,-100,-100,"0,0,0",0,-1,1,0,0,0,62,65,81,50,100,-16.13,38,0.0,11.0,-1002.0,11:23:46.026679,192.168.0.112
1917,-1,-100,-100,-100,"0,0,0",0,-1,1,0,0,0,62,65,81,50,100,-16.21,38,0.0,15.0,-1002.0,11:23:46.129033,192.168.0.112
1923,-1,-100,-100,-100,"0,0,0",0,-1,1,0,0,0,62,65,82,50,100,-16.07,38,-9.0,31.0,-1003.0,11:23:46.231169,192.168.0.112
1928,-1,-100,-100,-100,"0,0,0",0,-1,1,0,0,0,62,65,81,50,100,-16.09,38,-3.0,32.0,-1013.0,11:23:46.333324,192.168.0.112
1933,-1,-100,-100,-100,"0,0,0",0,-1,1,0,0,0,62,65,81,50,100,-16.11,38,9.0,17.0,-988.0,11:23:46.435340,192.168.0.112
1935,-1,-100,-100,-100,"0,0,0",0,-1,1,0,0,0,62,65,82,50,100,-16.11,38,9.0,13.0,-1007.0,11:23:46.485990,192.168.0.112
1940,-1,-100,-100,-100,"0,0,0",0,-1,1,0,0,0,62,65,82,50,100,-16.16,38,19.0,12.0,-990.0,11:23:46.588413,192.168.0.112
1945,-1,-100,-100,-100,"0,0,0",0,-1,1,0,0,0,62,65,82,50,100,-16.22,38,10.0,7.0,-996.0,11:23:46.692176,192.168.0.112
1950,-1,-100,-100,-100,"0,0,0",0,-1,1,0,0,0,62,64,82,50,100,-16.17,38,19.0,14.0,-983.0,11:23:46.791971,192.168.0.112
1955,-1,-100,-100,-100,"0,0,0",0,0,1,0,0,0,62,64,83,50,100,-16.19,39,18.0,9.0,-987.0,11:23:46.894247,192.168.0.112
1960,-1,-100,-100,-100,"0,0,0",0,0,1,0,0,0,62,64,82,50,100,-16.13,39,19.0,-3.0,-973.0,11:23:46.995712,192.168.0.112
1965,-1,-100,-100,-100,"0,0,0",0,0,1,0,0,0,62,64,83,50,100,-16.19,39,13.0,0.0,-1003.0,11:23:47.098141,192.168.0.112
1970,-1,-100,-100,-100,"0,0,0",0,0,1,0,0,0,62,64,82,50,100,-16.08,39,10.0,2.0,-984.0,11:23:47.200201,192.168.0.112
1975,-1,-100,-100,-100,"0,0,0",0,0,1,0,0,0,62,64,82,50,100,-16.1,39,22.0,-13.0,-989.0,11:23:47.302202,192.168.0.112
1980,-1,-100,-100,-100,"0,0,0",0,0,1,0,0,0,62,64,82,50,100,-16.16,39,10.0,8.0,-1014.0,11:23:47.403944,192.168.0.112
1985,-1,-100,-100,-100,"0,0,0",0,0,1,0,0,0,62,64,82,50,100,-16.09,39,25.0,0.0,-1005.0,11:23:47.506058,192.168.0.112
1991,-1,-100,-100,-100,"0,0,0",0,0,1,0,0,0,62,64,82,50,100,-16.14,39,7.0,30.0,-1005.0,11:23:47.608203,192.168.0.112
1996,-1,-100,-100,-100,"0,0,0",0,0,1,0,0,0,62,64,81,50,100,-16.13,39,10.0,1.0,-979.0,11:23:47.710046,192.168.0.112
2001,-1,-100,-100,-100,"0,0,0",0,0,1,0,0,0,62,65,81,50,100,-16.14,39,20.0,9.0,-1002.0,11:23:47.812173,192.168.0.112
2006,-1,-100,-100,-100,"0,0,0",0,0,0,0,0,0,62,65,81,50,100,-16.19,40,14.0,11.0,-995.0,11:23:47.914283,192.168.0.112
2011,-1,-100,-100,-100,"0,0,0",0,0,0,0,0,0,62,65,81,50,100,-16.1,40,16.0,-7.0,-995.0,11:23:48.016681,192.168.0.112
2016,-1,-100,-100,-100,"0,0,0",0,0,1,0,0,0,62,65,81,50,100,-16.15,40,22.0,8.0,-1004.0,11:23:48.118334,192.168.0.112
2021,-1,-100,-100,-100,"0,0,0",0,0,1,0,0,0,62,65,81,50,100,-16.18,40,11.0,17.0,-1008.0,11:23:48.220156,192.168.0.112
2026,-1,-100,-100,-100,"0,0,0",0,0,1,0,0,0,62,65,81,50,100,-16.15,40,10.0,10.0,-997.0,11:23:48.322449,192.168.0.112
2031,-1,-100,-100,-100,"0,0,0",0,0,1,0,0,0,62,65,80,50,100,-16.15,40,9.0,9.0,-994.0,11:23:48.424146,192.168.0.112
2036,-1,-100,-100,-100,"0,0,0",0,0,1,0,0,0,62,65,81,50,100,-16.21,40,12.0,7.0,-1015.0,11:23:48.526148,192.168.0.112
2041,-1,-100,-100,-100,"0,0,0",0,0,1,0,0,0,62,65,81,50,100,-16.16,40,3.0,19.0,-1007.0,11:23:48.627713,192.168.0.112
2046,-1,-100,-100,-100,"0,0,0",0,0,1,0,0,0,62,65,81,50,100,-16.17,40,2.0,7.0,-996.0,11:23:48.729771,192.168.0.112
2051,-1,-100,-100,-100,"0,0,0",0,0,1,0,0,0,62,64,80,50,100,-16.17,40,-3.0,25.0,-1020.0,11:23:48.831567,192.168.0.112
2056,-1,-100,-100,-100,"0,0,0",0,0,1,0,0,0,62,64,80,50,100,-16.18,41,-2.0,17.0,-995.0,11:23:48.934125,192.168.0.112
2062,-1,-100,-100,-100,"0,0,0",0,0,1,0,0,0,62,64,80,50,100,-16.17,41,14.0,-6.0,-1000.0,11:23:49.036184,192.168.0.112
2067,-1,-100,-100,-100,"0,0,0",0,0,1,0,0,0,62,64,80,50,100,-16.17,41,-7.0,16.0,-991.0,11:23:49.138040,192.168.0.112
2072,-1,-100,-100,-100,"0,0,0",0,0,1,0,0,0,62,64,80,50,100,-16.13,41,3.0,9.0,-1007.0,11:23:49.239911,192.168.0.112
2077,-1,-100,-100,-100,"0,0,0",0,0,1,0,0,0,62,64,80,50,100,-16.1,41,3.0,0.0,-995.0,11:23:49.341983,192.168.0.112
2082,-1,-100,-100,-100,"0,0,0",0,0,0,0,0,0,62,64,79,50,100,-16.12,41,5.0,-7.0,-985.0,11:23:49.444530,192.168.0.112
2088,-1,-100,-100,-100,"0,0,0",0,0,0,0,0,0,62,64,79,50,100,-16.08,41,2.0,-8.0,-1011.0,11:23:49.546122,192.168.0.112
2093,-1,-100,-100,-100,"0,0,0",0,0,0,0,0,0,62,64,80,50,100,-16.13,41,-2.0,4.0,-1003.0,11:23:49.648007,192.168.0.112
2098,-1,-100,-100,-100,"0,0,0",0,0,1,0,0,0,62,64,80,50,100,-16.06,41,-5.0,-3.0,-977.0,11:23:49.749724,192.168.0.112
2103,-1,-100,-100,-100,"0,0,0",0,0,0,0,0,0,62,65,79,50,100,-16.08,41,-4.0,10.0,-999.0,11:23:49.852098,192.168.0.112
2108,-1,-100,-100,-100,"0,0,0",0,1,0,0,0,0,62,65,79,50,100,-16.11,42,7.0,7.0,-981.0,11:23:49.953916,192.168.0.112
2113,-1,-100,-100,-100,"0,0,0",0,0,0,0,0,0,62,65,79,50,100,-15.98,42,-1.0,20.0,-1008.0,11:23:50.057178,192.168.0.112
2118,-1,-100,-100,-100,"0,0,0",0,0,0,0,0,0,62,65,79,50,100,-15.94,42,8.0,19.0,-1004.0,11:23:50.157768,192.168.0.112
2124,-1,-100,-100,-100,"0,0,0",0,0,0,0,0,0,62,65,79,50,100,-15.94,42,12.0,28.0,-989.0,11:23:50.262125,192.168.0.112
2128,-1,-100,-100,-100,"0,0,0",0,0,0,0,0,0,62,65,78,50,100,-16.11,42,19.0,39.0,-1075.0,11:23:50.361826,192.168.0.112
2134,-1,-100,-100,-100,"0,0,0",0,-1,0,0,0,0,62,65,78,50,100,-16.13,42,-4.0,27.0,-1003.0,11:23:50.468096,192.168.0.112
2136,-1,-100,-100,-100,"0,0,0",0,-2,0,0,0,0,62,65,78,50,100,-16.09,42,6.0,32.0,-968.0,11:23:50.521480,192.168.0.112
2141,-1,-100,-100,-100,"0,0,0",0,-2,0,0,0,0,62,65,78,50,100,-15.9,42,10.0,35.0,-1008.0,11:23:50.617150,192.168.0.112
2145,-1,-100,-100,-100,"0,0,0",0,-3,0,0,0,0,62,65,78,50,100,-16.02,42,9.0,20.0,-1048.0,11:23:50.718545,192.168.0.112
2150,-1,-100,-100,-100,"0,0,0",0,-3,0,0,0,0,62,65,78,50,100,-16.18,42,5.0,40.0,-980.0,11:23:50.820964,192.168.0.112
2155,-1,-100,-100,-100,"0,0,0",0,-2,0,0,0,0,62,65,78,50,100,-16.09,43,14.0,13.0,-1003.0,11:23:50.922884,192.168.0.112
2160,-1,-100,-100,-100,"0,0,0",0,-2,0,0,0,0,62,65,78,50,100,-16.1,43,16.0,14.0,-1016.0,11:23:51.025052,192.168.0.112
2166,-1,-100,-100,-100,"0,0,0",0,-2,1,0,0,0,62,65,78,50,100,-16.01,43,0.0,25.0,-997.0,11:23:51.126797,192.168.0.112
2171,-1,-100,-100,-100,"0,0,0",0,-1,1,0,0,0,62,65,78,50,100,-16.05,43,7.0,11.0,-1007.0,11:23:51.228840,192.168.0.112
2176,-1,-100,-100,-100,"0,0,0",0,0,0,0,0,0,62,65,78,50,100,-16.18,43,-15.0,13.0,-998.0,11:23:51.331000,192.168.0.112
2181,-1,-100,-100,-100,"0,0,0",0,0,0,0,0,0,62,65,79,50,100,-16.06,43,-9.0,-8.0,-983.0,11:23:51.433221,192.168.0.112
2186,-1,-100,-100,-100,"0,0,0",0,0,0,0,0,0,62,65,78,50,100,-15.95,43,15.0,2.0,-1011.0,11:23:51.535027,192.168.0.112
2192,-1,-100,-100,-100,"0,0,0",-1,0,0,0,0,0,62,65,78,50,100,-16.0,43,-3.0,21.0,-965.0,11:23:51.638752,192.168.0.112
2196,-1,-100,-100,-100,"0,0,0",-1,0,0,0,0,0,62,65,78,50,100,-15.97,43,2.0,15.0,-980.0,11:23:51.738758,192.168.0.112
2201,-1,-100,-100,-100,"0,0,0",0,0,0,0,0,0,62,64,78,50,100,-16.09,43,14.0,15.0,-1033.0,11:23:51.841039,192.168.0.112
2206,-1,-100,-100,-100,"0,0,0",0,-1,0,0,0,0,62,64,79,50,100,-16.06,44,-9.0,19.0,-1020.0,11:23:51.942953,192.168.0.112
2212,-1,-100,-100,-100,"0,0,0",0,-1,0,0,0,0,62,64,79,50,100,-15.99,44,-2.0,11.0,-1017.0,11:23:52.044546,192.168.0.112
2217,-1,-100,-100,-100,"0,0,0",0,-1,0,0,0,0,62,64,80,50,100,-16.12,44,17.0,3.0,-985.0,11:23:52.147005,192.168.0.112
2221,-1,-100,-100,-100,"0,0,0",0,-1,0,0,0,0,62,64,80,50,100,-16.06,44,5.0,14.0,-1006.0,11:23:52.249029,192.168.0.112
2227,-1,-100,-100,-100,"0,0,0",0,-1,0,0,0,0,62,64,80,50,100,-16.16,44,0.0,16.0,-998.0,11:23:52.352887,192.168.0.112
2232,-1,-100,-100,-100,"0,0,0",0,-1,0,0,0,0,62,64,81,50,100,-16.09,44,39.0,-3.0,-991.0,11:23:52.452850,192.168.0.112
2237,-1,-100,-100,-100,"0,0,0",0,-1,1,0,0,0,62,64,82,50,100,-16.06,44,10.0,-2.0,-986.0,11:23:52.555004,192.168.0.112
2242,-1,-100,-100,-100,"0,0,0",0,-1,1,0,0,0,62,64,81,50,100,-16.1,44,17.0,-17.0,-992.0,11:23:52.657003,192.168.0.112
2248,-1,-100,-100,-100,"0,0,0",1,0,1,0,0,0,62,64,82,50,100,-16.08,44,3.0,-1.0,-1000.0,11:23:52.758974,192.168.0.112
2252,-1,-100,-100,-100,"0,0,0",1,0,1,0,0,0,62,64,82,50,100,-16.08,44,16.0,-7.0,-986.0,11:23:52.860914,192.168.0.112
2258,-1,-100,-100,-100,"0,0,0",1,1,1,0,0,0,62,64,81,50,100,-16.06,45,6.0,-4.0,-1013.0,11:23:52.962685,192.168.0.112
2263,-1,-100,-100,-100,"0,0,0",1,1,1,0,0,0,62,64,82,50,100,-16.05,45,5.0,-10.0,-1004.0,11:23:53.064821,192.168.0.112
2268,-1,-100,-100,-100,"0,0,0",0,1,1,0,0,0,62,64,82,50,100,-16.06,45,7.0,-13.0,-989.0,11:23:53.166977,192.168.0.112
2274,-1,-100,-100,-100,"0,0,0",0,1,1,0,0,0,62,64,82,50,100,-16.03,45,18.0,-24.0,-986.0,11:23:53.271097,192.168.0.112
2278,-1,-100,-100,-100,"0,0,0",0,1,1,0,0,0,62,64,81,50,100,-16.01,45,4.0,-7.0,-1006.0,11:23:53.370777,192.168.0.112
2283,-1,-100,-100,-100,"0,0,0",0,1,1,0,0,0,62,64,81,50,100,-16.01,45,31.0,-21.0,-1008.0,11:23:53.472846,192.168.0.112
2288,-1,-100,-100,-100,"0,0,0",0,1,1,0,0,0,62,64,81,50,100,-16.07,45,-11.0,-3.0,-1009.0,11:23:53.574970,192.168.0.112
2290,-1,-100,-100,-100,"0,0,0",0,1,1,0,0,0,62,64,81,50,100,-16.08,45,5.0,3.0,-1024.0,11:23:53.626021,192.168.0.112
2295,-1,-100,-100,-100,"0,0,0",0,0,1,0,0,0,62,64,80,50,100,-16.01,45,28.0,-15.0,-1005.0,11:23:53.729225,192.168.0.112
2303,-1,-100,-100,-100,"0,0,0",0,0,1,0,0,0,62,64,80,50,100,-16.09,45,15.0,-7.0,-1008.0,11:23:53.880859,192.168.0.112
2308,-1,-100,-100,-100,"0,0,0",0,0,1,0,0,0,62,64,79,50,100,-16.08,46,19.0,-22.0,-1004.0,11:23:53.982885,192.168.0.112
2310,-1,-100,-100,-100,"0,0,0",0,0,1,0,0,0,62,64,79,50,100,-16.11,46,-6.0,-12.0,-1009.0,11:23:54.033718,192.168.0.112
2315,-1,-100,-100,-100,"0,0,0",0,0,1,0,0,0,62,64,79,50,100,-16.05,46,10.0,-18.0,-1013.0,11:23:54.135808,192.168.0.112
2320,-1,-100,-100,-100,"0,0,0",0,0,1,0,0,0,62,64,79,50,100,-16.06,46,24.0,-7.0,-1003.0,11:23:54.237913,192.168.0.112
2325,-1,-100,-100,-100,"0,0,0",0,0,1,0,0,0,62,64,78,50,100,-16.09,46,5.0,14.0,-991.0,11:23:54.343569,192.168.0.112
2330,-1,-100,-100,-100,"0,0,0",0,0,1,0,0,0,62,64,78,50,100,-16.05,46,15.0,-7.0,-992.0,11:23:54.442201,192.168.0.112
2335,-1,-100,-100,-100,"0,0,0",0,0,1,0,0,0,62,64,78,50,100,-16.07,46,-10.0,1.0,-1013.0,11:23:54.549156,192.168.0.112
2341,-1,-100,-100,-100,"0,0,0",0,0,1,0,0,0,62,64,78,50,100,-16.01,46,10.0,-25.0,-1003.0,11:23:54.646062,192.168.0.112
2346,-1,-100,-100,-100,"0,0,0",0,0,1,0,0,0,62,64,78,50,100,-16.1,46,13.0,-11.0,-994.0,11:23:54.748340,192.168.0.112
2351,-1,-100,-100,-100,"0,0,0",0,0,1,0,0,0,62,65,77,50,100,-16.07,46,9.0,-21.0,-980.0,11:23:54.849845,192.168.0.112
2356,-1,-100,-100,-100,"0,0,0",0,1,1,0,0,0,62,65,77,50,100,-16.08,47,7.0,-5.0,-1019.0,11:23:54.951761,192.168.0.112
2361,-1,-100,-100,-100,"0,0,0",0,1,1,0,0,0,62,65,78,50,100,-16.17,47,11.0,2.0,-1039.0,11:23:55.053436,192.168.0.112
2366,-1,-100,-100,-100,"0,0,0",0,1,1,0,0,0,62,65,77,50,100,-16.06,47,16.0,-4.0,-1015.0,11:23:55.156865,192.168.0.112
2371,-1,-100,-100,-100,"0,0,0",0,1,1,0,0,0,62,65,78,50,100,-16.04,47,18.0,-9.0,-1018.0,11:23:55.262390,192.168.0.112
2376,-1,-100,-100,-100,"0,0,0",0,0,1,0,0,0,62,65,78,50,100,-16.1,47,24.0,-9.0,-1002.0,11:23:55.359499,192.168.0.112
2381,-1,-100,-100,-100,"0,0,0",0,0,1,0,0,0,62,65,78,50,100,-16.18,47,17.0,9.0,-1014.0,11:23:55.461751,192.168.0.112
2387,-1,-100,-100,-100,"0,0,0",0,0,0,0,0,0,62,65,79,50,100,-16.18,47,43.0,1.0,-1002.0,11:23:55.563852,192.168.0.112
2392,-1,-100,-100,-100,"0,0,0",0,0,0,0,0,0,62,65,79,50,100,-16.24,47,18.0,18.0,-1000.0,11:23:55.665922,192.168.0.112
2397,-1,-100,-100,-100,"0,0,0",0,0,0,0,0,0,62,65,79,50,100,-16.2,47,12.0,18.0,-999.0,11:23:55.767476,192.168.0.112
2402,-1,-100,-100,-100,"0,0,0",0,-1,0,0,0,0,63,65,80,50,100,-16.14,47,23.0,7.0,-1007.0,11:23:55.869918,192.168.0.112
2407,-1,-100,-100,-100,"0,0,0",1,-1,0,0,0,0,63,65,80,50,100,-16.07,48,38.0,6.0,-998.0,11:23:55.972446,192.168.0.112
2412,-1,-100,-100,-100,"0,0,0",1,-1,0,0,0,0,63,65,79,50,100,-16.06,48,13.0,23.0,-983.0,11:23:56.075038,192.168.0.112
2418,-1,-100,-100,-100,"0,0,0",1,-1,0,0,0,0,63,65,80,50,100,-16.1,48,16.0,12.0,-998.0,11:23:56.177376,192.168.0.112
2424,-1,-100,-100,-100,"0,0,0",1,0,0,0,0,0,63,65,80,50,100,-16.04,48,25.0,8.0,-993.0,11:23:56.280304,192.168.0.112
2428,-1,-100,-100,-100,"0,0,0",0,0,0,0,0,0,63,65,80,50,100,-16.06,48,26.0,1.0,-989.0,11:23:56.381997,192.168.0.112
2434,-1,-100,-100,-100,"0,0,0",0,0,0,0,0,0,63,65,80,50,100,-16.11,48,26.0,27.0,-1011.0,11:23:56.484993,192.168.0.112
2438,-1,-100,-100,-100,"0,0,0",0,-1,0,0,0,0,63,65,79,50,100,-16.07,48,8.0,22.0,-1009.0,11:23:56.583709,192.168.0.112
2443,-1,-100,-100,-100,"0,0,0",0,0,0,0,0,0,63,65,79,50,100,-16.05,48,25.0,5.0,-1005.0,11:23:56.685900,192.168.0.112
2448,-1,-100,-100,-100,"0,0,0",0,0,0,0,0,0,63,65,79,50,100,-16.08,48,7.0,26.0,-1001.0,11:23:56.787912,192.168.0.112
2453,-1,-100,-100,-100,"0,0,0",0,0,0,0,0,0,63,65,79,50,100,-16.04,48,15.0,14.0,-1001.0,11:23:56.889674,192.168.0.112
2458,-1,-100,-100,-100,"0,0,0",0,0,0,0,0,0,63,65,79,50,100,-16.14,49,28.0,13.0,-1003.0,11:23:56.991799,192.168.0.112
2464,-1,-100,-100,-100,"0,0,0",0,0,0,0,0,0,63,65,79,50,100,-16.12,49,27.0,17.0,-1004.0,11:23:57.098788,192.168.0.112
2469,-1,-100,-100,-100,"0,0,0",0,0,0,0,0,0,63,65,79,50,100,-16.13,49,23.0,22.0,-1003.0,11:23:57.198185,192.168.0.112
2470,-1,-100,-100,-100,"0,0,0",0,0,0,0,0,0,63,65,79,50,100,-16.05,49,27.0,10.0,-993.0,11:23:57.246941,192.168.0.112
2475,-1,-100,-100,-100,"0,0,0",0,-1,0,0,0,0,63,65,79,50,100,-16.14,49,28.0,14.0,-1012.0,11:23:57.350675,192.168.0.112
2480,-1,-100,-100,-100,"0,0,0",0,-1,0,0,0,0,63,65,79,50,100,-16.19,49,9.0,26.0,-1006.0,11:23:57.451060,192.168.0.112
2485,-1,-100,-100,-100,"0,0,0",0,-1,0,0,0,0,63,65,79,50,100,-16.15,49,27.0,6.0,-1000.0,11:23:57.552589,192.168.0.112
2491,-1,-100,-100,-100,"0,0,0",1,-1,0,0,0,0,63,65,78,50,100,-16.15,49,28.0,26.0,-999.0,11:23:57.655033,192.168.0.112
2495,-1,-100,-100,-100,"0,0,0",1,-1,0,0,0,0,63,65,79,50,100,-16.17,49,30.0,16.0,-1001.0,11:23:57.758989,192.168.0.112
2501,-1,-100,-100,-100,"0,0,0",0,-1,1,0,0,0,62,65,79,50,100,-16.19,50,34.0,8.0,-994.0,11:23:57.858745,192.168.0.112
2506,-1,-100,-100,-100,"0,0,0",0,-1,0,0,0,0,62,65,80,50,100,-16.16,50,18.0,23.0,-1000.0,11:23:57.960603,192.168.0.112
2510,-1,-100,-100,-100,"0,0,0",0,-1,0,0,0,0,62,65,79,50,100,-16.19,50,26.0,20.0,-1002.0,11:23:58.065508,192.168.0.112
2516,-1,-100,-100,-100,"0,0,0",0,-1,1,0,0,0,62,65,79,50,100,-16.1,50,25.0,22.0,-1003.0,11:23:58.164854,192.168.0.112
2521,-1,-100,-100,-100,"0,0,0",0,-1,1,0,0,0,62,65,79,50,100,-16.09,50,38.0,13.0,-990.0,11:23:58.266607,192.168.0.112
2526,-1,-100,-100,-100,"0,0,0",0,-1,1,0,0,0,62,65,80,50,100,-16.08,50,25.0,16.0,-1001.0,11:23:58.370366,192.168.0.112
2531,-1,-100,-100,-100,"0,0,0",0,-1,1,0,0,0,62,65,80,50,100,-16.15,50,8.0,16.0,-987.0,11:23:58.470872,192.168.0.112
2536,-1,-100,-100,-100,"0,0,0",0,-1,1,0,0,0,62,65,79,50,100,-16.05,50,11.0,22.0,-1014.0,11:23:58.572703,192.168.0.112
2541,-1,-100,-100,-100,"0,0,0",0,-1,1,0,0,0,62,65,79,50,100,-16.04,50,24.0,-1.0,-1014.0,11:23:58.674868,192.168.0.112
2547,-1,-100,-100,-100,"0,0,0",0,-1,1,0,0,0,62,65,79,50,100,-16.02,50,25.0,-11.0,-981.0,11:23:58.778854,192.168.0.112
2551,-1,-100,-100,-100,"0,0,0",0,0,1,0,0,0,63,65,79,50,100,-16.12,51,24.0,5.0,-1000.0,11:23:58.878750,192.168.0.112
2557,-1,-100,-100,-100,"0,0,0",0,0,1,0,0,0,63,65,79,50,100,-16.13,51,8.0,21.0,-1008.0,11:23:58.980772,192.168.0.112
2562,-1,-100,-100,-100,"0,0,0",0,0,1,0,0,0,63,65,78,50,100,-16.14,51,22.0,-4.0,-1022.0,11:23:59.082766,192.168.0.112
2567,-1,-100,-100,-100,"0,0,0",0,0,1,0,0,0,63,65,79,50,100,-16.06,51,29.0,1.0,-989.0,11:23:59.184688,192.168.0.112
2572,-1,-100,-100,-100,"0,0,0",0,0,1,0,0,0,63,65,79,50,100,-16.2,51,20.0,12.0,-1015.0,11:23:59.286732,192.168.0.112
2579,-1,-100,-100,-100,"0,0,0",0,0,0,0,0,0,63,65,80,50,100,-16.12,51,15.0,23.0,-996.0,11:23:59.390576,192.168.0.112
