,mid,x,y,z,mpry,pitch,roll,yaw,vgx,vgy,vgz,templ,temph,tof,h,bat,baro,time,agx,agy,agz,timestamp,address
2,-1,-100,-100,-100,"0,0,0",0,0,0,0,0,0,58,62,10,0,100,-17.99,0,0.0,-3.0,-999.0,11:23:07.675873,192.168.0.113
8,-1,-100,-100,-100,"0,0,0",0,0,0,0,0,0,59,62,10,0,100,-17.98,0,0.0,-4.0,-1000.0,11:23:07.778151,192.168.0.113
13,-1,-100,-100,-100,"0,0,0",0,0,0,0,0,0,59,62,10,0,100,-18.01,0,0.0,-6.0,-999.0,11:23:07.880192,192.168.0.113
15,-1,-100,-100,-100,"0,0,0",0,0,0,0,0,0,59,62,10,0,100,-18.01,0,0.0,-5.0,-1000.0,11:23:07.931233,192.168.0.113
20,-1,-100,-100,-100,"0,0,0",0,0,0,0,0,0,59,62,10,0,100,-18.01,0,1.0,-4.0,-999.0,11:23:08.033291,192.168.0.113
25,-1,-100,-100,-100,"0,0,0",0,0,0,0,0,0,59,62,10,0,100,-18.01,0,-6.0,0.0,-998.0,11:23:08.135247,192.168.0.113
31,-1,-100,-100,-100,"0,0,0",0,0,0,0,0,0,59,62,10,0,100,-18.01,0,0.0,-7.0,-994.0,11:23:08.237495,192.168.0.113
35,-1,-100,-100,-100,"0,0,0",0,0,0,0,0,0,59,62,10,0,100,-18.01,0,8.0,-4.0,-976.0,11:23:08.338934,192.168.0.113
40,-1,-100,-100,-100,"0,0,0",0,0,0,0,0,2,59,62,10,0,100,-18.01,0,7.0,-5.0,-1325.0,11:23:08.441209,192.168.0.113
45,-1,-100,-100,-100,"0,0,0",0,0,0,0,0,5,59,62,10,0,100,-18.01,0,-51.0,-2.0,-1123.0,11:23:08.543317,192.168.0.113
50,-1,-100,-100,-100,"0,0,0",-1,0,0,0,0,7,59,62,19,0,100,-17.58,0,-54.0,-10.0,-1045.0,11:23:08.645219,192.168.0.113
56,-1,-100,-100,-100,"0,0,0",-1,0,0,0,0,7,59,62,29,0,100,-17.5,0,-24.0,-2.0,-991.0,11:23:08.747383,192.168.0.113
61,-1,-100,-100,-100,"0,0,0",-2,0,0,0,0,7,59,62,36,10,100,-17.45,1,-14.0,-21.0,-959.0,11:23:08.849248,192.168.0.113
66,-1,-100,-100,-100,"0,0,0",-2,1,0,0,0,6,59,62,45,10,100,-17.4,1,-36.0,3.0,-945.0,11:23:08.951288,192.168.0.113
71,-1,-100,-100,-100,"0,0,0",-2,0,0,0,0,5,59,62,53,20,100,-17.41,1,-42.0,-3.0,-930.0,11:23:09.053247,192.168.0.113
77,-1,-100,-100,-100,"0,0,0",-3,0,0,1,0,4,59,62,61,20,100,-17.23,1,-25.0,5.0,-913.0,11:23:09.155601,192.168.0.113
81,-1,-100,-100,-100,"0,0,0",-4,0,0,0,0,3,59,62,68,20,100,-17.1,1,-40.0,7.0,-891.0,11:23:09.257229,192.168.0.113
87,-1,-100,-100,-100,"0,0,0",-3,0,0,0,0,2,59,62,74,30,100,-17.0,1,-39.0,4.0,-913.0,11:23:09.360278,192.168.0.113
91,-1,-100,-100,-100,"0,0,0",-3,0,0,0,0,1,59,62,79,30,100,-16.9,1,-28.0,-30.0,-941.0,11:23:09.461348,192.168.0.113
97,-1,-100,-100,-100,"0,0,0",-2,0,0,0,0,1,59,62,84,30,100,-16.85,1,-24.0,-14.0,-961.0,11:23:09.563177,192.168.0.113
102,-1,-100,-100,-100,"0,0,0",-2,0,0,0,0,0,59,62,87,30,100,-16.87,1,-21.0,-20.0,-959.0,11:23:09.665225,192.168.0.113
107,-1,-100,-100,-100,"0,0,0",-2,1,0,0,0,0,59,62,90,40,100,-16.86,1,-10.0,-32.0,-952.0,11:23:09.766716,192.168.0.113
113,-1,-100,-100,-100,"0,0,0",-1,1,-1,0,0,0,59,62,93,40,100,-16.79,2,22.0,-54.0,-960.0,11:23:09.869788,192.168.0.113
117,-1,-100,-100,-100,"0,0,0",-1,1,-1,0,0,0,59,62,95,40,100,-16.9,2,-33.0,-22.0,-958.0,11:23:09.971014,192.168.0.113
122,-1,-100,-100,-100,"0,0,0",0,2,0,0,0,0,59,62,96,40,100,-16.83,2,1.0,-29.0,-935.0,11:23:10.073241,192.168.0.113
127,-1,-100,-100,-100,"0,0,0",-1,1,0,0,0,0,59,62,97,40,100,-16.82,2,-2.0,-58.0,-977.0,11:23:10.174971,192.168.0.113
132,-1,-100,-100,-100,"0,0,0",-1,2,0,0,0,0,59,62,99,40,100,-16.82,2,-22.0,-47.0,-979.0,11:23:10.276654,192.168.0.113
139,-1,-100,-100,-100,"0,0,0",-1,2,0,0,0,0,59,62,99,40,100,-16.75,2,-51.0,-16.0,-982.0,11:23:10.380377,192.168.0.113
143,-1,-100,-100,-100,"0,0,0",0,2,0,0,0,0,59,62,100,50,100,-16.9,2,-20.0,-45.0,-992.0,11:23:10.481024,192.168.0.113
148,-1,-100,-100,-100,"0,0,0",0,2,0,0,0,-1,59,62,100,50,100,-16.88,2,-6.0,-34.0,-942.0,11:23:10.582695,192.168.0.113
150,-1,-100,-100,-100,"0,0,0",0,2,0,0,0,-1,59,62,100,50,100,-16.84,2,-9.0,-23.0,-978.0,11:23:10.633751,192.168.0.113
155,-1,-100,-100,-100,"0,0,0",0,2,0,0,0,-1,59,62,99,50,100,-16.81,2,2.0,-43.0,-943.0,11:23:10.735983,192.168.0.113
160,-1,-100,-100,-100,"0,0,0",0,2,0,0,0,-1,59,62,99,50,100,-16.82,3,18.0,-61.0,-932.0,11:23:10.838059,192.168.0.113
165,-1,-100,-100,-100,"0,0,0",0,1,0,0,0,-1,59,62,98,50,100,-16.87,3,-9.0,-34.0,-951.0,11:23:10.939968,192.168.0.113
170,-1,-100,-100,-100,"0,0,0",0,1,0,0,0,-1,59,62,96,50,100,-16.87,3,-13.0,-48.0,-982.0,11:23:11.041826,192.168.0.113
175,-1,-100,-100,-100,"0,0,0",0,2,0,0,0,-1,59,62,95,50,100,-16.94,3,8.0,-44.0,-997.0,11:23:11.144209,192.168.0.113
180,-1,-100,-100,-100,"0,0,0",0,1,0,0,0,-1,59,62,93,40,100,-17.02,3,-14.0,-40.0,-1019.0,11:23:11.246145,192.168.0.113
185,-1,-100,-100,-100,"0,0,0",0,2,0,0,0,-1,59,62,92,40,100,-17.03,3,-16.0,-10.0,-1033.0,11:23:11.348003,192.168.0.113
190,-1,-100,-100,-100,"0,0,0",0,1,0,0,0,-1,59,62,90,40,100,-17.06,3,-11.0,-21.0,-973.0,11:23:11.449905,192.168.0.113
195,-1,-100,-100,-100,"0,0,0",0,1,0,0,0,-1,59,62,89,40,100,-17.03,3,-14.0,-26.0,-990.0,11:23:11.551556,192.168.0.113
200,-1,-100,-100,-100,"0,0,0",0,0,0,0,0,-1,59,62,88,40,100,-16.88,3,-15.0,-31.0,-1011.0,11:23:11.761657,192.168.0.113
205,-1,-100,-100,-100,"0,0,0",0,1,0,0,0,-1,59,63,86,40,100,-16.83,3,-23.0,-28.0,-1005.0,11:23:11.762628,192.168.0.113
210,-1,-100,-100,-100,"0,0,0",0,1,0,0,0,-1,59,63,85,40,100,-17.0,4,-1.0,-31.0,-1013.0,11:23:11.968446,192.168.0.113
216,-1,-100,-100,-100,"0,0,0",0,0,0,0,0,-1,59,63,84,40,100,-17.07,4,-13.0,-15.0,-1016.0,11:23:11.969957,192.168.0.113
222,-1,-100,-100,-100,"0,0,0",0,0,0,0,0,-1,59,63,83,40,100,-17.12,4,-10.0,-17.0,-1018.0,11:23:12.174898,192.168.0.113
227,-1,-100,-100,-100,"0,0,0",0,1,0,0,0,-1,59,63,82,40,100,-16.98,4,-7.0,-42.0,-1006.0,11:23:12.175627,192.168.0.113
233,-1,-100,-100,-100,"0,0,0",0,1,0,0,0,-1,59,63,81,40,100,-16.9,4,-1.0,-57.0,-1012.0,11:23:12.266361,192.168.0.113
237,-1,-100,-100,-100,"0,0,0",0,1,-1,0,0,0,59,63,79,30,100,-17.09,4,37.0,-61.0,-1007.0,11:23:12.367993,192.168.0.113
243,-1,-100,-100,-100,"0,0,0",0,1,-1,0,0,0,59,63,78,30,100,-17.01,4,15.0,-51.0,-990.0,11:23:12.583782,192.168.0.113
247,-1,-100,-100,-100,"0,0,0",0,1,-1,0,0,0,59,63,77,30,100,-17.1,4,51.0,-40.0,-1025.0,11:23:12.584427,192.168.0.113
253,-1,-100,-100,-100,"0,0,0",0,1,0,0,0,0,59,63,76,30,100,-17.15,4,33.0,-45.0,-1002.0,11:23:12.787732,192.168.0.113
257,-1,-100,-100,-100,"0,0,0",0,0,0,0,0,0,59,62,75,30,100,-17.02,4,24.0,-47.0,-1029.0,11:23:12.788972,192.168.0.113
263,-1,-100,-100,-100,"0,0,0",1,0,0,0,0,0,59,62,75,30,100,-17.03,5,44.0,-44.0,-1031.0,11:23:12.992418,192.168.0.113
268,-1,-100,-100,-100,"0,0,0",1,1,0,0,0,0,59,62,75,30,100,-17.01,5,45.0,-14.0,-1010.0,11:23:12.992670,192.168.0.113
274,-1,-100,-100,-100,"0,0,0",1,1,0,0,0,0,59,62,74,30,100,-17.13,5,55.0,-37.0,-989.0,11:23:13.199368,192.168.0.113
278,-1,-100,-100,-100,"0,0,0",1,1,0,0,0,0,59,62,74,30,100,-17.15,5,10.0,-29.0,-1001.0,11:23:13.200304,192.168.0.113
284,-1,-100,-100,-100,"0,0,0",1,0,0,0,0,0,59,62,74,30,100,-17.09,5,8.0,6.0,-1023.0,11:23:13.405333,192.168.0.113
289,-1,-100,-100,-100,"0,0,0",1,0,0,0,0,0,59,62,74,30,100,-17.06,5,22.0,14.0,-1009.0,11:23:13.406131,192.168.0.113
294,-1,-100,-100,-100,"0,0,0",1,0,0,0,0,0,59,62,75,30,100,-17.01,5,27.0,10.0,-1003.0,11:23:13.612088,192.168.0.113
299,-1,-100,-100,-100,"0,0,0",1,0,0,0,0,0,59,62,75,30,100,-17.05,5,40.0,5.0,-990.0,11:23:13.612887,192.168.0.113
300,-1,-100,-100,-100,"0,0,0",1,0,0,0,0,0,59,62,75,30,100,-17.06,5,0.0,-12.0,-999.0,11:23:13.642865,192.168.0.113
309,-1,-100,-100,-100,"0,0,0",1,-1,0,0,0,0,60,64,75,30,100,-16.94,5,11.0,-21.0,-999.0,11:23:13.830081,192.168.0.113
314,-1,-100,-100,-100,"0,0,0",1,0,0,0,0,0,60,64,75,30,100,-17.03,6,51.0,-18.0,-995.0,11:23:13.897876,192.168.0.113
319,-1,-100,-100,-100,"0,0,0",1,0,0,0,0,0,60,64,76,30,100,-16.97,6,43.0,-29.0,-990.0,11:23:13.999930,192.168.0.113
324,-1,-100,-100,-100,"0,0,0",2,0,0,0,0,0,60,64,76,30,100,-17.01,6,37.0,-9.0,-1024.0,11:23:14.101970,192.168.0.113
329,-1,-100,-100,-100,"0,0,0",2,0,-1,0,0,0,60,64,75,30,100,-17.04,6,22.0,-29.0,-1004.0,11:23:14.203557,192.168.0.113
330,-1,-100,-100,-100,"0,0,0",1,0,-1,0,0,0,60,64,75,30,100,-16.98,6,22.0,-34.0,-1018.0,11:23:14.254682,192.168.0.113
336,-1,-100,-100,-100,"0,0,0",1,0,-1,0,0,0,60,64,76,30,100,-17.02,6,24.0,-24.0,-998.0,11:23:14.357512,192.168.0.113
340,-1,-100,-100,-100,"0,0,0",1,0,0,0,0,0,60,64,76,30,100,-17.11,6,-5.0,-30.0,-1003.0,11:23:14.459582,192.168.0.113
346,-1,-100,-100,-100,"0,0,0",1,1,0,0,0,0,60,64,76,30,100,-17.09,6,19.0,-23.0,-1026.0,11:23:14.561024,192.168.0.113
351,-1,-100,-100,-100,"0,0,0",0,0,0,0,0,0,60,64,77,30,100,-17.18,6,43.0,-51.0,-1004.0,11:23:14.662730,192.168.0.113
356,-1,-100,-100,-100,"0,0,0",0,1,0,0,0,0,60,63,77,30,100,-17.09,6,3.0,-7.0,-1026.0,11:23:14.764928,192.168.0.113
361,-1,-100,-100,-100,"0,0,0",1,1,0,0,0,0,60,63,78,30,100,-17.04,7,26.0,-45.0,-981.0,11:23:14.867578,192.168.0.113
366,-1,-100,-100,-100,"0,0,0",0,1,0,0,0,0,60,63,78,30,100,-16.99,7,18.0,-38.0,-977.0,11:23:14.968856,192.168.0.113
371,-1,-100,-100,-100,"0,0,0",0,1,0,0,0,0,60,63,79,30,100,-17.0,7,17.0,-21.0,-983.0,11:23:15.070798,192.168.0.113
376,-1,-100,-100,-100,"0,0,0",1,1,0,0,0,0,60,63,79,30,100,-17.01,7,-1.0,-1.0,-996.0,11:23:15.173386,192.168.0.113
382,-1,-100,-100,-100,"0,0,0",1,1,0,0,0,0,60,63,79,30,100,-17.03,7,20.0,-31.0,-995.0,11:23:15.274707,192.168.0.113
388,-1,-100,-100,-100,"0,0,0",1,1,0,0,0,0,60,63,80,30,100,-17.04,7,25.0,-8.0,-1018.0,11:23:15.377500,192.168.0.113
393,-1,-100,-100,-100,"0,0,0",1,0,0,0,0,0,60,63,80,30,100,-17.0,7,28.0,-12.0,-1002.0,11:23:15.478738,192.168.0.113
398,-1,-100,-100,-100,"0,0,0",1,0,0,0,0,0,60,63,81,30,100,-17.05,7,32.0,-20.0,-992.0,11:23:15.580943,192.168.0.113
403,-1,-100,-100,-100,"0,0,0",1,0,0,0,0,0,60,63,80,30,100,-16.99,7,19.0,-21.0,-995.0,11:23:15.682581,192.168.0.113
408,-1,-100,-100,-100,"0,0,0",1,1,0,0,0,0,60,62,81,30,100,-17.04,7,28.0,-4.0,-1001.0,11:23:15.784471,192.168.0.113
413,-1,-100,-100,-100,"0,0,0",2,1,0,0,0,0,60,62,80,30,100,-16.95,8,29.0,-7.0,-999.0,11:23:15.887362,192.168.0.113
418,-1,-100,-100,-100,"0,0,0",2,1,0,0,0,0,60,62,80,30,100,-17.03,8,20.0,-8.0,-981.0,11:23:15.989050,192.168.0.113
423,-1,-100,-100,-100,"0,0,0",2,0,0,0,0,0,60,62,80,30,100,-17.08,8,-4.0,-12.0,-1004.0,11:23:16.090803,192.168.0.113
429,-1,-100,-100,-100,"0,0,0",1,0,0,0,0,0,60,62,80,30,100,-17.0,8,26.0,-1.0,-1015.0,11:23:16.193112,192.168.0.113
434,-1,-100,-100,-100,"0,0,0",1,0,0,0,0,0,60,62,80,30,100,-16.98,8,33.0,5.0,-1019.0,11:23:16.294966,192.168.0.113
439,-1,-100,-100,-100,"0,0,0",1,0,0,0,0,0,60,62,80,30,100,-17.0,8,41.0,-13.0,-1007.0,11:23:16.396608,192.168.0.113
444,-1,-100,-100,-100,"0,0,0",1,0,0,0,0,0,60,62,80,30,100,-16.92,8,33.0,14.0,-997.0,11:23:16.498677,192.168.0.113
449,-1,-100,-100,-100,"0,0,0",1,0,0,0,0,0,60,62,80,30,100,-16.95,8,29.0,2.0,-987.0,11:23:16.600391,192.168.0.113
454,-1,-100,-100,-100,"0,0,0",2,0,0,0,0,0,60,62,80,30,100,-17.01,8,11.0,9.0,-1000.0,11:23:16.702960,192.168.0.113
459,-1,-100,-100,-100,"0,0,0",2,0,0,0,0,0,61,62,80,30,100,-17.04,8,40.0,-1.0,-992.0,11:23:16.804645,192.168.0.113
464,-1,-100,-100,-100,"0,0,0",2,0,0,0,0,0,61,62,80,30,100,-16.98,9,22.0,16.0,-981.0,11:23:16.906728,192.168.0.113
469,-1,-100,-100,-100,"0,0,0",2,0,0,0,0,0,61,62,81,30,100,-16.98,9,33.0,5.0,-991.0,11:23:17.008749,192.168.0.113
474,-1,-100,-100,-100,"0,0,0",2,-1,0,0,0,0,61,62,80,30,100,-17.01,9,44.0,-5.0,-1000.0,11:23:17.110497,192.168.0.113
479,-1,-100,-100,-100,"0,0,0",2,-1,0,0,0,0,61,62,80,30,100,-17.01,9,41.0,21.0,-988.0,11:23:17.213720,192.168.0.113
481,-1,-100,-100,-100,"0,0,0",2,0,0,0,0,0,61,62,80,30,100,-16.97,9,26.0,20.0,-1005.0,11:23:17.264850,192.168.0.113
486,-1,-100,-100,-100,"0,0,0",2,-1,0,0,0,0,61,62,80,30,100,-17.02,9,50.0,-12.0,-1021.0,11:23:17.367021,192.168.0.113
490,-1,-100,-100,-100,"0,0,0",2,0,0,0,0,0,61,62,80,30,100,-16.96,9,60.0,3.0,-983.0,11:23:17.471437,192.168.0.113
496,-1,-100,-100,-100,"0,0,0",2,0,0,0,0,0,61,62,80,30,100,-16.96,9,14.0,7.0,-1019.0,11:23:17.573818,192.168.0.113
501,-1,-100,-100,-100,"0,0,0",3,0,0,0,0,0,61,62,80,30,100,-16.99,9,24.0,9.0,-1015.0,11:23:17.674140,192.168.0.113
506,-1,-100,-100,-100,"0,0,0",2,0,0,0,0,0,60,63,79,30,100,-16.93,9,15.0,15.0,-1010.0,11:23:17.776646,192.168.0.113
511,-1,-100,-100,-100,"0,0,0",2,0,0,0,0,0,60,63,79,30,100,-16.98,10,37.0,-5.0,-985.0,11:23:17.875414,192.168.0.113
517,-1,-100,-100,-100,"0,0,0",2,0,0,0,0,0,60,63,79,30,100,-16.97,10,38.0,19.0,-1019.0,11:23:17.977552,192.168.0.113
523,-1,-100,-100,-100,"0,0,0",2,0,0,0,0,0,60,63,79,30,100,-16.9,10,81.0,-6.0,-987.0,11:23:18.080140,192.168.0.113
528,-1,-100,-100,-100,"0,0,0",2,0,0,0,0,0,60,63,79,30,100,-16.92,10,90.0,-13.0,-985.0,11:23:18.185712,192.168.0.113
532,-1,-100,-100,-100,"0,0,0",2,0,0,0,0,0,60,63,79,30,100,-16.92,10,24.0,3.0,-1016.0,11:23:18.283780,192.168.0.113
537,-1,-100,-100,-100,"0,0,0",2,0,0,0,0,0,60,63,79,30,100,-17.06,10,47.0,-3.0,-997.0,11:23:18.385741,192.168.0.113
542,-1,-100,-100,-100,"0,0,0",2,-1,0,0,0,0,60,63,79,30,100,-16.94,10,64.0,-1.0,-995.0,11:23:18.487911,192.168.0.113
547,-1,-100,-100,-100,"0,0,0",3,-1,0,0,0,0,60,63,79,30,100,-17.01,10,59.0,12.0,-1008.0,11:23:18.589964,192.168.0.113
552,-1,-100,-100,-100,"0,0,0",2,-1,0,0,0,0,60,63,79,30,100,-17.01,10,40.0,-15.0,-979.0,11:23:18.691685,192.168.0.113
558,-1,-100,-100,-100,"0,0,0",2,-2,0,0,0,0,60,64,80,30,100,-16.92,10,32.0,-17.0,-971.0,11:23:18.793280,192.168.0.113
563,-1,-100,-100,-100,"0,0,0",3,-1,0,0,0,0,60,64,79,30,100,-16.86,11,62.0,8.0,-983.0,11:23:18.895597,192.168.0.113
568,-1,-100,-100,-100,"0,0,0",3,0,0,0,0,0,60,64,80,30,100,-16.95,11,55.0,-8.0,-976.0,11:23:18.997332,192.168.0.113
573,-1,-100,-100,-100,"0,0,0",3,0,0,0,0,0,60,64,79,30,100,-16.91,11,55.0,-7.0,-1004.0,11:23:19.099375,192.168.0.113
578,-1,-100,-100,-100,"0,0,0",3,0,0,0,0,0,60,64,79,30,100,-16.92,11,16.0,26.0,-1019.0,11:23:19.201809,192.168.0.113
583,-1,-100,-100,-100,"0,0,0",2,0,0,0,0,0,60,64,80,30,100,-16.87,11,28.0,24.0,-1002.0,11:23:19.304147,192.168.0.113
588,-1,-100,-100,-100,"0,0,0",2,0,0,0,0,0,60,64,79,30,100,-16.89,11,36.0,9.0,-1010.0,11:23:19.405956,192.168.0.113
594,-1,-100,-100,-100,"0,0,0",2,-1,0,0,0,0,60,64,79,30,100,-16.9,11,33.0,11.0,-984.0,11:23:19.507918,192.168.0.113
599,-1,-100,-100,-100,"0,0,0",2,-1,0,0,0,0,60,64,80,30,100,-16.99,11,25.0,14.0,-1026.0,11:23:19.609722,192.168.0.113
604,-1,-100,-100,-100,"0,0,0",2,0,0,0,0,0,60,64,80,30,100,-17.14,11,47.0,0.0,-1017.0,11:23:19.711639,192.168.0.113
609,-1,-100,-100,-100,"0,0,0",2,0,0,0,0,0,61,63,80,30,100,-17.05,11,26.0,17.0,-1017.0,11:23:19.813875,192.168.0.113
614,-1,-100,-100,-100,"0,0,0",2,-1,0,0,0,0,61,63,81,30,100,-17.08,12,24.0,31.0,-986.0,11:23:19.915373,192.168.0.113
619,-1,-100,-100,-100,"0,0,0",2,0,0,0,0,0,61,63,82,30,100,-17.06,12,21.0,-8.0,-1023.0,11:23:20.017604,192.168.0.113
624,-1,-100,-100,-100,"0,0,0",2,-1,0,0,0,0,61,63,82,40,100,-17.08,12,30.0,-3.0,-1002.0,11:23:20.119536,192.168.0.113
629,-1,-100,-100,-100,"0,0,0",2,-1,0,0,0,0,61,63,82,40,100,-17.03,12,38.0,8.0,-980.0,11:23:20.224437,192.168.0.113
634,-1,-100,-100,-100,"0,0,0",1,0,0,0,0,0,61,63,82,40,100,-16.89,12,5.0,10.0,-966.0,11:23:20.329599,192.168.0.113
639,-1,-100,-100,-100,"0,0,0",1,0,0,0,0,0,61,63,82,40,100,-17.0,12,-9.0,11.0,-1005.0,11:23:20.425925,192.168.0.113
644,-1,-100,-100,-100,"0,0,0",1,0,0,0,0,0,61,63,82,40,100,-16.94,12,65.0,-5.0,-969.0,11:23:20.530049,192.168.0.113
647,-1,-100,-100,-100,"0,0,0",1,0,0,0,0,0,61,63,81,40,100,-17.04,12,49.0,-15.0,-999.0,11:23:20.579220,192.168.0.113
651,-1,-100,-100,-100,"0,0,0",1,0,0,0,0,0,61,63,81,40,100,-17.0,12,-21.0,15.0,-1018.0,11:23:20.680386,192.168.0.113
659,-1,-100,-100,-100,"0,0,0",0,0,-1,0,0,0,61,64,80,40,100,-17.01,12,22.0,-1.0,-983.0,11:23:20.833572,192.168.0.113
661,-1,-100,-100,-100,"0,0,0",0,0,0,0,0,0,61,64,79,30,100,-16.99,13,0.0,-29.0,-1016.0,11:23:20.884729,192.168.0.113
667,-1,-100,-100,-100,"0,0,0",0,0,0,0,0,0,61,64,79,30,100,-17.01,13,-14.0,9.0,-1033.0,11:23:20.986338,192.168.0.113
671,-1,-100,-100,-100,"0,0,0",0,0,0,0,0,0,61,64,78,30,100,-16.97,13,32.0,15.0,-967.0,11:23:21.088564,192.168.0.113
676,-1,-100,-100,-100,"0,0,0",0,0,0,0,0,0,61,64,78,30,100,-17.03,13,2.0,-3.0,-1006.0,11:23:21.190544,192.168.0.113
681,-1,-100,-100,-100,"0,0,0",0,0,0,0,0,0,61,64,77,30,100,-17.01,13,10.0,2.0,-993.0,11:23:21.292791,192.168.0.113
686,-1,-100,-100,-100,"0,0,0",1,0,0,0,0,0,61,64,77,30,100,-17.02,13,-13.0,8.0,-984.0,11:23:21.394877,192.168.0.113
692,-1,-100,-100,-100,"0,0,0",1,0,0,0,0,0,61,64,77,30,100,-17.04,13,0.0,-6.0,-1011.0,11:23:21.496513,192.168.0.113
697,-1,-100,-100,-100,"0,0,0",1,0,0,0,0,0,61,64,77,30,100,-16.98,13,-4.0,-3.0,-1014.0,11:23:21.599461,192.168.0.113
702,-1,-100,-100,-100,"0,0,0",2,0,0,0,0,0,61,64,77,30,100,-16.98,13,0.0,14.0,-1008.0,11:23:21.700699,192.168.0.113
708,-1,-100,-100,-100,"0,0,0",1,0,0,0,0,0,61,63,77,30,100,-17.01,14,-2.0,-13.0,-989.0,11:23:21.804031,192.168.0.113
712,-1,-100,-100,-100,"0,0,0",1,0,0,0,0,0,61,63,77,30,100,-17.0,14,-3.0,-8.0,-978.0,11:23:21.904343,192.168.0.113
717,-1,-100,-100,-100,"0,0,0",1,0,0,0,0,0,61,63,77,30,100,-17.07,14,13.0,0.0,-999.0,11:23:22.007175,192.168.0.113
722,-1,-100,-100,-100,"0,0,0",1,0,0,0,0,0,61,63,77,30,100,-17.02,14,10.0,-1.0,-999.0,11:23:22.108270,192.168.0.113
727,-1,-100,-100,-100,"0,0,0",1,0,0,0,0,0,61,63,77,30,100,-17.01,14,36.0,-1.0,-1007.0,11:23:22.210529,192.168.0.113
733,-1,-100,-100,-100,"0,0,0",1,0,0,0,0,0,61,63,78,30,100,-16.97,14,38.0,-17.0,-1001.0,11:23:22.312743,192.168.0.113
738,-1,-100,-100,-100,"0,0,0",1,1,0,0,0,0,61,63,78,30,100,-16.95,14,20.0,-8.0,-982.0,11:23:22.414582,192.168.0.113
743,-1,-100,-100,-100,"0,0,0",2,0,0,0,0,0,61,63,78,30,100,-16.97,14,15.0,-23.0,-1006.0,11:23:22.516604,192.168.0.113
748,-1,-100,-100,-100,"0,0,0",1,0,0,0,0,0,61,63,78,30,100,-16.95,14,19.0,-25.0,-1013.0,11:23:22.618658,192.168.0.113
754,-1,-100,-100,-100,"0,0,0",2,1,0,0,0,0,61,63,79,30,100,-17.08,14,16.0,-9.0,-1005.0,11:23:22.720822,192.168.0.113
759,-1,-100,-100,-100,"0,0,0",1,1,0,0,0,0,61,64,79,30,100,-17.01,15,12.0,-22.0,-990.0,11:23:22.822862,192.168.0.113
763,-1,-100,-100,-100,"0,0,0",1,0,0,0,0,0,61,64,79,30,100,-16.94,15,6.0,-14.0,-974.0,11:23:22.924602,192.168.0.113
769,-1,-100,-100,-100,"0,0,0",1,0,0,0,0,0,61,64,79,30,100,-17.07,15,21.0,-11.0,-997.0,11:23:23.026339,192.168.0.113
774,-1,-100,-100,-100,"0,0,0",1,0,0,0,0,0,61,64,80,30,100,-17.13,15,43.0,-26.0,-987.0,11:23:23.128692,192.168.0.113
779,-1,-100,-100,-100,"0,0,0",1,0,0,0,0,0,61,64,79,30,100,-17.06,15,52.0,-37.0,-1005.0,11:23:23.230120,192.168.0.113
784,-1,-100,-100,-100,"0,0,0",2,1,0,0,0,0,61,64,79,30,100,-16.94,15,51.0,-2.0,-1006.0,11:23:23.332496,192.168.0.113
789,-1,-100,-100,-100,"0,0,0",2,1,0,0,0,0,61,64,80,30,100,-16.85,15,27.0,-19.0,-997.0,11:23:23.434172,192.168.0.113
794,-1,-100,-100,-100,"0,0,0",2,1,0,0,0,0,61,64,81,30,100,-16.99,15,30.0,-24.0,-1005.0,11:23:23.536125,192.168.0.113
799,-1,-100,-100,-100,"0,0,0",2,1,0,0,0,0,61,64,79,30,100,-16.93,15,24.0,-20.0,-982.0,11:23:23.649572,192.168.0.113
804,-1,-100,-100,-100,"0,0,0",2,0,0,0,0,0,61,64,80,30,100,-16.89,15,1.0,-13.0,-989.0,11:23:23.744227,192.168.0.113
809,-1,-100,-100,-100,"0,0,0",2,1,0,0,0,0,61,65,80,30,100,-16.95,16,14.0,0.0,-998.0,11:23:23.842458,192.168.0.113
814,-1,-100,-100,-100,"0,0,0",1,0,0,0,0,0,61,65,80,30,100,-16.85,16,7.0,7.0,-1002.0,11:23:23.944476,192.168.0.113
819,-1,-100,-100,-100,"0,0,0",1,0,0,0,0,0,61,65,79,30,100,-16.85,16,-4.0,-16.0,-1002.0,11:23:24.046297,192.168.0.113
824,-1,-100,-100,-100,"0,0,0",1,0,0,0,0,0,61,65,79,30,100,-16.78,16,22.0,-23.0,-977.0,11:23:24.148368,192.168.0.113
826,-1,-100,-100,-100,"0,0,0",1,0,0,0,0,0,61,65,80,30,100,-16.79,16,14.0,-33.0,-994.0,11:23:24.199622,192.168.0.113
831,-1,-100,-100,-100,"0,0,0",0,0,0,0,0,0,61,65,79,30,100,-16.8,16,21.0,-4.0,-1040.0,11:23:24.301197,192.168.0.113
836,-1,-100,-100,-100,"0,0,0",0,0,0,0,0,0,61,65,79,30,100,-16.85,16,4.0,-14.0,-1009.0,11:23:24.403506,192.168.0.113
841,-1,-100,-100,-100,"0,0,0",0,0,0,0,0,0,61,65,80,30,100,-16.87,16,2.0,-30.0,-980.0,11:23:24.505539,192.168.0.113
847,-1,-100,-100,-100,"0,0,0",0,0,0,0,0,0,61,65,80,30,100,-16.91,16,3.0,-29.0,-966.0,11:23:24.607766,192.168.0.113
852,-1,-100,-100,-100,"0,0,0",0,0,0,0,0,0,61,65,80,30,100,-16.83,16,28.0,-54.0,-998.0,11:23:24.709194,192.168.0.113
857,-1,-100,-100,-100,"0,0,0",0,1,0,0,0,0,62,65,80,30,100,-16.82,17,20.0,-41.0,-987.0,11:23:24.811304,192.168.0.113
862,-1,-100,-100,-100,"0,0,0",0,1,0,0,0,0,62,65,80,30,100,-16.83,17,34.0,-34.0,-1027.0,11:23:24.913850,192.168.0.113
867,-1,-100,-100,-100,"0,0,0",0,1,0,0,0,0,62,65,79,30,100,-16.85,17,33.0,-37.0,-1027.0,11:23:25.015548,192.168.0.113
872,-1,-100,-100,-100,"0,0,0",1,1,0,0,0,0,62,65,79,30,100,-16.69,17,13.0,-22.0,-991.0,11:23:25.119153,192.168.0.113
877,-1,-100,-100,-100,"0,0,0",1,0,0,0,0,0,62,65,79,30,100,-16.7,17,-11.0,-4.0,-988.0,11:23:25.219598,192.168.0.113
882,-1,-100,-100,-100,"0,0,0",0,0,0,0,0,0,62,65,79,30,100,-16.92,17,26.0,-34.0,-1005.0,11:23:25.321456,192.168.0.113
887,-1,-100,-100,-100,"0,0,0",0,1,0,0,0,0,62,65,78,30,100,-16.79,17,10.0,-8.0,-1016.0,11:23:25.423324,192.168.0.113
892,-1,-100,-100,-100,"0,0,0",1,1,0,0,0,0,62,65,79,30,100,-16.85,17,10.0,-33.0,-1025.0,11:23:25.525516,192.168.0.113
898,-1,-100,-100,-100,"0,0,0",1,1,0,0,0,0,62,65,78,30,100,-16.89,17,29.0,-35.0,-1011.0,11:23:25.627843,192.168.0.113
902,-1,-100,-100,-100,"0,0,0",1,1,0,0,0,0,62,65,78,30,100,-16.9,17,27.0,-18.0,-1021.0,11:23:25.729566,192.168.0.113
908,-1,-100,-100,-100,"0,0,0",1,1,0,0,0,0,62,65,78,30,100,-16.87,18,23.0,-8.0,-995.0,11:23:25.831592,192.168.0.113
913,-1,-100,-100,-100,"0,0,0",1,1,0,0,0,0,62,65,78,30,100,-16.8,18,11.0,-15.0,-981.0,11:23:25.934049,192.168.0.113
918,-1,-100,-100,-100,"0,0,0",2,0,0,0,0,0,62,65,78,30,100,-16.73,18,25.0,-4.0,-982.0,11:23:26.035575,192.168.0.113
924,-1,-100,-100,-100,"0,0,0",1,0,0,0,0,0,62,65,78,30,100,-16.7,18,22.0,-27.0,-970.0,11:23:26.137045,192.168.0.113
929,-1,-100,-100,-100,"0,0,0",1,1,0,0,0,0,62,65,78,30,100,-16.78,18,12.0,-4.0,-1010.0,11:23:26.239300,192.168.0.113
934,-1,-100,-100,-100,"0,0,0",1,1,0,0,0,0,62,65,77,30,100,-16.84,18,29.0,-25.0,-1006.0,11:23:26.341506,192.168.0.113
939,-1,-100,-100,-100,"0,0,0",1,1,0,0,0,0,62,65,77,30,100,-16.76,18,27.0,-12.0,-1009.0,11:23:26.443474,192.168.0.113
944,-1,-100,-100,-100,"0,0,0",2,1,0,0,0,0,62,65,77,30,100,-16.86,18,7.0,-5.0,-1017.0,11:23:26.546008,192.168.0.113
949,-1,-100,-100,-100,"0,0,0",2,1,0,0,0,0,62,65,77,30,100,-16.82,18,5.0,-12.0,-1001.0,11:23:26.648938,192.168.0.113
954,-1,-100,-100,-100,"0,0,0",1,1,0,0,0,0,62,65,77,30,100,-16.88,18,21.0,5.0,-995.0,11:23:26.749193,192.168.0.113
959,-1,-100,-100,-100,"0,0,0",1,0,0,0,0,0,61,65,77,30,100,-16.82,19,31.0,5.0,-1003.0,11:23:26.851131,192.168.0.113
964,-1,-100,-100,-100,"0,0,0",1,0,0,0,0,0,61,65,78,30,100,-16.87,19,36.0,-7.0,-1017.0,11:23:26.953365,192.168.0.113
969,-1,-100,-100,-100,"0,0,0",2,0,0,0,0,0,61,65,78,30,100,-16.99,19,29.0,-14.0,-983.0,11:23:27.055087,192.168.0.113
974,-1,-100,-100,-100,"0,0,0",1,0,0,0,0,0,61,65,78,30,100,-16.83,19,36.0,-26.0,-979.0,11:23:27.157544,192.168.0.113
979,-1,-100,-100,-100,"0,0,0",1,0,0,0,0,0,61,65,78,30,100,-16.93,19,28.0,-29.0,-1001.0,11:23:27.259653,192.168.0.113
984,-1,-100,-100,-100,"0,0,0",1,0,0,0,0,0,61,65,78,30,100,-16.89,19,26.0,-18.0,-1025.0,11:23:27.361421,192.168.0.113
989,-1,-100,-100,-100,"0,0,0",2,1,0,0,0,0,61,65,78,30,100,-16.82,19,30.0,-21.0,-991.0,11:23:27.463233,192.168.0.113
991,-1,-100,-100,-100,"0,0,0",2,1,0,0,0,0,61,65,78,30,100,-16.88,19,30.0,-23.0,-988.0,11:23:27.514253,192.168.0.113
996,-1,-100,-100,-100,"0,0,0",2,0,0,0,0,0,61,65,79,30,100,-16.81,19,27.0,-11.0,-991.0,11:23:27.616434,192.168.0.113
1001,-1,-100,-100,-100,"0,0,0",2,0,0,0,0,0,61,65,79,30,100,-16.81,19,24.0,-11.0,-1006.0,11:23:27.718648,192.168.0.113
1006,-1,-100,-100,-100,"0,0,0",1,0,0,0,0,0,62,65,79,30,100,-16.78,20,19.0,-10.0,-994.0,11:23:27.820725,192.168.0.113
1012,-1,-100,-100,-100,"0,0,0",1,0,0,0,0,0,62,65,79,30,100,-16.81,20,47.0,-25.0,-1011.0,11:23:27.922576,192.168.0.113
1018,-1,-100,-100,-100,"0,0,0",2,0,0,0,0,0,62,65,80,30,100,-16.8,20,42.0,-34.0,-1014.0,11:23:28.024764,192.168.0.113
1021,-1,-100,-100,-100,"0,0,0",2,0,0,0,0,0,62,65,80,30,100,-16.77,20,38.0,-49.0,-998.0,11:23:28.126411,192.168.0.113
1028,-1,-100,-100,-100,"0,0,0",3,0,0,0,0,0,62,65,80,30,100,-16.87,20,56.0,-6.0,-983.0,11:23:28.229068,192.168.0.113
1032,-1,-100,-100,-100,"0,0,0",3,1,0,0,0,0,62,65,79,30,100,-16.9,20,57.0,-11.0,-1004.0,11:23:28.330814,192.168.0.113
1037,-1,-100,-100,-100,"0,0,0",3,1,0,0,0,0,62,65,79,30,100,-16.92,20,51.0,-16.0,-997.0,11:23:28.432500,192.168.0.113
1042,-1,-100,-100,-100,"0,0,0",3,1,0,0,0,0,62,65,80,30,100,-16.92,20,36.0,-1.0,-993.0,11:23:28.534563,192.168.0.113
1047,-1,-100,-100,-100,"0,0,0",3,0,0,0,0,0,62,65,79,30,100,-16.86,20,50.0,-24.0,-998.0,11:23:28.637333,192.168.0.113
1052,-1,-100,-100,-100,"0,0,0",3,0,0,0,0,0,62,65,80,30,100,-16.86,20,40.0,-11.0,-989.0,11:23:28.738515,192.168.0.113
1057,-1,-100,-100,-100,"0,0,0",3,0,0,0,0,0,62,65,79,30,100,-16.88,21,41.0,-12.0,-988.0,11:23:28.840260,192.168.0.113
1062,-1,-100,-100,-100,"0,0,0",3,0,0,0,0,0,62,65,79,30,100,-16.83,21,8.0,0.0,-978.0,11:23:28.942233,192.168.0.113
1067,-1,-100,-100,-100,"0,0,0",2,0,0,0,0,0,62,65,79,30,100,-16.88,21,38.0,6.0,-1024.0,11:23:29.044747,192.168.0.113
1073,-1,-100,-100,-100,"0,0,0",2,0,0,0,0,0,62,65,79,30,100,-16.92,21,31.0,-4.0,-980.0,11:23:29.146129,192.168.0.113
1078,-1,-100,-100,-100,"0,0,0",3,0,0,0,0,0,62,65,78,30,100,-16.86,21,43.0,7.0,-1031.0,11:23:29.248304,192.168.0.113
1083,-1,-100,-100,-100,"0,0,0",2,0,0,0,0,0,62,65,78,30,100,-16.91,21,29.0,0.0,-1007.0,11:23:29.350154,192.168.0.113
1088,-1,-100,-100,-100,"0,0,0",2,0,0,0,0,0,62,65,78,30,100,-16.92,21,73.0,-1.0,-986.0,11:23:29.451895,192.168.0.113
1093,-1,-100,-100,-100,"0,0,0",2,0,0,0,0,0,62,65,78,30,100,-16.95,21,30.0,0.0,-994.0,11:23:29.554447,192.168.0.113
1099,-1,-100,-100,-100,"0,0,0",2,0,0,0,0,0,62,65,78,30,100,-16.99,21,13.0,6.0,-991.0,11:23:29.656550,192.168.0.113
1104,-1,-100,-100,-100,"0,0,0",2,0,0,0,0,0,62,65,78,30,100,-17.02,21,18.0,13.0,-1016.0,11:23:29.758999,192.168.0.113
1109,-1,-100,-100,-100,"0,0,0",2,-1,0,0,0,0,62,65,79,30,100,-17.02,22,49.0,10.0,-1012.0,11:23:29.860171,192.168.0.113
1114,-1,-100,-100,-100,"0,0,0",2,-1,0,0,0,0,62,65,79,30,100,-16.81,22,27.0,0.0,-1035.0,11:23:29.962255,192.168.0.113
1119,-1,-100,-100,-100,"0,0,0",1,-1,0,0,0,0,62,65,80,30,100,-16.98,22,17.0,20.0,-1002.0,11:23:30.064525,192.168.0.113
1124,-1,-100,-100,-100,"0,0,0",1,-2,0,0,0,0,62,65,80,30,100,-17.01,22,19.0,34.0,-986.0,11:23:30.167017,192.168.0.113
1129,-1,-100,-100,-100,"0,0,0",1,-2,0,0,0,0,62,65,80,30,100,-16.84,22,5.0,14.0,-963.0,11:23:30.269353,192.168.0.113
1134,-1,-100,-100,-100,"0,0,0",1,-1,0,0,0,0,62,65,80,30,100,-16.84,22,36.0,12.0,-990.0,11:23:30.371712,192.168.0.113
1139,-1,-100,-100,-100,"0,0,0",0,-1,0,0,0,0,62,65,80,30,100,-16.88,22,-6.0,12.0,-961.0,11:23:30.474221,192.168.0.113
1144,-1,-100,-100,-100,"0,0,0",0,0,0,0,0,0,62,65,79,30,100,-17.07,22,26.0,-4.0,-1044.0,11:23:30.576424,192.168.0.113
1149,-1,-100,-100,-100,"0,0,0",1,-1,0,0,0,0,62,65,79,30,100,-17.02,22,21.0,13.0,-995.0,11:23:30.678702,192.168.0.113
1154,-1,-100,-100,-100,"0,0,0",1,0,0,0,0,0,62,65,79,30,100,-16.99,22,10.0,31.0,-982.0,11:23:30.777966,192.168.0.113
1159,-1,-100,-100,-100,"0,0,0",1,-1,0,0,0,0,62,64,78,30,100,-16.88,23,0.0,21.0,-1006.0,11:23:30.880179,192.168.0.113
1164,-1,-100,-100,-100,"0,0,0",1,-1,0,0,0,0,62,64,78,30,100,-16.93,23,-6.0,39.0,-994.0,11:23:30.982064,192.168.0.113
1169,-1,-100,-100,-100,"0,0,0",2,0,0,0,0,0,62,64,78,30,100,-16.91,23,18.0,32.0,-1046.0,11:23:31.083979,192.168.0.113
1171,-1,-100,-100,-100,"0,0,0",1,-1,0,0,0,0,62,64,77,30,100,-16.71,23,33.0,16.0,-991.0,11:23:31.135149,192.168.0.113
1176,-1,-100,-100,-100,"0,0,0",1,-1,0,0,0,0,62,64,76,30,100,-16.8,23,46.0,-3.0,-1041.0,11:23:31.237267,192.168.0.113
1181,-1,-100,-100,-100,"0,0,0",1,-1,0,0,0,0,62,64,76,30,100,-16.88,23,20.0,29.0,-963.0,11:23:31.339023,192.168.0.113
1186,-1,-100,-100,-100,"0,0,0",1,-2,0,0,0,0,62,64,77,30,100,-16.77,23,37.0,3.0,-1013.0,11:23:31.440922,192.168.0.113
1191,-1,-100,-100,-100,"0,0,0",1,-2,0,0,0,0,62,64,76,30,100,-16.9,23,22.0,6.0,-1046.0,11:23:31.542984,192.168.0.113
1197,-1,-100,-100,-100,"0,0,0",1,-1,0,0,0,0,62,64,77,30,100,-17.01,23,29.0,-2.0,-988.0,11:23:31.646640,192.168.0.113
1202,-1,-100,-100,-100,"0,0,0",1,-1,0,0,0,0,62,64,77,30,100,-16.88,23,38.0,0.0,-1016.0,11:23:31.747022,192.168.0.113
1207,-1,-100,-100,-100,"0,0,0",2,0,0,0,0,0,62,65,77,30,100,-17.03,24,10.0,25.0,-996.0,11:23:31.848877,192.168.0.113
1212,-1,-100,-100,-100,"0,0,0",2,0,0,0,0,0,62,65,77,30,100,-16.89,24,51.0,18.0,-1023.0,11:23:31.950852,192.168.0.113
1217,-1,-100,-100,-100,"0,0,0",2,0,0,0,0,0,62,65,77,30,100,-16.82,24,49.0,0.0,-961.0,11:23:32.053002,192.168.0.113
1221,-1,-100,-100,-100,"0,0,0",3,0,0,0,0,0,62,65,78,30,100,-16.83,24,47.0,15.0,-958.0,11:23:32.154906,192.168.0.113
1227,-1,-100,-100,-100,"0,0,0",3,0,0,0,0,0,62,65,78,30,100,-16.88,24,30.0,19.0,-1006.0,11:23:32.256910,192.168.0.113
1233,-1,-100,-100,-100,"0,0,0",4,0,0,0,0,0,62,65,77,30,100,-16.69,24,31.0,14.0,-981.0,11:23:32.359108,192.168.0.113
1238,-1,-100,-100,-100,"0,0,0",4,-1,0,0,0,0,62,65,77,30,100,-16.8,24,9.0,20.0,-1007.0,11:23:32.460848,192.168.0.113
1243,-1,-100,-100,-100,"0,0,0",3,-1,0,0,0,0,62,65,77,30,100,-17.02,24,13.0,38.0,-1004.0,11:23:32.563080,192.168.0.113
1248,-1,-100,-100,-100,"0,0,0",2,-1,0,0,0,0,62,65,76,30,100,-16.88,24,38.0,-5.0,-961.0,11:23:32.664867,192.168.0.113
1253,-1,-100,-100,-100,"0,0,0",2,-1,0,0,0,0,62,65,75,30,100,-16.88,24,40.0,-10.0,-973.0,11:23:32.767276,192.168.0.113
1258,-1,-100,-100,-100,"0,0,0",2,-1,0,0,0,0,62,65,75,30,100,-16.92,25,36.0,-5.0,-1029.0,11:23:32.868810,192.168.0.113
1263,-1,-100,-100,-100,"0,0,0",3,0,0,0,0,0,62,65,74,30,100,-16.92,25,56.0,-29.0,-1017.0,11:23:32.971215,192.168.0.113
1268,-1,-100,-100,-100,"0,0,0",3,0,0,0,0,0,62,65,74,30,100,-17.05,25,33.0,-7.0,-1045.0,11:23:33.073162,192.168.0.113
1274,-1,-100,-100,-100,"0,0,0",3,0,0,0,0,0,62,65,73,30,100,-17.0,25,40.0,3.0,-1026.0,11:23:33.175171,192.168.0.113
1279,-1,-100,-100,-100,"0,0,0",2,0,0,0,0,0,62,65,73,30,100,-17.06,25,37.0,-11.0,-1062.0,11:23:33.276781,192.168.0.113
1284,-1,-100,-100,-100,"0,0,0",3,0,0,0,0,0,62,65,73,30,100,-17.06,25,27.0,-3.0,-1035.0,11:23:33.379085,192.168.0.113
1289,-1,-100,-100,-100,"0,0,0",3,0,0,0,0,0,62,65,73,30,100,-17.02,25,28.0,13.0,-980.0,11:23:33.480928,192.168.0.113
1294,-1,-100,-100,-100,"0,0,0",2,0,0,0,0,0,62,65,74,30,100,-17.09,25,51.0,-18.0,-1005.0,11:23:33.583357,192.168.0.113
1299,-1,-100,-100,-100,"0,0,0",2,0,0,0,0,0,62,65,74,30,100,-17.09,25,51.0,-18.0,-983.0,11:23:33.686202,192.168.0.113
1304,-1,-100,-100,-100,"0,0,0",2,0,-1,0,0,0,62,65,75,30,100,-17.14,25,45.0,7.0,-996.0,11:23:33.787055,192.168.0.113
1309,-1,-100,-100,-100,"0,0,0",2,0,-1,0,0,0,63,65,75,30,100,-17.06,26,22.0,-16.0,-1007.0,11:23:33.888817,192.168.0.113
1314,-1,-100,-100,-100,"0,0,0",2,0,-1,0,0,0,63,65,76,30,100,-16.96,26,27.0,20.0,-967.0,11:23:33.993672,192.168.0.113
1319,-1,-100,-100,-100,"0,0,0",2,1,-1,0,0,0,63,65,77,30,100,-17.12,26,18.0,0.0,-976.0,11:23:34.093090,192.168.0.113
1324,-1,-100,-100,-100,"0,0,0",2,0,-1,0,0,0,63,65,77,30,100,-17.15,26,51.0,-5.0,-1013.0,11:23:34.195609,192.168.0.113
1329,-1,-100,-100,-100,"0,0,0",2,0,-1,0,0,0,63,65,78,30,100,-17.12,26,65.0,6.0,-999.0,11:23:34.298373,192.168.0.113
1334,-1,-100,-100,-100,"0,0,0",2,0,-1,0,0,0,63,65,79,30,100,-17.05,26,33.0,21.0,-965.0,11:23:34.400128,192.168.0.113
1339,-1,-100,-100,-100,"0,0,0",2,0,-1,0,0,0,63,65,80,30,100,-17.1,26,8.0,3.0,-990.0,11:23:34.501835,192.168.0.113
1342,-1,-100,-100,-100,"0,0,0",2,0,-1,0,0,0,63,65,80,30,100,-17.08,26,9.0,3.0,-1003.0,11:23:34.553019,192.168.0.113
1347,-1,-100,-100,-100,"0,0,0",1,0,-1,0,0,0,63,65,80,30,100,-17.02,26,47.0,-19.0,-977.0,11:23:34.654987,192.168.0.113
1352,-1,-100,-100,-100,"0,0,0",1,0,0,0,0,0,63,65,80,40,100,-16.9,26,11.0,22.0,-970.0,11:23:34.756935,192.168.0.113
1357,-1,-100,-100,-100,"0,0,0",1,-1,0,0,0,0,62,65,80,30,100,-16.9,27,40.0,8.0,-999.0,11:23:34.859018,192.168.0.113
1363,-1,-100,-100,-100,"0,0,0",2,-1,0,0,0,0,62,65,80,30,100,-17.01,27,45.0,12.0,-991.0,11:23:34.961548,192.168.0.113
1368,-1,-100,-100,-100,"0,0,0",3,-1,0,0,0,0,62,65,80,30,100,-16.98,27,32.0,20.0,-981.0,11:23:35.063018,192.168.0.113
1372,-1,-100,-100,-100,"0,0,0",3,0,0,0,0,0,62,65,80,30,100,-16.91,27,41.0,17.0,-1006.0,11:23:35.164604,192.168.0.113
1378,-1,-100,-100,-100,"0,0,0",3,0,0,0,0,0,62,65,79,30,100,-16.98,27,43.0,-2.0,-1017.0,11:23:35.267037,192.168.0.113
1383,-1,-100,-100,-100,"0,0,0",3,0,0,0,0,0,62,65,78,30,100,-16.96,27,29.0,19.0,-1001.0,11:23:35.368708,192.168.0.113
1388,-1,-100,-100,-100,"0,0,0",2,-1,0,0,0,0,62,65,79,30,100,-17.01,27,47.0,5.0,-1034.0,11:23:35.470810,192.168.0.113
1393,-1,-100,-100,-100,"0,0,0",2,-1,0,0,0,0,62,65,79,30,100,-17.08,27,28.0,3.0,-974.0,11:23:35.572823,192.168.0.113
1398,-1,-100,-100,-100,"0,0,0",3,-1,0,0,0,0,62,65,79,30,100,-17.08,27,15.0,2.0,-981.0,11:23:35.674781,192.168.0.113
1403,-1,-100,-100,-100,"0,0,0",2,-1,0,0,0,0,62,65,79,30,100,-17.07,27,31.0,19.0,-987.0,11:23:35.776757,192.168.0.113
1408,-1,-100,-100,-100,"0,0,0",1,0,0,0,0,0,63,65,79,30,100,-16.93,28,30.0,24.0,-985.0,11:23:35.878900,192.168.0.113
1413,-1,-100,-100,-100,"0,0,0",1,0,0,0,0,0,63,65,79,30,100,-16.92,28,24.0,5.0,-1001.0,11:23:35.983539,192.168.0.113
1417,-1,-100,-100,-100,"0,0,0",3,0,0,0,0,0,63,65,80,30,100,-17.02,28,35.0,-5.0,-994.0,11:23:36.083350,192.168.0.113
1424,-1,-100,-100,-100,"0,0,0",2,0,0,0,0,0,63,65,80,30,100,-16.94,28,20.0,4.0,-998.0,11:23:36.184725,192.168.0.113
1429,-1,-100,-100,-100,"0,0,0",2,0,0,0,0,0,63,65,80,30,100,-17.07,28,17.0,33.0,-991.0,11:23:36.286755,192.168.0.113
1434,-1,-100,-100,-100,"0,0,0",2,0,0,0,0,0,63,65,80,40,100,-17.11,28,19.0,25.0,-999.0,11:23:36.388671,192.168.0.113
1439,-1,-100,-100,-100,"0,0,0",1,-1,0,0,0,0,63,65,81,40,100,-17.04,28,3.0,23.0,-982.0,11:23:36.491156,192.168.0.113
1444,-1,-100,-100,-100,"0,0,0",1,-1,0,0,0,0,63,65,80,40,100,-17.0,28,23.0,10.0,-971.0,11:23:36.592906,192.168.0.113
1449,-1,-100,-100,-100,"0,0,0",1,-1,0,0,0,0,63,65,80,40,100,-17.07,28,25.0,14.0,-1012.0,11:23:36.694929,192.168.0.113
1454,-1,-100,-100,-100,"0,0,0",1,-1,0,0,0,0,63,65,80,40,100,-17.09,28,41.0,31.0,-1000.0,11:23:36.796757,192.168.0.113
1459,-1,-100,-100,-100,"0,0,0",1,0,0,0,0,0,62,65,80,40,100,-16.91,29,25.0,35.0,-1002.0,11:23:36.899143,192.168.0.113
1464,-1,-100,-100,-100,"0,0,0",1,0,0,0,0,0,62,65,80,40,100,-17.02,29,12.0,55.0,-986.0,11:23:37.001246,192.168.0.113
1469,-1,-100,-100,-100,"0,0,0",1,0,-1,0,0,0,62,65,80,30,100,-17.06,29,27.0,7.0,-1009.0,11:23:37.103181,192.168.0.113
1474,-1,-100,-100,-100,"0,0,0",1,-1,-1,0,0,0,62,65,80,30,100,-16.92,29,4.0,17.0,-990.0,11:23:37.213672,192.168.0.113
1479,-1,-100,-100,-100,"0,0,0",1,-2,-1,0,0,0,62,65,79,30,100,-16.93,29,27.0,13.0,-1004.0,11:23:37.306851,192.168.0.113
1484,-1,-100,-100,-100,"0,0,0",0,-1,-1,0,0,0,62,65,79,30,100,-17.01,29,-3.0,21.0,-1015.0,11:23:37.409043,192.168.0.113
1489,-1,-100,-100,-100,"0,0,0",1,-1,-1,0,0,0,62,65,79,30,100,-16.94,29,-15.0,27.0,-1010.0,11:23:37.511065,192.168.0.113
1494,-1,-100,-100,-100,"0,0,0",1,-1,0,0,0,0,62,65,79,30,100,-16.91,29,-10.0,44.0,-1009.0,11:23:37.613005,192.168.0.113
1497,-1,-100,-100,-100,"0,0,0",1,-1,0,0,0,0,62,65,79,30,100,-16.97,29,24.0,13.0,-1014.0,11:23:37.663817,192.168.0.113
1501,-1,-100,-100,-100,"0,0,0",1,-2,0,0,0,0,62,65,79,30,100,-16.96,29,-17.0,37.0,-1014.0,11:23:37.766135,192.168.0.113
1509,-1,-100,-100,-100,"0,0,0",1,-2,0,0,0,0,63,66,79,30,100,-17.05,30,1.0,32.0,-1002.0,11:23:37.920435,192.168.0.113
1514,-1,-100,-100,-100,"0,0,0",1,-1,0,0,0,0,63,66,79,30,100,-16.99,30,22.0,30.0,-1008.0,11:23:38.021121,192.168.0.113
1517,-1,-100,-100,-100,"0,0,0",1,-1,0,0,0,0,63,66,79,30,100,-17.03,30,16.0,16.0,-1036.0,11:23:38.071702,192.168.0.113
1522,-1,-100,-100,-100,"0,0,0",1,0,0,0,0,0,63,66,79,30,100,-16.91,30,29.0,-5.0,-1014.0,11:23:38.173848,192.168.0.113
1527,-1,-100,-100,-100,"0,0,0",1,0,0,0,0,0,63,66,80,30,100,-16.85,30,-9.0,28.0,-994.0,11:23:38.275953,192.168.0.113
1532,-1,-100,-100,-100,"0,0,0",1,0,0,0,0,0,63,66,80,30,100,-17.01,30,-12.0,27.0,-977.0,11:23:38.377900,192.168.0.113
1537,-1,-100,-100,-100,"0,0,0",1,-1,0,0,0,0,63,66,80,30,100,-17.04,30,30.0,0.0,-1001.0,11:23:38.479663,192.168.0.113
1542,-1,-100,-100,-100,"0,0,0",1,-1,0,0,0,0,63,66,80,30,100,-16.94,30,22.0,26.0,-1009.0,11:23:38.583402,192.168.0.113
1547,-1,-100,-100,-100,"0,0,0",1,0,0,0,0,0,63,66,80,30,100,-16.85,30,7.0,35.0,-984.0,11:23:38.684094,192.168.0.113
1553,-1,-100,-100,-100,"0,0,0",1,0,0,0,0,0,63,66,80,30,100,-16.87,30,-4.0,40.0,-1002.0,11:23:38.785757,192.168.0.113
1558,-1,-100,-100,-100,"0,0,0",0,-1,0,0,0,0,62,65,80,30,100,-16.89,31,13.0,10.0,-1013.0,11:23:38.887785,192.168.0.113
1563,-1,-100,-100,-100,"0,0,0",0,-1,0,0,0,0,62,65,79,30,100,-16.94,31,-2.0,34.0,-994.0,11:23:38.989742,192.168.0.113
1569,-1,-100,-100,-100,"0,0,0",0,0,0,0,0,0,62,65,80,30,100,-16.91,31,28.0,15.0,-1007.0,11:23:39.091636,192.168.0.113
1574,-1,-100,-100,-100,"0,0,0",0,0,0,0,0,0,62,65,80,30,100,-17.09,31,42.0,10.0,-983.0,11:23:39.193777,192.168.0.113
1579,-1,-100,-100,-100,"0,0,0",0,0,0,0,0,0,62,65,80,30,100,-17.05,31,1.0,19.0,-994.0,11:23:39.295970,192.168.0.113
1584,-1,-100,-100,-100,"0,0,0",1,0,0,0,0,0,62,65,80,30,100,-16.92,31,19.0,7.0,-992.0,11:23:39.397919,192.168.0.113
1589,-1,-100,-100,-100,"0,0,0",1,0,0,0,0,0,62,65,81,30,100,-16.96,31,26.0,-6.0,-970.0,11:23:39.499818,192.168.0.113
1594,-1,-100,-100,-100,"0,0,0",1,0,0,0,0,0,62,65,80,30,100,-16.92,31,16.0,-4.0,-990.0,11:23:39.601768,192.168.0.113
1598,-1,-100,-100,-100,"0,0,0",1,0,0,0,0,0,62,65,79,30,100,-17.01,31,17.0,2.0,-1022.0,11:23:39.704113,192.168.0.113
1604,-1,-100,-100,-100,"0,0,0",1,0,0,0,0,0,62,65,79,30,100,-16.92,31,11.0,-1.0,-1004.0,11:23:39.808543,192.168.0.113
1609,-1,-100,-100,-100,"0,0,0",1,0,0,0,0,0,63,65,79,30,100,-16.98,32,0.0,2.0,-993.0,11:23:39.908675,192.168.0.113
1614,-1,-100,-100,-100,"0,0,0",1,0,0,0,0,0,63,65,79,30,100,-17.0,32,18.0,2.0,-1004.0,11:23:40.010873,192.168.0.113
1619,-1,-100,-100,-100,"0,0,0",1,1,0,0,0,0,63,65,79,30,100,-16.86,32,11.0,0.0,-1000.0,11:23:40.112667,192.168.0.113
1624,-1,-100,-100,-100,"0,0,0",1,0,0,0,0,0,63,65,78,30,100,-16.96,32,19.0,-4.0,-1005.0,11:23:40.214657,192.168.0.113
1629,-1,-100,-100,-100,"0,0,0",0,0,0,0,0,0,63,65,79,30,100,-16.93,32,16.0,11.0,-1026.0,11:23:40.316755,192.168.0.113
1634,-1,-100,-100,-100,"0,0,0",1,0,0,0,0,0,63,65,79,30,100,-17.03,32,15.0,4.0,-1015.0,11:23:40.419100,192.168.0.113
1639,-1,-100,-100,-100,"0,0,0",0,0,0,0,0,0,63,65,79,30,100,-16.98,32,19.0,20.0,-985.0,11:23:40.520684,192.168.0.113
1644,-1,-100,-100,-100,"0,0,0",0,0,0,0,0,0,63,65,79,30,100,-16.97,32,0.0,0.0,-1003.0,11:23:40.623116,192.168.0.113
1649,-1,-100,-100,-100,"0,0,0",0,0,0,0,0,0,63,65,79,30,100,-16.97,32,-1.0,23.0,-986.0,11:23:40.724554,192.168.0.113
1654,-1,-100,-100,-100,"0,0,0",0,0,0,0,0,0,63,65,78,30,100,-17.07,32,-8.0,-2.0,-963.0,11:23:40.826913,192.168.0.113
1659,-1,-100,-100,-100,"0,0,0",0,0,0,0,0,0,63,66,78,30,100,-17.07,33,20.0,17.0,-1009.0,11:23:40.928605,192.168.0.113
1664,-1,-100,-100,-100,"0,0,0",0,0,0,0,0,0,63,66,78,30,100,-16.89,33,17.0,-4.0,-984.0,11:23:41.030650,192.168.0.113
1669,-1,-100,-100,-100,"0,0,0",0,0,0,0,0,0,63,66,79,30,100,-17.07,33,2.0,5.0,-1000.0,11:23:41.134786,192.168.0.113
1672,-1,-100,-100,-100,"0,0,0",0,0,0,0,0,0,63,66,78,30,100,-17.01,33,3.0,8.0,-1008.0,11:23:41.183444,192.168.0.113
1677,-1,-100,-100,-100,"0,0,0",0,0,0,0,0,0,63,66,79,30,100,-17.01,33,26.0,12.0,-1011.0,11:23:41.285635,192.168.0.113
1682,-1,-100,-100,-100,"0,0,0",1,0,0,0,0,0,63,66,79,30,100,-16.94,33,22.0,28.0,-981.0,11:23:41.387734,192.168.0.113
1687,-1,-100,-100,-100,"0,0,0",1,0,0,0,0,0,63,66,79,30,100,-16.96,33,49.0,14.0,-1005.0,11:23:41.489537,192.168.0.113
1692,-1,-100,-100,-100,"0,0,0",1,0,0,0,0,0,63,66,80,30,100,-16.92,33,13.0,24.0,-966.0,11:23:41.591707,192.168.0.113
1697,-1,-100,-100,-100,"0,0,0",1,0,0,0,0,0,63,66,80,30,100,-16.96,33,20.0,16.0,-1001.0,11:23:41.694048,192.168.0.113
1702,-1,-100,-100,-100,"0,0,0",2,-1,0,0,0,0,63,66,80,30,100,-17.01,33,-12.0,25.0,-998.0,11:23:41.796101,192.168.0.113
1707,-1,-100,-100,-100,"0,0,0",1,0,0,0,0,0,63,66,80,30,100,-16.99,34,19.0,22.0,-1014.0,11:23:41.898022,192.168.0.113
1712,-1,-100,-100,-100,"0,0,0",1,0,0,0,0,0,63,66,79,30,100,-16.99,34,31.0,15.0,-1010.0,11:23:41.999504,192.168.0.113
1717,-1,-100,-100,-100,"0,0,0",2,0,0,0,0,0,63,66,79,30,100,-16.9,34,36.0,-4.0,-1000.0,11:23:42.101683,192.168.0.113
1722,-1,-100,-100,-100,"0,0,0",2,0,0,0,0,0,63,66,79,30,100,-16.92,34,34.0,0.0,-986.0,11:23:42.203717,192.168.0.113
1727,-1,-100,-100,-100,"0,0,0",2,0,0,0,0,0,63,66,79,30,100,-17.0,34,23.0,13.0,-1006.0,11:23:42.305655,192.168.0.113
1733,-1,-100,-100,-100,"0,0,0",1,0,0,0,0,0,63,66,79,30,100,-16.94,34,31.0,14.0,-1005.0,11:23:42.407820,192.168.0.113
1738,-1,-100,-100,-100,"0,0,0",1,0,0,0,0,0,63,66,78,30,100,-16.96,34,62.0,8.0,-1001.0,11:23:42.521271,192.168.0.113
1744,-1,-100,-100,-100,"0,0,0",2,0,0,0,0,0,63,66,79,30,100,-17.06,34,38.0,32.0,-1018.0,11:23:42.611605,192.168.0.113
1749,-1,-100,-100,-100,"0,0,0",3,-1,0,0,0,0,63,66,79,30,100,-16.99,34,42.0,29.0,-1010.0,11:23:42.713330,192.168.0.113
1754,-1,-100,-100,-100,"0,0,0",2,-1,0,0,0,0,63,66,80,30,100,-17.01,35,4.0,26.0,-997.0,11:23:42.815958,192.168.0.113
1759,-1,-100,-100,-100,"0,0,0",2,-1,-1,0,0,0,63,66,80,30,100,-17.0,35,22.0,46.0,-983.0,11:23:42.917571,192.168.0.113
1764,-1,-100,-100,-100,"0,0,0",2,-2,0,0,0,0,63,66,80,30,100,-16.96,35,31.0,20.0,-987.0,11:23:43.020150,192.168.0.113
1769,-1,-100,-100,-100,"0,0,0",2,-2,0,0,0,0,63,66,80,30,100,-17.03,35,33.0,45.0,-998.0,11:23:43.121811,192.168.0.113
1774,-1,-100,-100,-100,"0,0,0",2,-2,0,0,0,0,63,66,80,30,100,-16.98,35,49.0,47.0,-1002.0,11:23:43.223713,192.168.0.113
1779,-1,-100,-100,-100,"0,0,0",2,-1,0,0,0,0,63,66,80,30,100,-16.9,35,26.0,5.0,-988.0,11:23:43.325694,192.168.0.113
1784,-1,-100,-100,-100,"0,0,0",2,-1,0,0,0,0,63,66,80,30,100,-16.83,35,29.0,5.0,-983.0,11:23:43.427710,192.168.0.113
1789,-1,-100,-100,-100,"0,0,0",2,0,0,0,0,0,63,66,80,30,100,-17.02,35,35.0,43.0,-1023.0,11:23:43.529929,192.168.0.113
1794,-1,-100,-100,-100,"0,0,0",1,0,0,0,0,0,63,66,80,30,100,-16.97,35,33.0,28.0,-985.0,11:23:43.631837,192.168.0.113
1799,-1,-100,-100,-100,"0,0,0",1,-1,0,0,0,0,63,66,80,30,100,-16.95,35,22.0,13.0,-1008.0,11:23:43.733806,192.168.0.113
1804,-1,-100,-100,-100,"0,0,0",1,-1,0,0,0,0,63,66,80,30,100,-17.0,36,16.0,45.0,-1003.0,11:23:43.835917,192.168.0.113
1809,-1,-100,-100,-100,"0,0,0",1,-1,0,0,0,0,63,66,80,30,100,-17.02,36,21.0,32.0,-974.0,11:23:43.937515,192.168.0.113
1814,-1,-100,-100,-100,"0,0,0",1,-1,0,0,0,0,63,66,80,30,100,-17.12,36,-4.0,39.0,-1000.0,11:23:44.039731,192.168.0.113
1819,-1,-100,-100,-100,"0,0,0",0,-1,0,0,0,0,63,66,80,30,100,-16.99,36,-15.0,45.0,-1010.0,11:23:44.141944,192.168.0.113
1824,-1,-100,-100,-100,"0,0,0",0,-2,-1,0,0,0,63,66,80,30,100,-17.02,36,-21.0,18.0,-1006.0,11:23:44.245300,192.168.0.113
1829,-1,-100,-100,-100,"0,0,0",0,-1,-1,1,0,0,63,66,80,30,100,-16.91,36,-5.0,23.0,-1026.0,11:23:44.345843,192.168.0.113
1834,-1,-100,-100,-100,"0,0,0",0,-1,0,1,0,0,63,66,79,30,100,-16.97,36,-25.0,52.0,-960.0,11:23:44.447997,192.168.0.113
1839,-1,-100,-100,-100,"0,0,0",0,-1,0,0,0,0,63,66,79,30,100,-17.01,36,22.0,19.0,-1000.0,11:23:44.549792,192.168.0.113
1842,-1,-100,-100,-100,"0,0,0",0,-2,0,0,0,0,63,66,79,30,100,-16.94,36,4.0,39.0,-1005.0,11:23:44.600566,192.168.0.113
1847,-1,-100,-100,-100,"0,0,0",0,-2,0,0,0,0,63,66,79,30,100,-16.92,36,13.0,19.0,-1020.0,11:23:44.703057,192.168.0.113
1852,-1,-100,-100,-100,"0,0,0",0,-1,0,0,0,0,63,66,80,30,100,-16.86,37,10.0,0.0,-1005.0,11:23:44.804698,192.168.0.113
1857,-1,-100,-100,-100,"0,0,0",0,-1,0,0,0,0,64,66,80,30,100,-16.92,37,25.0,11.0,-1008.0,11:23:44.906585,192.168.0.113
1862,-1,-100,-100,-100,"0,0,0",0,0,0,0,0,0,64,66,79,30,100,-17.04,37,26.0,15.0,-1013.0,11:23:45.008704,192.168.0.113
1867,-1,-100,-100,-100,"0,0,0",1,0,0,0,0,0,64,66,80,30,100,-17.04,37,24.0,2.0,-1005.0,11:23:45.110601,192.168.0.113
1872,-1,-100,-100,-100,"0,0,0",1,0,0,0,0,0,64,66,79,30,100,-16.99,37,20.0,-5.0,-1008.0,11:23:45.212568,192.168.0.113
1877,-1,-100,-100,-100,"0,0,0",1,0,0,0,0,0,64,66,79,30,100,-16.99,37,28.0,-15.0,-1005.0,11:23:45.314775,192.168.0.113
1882,-1,-100,-100,-100,"0,0,0",1,0,0,0,0,0,64,66,78,30,100,-17.05,37,16.0,2.0,-1030.0,11:23:45.416660,192.168.0.113
1887,-1,-100,-100,-100,"0,0,0",1,0,0,0,0,0,64,66,79,30,100,-16.94,37,35.0,-7.0,-998.0,11:23:45.518949,192.168.0.113
1893,-1,-100,-100,-100,"0,0,0",1,1,0,0,0,0,64,66,79,30,100,-16.98,37,35.0,-11.0,-988.0,11:23:45.620645,192.168.0.113
1898,-1,-100,-100,-100,"0,0,0",1,1,0,0,0,0,64,66,79,30,100,-16.87,37,27.0,-1.0,-1002.0,11:23:45.722293,192.168.0.113
1903,-1,-100,-100,-100,"0,0,0",2,1,0,0,0,0,64,66,79,30,100,-16.99,38,44.0,-1.0,-1003.0,11:23:45.824486,192.168.0.113
1908,-1,-100,-100,-100,"0,0,0",2,1,0,0,0,0,63,66,80,30,100,-16.88,38,44.0,3.0,-1001.0,11:23:45.926707,192.168.0.113
1913,-1,-100,-100,-100,"0,0,0",2,1,0,0,0,0,63,66,80,30,100,-16.83,38,40.0,15.0,-1000.0,11:23:46.028375,192.168.0.113
1918,-1,-100,-100,-100,"0,0,0",3,0,0,0,0,0,63,66,80,30,100,-16.86,38,45.0,30.0,-1013.0,11:23:46.130845,192.168.0.113
1924,-1,-100,-100,-100,"0,0,0",3,0,0,0,0,0,63,66,80,30,100,-16.79,38,51.0,14.0,-986.0,11:23:46.232892,192.168.0.113
1929,-1,-100,-100,-100,"0,0,0",3,0,0,0,0,0,63,66,79,30,100,-16.9,38,37.0,5.0,-1019.0,11:23:46.335859,192.168.0.113
1934,-1,-100,-100,-100,"0,0,0",3,0,0,0,0,0,63,66,79,30,100,-16.93,38,27.0,13.0,-1003.0,11:23:46.437129,192.168.0.113
1939,-1,-100,-100,-100,"0,0,0",3,0,0,0,0,0,63,66,79,30,100,-17.02,38,33.0,21.0,-998.0,11:23:46.538824,192.168.0.113
1944,-1,-100,-100,-100,"0,0,0",2,-1,0,0,0,0,63,66,79,30,100,-16.89,38,9.0,12.0,-984.0,11:23:46.641002,192.168.0.113
1949,-1,-100,-100,-100,"0,0,0",1,0,-1,0,0,0,63,66,79,30,100,-16.82,38,28.0,6.0,-979.0,11:23:46.742565,192.168.0.113
1954,-1,-100,-100,-100,"0,0,0",1,0,-1,0,0,0,63,66,78,30,100,-16.91,39,0.0,23.0,-1014.0,11:23:46.844862,192.168.0.113
1959,-1,-100,-100,-100,"0,0,0",0,-1,-1,0,0,0,64,66,78,30,100,-16.83,39,19.0,6.0,-979.0,11:23:46.946708,192.168.0.113
1964,-1,-100,-100,-100,"0,0,0",0,-1,-1,0,0,0,64,66,78,30,100,-17.0,39,16.0,9.0,-1002.0,11:23:47.048773,192.168.0.113
1969,-1,-100,-100,-100,"0,0,0",0,0,0,0,0,0,64,66,78,30,100,-16.91,39,4.0,19.0,-1004.0,11:23:47.151010,192.168.0.113
1974,-1,-100,-100,-100,"0,0,0",0,0,0,0,0,0,64,66,78,30,100,-17.05,39,-10.0,7.0,-987.0,11:23:47.252733,192.168.0.113
1979,-1,-100,-100,-100,"0,0,0",0,-1,0,0,0,0,64,66,78,30,100,-16.94,39,32.0,6.0,-1001.0,11:23:47.354741,192.168.0.113
1984,-1,-100,-100,-100,"0,0,0",1,0,0,0,0,0,64,66,78,30,100,-16.73,39,17.0,14.0,-989.0,11:23:47.456672,192.168.0.113
1989,-1,-100,-100,-100,"0,0,0",1,0,0,0,0,0,64,66,79,30,100,-16.83,39,13.0,4.0,-1008.0,11:23:47.558407,192.168.0.113
1994,-1,-100,-100,-100,"0,0,0",1,0,0,0,0,0,64,66,79,30,100,-16.9,39,0.0,-12.0,-1020.0,11:23:47.660587,192.168.0.113
1999,-1,-100,-100,-100,"0,0,0",1,0,0,0,0,0,64,66,80,30,100,-17.02,39,40.0,-22.0,-998.0,11:23:47.762834,192.168.0.113
2004,-1,-100,-100,-100,"0,0,0",1,0,0,0,0,0,64,66,80,30,100,-17.0,40,33.0,-9.0,-998.0,11:23:47.864871,192.168.0.113
2009,-1,-100,-100,-100,"0,0,0",0,1,0,0,0,0,63,66,81,30,100,-16.92,40,18.0,-5.0,-989.0,11:23:47.966906,192.168.0.113
2012,-1,-100,-100,-100,"0,0,0",0,1,0,0,0,0,63,66,81,40,100,-17.03,40,28.0,-21.0,-986.0,11:23:48.017925,192.168.0.113
2017,-1,-100,-100,-100,"0,0,0",0,1,0,0,0,0,63,66,81,40,100,-16.79,40,24.0,-16.0,-969.0,11:23:48.121787,192.168.0.113
2022,-1,-100,-100,-100,"0,0,0",0,1,0,0,0,0,63,66,82,40,100,-17.01,40,36.0,-15.0,-985.0,11:23:48.221594,192.168.0.113
2027,-1,-100,-100,-100,"0,0,0",1,2,0,0,0,0,63,66,82,40,100,-17.0,40,25.0,-17.0,-1001.0,11:23:48.323553,192.168.0.113
2032,-1,-100,-100,-100,"0,0,0",1,0,0,0,0,0,63,66,81,40,100,-16.95,40,27.0,-33.0,-1000.0,11:23:48.425597,192.168.0.113
2037,-1,-100,-100,-100,"0,0,0",1,0,0,0,0,0,63,66,81,40,100,-17.0,40,0.0,-8.0,-1004.0,11:23:48.527848,192.168.0.113
2042,-1,-100,-100,-100,"0,0,0",1,1,0,0,0,0,63,66,81,40,100,-16.98,40,26.0,-5.0,-1010.0,11:23:48.629477,192.168.0.113
2047,-1,-100,-100,-100,"0,0,0",0,1,0,0,0,0,63,66,80,40,100,-17.0,40,14.0,-4.0,-991.0,11:23:48.731315,192.168.0.113
2052,-1,-100,-100,-100,"0,0,0",0,0,0,0,0,0,63,66,80,40,100,-17.05,41,0.0,-2.0,-1008.0,11:23:48.833251,192.168.0.113
2057,-1,-100,-100,-100,"0,0,0",0,0,0,0,0,0,64,67,79,30,100,-17.04,41,17.0,-3.0,-989.0,11:23:48.935585,192.168.0.113
2063,-1,-100,-100,-100,"0,0,0",1,0,0,0,0,0,64,67,80,30,100,-17.0,41,20.0,18.0,-1006.0,11:23:49.037776,192.168.0.113
2068,-1,-100,-100,-100,"0,0,0",1,0,0,0,0,0,64,67,80,30,100,-17.01,41,11.0,10.0,-1001.0,11:23:49.139915,192.168.0.113
2073,-1,-100,-100,-100,"0,0,0",0,0,0,0,0,0,64,67,79,30,100,-16.98,41,-1.0,29.0,-997.0,11:23:49.241275,192.168.0.113
2078,-1,-100,-100,-100,"0,0,0",0,-1,0,0,0,0,64,67,79,30,100,-16.89,41,5.0,25.0,-991.0,11:23:49.343590,192.168.0.113
2083,-1,-100,-100,-100,"0,0,0",0,-1,0,0,0,0,64,67,78,30,100,-16.87,41,26.0,5.0,-980.0,11:23:49.445944,192.168.0.113
2089,-1,-100,-100,-100,"0,0,0",0,0,0,0,0,0,64,67,78,30,100,-16.93,41,31.0,25.0,-994.0,11:23:49.547838,192.168.0.113
2094,-1,-100,-100,-100,"0,0,0",0,0,0,0,0,0,64,67,78,30,100,-16.94,41,16.0,0.0,-988.0,11:23:49.649883,192.168.0.113
2099,-1,-100,-100,-100,"0,0,0",0,-1,-1,0,0,0,64,67,78,30,100,-16.82,41,-6.0,26.0,-1000.0,11:23:49.751431,192.168.0.113
2104,-1,-100,-100,-100,"0,0,0",0,-1,-1,0,0,0,64,67,78,30,100,-16.82,42,16.0,10.0,-1015.0,11:23:49.853504,192.168.0.113
2109,-1,-100,-100,-100,"0,0,0",0,-1,-1,0,0,0,64,66,79,30,100,-16.83,42,15.0,10.0,-1013.0,11:23:49.955484,192.168.0.113
2114,-1,-100,-100,-100,"0,0,0",0,0,-1,0,0,0,64,66,78,30,100,-16.74,42,1.0,-2.0,-1028.0,11:23:50.057379,192.168.0.113
2119,-1,-100,-100,-100,"0,0,0",0,0,-1,0,0,0,64,66,78,30,100,-16.94,42,-25.0,24.0,-994.0,11:23:50.159513,192.168.0.113
2123,-1,-100,-100,-100,"0,0,0",1,0,-1,0,0,0,64,66,77,30,100,-16.96,42,5.0,27.0,-953.0,11:23:50.261878,192.168.0.113
2129,-1,-100,-100,-100,"0,0,0",1,0,0,0,0,0,64,66,78,30,100,-17.09,42,6.0,15.0,-1016.0,11:23:50.363791,192.168.0.113
2133,-1,-100,-100,-100,"0,0,0",0,0,0,0,0,0,64,66,78,30,100,-17.0,42,-4.0,-13.0,-1000.0,11:23:50.467782,192.168.0.113
2139,-1,-100,-100,-100,"0,0,0",0,0,0,0,0,0,64,66,78,30,100,-16.97,42,-2.0,-15.0,-1007.0,11:23:50.567639,192.168.0.113
2144,-1,-100,-100,-100,"0,0,0",0,1,0,0,0,0,64,66,79,30,100,-16.87,42,-31.0,-1.0,-1027.0,11:23:50.669576,192.168.0.113
2149,-1,-100,-100,-100,"0,0,0",0,1,0,0,0,0,64,66,79,30,100,-16.88,42,16.0,-19.0,-978.0,11:23:50.771325,192.168.0.113
2154,-1,-100,-100,-100,"0,0,0",0,1,0,0,0,0,64,66,79,30,100,-16.73,43,-3.0,-14.0,-979.0,11:23:50.873567,192.168.0.113
2159,-1,-100,-100,-100,"0,0,0",0,1,0,0,0,0,64,67,79,30,100,-16.8,43,4.0,-4.0,-974.0,11:23:50.975490,192.168.0.113
2164,-1,-100,-100,-100,"0,0,0",0,1,0,0,0,0,64,67,79,30,100,-16.81,43,-7.0,4.0,-987.0,11:23:51.078848,192.168.0.113
2169,-1,-100,-100,-100,"0,0,0",0,0,0,0,0,0,64,67,79,30,100,-16.74,43,-11.0,-8.0,-982.0,11:23:51.179625,192.168.0.113
2174,-1,-100,-100,-100,"0,0,0",0,1,0,0,0,0,64,67,78,30,100,-16.71,43,-18.0,39.0,-991.0,11:23:51.282712,192.168.0.113
2177,-1,-100,-100,-100,"0,0,0",0,0,0,0,0,0,64,67,78,30,100,-16.72,43,15.0,15.0,-1025.0,11:23:51.332400,192.168.0.113
2182,-1,-100,-100,-100,"0,0,0",0,0,0,0,0,0,64,67,78,30,100,-16.79,43,47.0,-33.0,-1043.0,11:23:51.434494,192.168.0.113
2187,-1,-100,-100,-100,"0,0,0",0,-1,0,0,0,0,64,67,78,30,100,-16.76,43,13.0,8.0,-1007.0,11:23:51.536391,192.168.0.113
2191,-1,-100,-100,-100,"0,0,0",0,0,0,0,0,0,64,67,78,30,100,-16.77,43,-1.0,10.0,-969.0,11:23:51.638516,192.168.0.113
2197,-1,-100,-100,-100,"0,0,0",0,0,0,0,0,0,64,67,78,30,100,-16.77,43,-10.0,2.0,-1009.0,11:23:51.741203,192.168.0.113
2202,-1,-100,-100,-100,"0,0,0",0,-1,0,0,0,0,64,67,78,30,100,-16.71,44,49.0,-26.0,-972.0,11:23:51.842657,192.168.0.113
2207,-1,-100,-100,-100,"0,0,0",0,-1,0,0,0,0,64,67,78,30,100,-16.74,44,13.0,0.0,-973.0,11:23:51.944400,192.168.0.113
2213,-1,-100,-100,-100,"0,0,0",1,0,0,0,0,0,64,67,77,30,100,-16.69,44,17.0,-13.0,-979.0,11:23:52.046326,192.168.0.113
2218,-1,-100,-100,-100,"0,0,0",1,0,0,0,0,0,64,67,77,30,100,-16.82,44,-5.0,-9.0,-1016.0,11:23:52.148557,192.168.0.113
2222,-1,-100,-100,-100,"0,0,0",0,0,0,0,0,0,64,67,77,30,100,-16.86,44,6.0,-6.0,-1012.0,11:23:52.251198,192.168.0.113
2226,-1,-100,-100,-100,"0,0,0",0,0,0,0,0,0,64,67,77,30,100,-16.89,44,-12.0,-12.0,-991.0,11:23:52.352645,192.168.0.113
2233,-1,-100,-100,-100,"0,0,0",1,1,0,0,0,0,64,67,78,30,100,-16.84,44,15.0,-25.0,-1008.0,11:23:52.454570,192.168.0.113
2238,-1,-100,-100,-100,"0,0,0",0,1,0,0,0,0,64,67,78,30,100,-16.82,44,0.0,-9.0,-980.0,11:23:52.556777,192.168.0.113
2243,-1,-100,-100,-100,"0,0,0",1,1,0,0,0,0,64,67,79,30,100,-16.85,44,10.0,-2.0,-965.0,11:23:52.658595,192.168.0.113
2249,-1,-100,-100,-100,"0,0,0",0,1,0,0,0,0,64,67,78,30,100,-16.95,44,-8.0,6.0,-1007.0,11:23:52.760424,192.168.0.113
2253,-1,-100,-100,-100,"0,0,0",0,0,0,0,0,0,64,67,78,30,100,-16.91,45,20.0,-13.0,-1015.0,11:23:52.862500,192.168.0.113
2259,-1,-100,-100,-100,"0,0,0",1,0,0,0,0,0,65,67,78,30,100,-16.9,45,28.0,-10.0,-980.0,11:23:52.964206,192.168.0.113
2264,-1,-100,-100,-100,"0,0,0",0,0,0,0,0,0,65,67,78,30,100,-16.88,45,27.0,-16.0,-986.0,11:23:53.066771,192.168.0.113
2269,-1,-100,-100,-100,"0,0,0",0,0,0,0,0,0,65,67,78,30,100,-16.83,45,9.0,-15.0,-1005.0,11:23:53.168543,192.168.0.113
2273,-1,-100,-100,-100,"0,0,0",0,0,0,0,0,0,65,67,78,30,100,-16.83,45,31.0,-1.0,-1020.0,11:23:53.270853,192.168.0.113
2279,-1,-100,-100,-100,"0,0,0",1,1,0,0,0,0,65,67,78,30,100,-16.82,45,7.0,29.0,-992.0,11:23:53.372269,192.168.0.113
2284,-1,-100,-100,-100,"0,0,0",1,0,0,0,0,0,65,67,78,30,100,-16.94,45,18.0,-4.0,-1010.0,11:23:53.474314,192.168.0.113
2289,-1,-100,-100,-100,"0,0,0",1,0,-1,0,0,0,65,67,78,30,100,-16.8,45,0.0,36.0,-1011.0,11:23:53.576352,192.168.0.113
2294,-1,-100,-100,-100,"0,0,0",1,0,-1,0,0,0,65,67,79,30,100,-16.89,45,29.0,33.0,-1003.0,11:23:53.679158,192.168.0.113
2299,-1,-100,-100,-100,"0,0,0",1,-1,-1,0,0,0,65,67,80,30,100,-16.8,45,35.0,30.0,-979.0,11:23:53.780447,192.168.0.113
2304,-1,-100,-100,-100,"0,0,0",1,-1,-1,0,0,0,65,67,80,30,100,-16.81,46,19.0,42.0,-981.0,11:23:53.882464,192.168.0.113
2309,-1,-100,-100,-100,"0,0,0",1,-1,-1,0,0,0,64,67,79,30,100,-16.84,46,3.0,68.0,-1013.0,11:23:53.984446,192.168.0.113
2314,-1,-100,-100,-100,"0,0,0",1,-1,-1,0,0,0,64,67,79,30,100,-16.86,46,41.0,14.0,-1041.0,11:23:54.087048,192.168.0.113
2319,-1,-100,-100,-100,"0,0,0",2,-2,-1,0,0,0,64,67,79,30,100,-16.82,46,36.0,18.0,-984.0,11:23:54.188353,192.168.0.113
2324,-1,-100,-100,-100,"0,0,0",1,-1,0,0,0,0,64,67,79,30,100,-16.84,46,41.0,20.0,-990.0,11:23:54.290447,192.168.0.113
2329,-1,-100,-100,-100,"0,0,0",2,-1,0,0,0,0,64,67,79,30,100,-16.83,46,51.0,36.0,-970.0,11:23:54.394089,192.168.0.113
2334,-1,-100,-100,-100,"0,0,0",2,-1,0,0,0,0,64,67,79,30,100,-16.78,46,1.0,25.0,-987.0,11:23:54.494185,192.168.0.113
2339,-1,-100,-100,-100,"0,0,0",2,-1,0,0,0,0,64,67,79,30,100,-16.84,46,6.0,26.0,-993.0,11:23:54.596615,192.168.0.113
2344,-1,-100,-100,-100,"0,0,0",1,-1,0,0,0,0,64,67,78,30,100,-16.81,46,38.0,19.0,-1001.0,11:23:54.698402,192.168.0.113
2349,-1,-100,-100,-100,"0,0,0",1,-2,0,0,0,0,64,67,78,30,100,-16.73,46,53.0,34.0,-1016.0,11:23:54.800153,192.168.0.113
2352,-1,-100,-100,-100,"0,0,0",1,-1,0,0,0,0,64,67,78,30,100,-16.91,47,24.0,27.0,-1016.0,11:23:54.851528,192.168.0.113
2357,-1,-100,-100,-100,"0,0,0",2,-1,0,0,0,0,64,67,79,30,100,-16.95,47,20.0,21.0,-1010.0,11:23:54.953503,192.168.0.113
2362,-1,-100,-100,-100,"0,0,0",1,-2,0,0,0,0,64,67,79,30,100,-16.88,47,34.0,46.0,-1020.0,11:23:55.055031,192.168.0.113
2367,-1,-100,-100,-100,"0,0,0",1,-2,0,0,0,0,64,67,78,30,100,-16.85,47,43.0,34.0,-1000.0,11:23:55.157618,192.168.0.113
2372,-1,-100,-100,-100,"0,0,0",1,-2,0,0,0,0,64,67,79,30,100,-16.9,47,30.0,41.0,-991.0,11:23:55.262940,192.168.0.113
2377,-1,-100,-100,-100,"0,0,0",1,-2,0,0,0,0,64,67,78,30,100,-16.95,47,49.0,12.0,-996.0,11:23:55.361005,192.168.0.113
2382,-1,-100,-100,-100,"0,0,0",1,-1,0,0,0,0,64,67,79,30,100,-16.97,47,-1.0,49.0,-990.0,11:23:55.463223,192.168.0.113
2388,-1,-100,-100,-100,"0,0,0",1,-2,0,0,0,0,64,67,79,30,100,-16.97,47,25.0,9.0,-989.0,11:23:55.565330,192.168.0.113
2393,-1,-100,-100,-100,"0,0,0",2,-1,0,0,0,0,64,67,79,30,100,-16.96,47,36.0,37.0,-992.0,11:23:55.667336,192.168.0.113
2398,-1,-100,-100,-100,"0,0,0",2,-1,0,0,0,0,64,67,79,30,100,-16.87,47,25.0,18.0,-1004.0,11:23:55.769201,192.168.0.113
2403,-1,-100,-100,-100,"0,0,0",1,-1,0,0,0,0,64,67,79,30,100,-16.85,48,54.0,-2.0,-987.0,11:23:55.871596,192.168.0.113
2408,-1,-100,-100,-100,"0,0,0",1,0,0,0,0,0,64,67,79,30,100,-16.93,48,45.0,-16.0,-1010.0,11:23:55.973359,192.168.0.113
2413,-1,-100,-100,-100,"0,0,0",1,0,0,0,0,0,64,67,79,30,100,-17.02,48,16.0,6.0,-1005.0,11:23:56.075590,192.168.0.113
2419,-1,-100,-100,-100,"0,0,0",1,0,0,0,0,0,64,67,79,30,100,-16.96,48,16.0,7.0,-992.0,11:23:56.177617,192.168.0.113
2423,-1,-100,-100,-100,"0,0,0",1,0,0,0,0,0,64,67,79,30,100,-16.93,48,25.0,29.0,-1001.0,11:23:56.279998,192.168.0.113
2429,-1,-100,-100,-100,"0,0,0",1,0,0,0,0,0,64,67,79,30,100,-16.87,48,30.0,16.0,-1017.0,11:23:56.382134,192.168.0.113
2433,-1,-100,-100,-100,"0,0,0",1,0,0,0,0,0,64,67,79,30,100,-16.96,48,21.0,8.0,-1003.0,11:23:56.484662,192.168.0.113
2439,-1,-100,-100,-100,"0,0,0",1,0,0,0,0,0,64,67,79,30,100,-16.88,48,19.0,15.0,-992.0,11:23:56.586845,192.168.0.113
2444,-1,-100,-100,-100,"0,0,0",1,0,0,0,0,0,64,67,79,30,100,-17.06,48,2.0,0.0,-999.0,11:23:56.691853,192.168.0.113
2449,-1,-100,-100,-100,"0,0,0",1,0,0,0,0,0,64,67,79,30,100,-16.94,48,34.0,33.0,-994.0,11:23:56.791677,192.168.0.113
2454,-1,-100,-100,-100,"0,0,0",1,0,0,0,0,0,64,67,79,30,100,-17.04,49,36.0,11.0,-1004.0,11:23:56.891268,192.168.0.113
2459,-1,-100,-100,-100,"0,0,0",1,0,0,0,0,0,64,66,79,30,100,-16.96,49,25.0,20.0,-1002.0,11:23:56.993570,192.168.0.113
2463,-1,-100,-100,-100,"0,0,0",1,0,0,0,0,0,64,66,79,30,100,-16.93,49,-2.0,38.0,-1015.0,11:23:57.095908,192.168.0.113
2468,-1,-100,-100,-100,"0,0,0",0,0,0,0,0,0,64,66,79,30,100,-16.94,49,11.0,21.0,-973.0,11:23:57.197896,192.168.0.113
2474,-1,-100,-100,-100,"0,0,0",0,-1,0,0,0,0,64,66,79,30,100,-16.91,49,8.0,28.0,-1010.0,11:23:57.299264,192.168.0.113
2479,-1,-100,-100,-100,"0,0,0",0,-1,0,0,0,0,64,66,79,30,100,-16.96,49,22.0,-4.0,-1010.0,11:23:57.402906,192.168.0.113
2484,-1,-100,-100,-100,"0,0,0",0,-1,0,0,0,0,64,66,79,30,100,-16.96,49,2.0,9.0,-990.0,11:23:57.503465,192.168.0.113
2489,-1,-100,-100,-100,"0,0,0",1,0,0,0,0,0,64,66,79,30,100,-16.93,49,2.0,13.0,-1005.0,11:23:57.606245,192.168.0.113
2494,-1,-100,-100,-100,"0,0,0",1,0,0,0,0,0,64,66,80,30,100,-16.93,49,25.0,18.0,-1015.0,11:23:57.707407,192.168.0.113
2499,-1,-100,-100,-100,"0,0,0",0,0,0,0,0,0,64,66,80,30,100,-16.94,49,21.0,6.0,-994.0,11:23:57.809389,192.168.0.113
2502,-1,-100,-100,-100,"0,0,0",0,0,0,0,0,0,64,66,80,30,100,-16.99,50,30.0,10.0,-985.0,11:23:57.860443,192.168.0.113
2509,-1,-100,-100,-100,"0,0,0",0,0,0,0,0,0,65,66,80,30,100,-16.93,50,16.0,17.0,-1000.0,11:23:58.016271,192.168.0.113
2511,-1,-100,-100,-100,"0,0,0",0,0,0,0,0,0,65,66,80,30,100,-16.97,50,32.0,28.0,-1007.0,11:23:58.065743,192.168.0.113
2517,-1,-100,-100,-100,"0,0,0",0,0,0,0,0,0,65,66,81,30,100,-16.98,50,26.0,4.0,-1008.0,11:23:58.166291,192.168.0.113
2522,-1,-100,-100,-100,"0,0,0",0,-1,0,0,0,0,65,66,81,30,100,-16.96,50,28.0,13.0,-991.0,11:23:58.268497,192.168.0.113
2527,-1,-100,-100,-100,"0,0,0",0,-1,0,0,0,0,65,66,81,30,100,-16.96,50,30.0,4.0,-993.0,11:23:58.370625,192.168.0.113
2532,-1,-100,-100,-100,"0,0,0",0,-1,0,0,0,0,65,66,80,30,100,-16.87,50,20.0,16.0,-1001.0,11:23:58.472210,192.168.0.113
2537,-1,-100,-100,-100,"0,0,0",1,-1,0,0,0,0,65,66,80,30,100,-16.89,50,28.0,-14.0,-997.0,11:23:58.574616,192.168.0.113
2542,-1,-100,-100,-100,"0,0,0",1,0,0,0,0,0,65,66,80,30,100,-16.97,50,32.0,10.0,-990.0,11:23:58.676185,192.168.0.113
2546,-1,-100,-100,-100,"0,0,0",0,0,0,0,0,0,65,66,80,30,100,-16.86,50,24.0,-17.0,-997.0,11:23:58.778651,192.168.0.113
2552,-1,-100,-100,-100,"0,0,0",0,0,0,0,0,0,65,66,79,30,100,-16.89,51,18.0,-11.0,-1020.0,11:23:58.880165,192.168.0.113
2558,-1,-100,-100,-100,"0,0,0",0,0,0,0,0,0,65,67,79,30,100,-16.95,51,15.0,-15.0,-1005.0,11:23:58.982330,192.168.0.113
2563,-1,-100,-100,-100,"0,0,0",0,0,0,0,0,0,65,67,78,30,100,-16.93,51,8.0,5.0,-1005.0,11:23:59.085062,192.168.0.113
2568,-1,-100,-100,-100,"0,0,0",0,0,0,0,0,0,65,67,78,30,100,-16.99,51,10.0,-2.0,-1011.0,11:23:59.186400,192.168.0.113
2573,-1,-100,-100,-100,"0,0,0",0,0,0,0,0,0,65,67,78,30,100,-16.99,51,4.0,-21.0,-1006.0,11:23:59.288181,192.168.0.113
