,mid,x,y,z,mpry,pitch,roll,yaw,vgx,vgy,vgz,templ,temph,tof,h,bat,baro,time,agx,agy,agz,timestamp,address
0,-1,-100,-100,-100,"0,0,0",0,-1,0,0,0,0,64,66,10,0,100,-17.86,0,-6.0,27.0,-998.0,11:23:07.645354,192.168.0.114
6,-1,-100,-100,-100,"0,0,0",0,-1,0,0,0,0,64,66,10,0,100,-17.85,0,-5.0,28.0,-1000.0,11:23:07.747522,192.168.0.114
11,-1,-100,-100,-100,"0,0,0",0,-1,0,0,0,0,64,66,10,0,100,-17.86,0,-8.0,29.0,-999.0,11:23:07.851328,192.168.0.114
17,-1,-100,-100,-100,"0,0,0",0,-1,0,0,0,0,64,66,10,0,100,-17.86,0,-10.0,21.0,-999.0,11:23:07.951956,192.168.0.114
22,-1,-100,-100,-100,"0,0,0",0,-1,0,0,0,0,65,66,10,0,100,-17.86,0,4.0,46.0,-991.0,11:23:08.053858,192.168.0.114
28,-1,-100,-100,-100,"0,0,0",0,-1,0,0,0,0,65,66,10,0,100,-17.86,0,-3.0,8.0,-1035.0,11:23:08.155934,192.168.0.114
33,-1,-100,-100,-100,"0,0,0",0,0,0,0,0,0,65,66,10,0,100,-17.86,0,-19.0,0.0,-1081.0,11:23:08.257796,192.168.0.114
38,-1,-100,-100,-100,"0,0,0",0,0,0,0,0,1,65,66,10,0,100,-17.86,0,-5.0,10.0,-1266.0,11:23:08.359584,192.168.0.114
43,-1,-100,-100,-100,"0,0,0",0,0,0,0,0,4,65,66,10,0,100,-17.86,0,-19.0,-24.0,-1338.0,11:23:08.461810,192.168.0.114
48,-1,-100,-100,-100,"0,0,0",0,0,0,0,0,6,65,66,13,0,100,-17.86,0,-62.0,1.0,-1075.0,11:23:08.563576,192.168.0.114
53,-1,-100,-100,-100,"0,0,0",0,0,0,0,0,7,65,66,22,10,100,-17.41,0,-81.0,-27.0,-1017.0,11:23:08.665909,192.168.0.114
59,-1,-100,-100,-100,"0,0,0",-2,0,0,1,0,7,65,66,30,10,100,-17.5,0,-76.0,-34.0,-1003.0,11:23:08.767652,192.168.0.114
64,-1,-100,-100,-100,"0,0,0",-3,2,0,1,0,6,65,66,36,20,100,-17.26,1,-49.0,-30.0,-927.0,11:23:08.869875,192.168.0.114
69,-1,-100,-100,-100,"0,0,0",-3,2,0,1,0,6,65,66,44,20,100,-17.31,1,-43.0,-50.0,-941.0,11:23:08.971895,192.168.0.114
74,-1,-100,-100,-100,"0,0,0",-3,3,0,1,0,5,64,67,52,30,100,-17.23,1,-54.0,-18.0,-944.0,11:23:09.073807,192.168.0.114
79,-1,-100,-100,-100,"0,0,0",-4,2,0,1,0,4,64,67,58,30,100,-17.24,1,-46.0,-23.0,-920.0,11:23:09.175775,192.168.0.114
84,-1,-100,-100,-100,"0,0,0",-5,2,0,1,0,3,64,67,63,30,100,-17.18,1,-42.0,-1.0,-891.0,11:23:09.277833,192.168.0.114
89,-1,-100,-100,-100,"0,0,0",-4,1,0,0,0,2,64,67,68,30,100,-17.02,1,-19.0,-7.0,-920.0,11:23:09.379564,192.168.0.114
94,-1,-100,-100,-100,"0,0,0",-3,0,0,0,0,1,64,67,72,40,100,-17.17,1,-59.0,-3.0,-960.0,11:23:09.481848,192.168.0.114
95,-1,-100,-100,-100,"0,0,0",-3,0,0,0,0,1,64,67,76,40,100,-17.19,1,-38.0,-1.0,-975.0,11:23:09.533094,192.168.0.114
100,-1,-100,-100,-100,"0,0,0",-4,0,0,0,0,1,64,67,79,40,100,-17.07,1,-70.0,13.0,-979.0,11:23:09.634881,192.168.0.114
105,-1,-100,-100,-100,"0,0,0",-4,0,0,0,-1,1,64,67,82,40,100,-16.9,1,-79.0,36.0,-946.0,11:23:09.736482,192.168.0.114
110,-1,-100,-100,-100,"0,0,0",-4,-2,0,0,-1,0,64,67,85,50,100,-16.82,2,-28.0,11.0,-917.0,11:23:09.838828,192.168.0.114
115,-1,-100,-100,-100,"0,0,0",-3,-3,0,0,0,0,64,67,86,50,100,-16.81,2,-40.0,-19.0,-972.0,11:23:09.940308,192.168.0.114
120,-1,-100,-100,-100,"0,0,0",-3,-2,0,0,0,0,65,67,88,50,100,-16.82,2,-27.0,-8.0,-944.0,11:23:10.042519,192.168.0.114
125,-1,-100,-100,-100,"0,0,0",-2,-1,0,0,0,0,65,67,90,50,100,-16.68,2,-26.0,-22.0,-977.0,11:23:10.147528,192.168.0.114
130,-1,-100,-100,-100,"0,0,0",-2,0,0,0,0,0,65,67,91,50,100,-16.75,2,-12.0,-16.0,-1005.0,11:23:10.246271,192.168.0.114
136,-1,-100,-100,-100,"0,0,0",-2,1,0,0,0,0,65,67,91,50,100,-16.75,2,-10.0,-11.0,-985.0,11:23:10.348495,192.168.0.114
141,-1,-100,-100,-100,"0,0,0",-2,1,0,0,0,0,65,67,92,50,100,-16.84,2,-26.0,-15.0,-977.0,11:23:10.450651,192.168.0.114
146,-1,-100,-100,-100,"0,0,0",-1,0,0,-1,0,0,65,67,93,50,100,-16.86,2,-18.0,-31.0,-993.0,11:23:10.552481,192.168.0.114
152,-1,-100,-100,-100,"0,0,0",-1,0,0,-1,0,0,65,67,94,60,100,-16.83,2,-10.0,-9.0,-989.0,11:23:10.654214,192.168.0.114
158,-1,-100,-100,-100,"0,0,0",0,1,0,-1,0,0,65,67,94,60,100,-16.89,2,-7.0,-30.0,-952.0,11:23:10.756755,192.168.0.114
163,-1,-100,-100,-100,"0,0,0",0,0,0,-1,0,0,65,67,94,60,100,-16.81,3,-16.0,-48.0,-961.0,11:23:10.858604,192.168.0.114
168,-1,-100,-100,-100,"0,0,0",0,1,0,-1,0,0,65,67,93,60,100,-16.94,3,-3.0,-8.0,-984.0,11:23:10.960518,192.168.0.114
173,-1,-100,-100,-100,"0,0,0",0,1,0,-1,0,0,65,67,93,60,100,-16.89,3,1.0,-29.0,-999.0,11:23:11.062500,192.168.0.114
178,-1,-100,-100,-100,"0,0,0",0,1,0,0,0,-1,65,67,93,60,100,-16.94,3,-46.0,-10.0,-961.0,11:23:11.164476,192.168.0.114
183,-1,-100,-100,-100,"0,0,0",0,1,0,0,0,-1,65,67,93,60,100,-16.84,3,-15.0,-36.0,-961.0,11:23:11.266534,192.168.0.114
188,-1,-100,-100,-100,"0,0,0",0,1,1,0,0,-1,65,67,92,60,100,-16.96,3,-52.0,-20.0,-992.0,11:23:11.368636,192.168.0.114
193,-1,-100,-100,-100,"0,0,0",-1,1,1,0,0,-1,65,67,90,60,100,-17.03,3,-61.0,-26.0,-996.0,11:23:11.470609,192.168.0.114
198,-1,-100,-100,-100,"0,0,0",-2,1,0,0,0,-1,65,67,89,50,100,-16.86,3,-61.0,-13.0,-988.0,11:23:11.572454,192.168.0.114
203,-1,-100,-100,-100,"0,0,0",-2,1,1,0,0,-1,65,67,87,50,100,-16.87,3,-26.0,-8.0,-965.0,11:23:11.762291,192.168.0.114
208,-1,-100,-100,-100,"0,0,0",-3,1,0,0,0,-1,65,67,87,50,100,-16.88,3,-58.0,-1.0,-1017.0,11:23:11.776415,192.168.0.114
213,-1,-100,-100,-100,"0,0,0",-3,0,0,0,0,-1,65,67,86,50,100,-16.9,4,-60.0,-24.0,-1021.0,11:23:11.969291,192.168.0.114
219,-1,-100,-100,-100,"0,0,0",-3,0,0,0,0,0,65,67,85,50,100,-16.89,4,-55.0,-18.0,-1027.0,11:23:11.980521,192.168.0.114
224,-1,-100,-100,-100,"0,0,0",-4,0,0,0,0,0,64,67,85,50,100,-16.89,4,-34.0,-25.0,-1000.0,11:23:12.175200,192.168.0.114
225,-1,-100,-100,-100,"0,0,0",-3,0,0,0,0,0,64,67,84,50,100,-16.91,4,-39.0,-27.0,-984.0,11:23:12.175316,192.168.0.114
230,-1,-100,-100,-100,"0,0,0",-3,0,0,0,0,0,64,67,83,50,100,-16.92,4,-37.0,-20.0,-997.0,11:23:12.235548,192.168.0.114
235,-1,-100,-100,-100,"0,0,0",-3,0,0,0,0,0,64,67,83,50,100,-17.13,4,-17.0,-11.0,-980.0,11:23:12.337278,192.168.0.114
240,-1,-100,-100,-100,"0,0,0",-2,0,0,0,0,0,64,67,83,50,100,-17.19,4,-50.0,9.0,-1005.0,11:23:12.583149,192.168.0.114
245,-1,-100,-100,-100,"0,0,0",-3,0,0,0,0,0,64,67,82,50,100,-17.25,4,-75.0,5.0,-1017.0,11:23:12.584167,192.168.0.114
250,-1,-100,-100,-100,"0,0,0",-3,0,0,0,0,0,64,67,82,50,100,-17.28,4,-45.0,13.0,-1011.0,11:23:12.786686,192.168.0.114
255,-1,-100,-100,-100,"0,0,0",-3,0,0,0,0,0,64,67,82,50,100,-17.16,4,-41.0,0.0,-1006.0,11:23:12.788407,192.168.0.114
261,-1,-100,-100,-100,"0,0,0",-3,-1,0,0,0,0,64,67,82,50,100,-17.12,5,-17.0,-1.0,-975.0,11:23:12.992299,192.168.0.114
266,-1,-100,-100,-100,"0,0,0",-3,-1,0,0,0,0,64,67,82,50,100,-17.19,5,-26.0,-2.0,-1013.0,11:23:12.992572,192.168.0.114
271,-1,-100,-100,-100,"0,0,0",-3,-1,0,0,0,0,65,67,82,50,100,-17.18,5,-29.0,-4.0,-1002.0,11:23:13.198579,192.168.0.114
276,-1,-100,-100,-100,"0,0,0",-3,-1,0,0,0,0,65,67,82,50,100,-17.15,5,-39.0,-11.0,-1028.0,11:23:13.199872,192.168.0.114
282,-1,-100,-100,-100,"0,0,0",-3,0,0,0,0,0,65,67,81,50,100,-17.24,5,-62.0,-5.0,-1024.0,11:23:13.404885,192.168.0.114
287,-1,-100,-100,-100,"0,0,0",-3,0,0,0,0,0,65,67,82,50,100,-17.14,5,-49.0,8.0,-1014.0,11:23:13.405829,192.168.0.114
292,-1,-100,-100,-100,"0,0,0",-3,-1,0,0,0,0,65,67,82,50,100,-17.18,5,-31.0,-10.0,-988.0,11:23:13.611638,192.168.0.114
297,-1,-100,-100,-100,"0,0,0",-3,0,0,0,0,0,65,67,82,50,100,-17.07,5,-39.0,21.0,-985.0,11:23:13.612578,192.168.0.114
303,-1,-100,-100,-100,"0,0,0",-3,0,0,0,0,0,65,67,82,50,100,-17.08,5,-23.0,16.0,-978.0,11:23:13.829010,192.168.0.114
307,-1,-100,-100,-100,"0,0,0",-3,-1,0,0,0,0,65,67,82,50,100,-17.15,5,-35.0,22.0,-1018.0,11:23:13.829745,192.168.0.114
312,-1,-100,-100,-100,"0,0,0",-3,-2,0,0,0,0,65,67,82,50,100,-17.05,6,-41.0,23.0,-994.0,11:23:13.867624,192.168.0.114
317,-1,-100,-100,-100,"0,0,0",-3,-2,0,0,0,0,65,67,82,50,100,-17.1,6,-74.0,25.0,-996.0,11:23:13.969498,192.168.0.114
322,-1,-100,-100,-100,"0,0,0",-3,-2,0,0,0,0,65,66,82,50,100,-17.14,6,-60.0,0.0,-1018.0,11:23:14.071541,192.168.0.114
327,-1,-100,-100,-100,"0,0,0",-3,-2,0,0,0,0,65,66,82,50,100,-17.23,6,-42.0,9.0,-1023.0,11:23:14.173878,192.168.0.114
333,-1,-100,-100,-100,"0,0,0",-3,-2,0,0,0,0,65,66,83,50,100,-17.09,6,-54.0,-22.0,-1041.0,11:23:14.275472,192.168.0.114
338,-1,-100,-100,-100,"0,0,0",-3,0,0,0,0,0,65,66,84,50,100,-17.04,6,-32.0,3.0,-957.0,11:23:14.377368,192.168.0.114
343,-1,-100,-100,-100,"0,0,0",-3,0,0,0,0,0,65,66,85,50,100,-17.04,6,-38.0,4.0,-979.0,11:23:14.479626,192.168.0.114
348,-1,-100,-100,-100,"0,0,0",-2,0,0,0,0,0,65,66,84,50,100,-17.06,6,-29.0,9.0,-1020.0,11:23:14.581070,192.168.0.114
350,-1,-100,-100,-100,"0,0,0",-2,0,0,0,0,0,65,66,85,50,100,-16.97,6,-41.0,-9.0,-1000.0,11:23:14.632150,192.168.0.114
355,-1,-100,-100,-100,"0,0,0",-2,0,0,0,0,0,65,66,84,50,100,-16.97,6,-13.0,-30.0,-1001.0,11:23:14.734469,192.168.0.114
360,-1,-100,-100,-100,"0,0,0",-1,0,0,0,1,0,65,66,83,50,100,-17.01,7,-23.0,-45.0,-993.0,11:23:14.836243,192.168.0.114
365,-1,-100,-100,-100,"0,0,0",-1,1,0,0,1,0,65,66,83,50,100,-17.04,7,-18.0,-31.0,-976.0,11:23:14.938445,192.168.0.114
370,-1,-100,-100,-100,"0,0,0",-1,2,0,0,1,0,65,67,83,50,100,-16.94,7,-18.0,-22.0,-991.0,11:23:15.040621,192.168.0.114
375,-1,-100,-100,-100,"0,0,0",-1,1,0,0,0,0,65,67,83,50,100,-17.04,7,-22.0,-41.0,-991.0,11:23:15.142831,192.168.0.114
380,-1,-100,-100,-100,"0,0,0",0,0,0,0,0,0,65,67,82,50,100,-16.91,7,-37.0,-5.0,-1009.0,11:23:15.244335,192.168.0.114
385,-1,-100,-100,-100,"0,0,0",0,1,0,0,0,0,65,67,82,50,100,-17.02,7,-23.0,-18.0,-1046.0,11:23:15.346351,192.168.0.114
391,-1,-100,-100,-100,"0,0,0",0,2,0,0,0,0,65,67,81,50,100,-16.96,7,-37.0,18.0,-962.0,11:23:15.452185,192.168.0.114
396,-1,-100,-100,-100,"0,0,0",-1,2,0,0,0,0,65,67,82,50,100,-17.03,7,-27.0,32.0,-992.0,11:23:15.550449,192.168.0.114
401,-1,-100,-100,-100,"0,0,0",-1,0,0,0,0,0,65,67,81,50,100,-16.96,7,-10.0,13.0,-1044.0,11:23:15.652332,192.168.0.114
406,-1,-100,-100,-100,"0,0,0",-1,-2,0,0,0,0,65,67,80,50,100,-17.02,7,-19.0,-2.0,-1025.0,11:23:15.754442,192.168.0.114
411,-1,-100,-100,-100,"0,0,0",-1,-1,0,0,0,0,65,67,80,50,100,-17.0,8,-31.0,15.0,-1043.0,11:23:15.856747,192.168.0.114
416,-1,-100,-100,-100,"0,0,0",-1,-1,0,0,0,0,65,67,79,50,100,-16.96,8,4.0,4.0,-1007.0,11:23:15.958663,192.168.0.114
421,-1,-100,-100,-100,"0,0,0",-1,-1,0,0,0,0,64,67,80,50,100,-16.84,8,-34.0,20.0,-987.0,11:23:16.060363,192.168.0.114
427,-1,-100,-100,-100,"0,0,0",-2,-2,0,0,0,0,64,67,80,50,100,-16.99,8,-7.0,-14.0,-1035.0,11:23:16.162296,192.168.0.114
432,-1,-100,-100,-100,"0,0,0",-2,-1,0,0,0,0,64,67,80,50,100,-17.01,8,-25.0,-4.0,-1002.0,11:23:16.264353,192.168.0.114
437,-1,-100,-100,-100,"0,0,0",-1,0,0,0,0,0,64,67,79,50,100,-17.0,8,-48.0,-6.0,-1040.0,11:23:16.366534,192.168.0.114
442,-1,-100,-100,-100,"0,0,0",-1,0,0,0,0,0,64,67,79,50,100,-16.86,8,-7.0,-3.0,-989.0,11:23:16.468002,192.168.0.114
447,-1,-100,-100,-100,"0,0,0",-2,0,0,0,0,0,64,67,80,50,100,-16.94,8,32.0,-31.0,-992.0,11:23:16.570775,192.168.0.114
452,-1,-100,-100,-100,"0,0,0",0,0,0,0,0,0,64,67,79,50,100,-16.98,8,17.0,-12.0,-982.0,11:23:16.672308,192.168.0.114
457,-1,-100,-100,-100,"0,0,0",0,0,0,0,0,0,64,67,79,50,100,-16.97,8,-3.0,7.0,-1008.0,11:23:16.774322,192.168.0.114
462,-1,-100,-100,-100,"0,0,0",0,0,0,0,0,0,64,67,79,50,100,-17.0,9,-2.0,-9.0,-987.0,11:23:16.876300,192.168.0.114
467,-1,-100,-100,-100,"0,0,0",0,0,0,0,0,0,64,67,78,50,100,-16.93,9,-22.0,0.0,-1012.0,11:23:16.978141,192.168.0.114
472,-1,-100,-100,-100,"0,0,0",0,0,0,0,0,0,65,67,79,50,100,-16.97,9,-13.0,12.0,-1027.0,11:23:17.080148,192.168.0.114
477,-1,-100,-100,-100,"0,0,0",0,0,0,0,0,0,65,67,80,50,100,-16.96,9,25.0,-5.0,-1046.0,11:23:17.182178,192.168.0.114
483,-1,-100,-100,-100,"0,0,0",0,0,0,0,0,0,65,67,80,50,100,-16.93,9,13.0,-22.0,-1002.0,11:23:17.284142,192.168.0.114
488,-1,-100,-100,-100,"0,0,0",0,0,0,0,0,0,65,67,82,50,100,-16.91,9,19.0,-11.0,-1009.0,11:23:17.386288,192.168.0.114
493,-1,-100,-100,-100,"0,0,0",0,0,0,0,0,0,65,67,82,50,100,-16.99,9,18.0,12.0,-976.0,11:23:17.488372,192.168.0.114
498,-1,-100,-100,-100,"0,0,0",1,0,0,0,0,0,65,67,83,50,100,-16.9,9,20.0,-15.0,-982.0,11:23:17.590033,192.168.0.114
503,-1,-100,-100,-100,"0,0,0",1,0,0,0,0,0,65,67,83,50,100,-16.86,9,30.0,-22.0,-1008.0,11:23:17.693345,192.168.0.114
508,-1,-100,-100,-100,"0,0,0",1,0,0,0,0,0,65,67,84,50,100,-16.95,9,28.0,-8.0,-982.0,11:23:17.796107,192.168.0.114
510,-1,-100,-100,-100,"0,0,0",1,0,0,0,0,0,65,67,84,50,100,-16.99,10,19.0,-5.0,-996.0,11:23:17.846207,192.168.0.114
516,-1,-100,-100,-100,"0,0,0",1,0,0,0,0,0,65,67,84,50,100,-16.94,10,0.0,-22.0,-975.0,11:23:17.948283,192.168.0.114
521,-1,-100,-100,-100,"0,0,0",0,0,0,0,0,0,65,67,84,50,100,-16.93,10,24.0,-17.0,-1005.0,11:23:18.049943,192.168.0.114
526,-1,-100,-100,-100,"0,0,0",0,0,0,0,0,0,65,67,84,50,100,-16.82,10,9.0,-7.0,-989.0,11:23:18.152640,192.168.0.114
531,-1,-100,-100,-100,"0,0,0",0,0,0,0,0,0,65,67,84,50,100,-16.89,10,15.0,-22.0,-993.0,11:23:18.254402,192.168.0.114
536,-1,-100,-100,-100,"0,0,0",0,1,0,0,0,0,65,67,84,50,100,-16.91,10,-3.0,3.0,-1004.0,11:23:18.356449,192.168.0.114
541,-1,-100,-100,-100,"0,0,0",0,0,0,0,0,0,65,67,83,50,100,-16.86,10,-10.0,0.0,-1014.0,11:23:18.458609,192.168.0.114
546,-1,-100,-100,-100,"0,0,0",0,0,0,0,0,0,65,67,83,50,100,-16.84,10,7.0,-13.0,-995.0,11:23:18.560246,192.168.0.114
551,-1,-100,-100,-100,"0,0,0",0,0,0,0,0,0,65,67,83,50,100,-16.92,10,10.0,-27.0,-994.0,11:23:18.662493,192.168.0.114
556,-1,-100,-100,-100,"0,0,0",0,0,0,0,0,0,65,67,82,50,100,-16.89,10,6.0,-31.0,-993.0,11:23:18.764443,192.168.0.114
561,-1,-100,-100,-100,"0,0,0",0,0,0,0,0,0,65,67,82,50,100,-16.78,11,5.0,5.0,-1018.0,11:23:18.865879,192.168.0.114
566,-1,-100,-100,-100,"0,0,0",0,0,0,0,0,0,65,67,81,50,100,-16.84,11,-1.0,-12.0,-1025.0,11:23:18.970943,192.168.0.114
571,-1,-100,-100,-100,"0,0,0",0,0,0,0,0,0,66,67,81,50,100,-16.86,11,12.0,-13.0,-996.0,11:23:19.069994,192.168.0.114
576,-1,-100,-100,-100,"0,0,0",0,0,0,0,0,0,66,67,81,50,100,-16.8,11,-14.0,-6.0,-1002.0,11:23:19.172411,192.168.0.114
581,-1,-100,-100,-100,"0,0,0",0,0,0,0,0,0,66,67,81,50,100,-16.86,11,-26.0,9.0,-974.0,11:23:19.274265,192.168.0.114
586,-1,-100,-100,-100,"0,0,0",0,0,0,0,0,0,66,67,80,50,100,-16.78,11,12.0,-21.0,-1014.0,11:23:19.377225,192.168.0.114
592,-1,-100,-100,-100,"0,0,0",0,0,0,0,0,0,66,67,80,50,100,-16.78,11,17.0,11.0,-1055.0,11:23:19.479215,192.168.0.114
597,-1,-100,-100,-100,"0,0,0",0,0,0,0,0,0,66,67,80,50,100,-16.81,11,8.0,-13.0,-1006.0,11:23:19.580307,192.168.0.114
602,-1,-100,-100,-100,"0,0,0",0,0,0,0,0,0,66,67,80,50,100,-16.93,11,12.0,-18.0,-993.0,11:23:19.682162,192.168.0.114
607,-1,-100,-100,-100,"0,0,0",0,0,0,0,0,0,66,67,80,50,100,-16.89,11,29.0,-28.0,-998.0,11:23:19.784508,192.168.0.114
612,-1,-100,-100,-100,"0,0,0",0,0,0,0,0,0,66,67,80,50,100,-16.81,12,8.0,-6.0,-1018.0,11:23:19.886441,192.168.0.114
617,-1,-100,-100,-100,"0,0,0",0,0,0,0,0,0,66,67,80,50,100,-16.87,12,24.0,-38.0,-992.0,11:23:19.988063,192.168.0.114
622,-1,-100,-100,-100,"0,0,0",0,0,0,0,0,0,65,67,81,50,100,-16.78,12,2.0,-15.0,-1001.0,11:23:20.090202,192.168.0.114
627,-1,-100,-100,-100,"0,0,0",0,0,0,0,0,0,65,67,80,50,100,-16.75,12,18.0,-18.0,-995.0,11:23:20.192311,192.168.0.114
632,-1,-100,-100,-100,"0,0,0",0,0,0,0,0,0,65,67,81,50,100,-16.8,12,3.0,4.0,-979.0,11:23:20.294298,192.168.0.114
637,-1,-100,-100,-100,"0,0,0",0,0,0,0,0,0,65,67,81,50,100,-16.87,12,35.0,-12.0,-1020.0,11:23:20.396338,192.168.0.114
642,-1,-100,-100,-100,"0,0,0",0,0,0,0,0,0,65,67,81,50,100,-16.9,12,38.0,-28.0,-988.0,11:23:20.498086,192.168.0.114
648,-1,-100,-100,-100,"0,0,0",0,0,0,0,0,0,65,67,81,50,100,-16.89,12,10.0,-13.0,-984.0,11:23:20.600523,192.168.0.114
653,-1,-100,-100,-100,"0,0,0",0,0,0,0,0,0,65,67,82,50,100,-16.85,12,19.0,-13.0,-989.0,11:23:20.701920,192.168.0.114
657,-1,-100,-100,-100,"0,0,0",0,0,0,0,0,0,65,67,81,50,100,-16.9,12,26.0,-9.0,-1006.0,11:23:20.804229,192.168.0.114
663,-1,-100,-100,-100,"0,0,0",0,0,0,0,0,0,65,67,81,50,100,-16.76,13,2.0,1.0,-1009.0,11:23:20.906038,192.168.0.114
666,-1,-100,-100,-100,"0,0,0",0,0,0,0,0,0,65,67,81,50,100,-16.76,13,8.0,-14.0,-992.0,11:23:20.957032,192.168.0.114
673,-1,-100,-100,-100,"0,0,0",0,0,0,0,0,0,66,68,81,50,100,-16.85,13,50.0,-10.0,-1000.0,11:23:21.110531,192.168.0.114
678,-1,-100,-100,-100,"0,0,0",0,0,0,0,0,0,66,68,82,50,100,-16.8,13,23.0,-7.0,-988.0,11:23:21.212301,192.168.0.114
683,-1,-100,-100,-100,"0,0,0",0,-1,0,0,0,0,66,68,81,50,100,-16.79,13,9.0,-20.0,-1006.0,11:23:21.314237,192.168.0.114
688,-1,-100,-100,-100,"0,0,0",0,0,0,0,0,0,66,68,80,50,100,-16.69,13,32.0,-12.0,-1004.0,11:23:21.416781,192.168.0.114
691,-1,-100,-100,-100,"0,0,0",0,-1,0,0,0,0,66,68,80,50,100,-16.66,13,20.0,-17.0,-993.0,11:23:21.467242,192.168.0.114
696,-1,-100,-100,-100,"0,0,0",0,0,0,0,0,0,66,68,79,50,100,-16.67,13,16.0,-17.0,-1015.0,11:23:21.569155,192.168.0.114
701,-1,-100,-100,-100,"0,0,0",0,0,0,0,0,0,66,68,79,50,100,-16.63,13,-5.0,-34.0,-977.0,11:23:21.671458,192.168.0.114
706,-1,-100,-100,-100,"0,0,0",0,1,0,0,0,0,66,68,78,50,100,-16.6,13,-18.0,-26.0,-1031.0,11:23:21.773335,192.168.0.114
711,-1,-100,-100,-100,"0,0,0",0,1,0,0,0,0,66,68,78,50,100,-16.68,14,-16.0,-39.0,-994.0,11:23:21.875006,192.168.0.114
716,-1,-100,-100,-100,"0,0,0",0,0,0,0,0,0,66,68,77,50,100,-16.8,14,-3.0,-21.0,-1073.0,11:23:21.976779,192.168.0.114
721,-1,-100,-100,-100,"0,0,0",0,0,0,0,0,0,66,68,77,50,100,-16.73,14,25.0,-28.0,-1024.0,11:23:22.078942,192.168.0.114
726,-1,-100,-100,-100,"0,0,0",0,0,0,0,0,0,66,68,77,50,100,-16.71,14,6.0,-28.0,-976.0,11:23:22.181142,192.168.0.114
731,-1,-100,-100,-100,"0,0,0",0,1,0,0,0,0,66,68,77,40,100,-16.61,14,-8.0,-38.0,-986.0,11:23:22.283062,192.168.0.114
736,-1,-100,-100,-100,"0,0,0",0,2,0,0,0,0,66,68,76,40,100,-16.61,14,13.0,-17.0,-1034.0,11:23:22.385285,192.168.0.114
741,-1,-100,-100,-100,"0,0,0",0,1,0,0,0,0,66,68,76,40,100,-16.63,14,-17.0,-42.0,-1001.0,11:23:22.487070,192.168.0.114
746,-1,-100,-100,-100,"0,0,0",0,1,0,0,0,0,66,68,76,40,100,-16.67,14,21.0,-71.0,-1047.0,11:23:22.588849,192.168.0.114
751,-1,-100,-100,-100,"0,0,0",-1,2,0,0,0,0,66,68,76,40,100,-16.6,14,22.0,-33.0,-1034.0,11:23:22.691986,192.168.0.114
756,-1,-100,-100,-100,"0,0,0",0,2,0,0,0,0,66,68,77,40,100,-16.72,14,12.0,-52.0,-1005.0,11:23:22.793961,192.168.0.114
761,-1,-100,-100,-100,"0,0,0",0,2,0,0,0,0,66,68,79,50,100,-16.64,15,-23.0,-26.0,-1004.0,11:23:22.896152,192.168.0.114
767,-1,-100,-100,-100,"0,0,0",0,2,0,0,0,0,66,68,80,50,100,-16.65,15,15.0,-25.0,-997.0,11:23:22.998609,192.168.0.114
772,-1,-100,-100,-100,"0,0,0",0,1,0,0,0,0,66,68,81,50,100,-16.72,15,12.0,-33.0,-1002.0,11:23:23.102336,192.168.0.114
777,-1,-100,-100,-100,"0,0,0",0,1,0,0,0,1,66,68,83,50,100,-16.79,15,9.0,-2.0,-981.0,11:23:23.203617,192.168.0.114
782,-1,-100,-100,-100,"0,0,0",0,0,0,0,0,0,66,68,83,50,100,-16.76,15,10.0,-17.0,-959.0,11:23:23.302803,192.168.0.114
787,-1,-100,-100,-100,"0,0,0",0,0,1,0,0,0,66,68,84,50,100,-16.68,15,5.0,-13.0,-960.0,11:23:23.404813,192.168.0.114
792,-1,-100,-100,-100,"0,0,0",0,0,1,0,0,0,66,68,84,50,100,-16.58,15,20.0,-7.0,-972.0,11:23:23.506752,192.168.0.114
797,-1,-100,-100,-100,"0,0,0",0,0,1,0,0,0,66,68,84,50,100,-16.54,15,0.0,1.0,-977.0,11:23:23.608787,192.168.0.114
802,-1,-100,-100,-100,"0,0,0",1,0,1,0,0,0,66,68,84,50,100,-16.65,15,-4.0,-1.0,-962.0,11:23:23.710770,192.168.0.114
807,-1,-100,-100,-100,"0,0,0",0,0,2,0,0,0,66,68,83,50,100,-16.67,15,23.0,-20.0,-946.0,11:23:23.812968,192.168.0.114
812,-1,-100,-100,-100,"0,0,0",0,0,5,0,0,0,66,68,82,50,100,-16.7,16,24.0,0.0,-920.0,11:23:23.914904,192.168.0.114
817,-1,-100,-100,-100,"0,0,0",0,-1,8,0,0,0,66,68,82,50,100,-16.69,16,-16.0,-15.0,-1022.0,11:23:24.017065,192.168.0.114
822,-1,-100,-100,-100,"0,0,0",0,0,11,0,0,0,66,69,81,50,100,-16.57,16,-7.0,9.0,-999.0,11:23:24.119180,192.168.0.114
828,-1,-100,-100,-100,"0,0,0",0,0,15,0,0,0,66,69,81,50,100,-16.83,16,-18.0,22.0,-980.0,11:23:24.221427,192.168.0.114
833,-1,-100,-100,-100,"0,0,0",0,-1,20,0,0,0,66,69,80,50,100,-16.78,16,-1.0,2.0,-980.0,11:23:24.322940,192.168.0.114
838,-1,-100,-100,-100,"0,0,0",-1,-2,23,0,0,0,66,69,78,50,100,-16.7,16,19.0,12.0,-1001.0,11:23:24.424745,192.168.0.114
843,-1,-100,-100,-100,"0,0,0",0,-2,26,0,0,0,66,69,78,50,100,-16.69,16,6.0,14.0,-1000.0,11:23:24.527024,192.168.0.114
846,-1,-100,-100,-100,"0,0,0",0,-1,29,0,0,0,66,69,76,50,100,-16.59,16,19.0,38.0,-997.0,11:23:24.578576,192.168.0.114
851,-1,-100,-100,-100,"0,0,0",0,-2,31,0,0,0,66,69,76,50,100,-16.66,16,-3.0,42.0,-1062.0,11:23:24.680060,192.168.0.114
856,-1,-100,-100,-100,"0,0,0",0,-3,31,0,0,0,66,69,75,40,100,-16.72,16,27.0,20.0,-1029.0,11:23:24.781792,192.168.0.114
861,-1,-100,-100,-100,"0,0,0",0,-3,27,0,0,0,66,69,74,40,100,-16.9,17,1.0,28.0,-1026.0,11:23:24.884220,192.168.0.114
866,-1,-100,-100,-100,"0,0,0",1,-4,17,0,0,0,66,69,74,40,100,-16.98,17,-39.0,49.0,-1046.0,11:23:24.986018,192.168.0.114
871,-1,-100,-100,-100,"0,0,0",0,-3,4,0,0,0,66,69,74,40,100,-16.85,17,10.0,-15.0,-969.0,11:23:25.088433,192.168.0.114
876,-1,-100,-100,-100,"0,0,0",0,-2,-1,0,0,0,66,69,74,40,100,-16.59,17,4.0,17.0,-1023.0,11:23:25.189759,192.168.0.114
881,-1,-100,-100,-100,"0,0,0",-1,-2,-2,0,0,0,66,69,74,40,100,-16.75,17,7.0,2.0,-1053.0,11:23:25.293814,192.168.0.114
886,-1,-100,-100,-100,"0,0,0",0,-3,-2,0,0,0,66,69,75,40,100,-16.65,17,29.0,18.0,-1048.0,11:23:25.394172,192.168.0.114
891,-1,-100,-100,-100,"0,0,0",0,-2,-1,0,0,0,66,69,75,40,100,-16.73,17,-14.0,20.0,-1017.0,11:23:25.498533,192.168.0.114
896,-1,-100,-100,-100,"0,0,0",0,-2,-1,0,0,0,66,69,77,50,100,-16.68,17,8.0,26.0,-979.0,11:23:25.597937,192.168.0.114
901,-1,-100,-100,-100,"0,0,0",0,-1,-1,0,0,0,66,69,77,50,100,-16.68,17,0.0,10.0,-960.0,11:23:25.700066,192.168.0.114
906,-1,-100,-100,-100,"0,0,0",-1,-2,-1,0,0,0,66,69,77,50,100,-16.75,17,-3.0,0.0,-1002.0,11:23:25.802329,192.168.0.114
911,-1,-100,-100,-100,"0,0,0",-1,-1,-1,0,0,0,66,69,77,50,100,-16.71,18,10.0,-3.0,-989.0,11:23:25.905837,192.168.0.114
916,-1,-100,-100,-100,"0,0,0",0,-1,-1,0,1,0,66,69,78,50,100,-16.75,18,19.0,11.0,-1020.0,11:23:26.006318,192.168.0.114
922,-1,-100,-100,-100,"0,0,0",0,0,-1,0,1,0,66,67,78,50,100,-16.78,18,20.0,14.0,-1005.0,11:23:26.108144,192.168.0.114
927,-1,-100,-100,-100,"0,0,0",0,0,-1,0,0,0,66,67,78,50,100,-16.78,18,14.0,-12.0,-1002.0,11:23:26.210036,192.168.0.114
932,-1,-100,-100,-100,"0,0,0",0,0,-1,0,0,0,66,67,78,50,100,-16.72,18,0.0,-12.0,-981.0,11:23:26.312009,192.168.0.114
937,-1,-100,-100,-100,"0,0,0",0,0,-1,0,0,0,66,67,78,50,100,-16.68,18,-21.0,21.0,-995.0,11:23:26.413977,192.168.0.114
942,-1,-100,-100,-100,"0,0,0",0,0,-1,0,0,0,66,67,79,50,100,-16.74,18,3.0,1.0,-1005.0,11:23:26.515848,192.168.0.114
947,-1,-100,-100,-100,"0,0,0",0,0,-1,0,0,0,66,67,79,50,100,-16.7,18,26.0,-4.0,-996.0,11:23:26.618124,192.168.0.114
952,-1,-100,-100,-100,"0,0,0",0,0,-1,0,0,0,66,67,79,50,100,-16.6,18,13.0,11.0,-992.0,11:23:26.719787,192.168.0.114
957,-1,-100,-100,-100,"0,0,0",0,0,0,0,0,0,66,67,79,50,100,-16.69,18,31.0,-1.0,-998.0,11:23:26.821855,192.168.0.114
962,-1,-100,-100,-100,"0,0,0",0,0,0,0,0,0,66,67,79,50,100,-16.72,19,5.0,11.0,-1000.0,11:23:26.926942,192.168.0.114
967,-1,-100,-100,-100,"0,0,0",0,0,0,0,0,0,66,67,79,50,100,-16.75,19,-7.0,0.0,-1014.0,11:23:27.026078,192.168.0.114
972,-1,-100,-100,-100,"0,0,0",0,0,0,0,0,0,67,68,79,50,100,-16.72,19,11.0,-6.0,-997.0,11:23:27.128266,192.168.0.114
977,-1,-100,-100,-100,"0,0,0",0,0,-1,0,0,0,67,68,79,50,100,-16.76,19,15.0,-9.0,-1010.0,11:23:27.229990,192.168.0.114
982,-1,-100,-100,-100,"0,0,0",0,0,0,0,0,0,67,68,79,50,100,-16.73,19,21.0,-19.0,-978.0,11:23:27.332223,192.168.0.114
987,-1,-100,-100,-100,"0,0,0",0,0,0,0,0,0,67,68,79,50,100,-16.74,19,-6.0,-14.0,-992.0,11:23:27.434009,192.168.0.114
993,-1,-100,-100,-100,"0,0,0",0,0,0,0,0,0,67,68,80,50,100,-16.7,19,1.0,14.0,-1013.0,11:23:27.536239,192.168.0.114
998,-1,-100,-100,-100,"0,0,0",0,0,0,0,0,0,67,68,80,50,100,-16.79,19,25.0,-11.0,-983.0,11:23:27.638194,192.168.0.114
1003,-1,-100,-100,-100,"0,0,0",0,0,0,0,0,0,67,68,79,50,100,-16.72,19,12.0,-26.0,-969.0,11:23:27.739949,192.168.0.114
1008,-1,-100,-100,-100,"0,0,0",0,0,0,0,0,0,67,68,80,50,100,-16.73,19,16.0,-11.0,-986.0,11:23:27.841975,192.168.0.114
1011,-1,-100,-100,-100,"0,0,0",0,0,0,0,0,0,67,68,80,50,100,-16.74,20,-16.0,-2.0,-999.0,11:23:27.893521,192.168.0.114
1016,-1,-100,-100,-100,"0,0,0",0,0,0,0,0,0,67,68,80,50,100,-16.82,20,35.0,-18.0,-991.0,11:23:27.995071,192.168.0.114
1023,-1,-100,-100,-100,"0,0,0",0,0,0,0,0,0,66,68,79,50,100,-16.76,20,3.0,-10.0,-999.0,11:23:28.148794,192.168.0.114
1026,-1,-100,-100,-100,"0,0,0",0,0,0,0,0,0,66,68,80,50,100,-16.78,20,15.0,9.0,-987.0,11:23:28.199330,192.168.0.114
1031,-1,-100,-100,-100,"0,0,0",0,0,0,0,0,0,66,68,79,50,100,-16.9,20,-29.0,21.0,-1031.0,11:23:28.301261,192.168.0.114
1036,-1,-100,-100,-100,"0,0,0",0,0,0,0,0,0,66,68,79,50,100,-16.89,20,-40.0,18.0,-982.0,11:23:28.402983,192.168.0.114
1041,-1,-100,-100,-100,"0,0,0",0,0,-1,0,0,0,66,68,80,50,100,-16.86,20,-8.0,13.0,-1031.0,11:23:28.504994,192.168.0.114
1046,-1,-100,-100,-100,"0,0,0",-1,-1,-1,0,0,0,66,68,80,50,100,-16.86,20,-13.0,-5.0,-1010.0,11:23:28.607249,192.168.0.114
1051,-1,-100,-100,-100,"0,0,0",-2,-1,-1,0,0,0,66,68,80,50,100,-16.89,20,-40.0,1.0,-963.0,11:23:28.709150,192.168.0.114
1056,-1,-100,-100,-100,"0,0,0",-2,-2,0,0,0,0,66,68,80,50,100,-16.86,20,-44.0,5.0,-1001.0,11:23:28.811117,192.168.0.114
1061,-1,-100,-100,-100,"0,0,0",-2,-2,0,0,0,0,66,68,80,50,100,-16.87,21,-49.0,16.0,-1040.0,11:23:28.912850,192.168.0.114
1066,-1,-100,-100,-100,"0,0,0",-3,-1,0,0,0,0,66,68,80,50,100,-16.99,21,-33.0,9.0,-988.0,11:23:29.015776,192.168.0.114
1071,-1,-100,-100,-100,"0,0,0",-3,-1,0,0,0,0,67,68,80,50,100,-16.9,21,-62.0,-6.0,-997.0,11:23:29.116826,192.168.0.114
1076,-1,-100,-100,-100,"0,0,0",-3,-1,0,0,0,0,67,68,81,50,100,-16.82,21,-32.0,-11.0,-980.0,11:23:29.219228,192.168.0.114
1081,-1,-100,-100,-100,"0,0,0",-4,0,0,0,0,0,67,68,81,50,100,-16.88,21,-26.0,-9.0,-972.0,11:23:29.320709,192.168.0.114
1086,-1,-100,-100,-100,"0,0,0",-3,0,0,0,0,0,67,68,81,50,100,-16.84,21,-63.0,14.0,-1023.0,11:23:29.422658,192.168.0.114
1091,-1,-100,-100,-100,"0,0,0",-3,0,0,0,0,0,67,68,81,50,100,-16.85,21,-42.0,19.0,-1006.0,11:23:29.525042,192.168.0.114
1097,-1,-100,-100,-100,"0,0,0",-3,-1,0,0,0,0,67,68,81,50,100,-16.91,21,-20.0,33.0,-1012.0,11:23:29.626807,192.168.0.114
1102,-1,-100,-100,-100,"0,0,0",-3,-1,0,0,0,0,67,68,81,50,100,-16.92,21,-45.0,21.0,-980.0,11:23:29.728894,192.168.0.114
1107,-1,-100,-100,-100,"0,0,0",-3,-1,0,0,0,0,67,68,81,50,100,-16.85,22,-38.0,19.0,-1005.0,11:23:29.831151,192.168.0.114
1112,-1,-100,-100,-100,"0,0,0",-2,-1,0,0,0,0,67,68,82,50,100,-16.89,22,-25.0,23.0,-1000.0,11:23:29.932932,192.168.0.114
1117,-1,-100,-100,-100,"0,0,0",-2,-1,0,0,0,0,67,68,81,50,100,-16.86,22,-25.0,32.0,-1005.0,11:23:30.035099,192.168.0.114
1122,-1,-100,-100,-100,"0,0,0",-3,-2,0,0,0,0,67,69,81,50,100,-16.89,22,-48.0,14.0,-988.0,11:23:30.140206,192.168.0.114
1127,-1,-100,-100,-100,"0,0,0",-3,-2,0,0,0,0,67,69,81,50,100,-16.85,22,-27.0,-5.0,-997.0,11:23:30.239011,192.168.0.114
1132,-1,-100,-100,-100,"0,0,0",-2,-1,0,0,0,0,67,69,81,50,100,-16.85,22,-38.0,17.0,-1005.0,11:23:30.341142,192.168.0.114
1137,-1,-100,-100,-100,"0,0,0",-2,0,0,0,0,0,67,69,81,50,100,-16.95,22,-22.0,5.0,-1020.0,11:23:30.443457,192.168.0.114
1142,-1,-100,-100,-100,"0,0,0",-2,0,0,0,0,0,67,69,80,50,100,-17.18,22,-32.0,-21.0,-1005.0,11:23:30.544874,192.168.0.114
1147,-1,-100,-100,-100,"0,0,0",-2,0,0,0,0,0,67,69,80,50,100,-17.1,22,-44.0,-4.0,-1004.0,11:23:30.646549,192.168.0.114
1152,-1,-100,-100,-100,"0,0,0",-3,-1,0,0,0,0,67,69,81,50,100,-16.81,22,-31.0,1.0,-1017.0,11:23:30.748550,192.168.0.114
1157,-1,-100,-100,-100,"0,0,0",-2,0,0,0,0,0,67,69,81,50,100,-16.73,23,-38.0,26.0,-951.0,11:23:30.850571,192.168.0.114
1162,-1,-100,-100,-100,"0,0,0",-1,0,1,0,0,0,67,69,81,50,100,-16.78,23,-8.0,34.0,-1018.0,11:23:30.952596,192.168.0.114
1167,-1,-100,-100,-100,"0,0,0",-1,0,0,0,0,0,67,69,80,50,100,-16.75,23,-14.0,50.0,-965.0,11:23:31.054669,192.168.0.114
1173,-1,-100,-100,-100,"0,0,0",-1,-2,0,0,0,0,67,69,79,50,100,-16.76,23,36.0,22.0,-1018.0,11:23:31.157017,192.168.0.114
1178,-1,-100,-100,-100,"0,0,0",-1,-3,0,-1,0,0,67,69,78,50,100,-16.66,23,0.0,40.0,-1009.0,11:23:31.258809,192.168.0.114
1183,-1,-100,-100,-100,"0,0,0",0,-3,0,-1,0,0,67,69,78,50,100,-16.64,23,16.0,35.0,-1012.0,11:23:31.360708,192.168.0.114
1188,-1,-100,-100,-100,"0,0,0",0,-3,0,-1,0,0,67,69,78,50,100,-16.73,23,-19.0,49.0,-1027.0,11:23:31.462662,192.168.0.114
1193,-1,-100,-100,-100,"0,0,0",0,-3,0,-1,0,0,67,69,78,50,100,-16.73,23,8.0,15.0,-1041.0,11:23:31.566382,192.168.0.114
1198,-1,-100,-100,-100,"0,0,0",0,-2,0,-1,0,0,67,69,78,50,100,-16.85,23,10.0,32.0,-1022.0,11:23:31.671120,192.168.0.114
1201,-1,-100,-100,-100,"0,0,0",0,-3,0,-1,0,0,67,69,79,50,100,-16.88,23,10.0,19.0,-974.0,11:23:31.717673,192.168.0.114
1206,-1,-100,-100,-100,"0,0,0",0,-3,0,-1,0,0,67,69,79,50,100,-16.88,24,-4.0,7.0,-1008.0,11:23:31.822440,192.168.0.114
1211,-1,-100,-100,-100,"0,0,0",0,-2,0,0,0,0,67,69,79,50,100,-16.9,24,-16.0,20.0,-1017.0,11:23:31.921524,192.168.0.114
1216,-1,-100,-100,-100,"0,0,0",0,-1,0,0,0,0,67,69,80,50,100,-16.8,24,-24.0,23.0,-1001.0,11:23:32.023596,192.168.0.114
1223,-1,-100,-100,-100,"0,0,0",0,-1,0,0,0,0,67,69,80,50,100,-16.82,24,3.0,13.0,-990.0,11:23:32.176608,192.168.0.114
1226,-1,-100,-100,-100,"0,0,0",0,-1,0,0,0,0,67,69,80,50,100,-16.91,24,9.0,40.0,-996.0,11:23:32.227584,192.168.0.114
1231,-1,-100,-100,-100,"0,0,0",0,-1,0,0,0,0,67,69,80,50,100,-16.89,24,-10.0,27.0,-991.0,11:23:32.329656,192.168.0.114
1236,-1,-100,-100,-100,"0,0,0",0,-1,0,0,0,0,67,69,81,50,100,-16.73,24,6.0,49.0,-975.0,11:23:32.431573,192.168.0.114
1241,-1,-100,-100,-100,"0,0,0",0,-1,0,0,0,0,67,69,80,50,100,-16.78,24,3.0,20.0,-1021.0,11:23:32.534109,192.168.0.114
1246,-1,-100,-100,-100,"0,0,0",0,-1,0,0,0,0,67,69,80,50,100,-16.81,24,-19.0,19.0,-1005.0,11:23:32.635591,192.168.0.114
1251,-1,-100,-100,-100,"0,0,0",0,-1,0,0,0,0,67,69,80,50,100,-16.83,24,-26.0,49.0,-986.0,11:23:32.737823,192.168.0.114
1256,-1,-100,-100,-100,"0,0,0",0,-2,0,0,0,0,67,69,80,50,100,-16.86,25,-18.0,22.0,-993.0,11:23:32.840034,192.168.0.114
1261,-1,-100,-100,-100,"0,0,0",0,-2,0,0,0,0,67,69,80,50,100,-16.97,25,-8.0,20.0,-1032.0,11:23:32.941857,192.168.0.114
1266,-1,-100,-100,-100,"0,0,0",0,-1,0,0,0,0,67,69,81,50,100,-17.0,25,-20.0,22.0,-1009.0,11:23:33.043818,192.168.0.114
1272,-1,-100,-100,-100,"0,0,0",0,-1,0,0,0,0,67,69,81,50,100,-16.93,25,-18.0,28.0,-999.0,11:23:33.145747,192.168.0.114
1277,-1,-100,-100,-100,"0,0,0",0,-1,0,0,0,0,67,69,81,50,100,-17.02,25,0.0,-6.0,-983.0,11:23:33.248205,192.168.0.114
1282,-1,-100,-100,-100,"0,0,0",-1,-1,0,0,0,0,67,69,81,50,100,-17.04,25,-25.0,4.0,-1027.0,11:23:33.350374,192.168.0.114
1287,-1,-100,-100,-100,"0,0,0",-1,-1,0,0,0,0,67,69,82,50,100,-16.89,25,-5.0,7.0,-969.0,11:23:33.451727,192.168.0.114
1292,-1,-100,-100,-100,"0,0,0",-2,-1,0,0,0,0,67,69,81,50,100,-16.86,25,-17.0,12.0,-1016.0,11:23:33.555267,192.168.0.114
1297,-1,-100,-100,-100,"0,0,0",-1,0,0,0,0,0,67,69,82,50,100,-16.81,25,-7.0,29.0,-1008.0,11:23:33.655882,192.168.0.114
1302,-1,-100,-100,-100,"0,0,0",-1,0,0,0,0,0,67,69,82,50,100,-16.92,25,-10.0,47.0,-989.0,11:23:33.757673,192.168.0.114
1307,-1,-100,-100,-100,"0,0,0",-1,0,0,0,0,0,67,69,82,50,100,-16.82,26,14.0,22.0,-969.0,11:23:33.859800,192.168.0.114
1312,-1,-100,-100,-100,"0,0,0",0,0,0,0,0,0,67,69,81,50,100,-16.78,26,2.0,16.0,-983.0,11:23:33.961790,192.168.0.114
1317,-1,-100,-100,-100,"0,0,0",0,-1,0,0,0,0,67,69,81,50,100,-16.76,26,-5.0,14.0,-992.0,11:23:34.063808,192.168.0.114
1322,-1,-100,-100,-100,"0,0,0",0,-1,0,0,0,0,67,68,81,50,100,-16.72,26,-7.0,23.0,-993.0,11:23:34.165545,192.168.0.114
1327,-1,-100,-100,-100,"0,0,0",0,-1,0,0,0,0,67,68,80,50,100,-16.94,26,13.0,18.0,-1047.0,11:23:34.269202,192.168.0.114
1332,-1,-100,-100,-100,"0,0,0",0,-1,0,0,0,0,67,68,81,50,100,-16.69,26,22.0,7.0,-974.0,11:23:34.370842,192.168.0.114
1337,-1,-100,-100,-100,"0,0,0",0,0,0,0,0,0,67,68,80,50,100,-16.8,26,0.0,21.0,-1006.0,11:23:34.472746,192.168.0.114
1343,-1,-100,-100,-100,"0,0,0",0,0,0,0,0,0,67,68,80,50,100,-16.91,26,-18.0,9.0,-968.0,11:23:34.574541,192.168.0.114
1348,-1,-100,-100,-100,"0,0,0",0,-1,0,0,0,0,67,68,80,50,100,-16.72,26,-10.0,25.0,-1019.0,11:23:34.676866,192.168.0.114
1353,-1,-100,-100,-100,"0,0,0",0,-1,0,0,0,0,67,68,80,50,100,-16.93,26,-26.0,-1.0,-998.0,11:23:34.778712,192.168.0.114
1358,-1,-100,-100,-100,"0,0,0",0,0,0,0,0,0,67,68,80,50,100,-16.98,27,-43.0,0.0,-1042.0,11:23:34.880865,192.168.0.114
1361,-1,-100,-100,-100,"0,0,0",-1,0,0,0,0,0,67,68,81,50,100,-16.79,27,-30.0,34.0,-968.0,11:23:34.931727,192.168.0.114
1366,-1,-100,-100,-100,"0,0,0",-2,-1,0,0,0,0,67,68,82,50,100,-16.78,27,17.0,28.0,-947.0,11:23:35.033964,192.168.0.114
1373,-1,-100,-100,-100,"0,0,0",-1,-2,0,0,0,0,67,69,81,50,100,-16.81,27,-9.0,8.0,-970.0,11:23:35.186483,192.168.0.114
1376,-1,-100,-100,-100,"0,0,0",0,-2,0,0,0,0,67,69,82,50,100,-16.8,27,-19.0,18.0,-965.0,11:23:35.237445,192.168.0.114
1381,-1,-100,-100,-100,"0,0,0",0,0,0,0,0,0,67,69,81,50,100,-16.89,27,-5.0,0.0,-1043.0,11:23:35.339646,192.168.0.114
1386,-1,-100,-100,-100,"0,0,0",0,0,0,0,0,0,67,69,81,50,100,-16.89,27,-47.0,6.0,-1012.0,11:23:35.443163,192.168.0.114
1391,-1,-100,-100,-100,"0,0,0",-1,0,0,0,0,0,67,69,80,50,100,-16.94,27,-35.0,-20.0,-984.0,11:23:35.543932,192.168.0.114
1396,-1,-100,-100,-100,"0,0,0",-2,0,0,0,0,0,67,69,81,50,100,-16.97,27,-37.0,-4.0,-1012.0,11:23:35.645701,192.168.0.114
1401,-1,-100,-100,-100,"0,0,0",-2,0,0,0,0,0,67,69,81,50,100,-16.99,27,-1.0,6.0,-969.0,11:23:35.747872,192.168.0.114
1406,-1,-100,-100,-100,"0,0,0",-2,0,0,0,0,0,67,69,81,50,100,-16.98,28,-24.0,11.0,-1022.0,11:23:35.849582,192.168.0.114
1411,-1,-100,-100,-100,"0,0,0",-2,-1,0,0,0,0,67,69,81,50,100,-16.9,28,-17.0,5.0,-964.0,11:23:35.951593,192.168.0.114
1416,-1,-100,-100,-100,"0,0,0",-2,-1,0,0,0,0,67,69,82,50,100,-16.82,28,-14.0,22.0,-969.0,11:23:36.053819,192.168.0.114
1421,-1,-100,-100,-100,"0,0,0",-1,0,0,0,0,0,67,68,81,50,100,-16.82,28,-11.0,19.0,-959.0,11:23:36.155829,192.168.0.114
1426,-1,-100,-100,-100,"0,0,0",-1,0,0,0,0,0,67,68,81,50,100,-16.82,28,-16.0,33.0,-964.0,11:23:36.257599,192.168.0.114
1432,-1,-100,-100,-100,"0,0,0",-1,0,0,0,0,0,67,68,80,50,100,-16.82,28,7.0,12.0,-955.0,11:23:36.359664,192.168.0.114
1437,-1,-100,-100,-100,"0,0,0",0,-1,0,0,0,0,67,68,79,50,100,-16.84,28,15.0,27.0,-985.0,11:23:36.461763,192.168.0.114
1442,-1,-100,-100,-100,"0,0,0",0,-1,0,0,0,0,67,68,80,50,100,-16.88,28,-22.0,32.0,-1036.0,11:23:36.563801,192.168.0.114
1447,-1,-100,-100,-100,"0,0,0",0,-1,0,0,0,0,67,68,79,50,100,-16.8,28,-5.0,18.0,-1047.0,11:23:36.665782,192.168.0.114
1452,-1,-100,-100,-100,"0,0,0",0,-2,0,0,0,0,67,68,81,50,100,-16.76,28,-7.0,28.0,-1055.0,11:23:36.768700,192.168.0.114
1457,-1,-100,-100,-100,"0,0,0",0,-2,0,0,0,0,67,68,81,50,100,-16.8,29,12.0,23.0,-997.0,11:23:36.869790,192.168.0.114
1462,-1,-100,-100,-100,"0,0,0",0,-2,0,0,0,0,67,68,81,50,100,-16.8,29,2.0,36.0,-977.0,11:23:36.971823,192.168.0.114
1467,-1,-100,-100,-100,"0,0,0",0,-2,0,0,0,0,67,68,81,50,100,-16.88,29,5.0,36.0,-1004.0,11:23:37.073672,192.168.0.114
1472,-1,-100,-100,-100,"0,0,0",0,-2,0,0,0,0,67,69,82,50,100,-16.8,29,11.0,17.0,-947.0,11:23:37.175535,192.168.0.114
1477,-1,-100,-100,-100,"0,0,0",0,-2,0,0,0,0,67,69,81,50,100,-16.83,29,4.0,42.0,-965.0,11:23:37.277928,192.168.0.114
1482,-1,-100,-100,-100,"0,0,0",0,-2,0,0,0,0,67,69,81,50,100,-16.79,29,-28.0,10.0,-1003.0,11:23:37.379854,192.168.0.114
1487,-1,-100,-100,-100,"0,0,0",0,-2,0,0,0,0,67,69,81,50,100,-16.93,29,-49.0,36.0,-1044.0,11:23:37.481543,192.168.0.114
1492,-1,-100,-100,-100,"0,0,0",0,-1,0,0,0,0,67,69,81,50,100,-16.94,29,-5.0,30.0,-1070.0,11:23:37.583461,192.168.0.114
1498,-1,-100,-100,-100,"0,0,0",0,-2,0,0,0,0,67,69,81,50,100,-16.99,29,5.0,-1.0,-998.0,11:23:37.685650,192.168.0.114
1503,-1,-100,-100,-100,"0,0,0",-1,-1,0,0,0,0,67,69,82,50,100,-16.83,29,-17.0,11.0,-982.0,11:23:37.789463,192.168.0.114
1507,-1,-100,-100,-100,"0,0,0",-1,-1,0,0,0,0,67,69,82,50,100,-16.96,30,-9.0,12.0,-984.0,11:23:37.889655,192.168.0.114
1512,-1,-100,-100,-100,"0,0,0",-1,-1,0,0,0,0,67,69,82,50,100,-16.78,30,-42.0,11.0,-968.0,11:23:37.991848,192.168.0.114
1518,-1,-100,-100,-100,"0,0,0",-1,0,0,0,0,0,67,69,82,50,100,-16.96,30,-28.0,19.0,-967.0,11:23:38.093795,192.168.0.114
1523,-1,-100,-100,-100,"0,0,0",-1,0,0,0,0,0,67,69,83,50,100,-16.93,30,-3.0,11.0,-987.0,11:23:38.195671,192.168.0.114
1528,-1,-100,-100,-100,"0,0,0",-1,-1,0,0,0,0,67,69,82,50,100,-16.73,30,-9.0,35.0,-1003.0,11:23:38.298127,192.168.0.114
1533,-1,-100,-100,-100,"0,0,0",-2,-1,0,0,0,0,67,69,82,50,100,-16.73,30,-1.0,12.0,-976.0,11:23:38.399704,192.168.0.114
1538,-1,-100,-100,-100,"0,0,0",-1,-1,0,0,0,0,67,69,82,50,100,-16.88,30,-3.0,1.0,-985.0,11:23:38.501372,192.168.0.114
1543,-1,-100,-100,-100,"0,0,0",-1,0,0,0,0,0,67,69,82,50,100,-16.79,30,-2.0,16.0,-976.0,11:23:38.603661,192.168.0.114
1546,-1,-100,-100,-100,"0,0,0",-1,0,0,0,0,0,67,69,81,50,100,-16.78,30,-20.0,8.0,-1007.0,11:23:38.654671,192.168.0.114
1551,-1,-100,-100,-100,"0,0,0",0,0,0,0,0,0,67,69,81,50,100,-16.84,30,2.0,17.0,-1024.0,11:23:38.756691,192.168.0.114
1556,-1,-100,-100,-100,"0,0,0",0,0,0,0,0,0,67,69,81,50,100,-16.74,31,2.0,19.0,-987.0,11:23:38.858546,192.168.0.114
1561,-1,-100,-100,-100,"0,0,0",0,0,0,0,0,0,67,69,80,50,100,-16.88,31,-14.0,28.0,-1069.0,11:23:38.960696,192.168.0.114
1566,-1,-100,-100,-100,"0,0,0",0,-1,0,0,0,0,67,69,80,50,100,-16.83,31,-3.0,23.0,-1054.0,11:23:39.062621,192.168.0.114
1571,-1,-100,-100,-100,"0,0,0",-1,-1,0,0,0,0,67,70,79,50,100,-16.88,31,-6.0,29.0,-976.0,11:23:39.164643,192.168.0.114
1576,-1,-100,-100,-100,"0,0,0",-1,0,0,0,0,0,67,70,79,50,100,-16.89,31,-36.0,8.0,-962.0,11:23:39.266558,192.168.0.114
1581,-1,-100,-100,-100,"0,0,0",0,-1,0,0,0,0,67,70,79,50,100,-16.96,31,-42.0,0.0,-1048.0,11:23:39.368583,192.168.0.114
1586,-1,-100,-100,-100,"0,0,0",-1,-1,0,0,0,0,67,70,80,50,100,-17.03,31,-45.0,13.0,-980.0,11:23:39.470934,192.168.0.114
1591,-1,-100,-100,-100,"0,0,0",-1,-1,0,0,0,0,67,70,81,50,100,-17.03,31,-25.0,25.0,-1014.0,11:23:39.572527,192.168.0.114
1596,-1,-100,-100,-100,"0,0,0",-2,-1,0,0,0,0,67,70,81,50,100,-17.06,31,-42.0,35.0,-1021.0,11:23:39.674748,192.168.0.114
1601,-1,-100,-100,-100,"0,0,0",-2,-1,0,0,0,0,67,70,81,50,100,-17.01,31,-57.0,-9.0,-1022.0,11:23:39.776543,192.168.0.114
1606,-1,-100,-100,-100,"0,0,0",-2,-2,0,0,0,0,67,70,81,50,100,-16.94,32,-61.0,-7.0,-1001.0,11:23:39.878687,192.168.0.114
1611,-1,-100,-100,-100,"0,0,0",-3,0,0,0,0,0,67,70,81,50,100,-16.95,32,-16.0,-18.0,-994.0,11:23:39.980679,192.168.0.114
1616,-1,-100,-100,-100,"0,0,0",-3,0,0,0,0,0,67,70,82,50,100,-16.87,32,-14.0,-2.0,-1010.0,11:23:40.083177,192.168.0.114
1621,-1,-100,-100,-100,"0,0,0",-2,0,0,0,0,0,67,69,82,50,100,-16.83,32,-8.0,32.0,-999.0,11:23:40.184400,192.168.0.114
1627,-1,-100,-100,-100,"0,0,0",-1,0,0,0,0,0,67,69,82,50,100,-16.82,32,17.0,26.0,-964.0,11:23:40.286418,192.168.0.114
1632,-1,-100,-100,-100,"0,0,0",0,0,0,0,0,0,67,69,82,50,100,-16.82,32,9.0,33.0,-1006.0,11:23:40.389419,192.168.0.114
1637,-1,-100,-100,-100,"0,0,0",0,0,0,0,0,0,67,69,81,50,100,-16.9,32,11.0,29.0,-1029.0,11:23:40.490469,192.168.0.114
1642,-1,-100,-100,-100,"0,0,0",0,-1,0,0,0,0,67,69,80,50,100,-16.91,32,1.0,38.0,-1009.0,11:23:40.593473,192.168.0.114
1647,-1,-100,-100,-100,"0,0,0",0,-2,0,0,0,0,67,69,80,50,100,-16.93,32,6.0,19.0,-1021.0,11:23:40.694408,192.168.0.114
1652,-1,-100,-100,-100,"0,0,0",0,-2,0,0,0,0,67,69,80,50,100,-16.86,32,-38.0,42.0,-1029.0,11:23:40.798422,192.168.0.114
1657,-1,-100,-100,-100,"0,0,0",0,-2,0,0,0,0,67,69,80,50,100,-16.9,33,-28.0,28.0,-1014.0,11:23:40.898655,192.168.0.114
1662,-1,-100,-100,-100,"0,0,0",0,-2,0,0,0,0,67,69,80,50,100,-16.95,33,-52.0,37.0,-1003.0,11:23:41.000663,192.168.0.114
1667,-1,-100,-100,-100,"0,0,0",0,-2,0,0,0,0,67,69,80,50,100,-16.96,33,-23.0,-5.0,-979.0,11:23:41.102617,192.168.0.114
1673,-1,-100,-100,-100,"0,0,0",-1,-2,0,0,0,0,67,69,81,50,100,-16.94,33,-12.0,14.0,-1019.0,11:23:41.205232,192.168.0.114
1678,-1,-100,-100,-100,"0,0,0",-1,-1,0,0,0,0,67,69,81,50,100,-16.85,33,-16.0,14.0,-973.0,11:23:41.306269,192.168.0.114
1683,-1,-100,-100,-100,"0,0,0",-1,-1,0,0,0,0,67,69,82,50,100,-16.87,33,-28.0,31.0,-977.0,11:23:41.408359,192.168.0.114
1688,-1,-100,-100,-100,"0,0,0",-1,-1,0,0,0,0,67,69,82,50,100,-16.95,33,-21.0,12.0,-968.0,11:23:41.510466,192.168.0.114
1693,-1,-100,-100,-100,"0,0,0",-1,-1,0,0,0,0,67,69,81,50,100,-16.87,33,-39.0,30.0,-1013.0,11:23:41.612474,192.168.0.114
1698,-1,-100,-100,-100,"0,0,0",-1,-1,0,0,0,0,67,69,81,50,100,-16.94,33,-49.0,20.0,-991.0,11:23:41.714629,192.168.0.114
1703,-1,-100,-100,-100,"0,0,0",-1,-2,0,0,0,0,67,69,81,50,100,-16.87,33,-40.0,11.0,-1002.0,11:23:41.816949,192.168.0.114
1708,-1,-100,-100,-100,"0,0,0",-1,-1,0,0,0,0,67,69,80,50,100,-16.89,34,-44.0,36.0,-1008.0,11:23:41.918655,192.168.0.114
1713,-1,-100,-100,-100,"0,0,0",-1,-1,0,0,0,0,67,69,81,50,100,-16.91,34,-18.0,-12.0,-984.0,11:23:42.020313,192.168.0.114
1718,-1,-100,-100,-100,"0,0,0",-1,-1,0,0,0,0,67,69,81,50,100,-16.87,34,-30.0,12.0,-1004.0,11:23:42.122556,192.168.0.114
1723,-1,-100,-100,-100,"0,0,0",-2,0,0,0,0,0,67,69,80,50,100,-16.8,34,-22.0,17.0,-1001.0,11:23:42.224510,192.168.0.114
1728,-1,-100,-100,-100,"0,0,0",-1,0,0,0,0,0,67,69,80,50,100,-16.83,34,-36.0,25.0,-997.0,11:23:42.327839,192.168.0.114
1731,-1,-100,-100,-100,"0,0,0",-1,0,0,0,0,0,67,69,79,50,100,-16.95,34,-43.0,26.0,-1003.0,11:23:42.377494,192.168.0.114
1736,-1,-100,-100,-100,"0,0,0",-1,0,0,0,0,0,67,69,80,50,100,-16.86,34,-7.0,2.0,-1002.0,11:23:42.479731,192.168.0.114
1741,-1,-100,-100,-100,"0,0,0",-1,0,0,0,0,0,67,69,79,50,100,-16.75,34,-3.0,-11.0,-980.0,11:23:42.582037,192.168.0.114
1746,-1,-100,-100,-100,"0,0,0",-1,-1,0,0,0,0,67,69,79,50,100,-16.8,34,-14.0,18.0,-1003.0,11:23:42.683323,192.168.0.114
1751,-1,-100,-100,-100,"0,0,0",-1,0,0,0,0,0,67,69,79,50,100,-16.77,34,-15.0,20.0,-999.0,11:23:42.785197,192.168.0.114
1756,-1,-100,-100,-100,"0,0,0",-1,0,0,0,0,0,67,69,79,50,100,-16.85,35,-4.0,22.0,-1003.0,11:23:42.887273,192.168.0.114
1761,-1,-100,-100,-100,"0,0,0",0,0,0,0,0,0,67,69,79,50,100,-16.84,35,0.0,-12.0,-994.0,11:23:42.989639,192.168.0.114
1766,-1,-100,-100,-100,"0,0,0",0,-1,0,0,0,0,67,69,79,50,100,-16.98,35,31.0,-6.0,-1008.0,11:23:43.093673,192.168.0.114
1771,-1,-100,-100,-100,"0,0,0",0,0,0,0,0,0,67,69,79,50,100,-16.91,35,4.0,1.0,-999.0,11:23:43.193395,192.168.0.114
1776,-1,-100,-100,-100,"0,0,0",0,0,0,0,0,0,67,69,79,50,100,-16.9,35,33.0,11.0,-1011.0,11:23:43.296395,192.168.0.114
1782,-1,-100,-100,-100,"0,0,0",0,0,0,0,0,0,67,69,79,50,100,-16.87,35,26.0,21.0,-1015.0,11:23:43.397544,192.168.0.114
1787,-1,-100,-100,-100,"0,0,0",1,-1,0,0,0,0,67,69,79,50,100,-16.82,35,21.0,8.0,-998.0,11:23:43.499726,192.168.0.114
1792,-1,-100,-100,-100,"0,0,0",1,-1,0,0,0,0,67,69,80,50,100,-16.87,35,-28.0,6.0,-992.0,11:23:43.601622,192.168.0.114
1797,-1,-100,-100,-100,"0,0,0",1,-1,0,0,0,0,67,69,79,50,100,-16.97,35,17.0,6.0,-1033.0,11:23:43.703580,192.168.0.114
1802,-1,-100,-100,-100,"0,0,0",0,-1,0,0,0,0,67,69,80,50,100,-16.85,35,13.0,-6.0,-1016.0,11:23:43.806606,192.168.0.114
1807,-1,-100,-100,-100,"0,0,0",0,-1,0,0,0,0,67,69,79,50,100,-16.85,36,18.0,-8.0,-973.0,11:23:43.909204,192.168.0.114
1812,-1,-100,-100,-100,"0,0,0",0,0,0,0,0,0,67,69,79,50,100,-16.85,36,23.0,15.0,-977.0,11:23:44.012087,192.168.0.114
1817,-1,-100,-100,-100,"0,0,0",1,0,0,0,0,0,67,69,79,50,100,-16.88,36,19.0,5.0,-997.0,11:23:44.111800,192.168.0.114
1822,-1,-100,-100,-100,"0,0,0",1,0,0,0,0,0,68,70,79,50,100,-16.82,36,5.0,3.0,-983.0,11:23:44.213447,192.168.0.114
1827,-1,-100,-100,-100,"0,0,0",1,0,0,0,0,0,68,70,79,50,100,-16.76,36,-12.0,26.0,-998.0,11:23:44.315809,192.168.0.114
1832,-1,-100,-100,-100,"0,0,0",0,0,0,0,0,0,68,70,77,50,100,-16.75,36,-13.0,40.0,-996.0,11:23:44.417693,192.168.0.114
1837,-1,-100,-100,-100,"0,0,0",0,0,0,0,0,0,68,70,77,50,100,-16.72,36,-25.0,49.0,-986.0,11:23:44.519506,192.168.0.114
1843,-1,-100,-100,-100,"0,0,0",0,-1,0,0,0,0,68,70,78,50,100,-16.93,36,4.0,33.0,-1024.0,11:23:44.621432,192.168.0.114
1848,-1,-100,-100,-100,"0,0,0",0,-2,0,0,0,0,68,70,78,50,100,-16.9,36,6.0,12.0,-1030.0,11:23:44.723551,192.168.0.114
1853,-1,-100,-100,-100,"0,0,0",0,-2,0,0,0,0,68,70,78,50,100,-16.89,36,-6.0,24.0,-1018.0,11:23:44.826178,192.168.0.114
1858,-1,-100,-100,-100,"0,0,0",0,-2,0,0,0,0,68,70,79,50,100,-16.93,37,2.0,25.0,-991.0,11:23:44.927161,192.168.0.114
1863,-1,-100,-100,-100,"0,0,0",0,-1,0,0,0,0,68,70,79,50,100,-16.8,37,18.0,18.0,-980.0,11:23:45.037442,192.168.0.114
1868,-1,-100,-100,-100,"0,0,0",0,0,0,0,0,0,68,70,80,50,100,-16.77,37,30.0,17.0,-1016.0,11:23:45.134826,192.168.0.114
1873,-1,-100,-100,-100,"0,0,0",0,0,0,0,0,0,67,69,80,50,100,-16.71,37,37.0,10.0,-991.0,11:23:45.233479,192.168.0.114
1878,-1,-100,-100,-100,"0,0,0",1,0,0,0,0,0,67,69,81,50,100,-16.71,37,8.0,32.0,-1000.0,11:23:45.338958,192.168.0.114
1883,-1,-100,-100,-100,"0,0,0",1,-1,0,0,0,0,67,69,81,50,100,-16.76,37,11.0,32.0,-1010.0,11:23:45.437489,192.168.0.114
1888,-1,-100,-100,-100,"0,0,0",1,-1,0,0,0,0,67,69,81,50,100,-16.78,37,5.0,40.0,-998.0,11:23:45.539378,192.168.0.114
1891,-1,-100,-100,-100,"0,0,0",1,-2,0,0,0,0,67,69,81,50,100,-16.81,37,39.0,31.0,-988.0,11:23:45.590735,192.168.0.114
1896,-1,-100,-100,-100,"0,0,0",1,-2,0,0,0,0,67,69,81,50,100,-16.78,37,21.0,34.0,-986.0,11:23:45.692487,192.168.0.114
1901,-1,-100,-100,-100,"0,0,0",1,-2,0,0,0,0,67,69,81,50,100,-16.77,37,21.0,6.0,-995.0,11:23:45.794543,192.168.0.114
1906,-1,-100,-100,-100,"0,0,0",1,-1,0,0,0,0,67,69,81,50,100,-16.62,38,2.0,33.0,-972.0,11:23:45.896630,192.168.0.114
1911,-1,-100,-100,-100,"0,0,0",0,-1,0,0,0,0,67,69,82,50,100,-16.75,38,2.0,23.0,-1007.0,11:23:45.998286,192.168.0.114
1916,-1,-100,-100,-100,"0,0,0",0,-1,0,0,0,0,67,69,81,50,100,-16.79,38,-6.0,41.0,-977.0,11:23:46.100488,192.168.0.114
1921,-1,-100,-100,-100,"0,0,0",0,-2,0,0,0,0,67,70,81,50,100,-16.8,38,-23.0,23.0,-1012.0,11:23:46.202397,192.168.0.114
1926,-1,-100,-100,-100,"0,0,0",0,-2,0,0,0,0,67,70,81,50,100,-16.83,38,16.0,27.0,-1015.0,11:23:46.304696,192.168.0.114
1931,-1,-100,-100,-100,"0,0,0",0,-2,0,0,0,0,67,70,80,50,100,-16.74,38,-28.0,44.0,-1002.0,11:23:46.406562,192.168.0.114
1937,-1,-100,-100,-100,"0,0,0",0,-1,0,0,0,0,67,70,81,50,100,-16.78,38,22.0,17.0,-1004.0,11:23:46.508621,192.168.0.114
1942,-1,-100,-100,-100,"0,0,0",0,-1,0,0,0,0,67,70,80,50,100,-16.73,38,20.0,18.0,-1007.0,11:23:46.610468,192.168.0.114
1947,-1,-100,-100,-100,"0,0,0",0,0,0,0,0,0,67,70,80,50,100,-16.78,38,12.0,23.0,-1012.0,11:23:46.712675,192.168.0.114
1952,-1,-100,-100,-100,"0,0,0",0,0,0,0,0,0,67,70,81,50,100,-16.77,38,29.0,7.0,-1016.0,11:23:46.814654,192.168.0.114
1957,-1,-100,-100,-100,"0,0,0",0,0,0,0,0,0,67,70,80,50,100,-16.73,39,5.0,17.0,-1003.0,11:23:46.917019,192.168.0.114
1962,-1,-100,-100,-100,"0,0,0",0,0,0,0,0,0,67,70,80,50,100,-16.86,39,16.0,13.0,-997.0,11:23:47.018428,192.168.0.114
1967,-1,-100,-100,-100,"0,0,0",0,0,0,0,0,0,67,70,80,50,100,-16.82,39,27.0,-6.0,-1001.0,11:23:47.120392,192.168.0.114
1972,-1,-100,-100,-100,"0,0,0",1,0,0,0,0,0,67,69,80,50,100,-16.73,39,4.0,2.0,-1018.0,11:23:47.222659,192.168.0.114
1977,-1,-100,-100,-100,"0,0,0",0,0,0,0,0,0,67,69,80,50,100,-16.74,39,15.0,10.0,-1011.0,11:23:47.324614,192.168.0.114
1982,-1,-100,-100,-100,"0,0,0",0,0,0,0,0,0,67,69,80,50,100,-16.83,39,13.0,-3.0,-973.0,11:23:47.426597,192.168.0.114
1987,-1,-100,-100,-100,"0,0,0",0,0,0,0,0,0,67,69,80,50,100,-16.8,39,41.0,0.0,-1020.0,11:23:47.528150,192.168.0.114
1992,-1,-100,-100,-100,"0,0,0",0,0,0,0,0,0,67,69,79,50,100,-16.83,39,17.0,-10.0,-998.0,11:23:47.630381,192.168.0.114
1997,-1,-100,-100,-100,"0,0,0",0,0,0,0,0,0,67,69,79,50,100,-16.84,39,22.0,-27.0,-999.0,11:23:47.732557,192.168.0.114
2002,-1,-100,-100,-100,"0,0,0",0,0,0,0,0,0,67,69,79,50,100,-16.69,39,1.0,-9.0,-999.0,11:23:47.834703,192.168.0.114
2007,-1,-100,-100,-100,"0,0,0",1,1,0,0,0,0,67,69,79,50,100,-16.81,40,29.0,-21.0,-1003.0,11:23:47.936428,192.168.0.114
2013,-1,-100,-100,-100,"0,0,0",1,1,0,0,0,0,67,69,79,50,100,-16.81,40,24.0,-16.0,-1002.0,11:23:48.038374,192.168.0.114
2018,-1,-100,-100,-100,"0,0,0",1,1,0,0,0,0,67,69,79,50,100,-16.75,40,38.0,-32.0,-987.0,11:23:48.140864,192.168.0.114
2023,-1,-100,-100,-100,"0,0,0",1,1,0,0,0,0,68,70,79,50,100,-16.82,40,33.0,-22.0,-995.0,11:23:48.244629,192.168.0.114
2028,-1,-100,-100,-100,"0,0,0",1,1,0,0,0,0,68,70,79,50,100,-16.69,40,28.0,-39.0,-971.0,11:23:48.344436,192.168.0.114
2033,-1,-100,-100,-100,"0,0,0",1,1,0,0,0,0,68,70,80,50,100,-16.76,40,7.0,-15.0,-1005.0,11:23:48.447915,192.168.0.114
2038,-1,-100,-100,-100,"0,0,0",1,1,0,0,0,0,68,70,80,50,100,-16.7,40,12.0,-16.0,-1000.0,11:23:48.550311,192.168.0.114
2043,-1,-100,-100,-100,"0,0,0",1,1,0,0,0,0,68,70,80,50,100,-16.74,40,18.0,-13.0,-999.0,11:23:48.650340,192.168.0.114
2048,-1,-100,-100,-100,"0,0,0",1,1,0,0,0,0,68,70,80,50,100,-16.74,40,12.0,-23.0,-1005.0,11:23:48.752262,192.168.0.114
2053,-1,-100,-100,-100,"0,0,0",1,1,0,0,0,0,68,70,80,50,100,-16.84,41,-9.0,-15.0,-1013.0,11:23:48.854065,192.168.0.114
2058,-1,-100,-100,-100,"0,0,0",0,1,0,0,0,0,68,70,81,50,100,-16.86,41,2.0,-15.0,-1004.0,11:23:48.956495,192.168.0.114
2061,-1,-100,-100,-100,"0,0,0",0,1,0,0,0,0,68,70,80,50,100,-16.91,41,14.0,-38.0,-1012.0,11:23:49.009090,192.168.0.114
2066,-1,-100,-100,-100,"0,0,0",0,1,0,0,0,0,68,70,81,50,100,-16.86,41,17.0,-25.0,-1011.0,11:23:49.111371,192.168.0.114
2071,-1,-100,-100,-100,"0,0,0",0,1,0,0,0,0,69,70,80,50,100,-16.87,41,8.0,-11.0,-976.0,11:23:49.214488,192.168.0.114
2076,-1,-100,-100,-100,"0,0,0",0,1,0,0,0,0,69,70,81,50,100,-16.7,41,14.0,-39.0,-989.0,11:23:49.313555,192.168.0.114
2081,-1,-100,-100,-100,"0,0,0",0,1,0,0,0,0,69,70,80,50,100,-16.68,41,10.0,-6.0,-1008.0,11:23:49.418811,192.168.0.114
2086,-1,-100,-100,-100,"0,0,0",0,1,0,0,0,0,69,70,81,50,100,-16.68,41,-6.0,8.0,-996.0,11:23:49.521163,192.168.0.114
2091,-1,-100,-100,-100,"0,0,0",0,0,0,0,0,0,69,70,81,50,100,-16.68,41,9.0,-33.0,-996.0,11:23:49.619416,192.168.0.114
2096,-1,-100,-100,-100,"0,0,0",0,0,0,0,0,0,69,70,80,50,100,-16.69,41,12.0,3.0,-1000.0,11:23:49.725990,192.168.0.114
2101,-1,-100,-100,-100,"0,0,0",0,0,0,0,0,0,69,70,80,50,100,-16.78,42,19.0,-5.0,-998.0,11:23:49.828224,192.168.0.114
2106,-1,-100,-100,-100,"0,0,0",0,0,0,0,0,0,69,70,80,50,100,-16.72,42,13.0,-11.0,-992.0,11:23:49.925484,192.168.0.114
2111,-1,-100,-100,-100,"0,0,0",0,0,0,0,0,0,69,70,79,50,100,-16.68,42,-5.0,0.0,-1009.0,11:23:50.027323,192.168.0.114
2116,-1,-100,-100,-100,"0,0,0",0,0,0,0,0,0,69,70,79,50,100,-16.66,42,-8.0,20.0,-1015.0,11:23:50.129580,192.168.0.114
2121,-1,-100,-100,-100,"0,0,0",0,0,0,0,0,0,68,70,79,50,100,-16.71,42,-15.0,-10.0,-1016.0,11:23:50.231557,192.168.0.114
2126,-1,-100,-100,-100,"0,0,0",0,0,0,0,0,0,68,70,79,50,100,-16.78,42,-12.0,9.0,-1022.0,11:23:50.333318,192.168.0.114
2131,-1,-100,-100,-100,"0,0,0",0,0,0,0,0,0,68,70,80,50,100,-16.78,42,10.0,0.0,-1023.0,11:23:50.435296,192.168.0.114
2137,-1,-100,-100,-100,"0,0,0",0,0,0,0,0,0,68,70,80,50,100,-16.72,42,1.0,-5.0,-977.0,11:23:50.537426,192.168.0.114
2142,-1,-100,-100,-100,"0,0,0",0,0,0,0,0,0,68,70,80,50,100,-16.74,42,27.0,-20.0,-1008.0,11:23:50.639684,192.168.0.114
2147,-1,-100,-100,-100,"0,0,0",1,0,0,0,0,0,68,70,81,50,100,-16.73,42,10.0,33.0,-1018.0,11:23:50.741063,192.168.0.114
2152,-1,-100,-100,-100,"0,0,0",0,0,0,0,0,0,68,70,81,50,100,-16.7,43,8.0,1.0,-961.0,11:23:50.843318,192.168.0.114
2157,-1,-100,-100,-100,"0,0,0",0,0,0,0,0,0,68,70,81,50,100,-16.63,43,19.0,25.0,-1003.0,11:23:50.945483,192.168.0.114
2162,-1,-100,-100,-100,"0,0,0",0,0,0,0,0,0,68,70,82,50,100,-16.71,43,7.0,36.0,-1016.0,11:23:51.047557,192.168.0.114
2167,-1,-100,-100,-100,"0,0,0",1,-1,0,0,0,0,68,70,81,50,100,-16.78,43,8.0,26.0,-1007.0,11:23:51.149293,192.168.0.114
2172,-1,-100,-100,-100,"0,0,0",1,-2,0,0,0,0,68,70,82,50,100,-16.83,43,3.0,11.0,-962.0,11:23:51.251515,192.168.0.114
2178,-1,-100,-100,-100,"0,0,0",1,-2,0,0,0,0,68,70,81,50,100,-16.7,43,7.0,29.0,-998.0,11:23:51.353286,192.168.0.114
2183,-1,-100,-100,-100,"0,0,0",0,-2,0,0,0,0,68,70,81,50,100,-16.81,43,4.0,29.0,-1001.0,11:23:51.455559,192.168.0.114
2188,-1,-100,-100,-100,"0,0,0",0,-2,0,0,0,0,68,70,81,50,100,-16.79,43,0.0,27.0,-1005.0,11:23:51.557614,192.168.0.114
2193,-1,-100,-100,-100,"0,0,0",0,-2,0,0,0,0,68,70,81,50,100,-16.77,43,4.0,43.0,-1020.0,11:23:51.659383,192.168.0.114
2198,-1,-100,-100,-100,"0,0,0",0,-2,0,0,0,0,68,70,80,50,100,-16.77,43,-12.0,42.0,-982.0,11:23:51.761324,192.168.0.114
2203,-1,-100,-100,-100,"0,0,0",0,-2,0,0,0,0,68,70,81,50,100,-16.82,44,3.0,49.0,-989.0,11:23:51.863519,192.168.0.114
2208,-1,-100,-100,-100,"0,0,0",0,-2,0,0,0,0,68,70,80,50,100,-16.75,44,9.0,37.0,-987.0,11:23:51.965434,192.168.0.114
2211,-1,-100,-100,-100,"0,0,0",0,-2,0,0,0,0,68,70,79,50,100,-16.79,44,0.0,44.0,-980.0,11:23:52.016361,192.168.0.114
2216,-1,-100,-100,-100,"0,0,0",0,-2,0,0,0,0,68,70,79,50,100,-16.78,44,1.0,45.0,-972.0,11:23:52.119028,192.168.0.114
2223,-1,-100,-100,-100,"0,0,0",0,-3,0,0,0,0,68,70,78,50,100,-16.78,44,12.0,32.0,-1014.0,11:23:52.271515,192.168.0.114
2228,-1,-100,-100,-100,"0,0,0",0,-2,0,0,0,0,68,70,77,50,100,-16.78,44,15.0,38.0,-1024.0,11:23:52.373517,192.168.0.114
2231,-1,-100,-100,-100,"0,0,0",0,-2,0,0,0,0,68,70,78,50,100,-16.76,44,4.0,51.0,-1028.0,11:23:52.424397,192.168.0.114
2236,-1,-100,-100,-100,"0,0,0",1,-2,0,0,0,0,68,70,77,50,100,-16.75,44,24.0,23.0,-1019.0,11:23:52.526805,192.168.0.114
2241,-1,-100,-100,-100,"0,0,0",1,-2,0,0,0,0,68,70,78,50,100,-16.77,44,30.0,0.0,-1005.0,11:23:52.628502,192.168.0.114
2246,-1,-100,-100,-100,"0,0,0",1,-1,0,0,0,0,68,70,79,50,100,-16.82,44,17.0,13.0,-1024.0,11:23:52.730467,192.168.0.114
2251,-1,-100,-100,-100,"0,0,0",1,0,0,0,0,0,68,70,79,50,100,-16.7,45,13.0,8.0,-1001.0,11:23:52.832288,192.168.0.114
2256,-1,-100,-100,-100,"0,0,0",1,0,0,0,0,0,68,70,80,50,100,-16.73,45,46.0,13.0,-996.0,11:23:52.934288,192.168.0.114
2261,-1,-100,-100,-100,"0,0,0",1,0,0,0,0,0,68,70,80,50,100,-16.74,45,51.0,-18.0,-972.0,11:23:53.037415,192.168.0.114
2266,-1,-100,-100,-100,"0,0,0",2,0,0,0,0,0,68,70,80,50,100,-16.72,45,21.0,6.0,-990.0,11:23:53.138467,192.168.0.114
2271,-1,-100,-100,-100,"0,0,0",1,0,0,0,0,0,69,70,80,50,100,-16.8,45,18.0,-25.0,-991.0,11:23:53.240285,192.168.0.114
2276,-1,-100,-100,-100,"0,0,0",1,1,0,0,1,0,69,70,79,50,100,-16.78,45,23.0,-22.0,-981.0,11:23:53.342636,192.168.0.114
2281,-1,-100,-100,-100,"0,0,0",1,1,0,0,0,0,69,70,79,50,100,-16.77,45,22.0,-3.0,-1000.0,11:23:53.444341,192.168.0.114
2286,-1,-100,-100,-100,"0,0,0",1,1,0,0,0,0,69,70,79,50,100,-16.79,45,25.0,-26.0,-976.0,11:23:53.546289,192.168.0.114
2292,-1,-100,-100,-100,"0,0,0",1,1,0,0,0,0,69,70,79,50,100,-16.85,45,37.0,-18.0,-1008.0,11:23:53.648368,192.168.0.114
2297,-1,-100,-100,-100,"0,0,0",1,1,0,0,0,0,69,70,79,50,100,-16.79,45,19.0,-33.0,-980.0,11:23:53.750137,192.168.0.114
2301,-1,-100,-100,-100,"0,0,0",1,2,0,0,0,0,69,70,79,50,100,-16.84,46,21.0,-12.0,-1012.0,11:23:53.852395,192.168.0.114
2306,-1,-100,-100,-100,"0,0,0",1,1,0,0,0,0,69,70,79,50,100,-16.77,46,12.0,-11.0,-1014.0,11:23:53.954289,192.168.0.114
2312,-1,-100,-100,-100,"0,0,0",0,1,0,0,0,0,69,70,79,50,100,-16.75,46,14.0,-14.0,-1021.0,11:23:54.056251,192.168.0.114
2317,-1,-100,-100,-100,"0,0,0",0,1,0,0,0,0,69,70,79,50,100,-16.72,46,5.0,-6.0,-993.0,11:23:54.157919,192.168.0.114
2322,-1,-100,-100,-100,"0,0,0",0,0,0,0,0,0,69,70,80,50,100,-16.66,46,10.0,-10.0,-1024.0,11:23:54.260359,192.168.0.114
2327,-1,-100,-100,-100,"0,0,0",0,1,0,0,0,0,69,70,80,50,100,-16.66,46,7.0,-13.0,-1010.0,11:23:54.362488,192.168.0.114
2332,-1,-100,-100,-100,"0,0,0",0,1,0,0,0,0,69,70,80,50,100,-16.72,46,0.0,-11.0,-989.0,11:23:54.465018,192.168.0.114
2337,-1,-100,-100,-100,"0,0,0",0,1,0,0,0,0,69,70,80,50,100,-16.67,46,-11.0,-6.0,-992.0,11:23:54.566343,192.168.0.114
2342,-1,-100,-100,-100,"0,0,0",0,1,0,0,0,0,69,70,80,50,100,-16.73,46,11.0,-28.0,-1002.0,11:23:54.668259,192.168.0.114
2347,-1,-100,-100,-100,"0,0,0",0,1,0,0,0,0,69,70,79,50,100,-16.74,46,4.0,-19.0,-1019.0,11:23:54.770435,192.168.0.114
2353,-1,-100,-100,-100,"0,0,0",0,1,0,0,0,0,69,70,80,50,100,-16.74,47,7.0,-37.0,-998.0,11:23:54.872467,192.168.0.114
2358,-1,-100,-100,-100,"0,0,0",0,2,0,0,0,0,69,70,79,50,100,-16.78,47,-18.0,-35.0,-992.0,11:23:54.974156,192.168.0.114
2363,-1,-100,-100,-100,"0,0,0",0,2,0,0,0,0,69,70,79,50,100,-16.76,47,0.0,-35.0,-969.0,11:23:55.076150,192.168.0.114
2368,-1,-100,-100,-100,"0,0,0",0,2,0,0,0,0,69,70,80,50,100,-16.81,47,-20.0,-22.0,-1015.0,11:23:55.177972,192.168.0.114
2373,-1,-100,-100,-100,"0,0,0",0,2,0,0,0,0,69,71,80,50,100,-16.75,47,-2.0,-43.0,-989.0,11:23:55.280501,192.168.0.114
2378,-1,-100,-100,-100,"0,0,0",0,1,0,0,0,0,69,71,81,50,100,-16.79,47,41.0,-40.0,-999.0,11:23:55.382252,192.168.0.114
2383,-1,-100,-100,-100,"0,0,0",0,1,0,0,0,0,69,71,81,50,100,-16.9,47,4.0,10.0,-1016.0,11:23:55.484208,192.168.0.114
2386,-1,-100,-100,-100,"0,0,0",0,1,0,0,0,0,69,71,81,50,100,-16.72,47,-5.0,-8.0,-958.0,11:23:55.535621,192.168.0.114
2391,-1,-100,-100,-100,"0,0,0",0,1,0,0,0,0,69,71,81,50,100,-16.69,47,8.0,-11.0,-1014.0,11:23:55.637392,192.168.0.114
2396,-1,-100,-100,-100,"0,0,0",0,1,0,0,0,0,69,71,81,50,100,-16.79,47,18.0,-7.0,-996.0,11:23:55.738939,192.168.0.114
2401,-1,-100,-100,-100,"0,0,0",0,0,0,0,0,0,69,71,81,50,100,-16.8,48,14.0,-17.0,-994.0,11:23:55.841202,192.168.0.114
2406,-1,-100,-100,-100,"0,0,0",0,1,0,0,0,0,69,71,82,50,100,-16.72,48,28.0,0.0,-960.0,11:23:55.943409,192.168.0.114
2411,-1,-100,-100,-100,"0,0,0",1,0,0,0,0,0,69,71,82,50,100,-16.67,48,19.0,7.0,-977.0,11:23:56.045346,192.168.0.114
2416,-1,-100,-100,-100,"0,0,0",1,0,0,0,0,0,69,71,82,50,100,-16.67,48,21.0,1.0,-1009.0,11:23:56.147468,192.168.0.114
2421,-1,-100,-100,-100,"0,0,0",1,0,0,0,0,0,69,71,81,50,100,-16.74,48,38.0,-17.0,-984.0,11:23:56.249181,192.168.0.114
2426,-1,-100,-100,-100,"0,0,0",1,0,0,0,0,0,69,71,82,50,100,-16.72,48,7.0,11.0,-980.0,11:23:56.351137,192.168.0.114
2431,-1,-100,-100,-100,"0,0,0",1,0,0,0,0,0,69,71,81,50,100,-16.67,48,21.0,-3.0,-1006.0,11:23:56.453285,192.168.0.114
2436,-1,-100,-100,-100,"0,0,0",1,0,0,0,0,0,69,71,81,50,100,-16.66,48,21.0,17.0,-1019.0,11:23:56.555431,192.168.0.114
2441,-1,-100,-100,-100,"0,0,0",1,0,0,0,0,0,69,71,81,50,100,-16.79,48,38.0,13.0,-990.0,11:23:56.657353,192.168.0.114
2446,-1,-100,-100,-100,"0,0,0",1,-1,0,0,0,0,69,71,81,50,100,-16.68,48,41.0,20.0,-998.0,11:23:56.759213,192.168.0.114
2451,-1,-100,-100,-100,"0,0,0",2,-1,0,0,0,0,69,71,81,50,100,-16.71,49,50.0,22.0,-1010.0,11:23:56.861387,192.168.0.114
2456,-1,-100,-100,-100,"0,0,0",2,-2,0,0,0,0,69,71,81,50,100,-16.71,49,31.0,27.0,-979.0,11:23:56.963453,192.168.0.114
2461,-1,-100,-100,-100,"0,0,0",2,-2,0,0,0,0,69,71,80,50,100,-16.71,49,35.0,13.0,-970.0,11:23:57.065412,192.168.0.114
2466,-1,-100,-100,-100,"0,0,0",2,-2,0,0,0,0,69,71,80,50,100,-16.74,49,32.0,4.0,-998.0,11:23:57.167447,192.168.0.114
2472,-1,-100,-100,-100,"0,0,0",2,-1,0,0,0,0,69,71,80,50,100,-16.64,49,31.0,0.0,-999.0,11:23:57.269252,192.168.0.114
2477,-1,-100,-100,-100,"0,0,0",2,0,0,0,0,0,69,71,80,50,100,-16.72,49,16.0,-5.0,-998.0,11:23:57.371444,192.168.0.114
2482,-1,-100,-100,-100,"0,0,0",2,0,0,0,0,0,69,71,80,50,100,-16.81,49,40.0,-10.0,-1001.0,11:23:57.473271,192.168.0.114
2487,-1,-100,-100,-100,"0,0,0",2,0,0,0,0,0,69,71,80,50,100,-16.76,49,41.0,-5.0,-996.0,11:23:57.575205,192.168.0.114
2492,-1,-100,-100,-100,"0,0,0",2,0,0,0,0,0,69,71,80,50,100,-16.75,49,21.0,10.0,-1007.0,11:23:57.677196,192.168.0.114
2497,-1,-100,-100,-100,"0,0,0",1,0,0,0,0,0,69,71,80,50,100,-16.81,49,25.0,9.0,-1019.0,11:23:57.779383,192.168.0.114
2503,-1,-100,-100,-100,"0,0,0",1,0,0,0,0,0,69,71,80,50,100,-16.81,50,31.0,-6.0,-989.0,11:23:57.881504,192.168.0.114
2507,-1,-100,-100,-100,"0,0,0",1,0,0,0,0,0,69,71,80,50,100,-16.75,50,33.0,-4.0,-1002.0,11:23:57.983154,192.168.0.114
2513,-1,-100,-100,-100,"0,0,0",1,0,0,0,0,0,69,71,79,50,100,-16.81,50,28.0,1.0,-1019.0,11:23:58.085338,192.168.0.114
2518,-1,-100,-100,-100,"0,0,0",1,0,0,0,0,0,69,71,79,50,100,-16.73,50,3.0,-2.0,-987.0,11:23:58.187350,192.168.0.114
2523,-1,-100,-100,-100,"0,0,0",1,0,0,0,0,0,69,71,78,50,100,-16.91,50,2.0,-3.0,-1023.0,11:23:58.289276,192.168.0.114
2528,-1,-100,-100,-100,"0,0,0",0,0,0,0,0,0,69,71,78,50,100,-16.87,50,5.0,-11.0,-986.0,11:23:58.391257,192.168.0.114
2533,-1,-100,-100,-100,"0,0,0",0,0,0,0,0,0,69,71,79,50,100,-16.8,50,31.0,-43.0,-1014.0,11:23:58.493126,192.168.0.114
2538,-1,-100,-100,-100,"0,0,0",0,0,0,0,0,0,69,71,78,50,100,-16.72,50,3.0,-18.0,-992.0,11:23:58.595082,192.168.0.114
2543,-1,-100,-100,-100,"0,0,0",0,1,0,0,0,0,69,71,79,50,100,-16.79,50,0.0,2.0,-988.0,11:23:58.697273,192.168.0.114
2548,-1,-100,-100,-100,"0,0,0",0,1,0,0,0,0,69,71,78,50,100,-16.88,50,4.0,6.0,-1026.0,11:23:58.799317,192.168.0.114
2553,-1,-100,-100,-100,"0,0,0",0,1,0,0,0,0,69,71,78,50,100,-16.77,51,19.0,-9.0,-997.0,11:23:58.901285,192.168.0.114
2556,-1,-100,-100,-100,"0,0,0",0,1,0,0,0,0,69,71,78,50,100,-16.83,51,7.0,10.0,-1025.0,11:23:58.952563,192.168.0.114
