,mid,x,y,z,mpry,pitch,roll,yaw,vgx,vgy,vgz,templ,temph,tof,h,bat,baro,time,agx,agy,agz,timestamp,address
1,-1,-100,-100,-100,"0,0,0",0,0,0,0,0,0,59,61,10,0,100,-17.47,0,-3.0,-2.0,-999.0,11:23:07.664492,192.168.0.115
7,-1,-100,-100,-100,"0,0,0",0,0,0,0,0,0,59,61,10,0,100,-17.41,0,-3.0,-2.0,-1001.0,11:23:07.766745,192.168.0.115
12,-1,-100,-100,-100,"0,0,0",0,0,0,0,0,0,59,61,10,0,100,-17.43,0,-10.0,-1.0,-999.0,11:23:07.868836,192.168.0.115
18,-1,-100,-100,-100,"0,0,0",0,0,0,0,0,0,59,61,10,0,100,-17.43,0,-5.0,0.0,-1003.0,11:23:07.970979,192.168.0.115
23,-1,-100,-100,-100,"0,0,0",0,0,0,0,0,0,59,61,10,0,100,-17.43,0,-8.0,-2.0,-996.0,11:23:08.076123,192.168.0.115
29,-1,-100,-100,-100,"0,0,0",0,0,0,0,0,0,59,61,10,0,100,-17.43,0,-40.0,-11.0,-1039.0,11:23:08.174932,192.168.0.115
34,-1,-100,-100,-100,"0,0,0",0,0,0,0,0,0,59,61,10,0,100,-17.43,0,-3.0,24.0,-1020.0,11:23:08.280150,192.168.0.115
39,-1,-100,-100,-100,"0,0,0",0,0,0,0,0,0,59,61,10,0,100,-17.43,0,-11.0,-13.0,-1228.0,11:23:08.378839,192.168.0.115
44,-1,-100,-100,-100,"0,0,0",0,0,0,0,0,1,59,61,10,0,100,-17.43,0,-10.0,-64.0,-1377.0,11:23:08.481037,192.168.0.115
49,-1,-100,-100,-100,"0,0,0",0,0,0,0,0,5,59,61,12,0,100,-17.43,0,-32.0,-43.0,-1193.0,11:23:08.582869,192.168.0.115
54,-1,-100,-100,-100,"0,0,0",0,2,0,0,0,7,59,62,20,0,100,-17.08,0,-15.0,-24.0,-1071.0,11:23:08.684796,192.168.0.115
55,-1,-100,-100,-100,"0,0,0",-1,2,0,0,0,7,59,62,27,0,100,-16.96,0,4.0,-44.0,-1037.0,11:23:08.736005,192.168.0.115
60,-1,-100,-100,-100,"0,0,0",-1,2,0,0,0,7,59,62,36,10,100,-16.78,0,-20.0,-54.0,-926.0,11:23:08.837845,192.168.0.115
65,-1,-100,-100,-100,"0,0,0",0,2,0,0,0,7,59,62,45,10,100,-16.65,1,-80.0,-49.0,-907.0,11:23:08.940241,192.168.0.115
70,-1,-100,-100,-100,"0,0,0",0,3,-1,0,0,5,59,62,53,20,100,-16.85,1,-72.0,-10.0,-840.0,11:23:09.042063,192.168.0.115
75,-1,-100,-100,-100,"0,0,0",-3,3,-1,1,0,4,59,62,59,20,100,-16.6,1,-102.0,-18.0,-817.0,11:23:09.143980,192.168.0.115
80,-1,-100,-100,-100,"0,0,0",-5,1,-1,2,0,3,59,62,65,30,100,-16.56,1,-65.0,-86.0,-893.0,11:23:09.245982,192.168.0.115
85,-1,-100,-100,-100,"0,0,0",-6,2,-1,1,0,2,59,62,70,30,100,-16.81,1,-112.0,-33.0,-882.0,11:23:09.347423,192.168.0.115
90,-1,-100,-100,-100,"0,0,0",-6,3,-1,1,0,1,59,62,74,30,100,-16.68,1,-52.0,-56.0,-949.0,11:23:09.449862,192.168.0.115
96,-1,-100,-100,-100,"0,0,0",-6,1,-1,1,0,1,59,62,78,30,100,-16.75,1,-34.0,-25.0,-990.0,11:23:09.551928,192.168.0.115
101,-1,-100,-100,-100,"0,0,0",-5,2,0,0,0,1,60,61,82,30,100,-16.7,1,-116.0,1.0,-1015.0,11:23:09.653868,192.168.0.115
106,-1,-100,-100,-100,"0,0,0",-4,2,0,0,0,1,60,61,85,40,100,-16.45,1,-70.0,-13.0,-927.0,11:23:09.755324,192.168.0.115
111,-1,-100,-100,-100,"0,0,0",-5,1,-1,1,0,1,60,61,89,40,100,-16.59,1,5.0,-64.0,-915.0,11:23:09.857586,192.168.0.115
116,-1,-100,-100,-100,"0,0,0",-5,0,0,0,0,0,60,61,92,40,100,-16.57,2,-16.0,-12.0,-1011.0,11:23:09.959918,192.168.0.115
121,-1,-100,-100,-100,"0,0,0",-4,1,0,0,0,0,60,61,94,40,100,-16.41,2,-13.0,-14.0,-911.0,11:23:10.064539,192.168.0.115
126,-1,-100,-100,-100,"0,0,0",-3,2,0,0,0,0,60,61,96,50,100,-16.36,2,-7.0,-31.0,-929.0,11:23:10.164814,192.168.0.115
131,-1,-100,-100,-100,"0,0,0",-2,1,0,-1,0,0,60,61,97,50,100,-16.37,2,-12.0,-5.0,-945.0,11:23:10.268689,192.168.0.115
137,-1,-100,-100,-100,"0,0,0",-1,1,-1,-1,0,0,60,61,97,50,100,-16.5,2,-7.0,-21.0,-949.0,11:23:10.369676,192.168.0.115
142,-1,-100,-100,-100,"0,0,0",0,0,0,-1,0,0,60,61,97,50,100,-16.47,2,-6.0,-21.0,-971.0,11:23:10.469637,192.168.0.115
147,-1,-100,-100,-100,"0,0,0",0,1,0,-1,0,-1,60,61,97,50,100,-16.48,2,-25.0,-24.0,-972.0,11:23:10.571376,192.168.0.115
153,-1,-100,-100,-100,"0,0,0",0,1,0,-1,0,-1,59,62,97,50,100,-16.51,2,0.0,-18.0,-980.0,11:23:10.673394,192.168.0.115
159,-1,-100,-100,-100,"0,0,0",0,1,0,-1,0,-1,59,62,97,50,100,-16.96,2,-5.0,-28.0,-989.0,11:23:10.775715,192.168.0.115
164,-1,-100,-100,-100,"0,0,0",1,0,0,0,0,-1,59,62,96,50,100,-16.5,2,-19.0,-21.0,-981.0,11:23:10.880281,192.168.0.115
169,-1,-100,-100,-100,"0,0,0",0,2,0,0,0,-1,59,62,95,50,100,-16.55,3,-49.0,-34.0,-1037.0,11:23:10.979732,192.168.0.115
174,-1,-100,-100,-100,"0,0,0",-1,2,0,0,0,-1,59,62,95,50,100,-16.68,3,-48.0,11.0,-945.0,11:23:11.081587,192.168.0.115
179,-1,-100,-100,-100,"0,0,0",-1,-1,0,0,-1,-1,59,62,94,50,100,-16.74,3,-42.0,20.0,-991.0,11:23:11.187490,192.168.0.115
184,-1,-100,-100,-100,"0,0,0",-1,-1,0,0,0,0,59,62,94,50,100,-16.62,3,-56.0,16.0,-1046.0,11:23:11.285608,192.168.0.115
189,-1,-100,-100,-100,"0,0,0",-3,0,0,0,0,0,59,62,93,50,100,-16.72,3,-82.0,-13.0,-1013.0,11:23:11.387665,192.168.0.115
194,-1,-100,-100,-100,"0,0,0",-4,0,-1,0,0,-1,59,62,93,50,100,-16.59,3,-78.0,5.0,-955.0,11:23:11.489637,192.168.0.115
199,-1,-100,-100,-100,"0,0,0",-3,0,-1,0,0,-1,59,62,91,50,100,-16.56,3,-50.0,-2.0,-999.0,11:23:11.591364,192.168.0.115
204,-1,-100,-100,-100,"0,0,0",-3,0,-1,0,0,-1,60,62,90,50,100,-16.63,3,-57.0,9.0,-1049.0,11:23:11.762476,192.168.0.115
209,-1,-100,-100,-100,"0,0,0",-2,0,0,0,0,-1,60,62,88,50,100,-16.65,3,-48.0,-5.0,-975.0,11:23:11.795475,192.168.0.115
214,-1,-100,-100,-100,"0,0,0",-3,0,0,0,0,-1,60,62,86,50,100,-16.84,3,-76.0,33.0,-994.0,11:23:11.969570,192.168.0.115
215,-1,-100,-100,-100,"0,0,0",-4,1,0,0,0,-1,60,62,85,50,100,-16.94,4,-71.0,4.0,-1043.0,11:23:11.969788,192.168.0.115
220,-1,-100,-100,-100,"0,0,0",-3,0,0,0,0,-1,60,62,84,50,100,-16.81,4,-101.0,11.0,-1023.0,11:23:12.174534,192.168.0.115
226,-1,-100,-100,-100,"0,0,0",-3,-1,0,0,0,-1,60,62,83,40,100,-16.82,4,-68.0,0.0,-1011.0,11:23:12.175512,192.168.0.115
231,-1,-100,-100,-100,"0,0,0",-3,-1,0,0,0,-1,60,62,82,40,100,-16.84,4,-86.0,-16.0,-1017.0,11:23:12.254547,192.168.0.115
236,-1,-100,-100,-100,"0,0,0",-3,0,0,0,0,0,60,62,81,40,100,-16.94,4,-95.0,13.0,-1032.0,11:23:12.356460,192.168.0.115
241,-1,-100,-100,-100,"0,0,0",-4,1,0,0,0,0,60,62,81,40,100,-16.89,4,-61.0,-20.0,-963.0,11:23:12.583389,192.168.0.115
246,-1,-100,-100,-100,"0,0,0",-5,0,0,0,0,0,60,62,81,40,100,-16.81,4,-48.0,-6.0,-943.0,11:23:12.584301,192.168.0.115
251,-1,-100,-100,-100,"0,0,0",-4,0,0,0,0,0,60,62,79,40,100,-16.8,4,-75.0,24.0,-973.0,11:23:12.787085,192.168.0.115
256,-1,-100,-100,-100,"0,0,0",-3,0,0,0,0,0,60,62,79,40,100,-16.93,4,-57.0,-2.0,-1025.0,11:23:12.788670,192.168.0.115
262,-1,-100,-100,-100,"0,0,0",-3,-1,0,0,0,0,60,62,77,40,100,-16.88,5,-83.0,-5.0,-1036.0,11:23:12.992368,192.168.0.115
267,-1,-100,-100,-100,"0,0,0",-3,0,0,0,0,0,60,62,77,40,100,-16.86,5,-60.0,34.0,-1045.0,11:23:12.992623,192.168.0.115
272,-1,-100,-100,-100,"0,0,0",-3,0,0,0,0,0,60,62,76,40,100,-16.9,5,-120.0,58.0,-972.0,11:23:13.198854,192.168.0.115
277,-1,-100,-100,-100,"0,0,0",-4,-1,0,0,0,0,60,62,76,40,100,-17.01,5,-101.0,5.0,-1004.0,11:23:13.200043,192.168.0.115
283,-1,-100,-100,-100,"0,0,0",-5,-2,0,0,0,0,60,62,77,40,100,-17.08,5,-96.0,23.0,-966.0,11:23:13.405160,192.168.0.115
288,-1,-100,-100,-100,"0,0,0",-5,-1,0,0,0,0,60,62,77,40,100,-16.97,5,-82.0,15.0,-1020.0,11:23:13.405970,192.168.0.115
293,-1,-100,-100,-100,"0,0,0",-6,-1,0,0,0,0,60,62,77,40,100,-16.97,5,-97.0,-18.0,-995.0,11:23:13.611886,192.168.0.115
298,-1,-100,-100,-100,"0,0,0",-5,-2,0,0,0,0,60,62,77,40,100,-16.79,5,-83.0,-52.0,-969.0,11:23:13.612739,192.168.0.115
304,-1,-100,-100,-100,"0,0,0",-5,0,0,0,0,0,60,62,77,40,100,-16.98,5,-73.0,0.0,-988.0,11:23:13.829207,192.168.0.115
308,-1,-100,-100,-100,"0,0,0",-4,1,0,0,0,0,60,62,78,40,100,-16.85,5,-50.0,12.0,-958.0,11:23:13.829919,192.168.0.115
313,-1,-100,-100,-100,"0,0,0",-4,1,0,0,0,0,60,62,78,40,100,-16.84,6,-65.0,21.0,-965.0,11:23:13.886926,192.168.0.115
318,-1,-100,-100,-100,"0,0,0",-3,1,0,0,0,0,60,62,77,40,100,-16.81,6,-50.0,62.0,-960.0,11:23:13.988780,192.168.0.115
323,-1,-100,-100,-100,"0,0,0",-4,-1,0,0,0,0,60,62,77,40,100,-16.69,6,-55.0,54.0,-993.0,11:23:14.090602,192.168.0.115
328,-1,-100,-100,-100,"0,0,0",-2,-2,0,0,0,0,60,62,76,40,100,-16.82,6,-95.0,75.0,-1001.0,11:23:14.192487,192.168.0.115
334,-1,-100,-100,-100,"0,0,0",-3,-1,0,0,0,0,60,62,76,40,100,-17.12,6,-85.0,68.0,-1031.0,11:23:14.294647,192.168.0.115
339,-1,-100,-100,-100,"0,0,0",-4,-2,0,0,0,0,60,62,76,40,100,-16.95,6,-73.0,59.0,-988.0,11:23:14.398976,192.168.0.115
344,-1,-100,-100,-100,"0,0,0",-4,-4,0,0,0,0,60,62,76,40,100,-16.88,6,-54.0,-4.0,-1020.0,11:23:14.500640,192.168.0.115
349,-1,-100,-100,-100,"0,0,0",-4,-3,0,0,0,0,60,62,77,40,100,-16.85,6,-33.0,2.0,-931.0,11:23:14.601761,192.168.0.115
354,-1,-100,-100,-100,"0,0,0",-3,-1,0,0,0,0,60,62,77,40,100,-16.68,6,-33.0,23.0,-976.0,11:23:14.704226,192.168.0.115
359,-1,-100,-100,-100,"0,0,0",-2,-1,0,0,0,0,60,62,77,40,100,-16.82,6,-29.0,12.0,-997.0,11:23:14.806755,192.168.0.115
364,-1,-100,-100,-100,"0,0,0",-2,-1,0,-1,0,0,60,62,77,40,100,-16.79,7,-24.0,3.0,-996.0,11:23:14.908976,192.168.0.115
369,-1,-100,-100,-100,"0,0,0",-1,0,0,-1,0,0,60,62,77,40,100,-16.78,7,-50.0,37.0,-976.0,11:23:15.008505,192.168.0.115
374,-1,-100,-100,-100,"0,0,0",-1,-1,0,0,0,0,60,62,77,40,100,-16.8,7,-38.0,19.0,-997.0,11:23:15.113982,192.168.0.115
379,-1,-100,-100,-100,"0,0,0",-1,0,0,0,0,0,60,62,77,40,100,-16.68,7,-29.0,18.0,-974.0,11:23:15.212813,192.168.0.115
381,-1,-100,-100,-100,"0,0,0",-1,0,0,0,0,0,60,62,77,40,100,-16.93,7,-92.0,57.0,-1037.0,11:23:15.263777,192.168.0.115
386,-1,-100,-100,-100,"0,0,0",-2,0,0,0,0,0,60,62,77,40,100,-16.77,7,-48.0,41.0,-983.0,11:23:15.365373,192.168.0.115
392,-1,-100,-100,-100,"0,0,0",-2,-1,0,0,0,0,60,62,77,40,100,-16.66,7,-57.0,20.0,-1004.0,11:23:15.467711,192.168.0.115
397,-1,-100,-100,-100,"0,0,0",-2,-2,0,0,0,0,60,62,77,40,100,-16.81,7,-74.0,-1.0,-998.0,11:23:15.569466,192.168.0.115
402,-1,-100,-100,-100,"0,0,0",-2,0,0,0,0,0,60,62,77,40,100,-16.88,7,-43.0,7.0,-1055.0,11:23:15.671252,192.168.0.115
407,-1,-100,-100,-100,"0,0,0",-2,0,0,0,0,0,60,62,78,40,100,-16.94,7,-80.0,3.0,-990.0,11:23:15.773308,192.168.0.115
412,-1,-100,-100,-100,"0,0,0",-3,0,0,0,0,0,60,62,79,40,100,-16.89,8,-32.0,24.0,-984.0,11:23:15.875434,192.168.0.115
417,-1,-100,-100,-100,"0,0,0",-3,0,0,0,0,0,60,62,79,40,100,-16.88,8,-32.0,-7.0,-990.0,11:23:15.977695,192.168.0.115
422,-1,-100,-100,-100,"0,0,0",-2,0,-1,0,0,0,60,62,79,40,100,-16.88,8,-112.0,0.0,-992.0,11:23:16.079527,192.168.0.115
428,-1,-100,-100,-100,"0,0,0",-2,0,-1,0,0,0,60,62,79,40,100,-16.8,8,-64.0,-9.0,-959.0,11:23:16.181327,192.168.0.115
433,-1,-100,-100,-100,"0,0,0",-3,0,-1,0,0,0,60,62,80,40,100,-17.0,8,-110.0,1.0,-955.0,11:23:16.283961,192.168.0.115
438,-1,-100,-100,-100,"0,0,0",-4,0,-1,0,0,0,60,62,80,40,100,-16.96,8,-47.0,-51.0,-989.0,11:23:16.385608,192.168.0.115
443,-1,-100,-100,-100,"0,0,0",-4,1,0,0,0,0,60,62,80,40,100,-16.88,8,-71.0,-2.0,-965.0,11:23:16.487451,192.168.0.115
448,-1,-100,-100,-100,"0,0,0",-4,1,0,0,0,0,60,62,81,40,100,-17.05,8,-71.0,-6.0,-1011.0,11:23:16.589237,192.168.0.115
453,-1,-100,-100,-100,"0,0,0",-5,1,-1,0,0,0,61,64,81,40,100,-16.79,8,-56.0,-3.0,-909.0,11:23:16.691614,192.168.0.115
458,-1,-100,-100,-100,"0,0,0",-5,0,-1,0,0,0,61,64,81,40,100,-16.88,8,-68.0,-37.0,-952.0,11:23:16.793559,192.168.0.115
463,-1,-100,-100,-100,"0,0,0",-5,0,0,0,0,0,61,64,82,40,100,-17.01,9,-78.0,5.0,-980.0,11:23:16.895324,192.168.0.115
468,-1,-100,-100,-100,"0,0,0",-6,0,0,0,0,0,61,64,82,40,100,-16.57,9,-62.0,45.0,-1011.0,11:23:16.997077,192.168.0.115
473,-1,-100,-100,-100,"0,0,0",-6,0,0,0,0,0,61,64,82,40,100,-16.91,9,-82.0,26.0,-985.0,11:23:17.099094,192.168.0.115
478,-1,-100,-100,-100,"0,0,0",-5,0,0,0,0,0,61,64,82,40,100,-16.93,9,-87.0,15.0,-995.0,11:23:17.204932,192.168.0.115
484,-1,-100,-100,-100,"0,0,0",-6,0,0,0,0,0,61,64,81,40,100,-16.87,9,-91.0,25.0,-963.0,11:23:17.303082,192.168.0.115
489,-1,-100,-100,-100,"0,0,0",-6,-1,0,0,0,0,61,64,81,40,100,-16.82,9,-72.0,2.0,-954.0,11:23:17.405418,192.168.0.115
494,-1,-100,-100,-100,"0,0,0",-5,-2,0,0,0,0,61,64,81,40,100,-16.76,9,-86.0,-6.0,-1017.0,11:23:17.507563,192.168.0.115
499,-1,-100,-100,-100,"0,0,0",-4,0,0,0,0,0,61,64,80,40,100,-16.89,9,-87.0,24.0,-1066.0,11:23:17.609545,192.168.0.115
504,-1,-100,-100,-100,"0,0,0",-5,0,0,0,0,0,61,62,80,40,100,-16.86,9,-60.0,40.0,-1006.0,11:23:17.711516,192.168.0.115
509,-1,-100,-100,-100,"0,0,0",-5,-1,0,0,0,0,61,62,80,40,100,-16.94,9,-92.0,16.0,-1015.0,11:23:17.813475,192.168.0.115
514,-1,-100,-100,-100,"0,0,0",-5,-1,-1,0,0,0,61,62,80,40,100,-16.87,10,-70.0,-17.0,-941.0,11:23:17.915585,192.168.0.115
519,-1,-100,-100,-100,"0,0,0",-4,0,-1,0,0,0,61,62,79,40,100,-16.98,10,-96.0,3.0,-1027.0,11:23:18.017107,192.168.0.115
524,-1,-100,-100,-100,"0,0,0",-5,0,-1,0,0,0,61,62,79,40,100,-16.95,10,-117.0,-22.0,-1057.0,11:23:18.123349,192.168.0.115
529,-1,-100,-100,-100,"0,0,0",-5,0,-1,0,0,0,61,62,79,40,100,-16.97,10,-103.0,10.0,-1009.0,11:23:18.221458,192.168.0.115
534,-1,-100,-100,-100,"0,0,0",-7,0,-1,0,0,0,61,62,79,40,100,-16.92,10,-76.0,-5.0,-909.0,11:23:18.323523,192.168.0.115
539,-1,-100,-100,-100,"0,0,0",-7,0,-1,0,0,0,61,62,78,40,100,-16.94,10,-77.0,-51.0,-1013.0,11:23:18.428098,192.168.0.115
544,-1,-100,-100,-100,"0,0,0",-5,0,-1,0,0,0,61,62,77,40,100,-16.85,10,-124.0,43.0,-1044.0,11:23:18.527595,192.168.0.115
549,-1,-100,-100,-100,"0,0,0",-5,0,-1,0,0,0,61,62,77,40,100,-16.82,10,-142.0,43.0,-1013.0,11:23:18.629378,192.168.0.115
554,-1,-100,-100,-100,"0,0,0",-6,0,-1,0,0,0,60,62,78,40,100,-16.84,10,-110.0,-1.0,-986.0,11:23:18.731435,192.168.0.115
557,-1,-100,-100,-100,"0,0,0",-6,-1,-1,0,0,0,60,62,78,40,100,-16.86,10,-30.0,-73.0,-902.0,11:23:18.782287,192.168.0.115
562,-1,-100,-100,-100,"0,0,0",-5,0,-1,0,0,0,60,62,77,40,100,-16.81,11,-62.0,0.0,-997.0,11:23:18.884000,192.168.0.115
567,-1,-100,-100,-100,"0,0,0",-4,2,0,0,0,0,60,62,76,40,100,-16.99,11,-92.0,-24.0,-950.0,11:23:18.986045,192.168.0.115
572,-1,-100,-100,-100,"0,0,0",-4,0,0,0,0,0,60,62,76,40,100,-16.97,11,-84.0,-29.0,-1080.0,11:23:19.088046,192.168.0.115
577,-1,-100,-100,-100,"0,0,0",-4,1,0,0,0,0,60,62,76,40,100,-16.96,11,-86.0,-26.0,-978.0,11:23:19.190059,192.168.0.115
582,-1,-100,-100,-100,"0,0,0",-4,1,0,0,0,0,60,62,77,40,100,-17.12,11,-89.0,14.0,-1018.0,11:23:19.292709,192.168.0.115
587,-1,-100,-100,-100,"0,0,0",-5,0,0,0,0,0,60,62,77,40,100,-16.95,11,-137.0,-2.0,-1017.0,11:23:19.394459,192.168.0.115
593,-1,-100,-100,-100,"0,0,0",-6,0,0,0,0,0,60,62,78,40,100,-16.94,11,-99.0,-2.0,-945.0,11:23:19.496329,192.168.0.115
598,-1,-100,-100,-100,"0,0,0",-6,0,0,0,0,0,60,62,78,40,100,-16.77,11,-89.0,-4.0,-1039.0,11:23:19.598350,192.168.0.115
603,-1,-100,-100,-100,"0,0,0",-5,0,0,0,0,0,61,63,79,40,100,-16.93,11,-132.0,22.0,-994.0,11:23:19.700236,192.168.0.115
608,-1,-100,-100,-100,"0,0,0",-6,0,0,0,0,0,61,63,80,40,100,-16.9,11,-130.0,19.0,-958.0,11:23:19.802631,192.168.0.115
613,-1,-100,-100,-100,"0,0,0",-7,-1,0,0,0,0,61,63,80,40,100,-16.61,12,-135.0,-18.0,-1006.0,11:23:19.904269,192.168.0.115
618,-1,-100,-100,-100,"0,0,0",-7,-1,0,0,0,0,61,63,81,40,100,-16.97,12,-92.0,-38.0,-941.0,11:23:20.006451,192.168.0.115
623,-1,-100,-100,-100,"0,0,0",-7,0,0,0,0,0,61,63,80,40,100,-16.86,12,-89.0,25.0,-898.0,11:23:20.108396,192.168.0.115
628,-1,-100,-100,-100,"0,0,0",-6,0,0,0,0,0,61,63,80,40,100,-16.94,12,-123.0,-11.0,-1048.0,11:23:20.210212,192.168.0.115
633,-1,-100,-100,-100,"0,0,0",-6,0,0,0,0,0,61,63,80,40,100,-16.97,12,-162.0,4.0,-969.0,11:23:20.312604,192.168.0.115
638,-1,-100,-100,-100,"0,0,0",-7,0,0,0,0,0,61,63,80,40,100,-16.9,12,-137.0,-7.0,-986.0,11:23:20.414444,192.168.0.115
643,-1,-100,-100,-100,"0,0,0",-8,0,-1,0,0,0,61,63,80,40,100,-16.82,12,-74.0,-26.0,-927.0,11:23:20.517830,192.168.0.115
649,-1,-100,-100,-100,"0,0,0",-8,0,-1,0,0,0,61,63,80,40,100,-16.78,12,-85.0,-28.0,-963.0,11:23:20.618360,192.168.0.115
654,-1,-100,-100,-100,"0,0,0",-7,0,0,0,0,0,61,62,79,40,100,-16.85,12,-117.0,-6.0,-950.0,11:23:20.720817,192.168.0.115
658,-1,-100,-100,-100,"0,0,0",-6,1,0,0,0,0,61,62,79,40,100,-17.05,12,-83.0,12.0,-1023.0,11:23:20.822395,192.168.0.115
664,-1,-100,-100,-100,"0,0,0",-5,0,0,0,0,0,61,62,78,40,100,-16.87,13,-92.0,-3.0,-988.0,11:23:20.924297,192.168.0.115
669,-1,-100,-100,-100,"0,0,0",-5,0,0,0,0,0,61,62,79,40,100,-17.16,13,-107.0,0.0,-987.0,11:23:21.025999,192.168.0.115
674,-1,-100,-100,-100,"0,0,0",-5,-2,0,0,0,0,61,62,78,40,100,-17.1,13,-78.0,43.0,-1064.0,11:23:21.128532,192.168.0.115
679,-1,-100,-100,-100,"0,0,0",-6,0,0,0,0,0,61,62,79,40,100,-16.86,13,-71.0,-30.0,-951.0,11:23:21.230337,192.168.0.115
684,-1,-100,-100,-100,"0,0,0",-5,0,-1,-1,0,0,61,62,78,40,100,-16.67,13,-69.0,-17.0,-983.0,11:23:21.332326,192.168.0.115
689,-1,-100,-100,-100,"0,0,0",-3,0,-2,-1,0,0,61,62,78,40,100,-16.88,13,-58.0,0.0,-1010.0,11:23:21.434684,192.168.0.115
694,-1,-100,-100,-100,"0,0,0",-1,0,-1,-1,0,0,61,62,78,40,100,-17.23,13,-27.0,-39.0,-1021.0,11:23:21.536238,192.168.0.115
699,-1,-100,-100,-100,"0,0,0",-2,2,0,-1,0,0,61,62,78,40,100,-17.15,13,-46.0,-20.0,-1002.0,11:23:21.638461,192.168.0.115
704,-1,-100,-100,-100,"0,0,0",-4,2,0,0,0,0,62,63,78,40,100,-16.75,13,-64.0,13.0,-884.0,11:23:21.739894,192.168.0.115
709,-1,-100,-100,-100,"0,0,0",-6,0,0,0,0,0,62,63,79,40,100,-16.99,13,-68.0,1.0,-1003.0,11:23:21.842208,192.168.0.115
714,-1,-100,-100,-100,"0,0,0",-5,0,0,0,0,0,62,63,78,40,100,-17.05,14,-61.0,9.0,-1048.0,11:23:21.944473,192.168.0.115
719,-1,-100,-100,-100,"0,0,0",-4,0,0,0,0,0,62,63,78,40,100,-16.8,14,-14.0,-14.0,-928.0,11:23:22.045896,192.168.0.115
724,-1,-100,-100,-100,"0,0,0",-4,-1,0,-1,0,0,62,63,78,40,100,-16.72,14,-36.0,-56.0,-1001.0,11:23:22.148349,192.168.0.115
729,-1,-100,-100,-100,"0,0,0",-2,0,0,-1,0,0,62,63,77,40,100,-17.11,14,-105.0,1.0,-1006.0,11:23:22.250275,192.168.0.115
732,-1,-100,-100,-100,"0,0,0",-1,3,0,0,0,0,62,63,77,40,100,-16.81,14,-42.0,2.0,-978.0,11:23:22.302365,192.168.0.115
737,-1,-100,-100,-100,"0,0,0",-2,1,0,0,0,0,62,63,77,40,100,-16.99,14,-89.0,-5.0,-998.0,11:23:22.403326,192.168.0.115
742,-1,-100,-100,-100,"0,0,0",-3,0,0,0,0,0,62,63,78,40,100,-17.07,14,-138.0,38.0,-988.0,11:23:22.505106,192.168.0.115
747,-1,-100,-100,-100,"0,0,0",-5,0,0,0,0,0,62,63,79,40,100,-17.17,14,-131.0,23.0,-1032.0,11:23:22.607161,192.168.0.115
752,-1,-100,-100,-100,"0,0,0",-6,0,0,0,0,0,62,63,79,40,100,-17.18,14,-104.0,1.0,-1044.0,11:23:22.709265,192.168.0.115
757,-1,-100,-100,-100,"0,0,0",-6,0,0,0,0,0,62,63,79,40,100,-16.79,14,-81.0,14.0,-993.0,11:23:22.811179,192.168.0.115
762,-1,-100,-100,-100,"0,0,0",-5,0,0,0,0,0,62,63,79,40,100,-16.75,15,-45.0,12.0,-924.0,11:23:22.913229,192.168.0.115
768,-1,-100,-100,-100,"0,0,0",-5,-1,0,0,0,0,62,63,79,40,100,-16.77,15,-46.0,3.0,-923.0,11:23:23.015219,192.168.0.115
773,-1,-100,-100,-100,"0,0,0",-4,0,0,0,0,0,62,63,79,40,100,-16.91,15,-96.0,11.0,-1056.0,11:23:23.118210,192.168.0.115
778,-1,-100,-100,-100,"0,0,0",-4,0,0,0,0,0,62,63,78,40,100,-17.1,15,-98.0,-17.0,-1092.0,11:23:23.219919,192.168.0.115
783,-1,-100,-100,-100,"0,0,0",-4,0,0,0,0,0,62,63,78,40,100,-16.79,15,-72.0,19.0,-988.0,11:23:23.321891,192.168.0.115
788,-1,-100,-100,-100,"0,0,0",-4,0,0,0,0,0,62,63,79,40,100,-16.68,15,-76.0,76.0,-944.0,11:23:23.425458,192.168.0.115
793,-1,-100,-100,-100,"0,0,0",-4,0,0,0,0,0,62,63,79,40,100,-16.87,15,-98.0,45.0,-1018.0,11:23:23.525846,192.168.0.115
798,-1,-100,-100,-100,"0,0,0",-3,-2,0,0,0,0,62,63,78,40,100,-16.95,15,-107.0,14.0,-1017.0,11:23:23.628224,192.168.0.115
803,-1,-100,-100,-100,"0,0,0",-3,-2,0,0,0,0,62,64,78,40,100,-17.06,15,-77.0,24.0,-953.0,11:23:23.731964,192.168.0.115
808,-1,-100,-100,-100,"0,0,0",-4,-2,0,0,0,0,62,64,78,40,100,-16.79,15,-89.0,-4.0,-993.0,11:23:23.831994,192.168.0.115
813,-1,-100,-100,-100,"0,0,0",-5,-1,0,0,0,0,62,64,78,40,100,-16.66,16,-54.0,8.0,-968.0,11:23:23.934484,192.168.0.115
818,-1,-100,-100,-100,"0,0,0",-5,-2,0,0,0,0,62,64,77,40,100,-16.86,16,-87.0,18.0,-1076.0,11:23:24.035995,192.168.0.115
823,-1,-100,-100,-100,"0,0,0",-4,0,0,0,0,0,62,64,76,40,100,-17.0,16,-66.0,18.0,-1021.0,11:23:24.137980,192.168.0.115
829,-1,-100,-100,-100,"0,0,0",-4,0,0,0,0,0,62,64,77,40,100,-16.83,16,-97.0,34.0,-1021.0,11:23:24.240291,192.168.0.115
834,-1,-100,-100,-100,"0,0,0",-5,0,0,0,0,0,62,64,77,40,100,-16.79,16,-59.0,45.0,-948.0,11:23:24.341822,192.168.0.115
839,-1,-100,-100,-100,"0,0,0",-6,-1,0,0,0,0,62,64,77,40,100,-16.76,16,-34.0,8.0,-1027.0,11:23:24.444175,192.168.0.115
844,-1,-100,-100,-100,"0,0,0",-4,-3,0,0,0,0,62,64,77,40,100,-16.74,16,-56.0,13.0,-1044.0,11:23:24.546172,192.168.0.115
849,-1,-100,-100,-100,"0,0,0",-2,-2,0,0,0,0,62,64,76,40,100,-16.68,16,-56.0,45.0,-979.0,11:23:24.648403,192.168.0.115
854,-1,-100,-100,-100,"0,0,0",-3,0,0,0,0,0,62,63,76,40,100,-16.82,16,-33.0,18.0,-1009.0,11:23:24.749900,192.168.0.115
859,-1,-100,-100,-100,"0,0,0",-2,-1,0,-1,0,0,62,63,76,40,100,-16.58,16,-36.0,0.0,-1034.0,11:23:24.852377,192.168.0.115
864,-1,-100,-100,-100,"0,0,0",-1,0,0,-1,0,0,62,63,76,40,100,-16.65,17,-47.0,46.0,-1018.0,11:23:24.954424,192.168.0.115
869,-1,-100,-100,-100,"0,0,0",0,0,0,-1,0,0,62,63,76,40,100,-16.64,17,-47.0,72.0,-942.0,11:23:25.056418,192.168.0.115
874,-1,-100,-100,-100,"0,0,0",-1,-1,0,0,0,0,62,63,76,40,100,-16.85,17,-78.0,8.0,-1037.0,11:23:25.158306,192.168.0.115
879,-1,-100,-100,-100,"0,0,0",-1,-2,0,0,0,0,62,63,76,40,100,-16.85,17,-77.0,24.0,-1032.0,11:23:25.260065,192.168.0.115
884,-1,-100,-100,-100,"0,0,0",-2,-1,-1,0,0,0,62,63,76,40,100,-16.76,17,-96.0,-3.0,-946.0,11:23:25.362244,192.168.0.115
889,-1,-100,-100,-100,"0,0,0",-3,-1,-1,0,0,0,62,63,77,40,100,-16.88,17,-85.0,-17.0,-1015.0,11:23:25.463780,192.168.0.115
894,-1,-100,-100,-100,"0,0,0",-4,-1,-1,0,0,0,62,63,77,40,100,-16.73,17,-93.0,4.0,-947.0,11:23:25.566014,192.168.0.115
897,-1,-100,-100,-100,"0,0,0",-4,0,0,0,0,0,62,63,77,40,100,-16.52,17,-90.0,2.0,-1014.0,11:23:25.617089,192.168.0.115
904,-1,-100,-100,-100,"0,0,0",-5,0,0,0,0,0,62,64,77,40,100,-16.66,17,-134.0,41.0,-1014.0,11:23:25.769895,192.168.0.115
907,-1,-100,-100,-100,"0,0,0",-6,0,0,1,0,0,62,64,77,40,100,-16.71,17,-91.0,-11.0,-1041.0,11:23:25.821408,192.168.0.115
912,-1,-100,-100,-100,"0,0,0",-6,0,0,1,0,0,62,64,77,40,100,-16.64,18,-152.0,9.0,-1020.0,11:23:25.923183,192.168.0.115
917,-1,-100,-100,-100,"0,0,0",-6,0,0,1,0,0,62,64,78,40,100,-16.69,18,-127.0,21.0,-988.0,11:23:26.025098,192.168.0.115
923,-1,-100,-100,-100,"0,0,0",-7,0,0,1,0,0,62,64,79,40,100,-16.78,18,-150.0,40.0,-1031.0,11:23:26.126868,192.168.0.115
928,-1,-100,-100,-100,"0,0,0",-7,0,0,1,0,0,62,64,80,40,100,-16.73,18,-71.0,1.0,-968.0,11:23:26.229341,192.168.0.115
933,-1,-100,-100,-100,"0,0,0",-8,-1,-1,0,0,0,62,64,80,40,100,-16.72,18,-82.0,1.0,-1034.0,11:23:26.331130,192.168.0.115
938,-1,-100,-100,-100,"0,0,0",-7,-2,-1,0,0,0,62,64,80,40,100,-16.58,18,-85.0,31.0,-1029.0,11:23:26.433219,192.168.0.115
943,-1,-100,-100,-100,"0,0,0",-5,0,0,0,0,0,62,64,81,40,100,-16.63,18,-53.0,-7.0,-900.0,11:23:26.535823,192.168.0.115
948,-1,-100,-100,-100,"0,0,0",-5,-1,-1,0,0,0,62,64,80,40,100,-16.6,18,-67.0,-25.0,-954.0,11:23:26.637943,192.168.0.115
953,-1,-100,-100,-100,"0,0,0",-5,0,-1,0,0,0,62,64,79,40,100,-16.79,18,-74.0,-13.0,-1077.0,11:23:26.738965,192.168.0.115
958,-1,-100,-100,-100,"0,0,0",-4,1,0,0,0,0,62,64,79,40,100,-16.62,18,-77.0,20.0,-1034.0,11:23:26.843373,192.168.0.115
963,-1,-100,-100,-100,"0,0,0",-4,1,0,0,0,0,62,64,79,40,100,-16.86,19,-94.0,10.0,-970.0,11:23:26.943127,192.168.0.115
968,-1,-100,-100,-100,"0,0,0",-5,0,0,0,0,0,62,64,80,40,100,-16.92,19,-96.0,3.0,-991.0,11:23:27.044890,192.168.0.115
973,-1,-100,-100,-100,"0,0,0",-5,0,0,0,0,0,62,64,80,40,100,-16.79,19,-109.0,46.0,-984.0,11:23:27.147100,192.168.0.115
978,-1,-100,-100,-100,"0,0,0",-4,0,0,0,0,0,62,64,81,40,100,-16.85,19,-109.0,0.0,-1017.0,11:23:27.249410,192.168.0.115
983,-1,-100,-100,-100,"0,0,0",-6,-1,0,0,0,0,62,64,81,40,100,-16.88,19,-97.0,-16.0,-950.0,11:23:27.351072,192.168.0.115
988,-1,-100,-100,-100,"0,0,0",-6,-2,0,0,0,0,62,64,81,40,100,-16.79,19,-78.0,-24.0,-998.0,11:23:27.453132,192.168.0.115
994,-1,-100,-100,-100,"0,0,0",-6,-1,0,0,0,0,62,64,81,40,100,-16.82,19,-96.0,-27.0,-1022.0,11:23:27.555317,192.168.0.115
999,-1,-100,-100,-100,"0,0,0",-4,1,0,0,0,0,62,64,79,40,100,-17.04,19,-116.0,17.0,-1056.0,11:23:27.657201,192.168.0.115
1004,-1,-100,-100,-100,"0,0,0",-4,1,0,0,0,0,62,64,80,40,100,-16.8,19,-141.0,45.0,-1006.0,11:23:27.760725,192.168.0.115
1009,-1,-100,-100,-100,"0,0,0",-5,0,0,0,0,0,62,64,81,40,100,-16.64,19,-138.0,-10.0,-964.0,11:23:27.861035,192.168.0.115
1014,-1,-100,-100,-100,"0,0,0",-7,-1,0,0,0,0,62,64,81,40,100,-16.89,20,-116.0,-4.0,-1024.0,11:23:27.963165,192.168.0.115
1019,-1,-100,-100,-100,"0,0,0",-8,0,0,0,0,0,62,64,80,40,100,-16.9,20,-91.0,-32.0,-994.0,11:23:28.065312,192.168.0.115
1024,-1,-100,-100,-100,"0,0,0",-7,0,0,0,0,0,62,64,80,40,100,-16.9,20,-111.0,3.0,-923.0,11:23:28.167250,192.168.0.115
1029,-1,-100,-100,-100,"0,0,0",-6,0,0,0,0,0,62,64,79,40,100,-16.6,20,-94.0,20.0,-994.0,11:23:28.269085,192.168.0.115
1034,-1,-100,-100,-100,"0,0,0",-6,0,0,0,0,0,62,64,78,40,100,-16.88,20,-24.0,25.0,-957.0,11:23:28.371098,192.168.0.115
1039,-1,-100,-100,-100,"0,0,0",-5,0,0,0,0,0,62,64,77,40,100,-16.98,20,-113.0,-7.0,-1034.0,11:23:28.473332,192.168.0.115
1044,-1,-100,-100,-100,"0,0,0",-4,0,0,0,0,0,62,64,77,40,100,-16.83,20,-121.0,21.0,-1010.0,11:23:28.575363,192.168.0.115
1049,-1,-100,-100,-100,"0,0,0",-4,0,0,0,0,0,62,64,77,40,100,-16.88,20,-70.0,25.0,-978.0,11:23:28.677108,192.168.0.115
1054,-1,-100,-100,-100,"0,0,0",-5,0,0,0,0,0,62,64,77,40,100,-16.98,20,-104.0,20.0,-1015.0,11:23:28.780176,192.168.0.115
1059,-1,-100,-100,-100,"0,0,0",-5,0,0,0,0,0,62,64,77,40,100,-16.95,20,-107.0,-14.0,-996.0,11:23:28.882055,192.168.0.115
1064,-1,-100,-100,-100,"0,0,0",-5,0,0,0,0,0,62,64,77,40,100,-16.83,21,-67.0,7.0,-1029.0,11:23:28.984138,192.168.0.115
1069,-1,-100,-100,-100,"0,0,0",-5,0,0,0,0,0,62,64,76,40,100,-16.91,21,-64.0,-9.0,-1003.0,11:23:29.085766,192.168.0.115
1072,-1,-100,-100,-100,"0,0,0",-5,0,0,0,0,0,62,64,76,40,100,-16.88,21,-90.0,50.0,-997.0,11:23:29.136883,192.168.0.115
1077,-1,-100,-100,-100,"0,0,0",-4,0,0,0,0,0,62,64,77,40,100,-17.11,21,-88.0,37.0,-990.0,11:23:29.239196,192.168.0.115
1082,-1,-100,-100,-100,"0,0,0",-4,-2,0,0,0,0,62,64,76,40,100,-16.82,21,-33.0,21.0,-1007.0,11:23:29.340772,192.168.0.115
1087,-1,-100,-100,-100,"0,0,0",-4,-2,0,0,0,0,62,64,76,40,100,-17.13,21,-72.0,10.0,-1067.0,11:23:29.442738,192.168.0.115
1092,-1,-100,-100,-100,"0,0,0",-3,-1,0,-1,0,0,62,64,77,40,100,-17.22,21,-148.0,16.0,-1023.0,11:23:29.545276,192.168.0.115
1098,-1,-100,-100,-100,"0,0,0",-3,-1,0,0,0,0,62,64,77,40,100,-16.82,21,-76.0,-4.0,-971.0,11:23:29.647184,192.168.0.115
1103,-1,-100,-100,-100,"0,0,0",-4,-1,0,0,0,0,62,65,78,40,100,-17.04,21,-108.0,-30.0,-979.0,11:23:29.749065,192.168.0.115
1108,-1,-100,-100,-100,"0,0,0",-5,0,0,0,0,0,62,65,78,40,100,-17.16,21,-88.0,-18.0,-986.0,11:23:29.850939,192.168.0.115
1113,-1,-100,-100,-100,"0,0,0",-5,0,0,0,0,0,62,65,78,40,100,-17.01,22,-74.0,0.0,-1004.0,11:23:29.952871,192.168.0.115
1118,-1,-100,-100,-100,"0,0,0",-4,0,0,0,0,0,62,65,78,40,100,-16.86,22,-79.0,20.0,-976.0,11:23:30.054849,192.168.0.115
1123,-1,-100,-100,-100,"0,0,0",-3,-1,0,0,0,0,62,65,78,40,100,-16.86,22,-73.0,9.0,-980.0,11:23:30.156945,192.168.0.115
1128,-1,-100,-100,-100,"0,0,0",-3,-1,0,0,0,0,62,65,78,40,100,-17.14,22,-72.0,14.0,-1012.0,11:23:30.259067,192.168.0.115
1133,-1,-100,-100,-100,"0,0,0",-4,-1,0,0,0,0,62,65,78,40,100,-16.82,22,-76.0,12.0,-967.0,11:23:30.361176,192.168.0.115
1138,-1,-100,-100,-100,"0,0,0",-4,-1,0,0,0,0,62,65,78,40,100,-16.97,22,-87.0,2.0,-1017.0,11:23:30.463060,192.168.0.115
1143,-1,-100,-100,-100,"0,0,0",-4,-1,0,0,0,0,62,65,78,40,100,-16.87,22,-92.0,37.0,-982.0,11:23:30.564986,192.168.0.115
1148,-1,-100,-100,-100,"0,0,0",-5,-1,0,0,0,0,62,65,78,40,100,-16.84,22,-94.0,15.0,-1003.0,11:23:30.666605,192.168.0.115
1153,-1,-100,-100,-100,"0,0,0",-5,-2,0,0,0,0,63,65,78,40,100,-16.95,22,-87.0,36.0,-976.0,11:23:30.768623,192.168.0.115
1158,-1,-100,-100,-100,"0,0,0",-4,-2,0,0,0,0,63,65,77,40,100,-16.82,22,-55.0,42.0,-959.0,11:23:30.870802,192.168.0.115
1163,-1,-100,-100,-100,"0,0,0",-4,-1,0,0,0,0,63,65,77,40,100,-16.76,23,-124.0,13.0,-1022.0,11:23:30.973653,192.168.0.115
1168,-1,-100,-100,-100,"0,0,0",-5,-2,0,0,0,0,63,65,77,40,100,-16.86,23,-117.0,62.0,-936.0,11:23:31.074678,192.168.0.115
1174,-1,-100,-100,-100,"0,0,0",-5,-2,0,0,0,0,63,65,77,40,100,-16.98,23,-78.0,58.0,-1021.0,11:23:31.176957,192.168.0.115
1179,-1,-100,-100,-100,"0,0,0",-5,-2,0,0,0,0,63,65,76,40,100,-17.06,23,-83.0,21.0,-960.0,11:23:31.279234,192.168.0.115
1184,-1,-100,-100,-100,"0,0,0",-4,-2,0,0,0,0,63,65,77,40,100,-16.98,23,-103.0,54.0,-1016.0,11:23:31.380823,192.168.0.115
1189,-1,-100,-100,-100,"0,0,0",-5,-2,0,0,0,0,63,65,77,40,100,-17.08,23,-126.0,34.0,-1018.0,11:23:31.482967,192.168.0.115
1194,-1,-100,-100,-100,"0,0,0",-6,-1,0,0,0,0,63,65,77,40,100,-17.11,23,-105.0,41.0,-957.0,11:23:31.584636,192.168.0.115
1199,-1,-100,-100,-100,"0,0,0",-6,-2,0,0,0,0,63,65,77,40,100,-16.9,23,-138.0,28.0,-982.0,11:23:31.686721,192.168.0.115
1204,-1,-100,-100,-100,"0,0,0",-7,0,0,0,0,0,63,64,77,40,100,-16.98,23,-79.0,-29.0,-968.0,11:23:31.788766,192.168.0.115
1209,-1,-100,-100,-100,"0,0,0",-8,-1,-1,0,0,0,63,64,77,40,100,-17.0,23,-146.0,0.0,-1030.0,11:23:31.890599,192.168.0.115
1214,-1,-100,-100,-100,"0,0,0",-7,0,-1,0,0,0,63,64,76,40,100,-16.96,24,-96.0,-2.0,-1007.0,11:23:31.993556,192.168.0.115
1219,-1,-100,-100,-100,"0,0,0",-6,0,0,0,0,0,63,64,76,40,100,-16.81,24,-118.0,50.0,-988.0,11:23:32.094733,192.168.0.115
1224,-1,-100,-100,-100,"0,0,0",-6,0,0,0,0,0,63,64,77,40,100,-16.7,24,-92.0,41.0,-977.0,11:23:32.196782,192.168.0.115
1229,-1,-100,-100,-100,"0,0,0",-7,0,0,0,0,0,63,64,77,40,100,-16.87,24,-93.0,11.0,-1016.0,11:23:32.298703,192.168.0.115
1232,-1,-100,-100,-100,"0,0,0",-6,0,0,0,0,0,63,64,77,40,100,-17.02,24,-138.0,12.0,-967.0,11:23:32.349821,192.168.0.115
1237,-1,-100,-100,-100,"0,0,0",-6,0,0,0,0,0,63,64,78,40,100,-16.82,24,-100.0,22.0,-1001.0,11:23:32.451862,192.168.0.115
1242,-1,-100,-100,-100,"0,0,0",-7,-1,0,0,0,0,63,64,78,40,100,-17.14,24,-112.0,35.0,-1004.0,11:23:32.553873,192.168.0.115
1247,-1,-100,-100,-100,"0,0,0",-7,-2,0,0,0,0,63,64,78,40,100,-16.96,24,-122.0,20.0,-1009.0,11:23:32.656068,192.168.0.115
1252,-1,-100,-100,-100,"0,0,0",-6,0,0,0,0,0,63,65,78,40,100,-17.04,24,-92.0,4.0,-991.0,11:23:32.757799,192.168.0.115
1257,-1,-100,-100,-100,"0,0,0",-6,0,0,0,0,0,63,65,78,40,100,-16.98,25,-100.0,-25.0,-1014.0,11:23:32.859532,192.168.0.115
1262,-1,-100,-100,-100,"0,0,0",-5,0,0,0,0,0,63,65,78,40,100,-16.94,25,-116.0,4.0,-997.0,11:23:32.961787,192.168.0.115
1267,-1,-100,-100,-100,"0,0,0",-5,0,0,0,0,0,63,65,78,40,100,-17.15,25,-139.0,3.0,-1039.0,11:23:33.063955,192.168.0.115
1273,-1,-100,-100,-100,"0,0,0",-6,-1,0,0,0,0,63,65,77,40,100,-16.95,25,-149.0,11.0,-978.0,11:23:33.165746,192.168.0.115
1278,-1,-100,-100,-100,"0,0,0",-7,-1,0,0,0,0,63,65,78,40,100,-17.04,25,-98.0,32.0,-1002.0,11:23:33.267529,192.168.0.115
1283,-1,-100,-100,-100,"0,0,0",-7,0,0,0,0,0,63,65,77,40,100,-17.28,25,-137.0,33.0,-956.0,11:23:33.369817,192.168.0.115
1288,-1,-100,-100,-100,"0,0,0",-7,0,0,0,0,0,63,65,78,40,100,-16.95,25,-99.0,18.0,-938.0,11:23:33.471774,192.168.0.115
1293,-1,-100,-100,-100,"0,0,0",-7,-1,0,0,0,0,63,65,77,40,100,-17.09,25,-109.0,-15.0,-1053.0,11:23:33.574054,192.168.0.115
1298,-1,-100,-100,-100,"0,0,0",-6,0,0,0,0,0,63,65,76,40,100,-17.15,25,-119.0,25.0,-996.0,11:23:33.675717,192.168.0.115
1303,-1,-100,-100,-100,"0,0,0",-6,0,0,0,0,0,62,65,76,40,100,-17.02,25,-103.0,1.0,-1053.0,11:23:33.778127,192.168.0.115
1308,-1,-100,-100,-100,"0,0,0",-6,0,0,0,0,0,62,65,76,40,100,-16.82,26,-60.0,43.0,-1002.0,11:23:33.879573,192.168.0.115
1313,-1,-100,-100,-100,"0,0,0",-5,0,0,0,0,0,62,65,76,40,100,-17.21,26,-127.0,-6.0,-1060.0,11:23:33.981790,192.168.0.115
1318,-1,-100,-100,-100,"0,0,0",-6,0,0,0,0,0,62,65,77,40,100,-16.84,26,-109.0,-16.0,-950.0,11:23:34.083980,192.168.0.115
1323,-1,-100,-100,-100,"0,0,0",-7,0,0,0,0,0,62,65,79,40,100,-16.86,26,-165.0,-17.0,-962.0,11:23:34.185897,192.168.0.115
1328,-1,-100,-100,-100,"0,0,0",-7,0,0,0,0,0,62,65,79,40,100,-16.82,26,-117.0,-40.0,-987.0,11:23:34.289146,192.168.0.115
1333,-1,-100,-100,-100,"0,0,0",-7,1,0,0,0,0,62,65,79,40,100,-17.08,26,-116.0,2.0,-1020.0,11:23:34.391707,192.168.0.115
1338,-1,-100,-100,-100,"0,0,0",-7,1,0,0,0,0,62,65,79,40,100,-16.85,26,-183.0,5.0,-1019.0,11:23:34.493210,192.168.0.115
1344,-1,-100,-100,-100,"0,0,0",-8,1,0,0,0,0,62,65,80,40,100,-16.9,26,-93.0,32.0,-952.0,11:23:34.594769,192.168.0.115
1349,-1,-100,-100,-100,"0,0,0",-9,0,0,0,0,0,62,65,80,40,100,-16.81,26,-80.0,9.0,-959.0,11:23:34.696865,192.168.0.115
1354,-1,-100,-100,-100,"0,0,0",-7,0,0,0,0,0,63,65,80,40,100,-16.77,26,-108.0,4.0,-990.0,11:23:34.798877,192.168.0.115
1359,-1,-100,-100,-100,"0,0,0",-6,0,0,0,0,0,63,65,79,40,100,-16.97,27,-93.0,22.0,-939.0,11:23:34.900716,192.168.0.115
1364,-1,-100,-100,-100,"0,0,0",-6,0,0,0,0,0,63,65,79,40,100,-17.02,27,-65.0,-10.0,-1014.0,11:23:35.002774,192.168.0.115
1369,-1,-100,-100,-100,"0,0,0",-5,0,0,0,0,0,63,65,78,40,100,-16.76,27,-92.0,-26.0,-983.0,11:23:35.104939,192.168.0.115
1374,-1,-100,-100,-100,"0,0,0",-5,0,0,0,0,0,63,65,77,40,100,-16.93,27,-77.0,48.0,-980.0,11:23:35.206484,192.168.0.115
1379,-1,-100,-100,-100,"0,0,0",-4,0,0,-1,0,0,63,65,77,40,100,-17.03,27,-76.0,13.0,-1001.0,11:23:35.308470,192.168.0.115
1384,-1,-100,-100,-100,"0,0,0",-4,0,0,-1,0,0,63,65,76,40,100,-16.94,27,-64.0,37.0,-987.0,11:23:35.410762,192.168.0.115
1389,-1,-100,-100,-100,"0,0,0",-4,-1,0,-1,0,0,63,65,76,40,100,-16.88,27,-52.0,66.0,-938.0,11:23:35.512380,192.168.0.115
1394,-1,-100,-100,-100,"0,0,0",-3,-2,0,-1,0,0,63,65,75,40,100,-16.91,27,-19.0,30.0,-988.0,11:23:35.615137,192.168.0.115
1399,-1,-100,-100,-100,"0,0,0",-3,-2,0,-1,0,0,63,65,75,40,100,-16.73,27,-46.0,37.0,-1016.0,11:23:35.716493,192.168.0.115
1404,-1,-100,-100,-100,"0,0,0",-2,-1,0,-1,0,0,62,65,74,40,100,-16.83,27,-29.0,28.0,-1052.0,11:23:35.818748,192.168.0.115
1409,-1,-100,-100,-100,"0,0,0",-1,-1,0,-1,0,0,62,65,74,40,100,-17.06,28,-26.0,58.0,-965.0,11:23:35.920810,192.168.0.115
1414,-1,-100,-100,-100,"0,0,0",-2,-4,0,-1,-1,0,62,65,74,40,100,-16.86,28,-101.0,76.0,-1024.0,11:23:36.024254,192.168.0.115
1419,-1,-100,-100,-100,"0,0,0",-1,-4,0,-1,0,0,62,65,74,40,100,-16.94,28,-75.0,2.0,-1074.0,11:23:36.125526,192.168.0.115
1422,-1,-100,-100,-100,"0,0,0",-2,-2,0,0,0,0,62,65,73,40,100,-16.99,28,-95.0,28.0,-1028.0,11:23:36.177079,192.168.0.115
1427,-1,-100,-100,-100,"0,0,0",-3,0,0,0,0,0,62,65,74,40,100,-17.03,28,-66.0,7.0,-964.0,11:23:36.277631,192.168.0.115
1433,-1,-100,-100,-100,"0,0,0",-3,0,0,0,0,0,62,65,74,40,100,-16.81,28,-92.0,11.0,-1022.0,11:23:36.379994,192.168.0.115
1438,-1,-100,-100,-100,"0,0,0",-3,0,0,0,0,0,62,65,75,40,100,-16.82,28,-56.0,9.0,-1012.0,11:23:36.481879,192.168.0.115
1443,-1,-100,-100,-100,"0,0,0",-3,-1,0,0,0,0,62,65,75,40,100,-17.11,28,-110.0,79.0,-963.0,11:23:36.583788,192.168.0.115
1448,-1,-100,-100,-100,"0,0,0",-3,-1,0,0,0,0,62,65,75,40,100,-17.29,28,-50.0,18.0,-1043.0,11:23:36.685771,192.168.0.115
1453,-1,-100,-100,-100,"0,0,0",-3,-1,0,0,0,0,63,65,76,40,100,-16.89,28,-84.0,-24.0,-1007.0,11:23:36.790771,192.168.0.115
1458,-1,-100,-100,-100,"0,0,0",-5,0,0,0,0,0,63,65,77,40,100,-16.89,29,-70.0,14.0,-856.0,11:23:36.890052,192.168.0.115
1463,-1,-100,-100,-100,"0,0,0",-5,-1,0,0,0,0,63,65,77,40,100,-16.94,29,-79.0,6.0,-1044.0,11:23:36.991802,192.168.0.115
1468,-1,-100,-100,-100,"0,0,0",-5,0,0,0,0,0,63,65,77,40,100,-17.0,29,-82.0,28.0,-992.0,11:23:37.093930,192.168.0.115
1473,-1,-100,-100,-100,"0,0,0",-6,0,0,0,0,0,63,65,77,40,100,-16.88,29,-86.0,6.0,-945.0,11:23:37.195894,192.168.0.115
1478,-1,-100,-100,-100,"0,0,0",-6,-1,-1,0,0,0,63,65,77,40,100,-16.71,29,-109.0,32.0,-985.0,11:23:37.297798,192.168.0.115
1483,-1,-100,-100,-100,"0,0,0",-5,0,-1,0,0,0,63,65,76,40,100,-16.86,29,-68.0,5.0,-1016.0,11:23:37.399851,192.168.0.115
1488,-1,-100,-100,-100,"0,0,0",-5,0,0,0,0,0,63,65,76,40,100,-16.62,29,-109.0,47.0,-1049.0,11:23:37.501825,192.168.0.115
1493,-1,-100,-100,-100,"0,0,0",-5,0,0,0,0,0,63,65,77,40,100,-16.8,29,-82.0,13.0,-979.0,11:23:37.603547,192.168.0.115
1499,-1,-100,-100,-100,"0,0,0",-6,-1,0,0,0,0,63,65,77,40,100,-16.82,29,-64.0,11.0,-997.0,11:23:37.706655,192.168.0.115
1504,-1,-100,-100,-100,"0,0,0",-5,0,0,0,0,0,63,65,77,40,100,-17.0,29,-61.0,14.0,-970.0,11:23:37.807806,192.168.0.115
1508,-1,-100,-100,-100,"0,0,0",-4,0,0,0,0,0,63,65,77,40,100,-16.85,30,-93.0,-16.0,-1012.0,11:23:37.909829,192.168.0.115
1513,-1,-100,-100,-100,"0,0,0",-4,0,0,0,0,0,63,65,77,40,100,-16.77,30,-104.0,-5.0,-972.0,11:23:38.011807,192.168.0.115
1519,-1,-100,-100,-100,"0,0,0",-5,0,0,0,0,0,63,65,78,40,100,-16.91,30,-93.0,-12.0,-1011.0,11:23:38.113919,192.168.0.115
1524,-1,-100,-100,-100,"0,0,0",-5,0,0,0,0,0,63,65,78,40,100,-16.87,30,-109.0,20.0,-971.0,11:23:38.215698,192.168.0.115
1529,-1,-100,-100,-100,"0,0,0",-6,0,0,0,0,0,63,65,79,40,100,-16.67,30,-130.0,6.0,-946.0,11:23:38.317949,192.168.0.115
1534,-1,-100,-100,-100,"0,0,0",-6,0,0,0,0,0,63,65,78,40,100,-16.77,30,-120.0,11.0,-1020.0,11:23:38.419683,192.168.0.115
1539,-1,-100,-100,-100,"0,0,0",-6,0,0,0,0,0,63,65,78,40,100,-16.86,30,-96.0,-16.0,-986.0,11:23:38.521438,192.168.0.115
1544,-1,-100,-100,-100,"0,0,0",-6,0,0,0,0,0,63,65,78,40,100,-16.69,30,-96.0,3.0,-953.0,11:23:38.623397,192.168.0.115
1549,-1,-100,-100,-100,"0,0,0",-6,0,0,0,0,0,63,65,78,40,100,-16.84,30,-83.0,-1.0,-1000.0,11:23:38.725814,192.168.0.115
1554,-1,-100,-100,-100,"0,0,0",-5,1,0,0,0,0,63,65,77,40,100,-16.9,30,-61.0,23.0,-953.0,11:23:38.827799,192.168.0.115
1559,-1,-100,-100,-100,"0,0,0",-4,0,0,0,0,0,63,65,77,40,100,-16.82,31,-79.0,25.0,-997.0,11:23:38.929677,192.168.0.115
1564,-1,-100,-100,-100,"0,0,0",-4,0,0,0,0,0,63,65,77,40,100,-16.89,31,-90.0,11.0,-977.0,11:23:39.031869,192.168.0.115
1567,-1,-100,-100,-100,"0,0,0",-4,0,0,0,0,0,63,65,76,40,100,-16.81,31,-68.0,20.0,-1009.0,11:23:39.082653,192.168.0.115
1572,-1,-100,-100,-100,"0,0,0",-4,0,0,0,0,0,63,65,77,40,100,-16.94,31,-85.0,7.0,-973.0,11:23:39.184502,192.168.0.115
1577,-1,-100,-100,-100,"0,0,0",-4,0,0,0,0,0,63,65,77,40,100,-16.84,31,-105.0,9.0,-978.0,11:23:39.293203,192.168.0.115
1582,-1,-100,-100,-100,"0,0,0",-4,0,0,0,0,0,63,65,76,40,100,-16.6,31,-55.0,29.0,-991.0,11:23:39.388661,192.168.0.115
1587,-1,-100,-100,-100,"0,0,0",-4,-1,0,0,0,0,63,65,76,40,100,-16.74,31,-77.0,26.0,-1005.0,11:23:39.490881,192.168.0.115
1592,-1,-100,-100,-100,"0,0,0",-3,0,0,0,0,0,63,65,75,40,100,-16.75,31,-59.0,49.0,-964.0,11:23:39.592538,192.168.0.115
1597,-1,-100,-100,-100,"0,0,0",-3,-1,0,0,-1,0,63,65,75,40,100,-16.69,31,-36.0,80.0,-997.0,11:23:39.695118,192.168.0.115
1602,-1,-100,-100,-100,"0,0,0",-2,-4,0,-1,-1,0,63,65,75,40,100,-16.84,31,-76.0,33.0,-1064.0,11:23:39.797023,192.168.0.115
1607,-1,-100,-100,-100,"0,0,0",-2,-3,0,0,0,0,63,65,74,40,100,-16.82,32,-86.0,37.0,-1031.0,11:23:39.898419,192.168.0.115
1612,-1,-100,-100,-100,"0,0,0",-2,-2,0,0,0,0,63,65,75,40,100,-16.72,32,-20.0,54.0,-993.0,11:23:40.000638,192.168.0.115
1617,-1,-100,-100,-100,"0,0,0",-2,-3,0,0,0,0,63,65,75,40,100,-16.62,32,-55.0,26.0,-1053.0,11:23:40.102583,192.168.0.115
1622,-1,-100,-100,-100,"0,0,0",-2,-3,0,0,0,0,63,65,75,40,100,-16.8,32,-86.0,42.0,-974.0,11:23:40.204770,192.168.0.115
1628,-1,-100,-100,-100,"0,0,0",-1,-2,0,0,0,0,63,65,75,40,100,-16.87,32,-38.0,20.0,-978.0,11:23:40.310494,192.168.0.115
1633,-1,-100,-100,-100,"0,0,0",-2,-1,0,0,0,0,63,65,75,40,100,-16.94,32,-89.0,42.0,-1025.0,11:23:40.408627,192.168.0.115
1638,-1,-100,-100,-100,"0,0,0",-3,0,0,0,0,0,63,65,76,40,100,-16.92,32,-69.0,57.0,-910.0,11:23:40.510367,192.168.0.115
1643,-1,-100,-100,-100,"0,0,0",-4,-2,0,0,0,0,63,65,76,40,100,-16.79,32,-46.0,37.0,-994.0,11:23:40.613038,192.168.0.115
1648,-1,-100,-100,-100,"0,0,0",-3,-2,0,0,0,0,63,65,77,40,100,-16.72,32,-56.0,5.0,-1010.0,11:23:40.714359,192.168.0.115
1653,-1,-100,-100,-100,"0,0,0",-3,-1,0,0,0,0,63,65,76,40,100,-16.75,32,-89.0,16.0,-1029.0,11:23:40.816678,192.168.0.115
1658,-1,-100,-100,-100,"0,0,0",-3,-1,0,0,0,0,63,65,77,40,100,-16.87,33,-46.0,13.0,-968.0,11:23:40.919175,192.168.0.115
1663,-1,-100,-100,-100,"0,0,0",-3,-1,0,0,0,0,63,65,77,40,100,-16.66,33,-74.0,17.0,-997.0,11:23:41.021520,192.168.0.115
1668,-1,-100,-100,-100,"0,0,0",-2,0,0,0,0,0,63,65,77,40,100,-16.58,33,-11.0,8.0,-1026.0,11:23:41.124191,192.168.0.115
1674,-1,-100,-100,-100,"0,0,0",-2,-1,0,0,0,0,63,65,76,40,100,-16.55,33,-36.0,37.0,-980.0,11:23:41.226507,192.168.0.115
1679,-1,-100,-100,-100,"0,0,0",-2,0,0,0,0,0,63,65,77,40,100,-16.81,33,-57.0,47.0,-1009.0,11:23:41.328750,192.168.0.115
1684,-1,-100,-100,-100,"0,0,0",-1,0,0,0,0,0,63,65,77,40,100,-16.82,33,-25.0,16.0,-992.0,11:23:41.431003,192.168.0.115
1689,-1,-100,-100,-100,"0,0,0",-2,-2,0,0,0,0,63,65,77,40,100,-16.69,33,-57.0,26.0,-1022.0,11:23:41.533648,192.168.0.115
1694,-1,-100,-100,-100,"0,0,0",-2,-2,0,0,0,0,63,65,77,40,100,-16.91,33,-59.0,25.0,-1027.0,11:23:41.632658,192.168.0.115
1699,-1,-100,-100,-100,"0,0,0",-3,-1,-1,0,0,0,63,65,77,40,100,-16.78,33,-88.0,30.0,-984.0,11:23:41.734648,192.168.0.115
1704,-1,-100,-100,-100,"0,0,0",-2,-2,-1,0,0,0,63,65,78,40,100,-16.88,33,-76.0,13.0,-1030.0,11:23:41.836735,192.168.0.115
1709,-1,-100,-100,-100,"0,0,0",-2,-1,0,0,0,0,63,65,78,40,100,-16.84,34,-53.0,25.0,-940.0,11:23:41.938654,192.168.0.115
1714,-1,-100,-100,-100,"0,0,0",-3,0,0,0,0,0,63,65,78,40,100,-16.69,34,-79.0,19.0,-993.0,11:23:42.040564,192.168.0.115
1719,-1,-100,-100,-100,"0,0,0",-4,0,0,0,0,0,63,65,79,40,100,-16.76,34,-53.0,16.0,-957.0,11:23:42.142701,192.168.0.115
1724,-1,-100,-100,-100,"0,0,0",-3,0,0,0,0,0,63,65,79,40,100,-16.94,34,-52.0,33.0,-1015.0,11:23:42.245628,192.168.0.115
1729,-1,-100,-100,-100,"0,0,0",-4,-1,-1,0,0,0,63,65,79,40,100,-16.64,34,-21.0,22.0,-1012.0,11:23:42.346582,192.168.0.115
1734,-1,-100,-100,-100,"0,0,0",-4,-1,0,0,0,0,63,65,78,40,100,-16.64,34,-37.0,32.0,-1005.0,11:23:42.448826,192.168.0.115
1737,-1,-100,-100,-100,"0,0,0",-3,-2,0,0,0,0,63,65,77,40,100,-16.84,34,-55.0,15.0,-1001.0,11:23:42.499602,192.168.0.115
1742,-1,-100,-100,-100,"0,0,0",-2,-2,0,0,0,0,63,65,77,40,100,-16.88,34,-36.0,24.0,-1045.0,11:23:42.601457,192.168.0.115
1747,-1,-100,-100,-100,"0,0,0",-1,0,0,0,0,0,63,65,77,40,100,-16.83,34,-91.0,47.0,-1007.0,11:23:42.703346,192.168.0.115
1752,-1,-100,-100,-100,"0,0,0",-2,0,0,0,0,0,63,65,77,40,100,-16.83,34,-35.0,42.0,-981.0,11:23:42.805414,192.168.0.115
1757,-1,-100,-100,-100,"0,0,0",-2,-1,0,0,0,0,63,65,78,40,100,-16.96,35,-92.0,13.0,-1091.0,11:23:42.907218,192.168.0.115
1762,-1,-100,-100,-100,"0,0,0",-3,-1,-1,0,0,0,63,65,77,40,100,-16.81,35,-110.0,-2.0,-943.0,11:23:43.012065,192.168.0.115
1767,-1,-100,-100,-100,"0,0,0",-4,-1,0,0,0,0,63,65,78,40,100,-16.74,35,-51.0,18.0,-973.0,11:23:43.112085,192.168.0.115
1772,-1,-100,-100,-100,"0,0,0",-5,0,0,0,0,0,63,65,78,40,100,-16.64,35,-52.0,15.0,-980.0,11:23:43.214355,192.168.0.115
1777,-1,-100,-100,-100,"0,0,0",-4,0,0,0,0,0,63,65,78,40,100,-16.61,35,-57.0,38.0,-1001.0,11:23:43.315224,192.168.0.115
1783,-1,-100,-100,-100,"0,0,0",-4,-1,0,0,0,0,63,65,77,40,100,-16.55,35,-39.0,30.0,-994.0,11:23:43.417499,192.168.0.115
1788,-1,-100,-100,-100,"0,0,0",-3,-1,0,0,0,0,63,65,77,40,100,-16.61,35,-35.0,65.0,-974.0,11:23:43.520480,192.168.0.115
1793,-1,-100,-100,-100,"0,0,0",-2,-1,0,0,0,0,63,65,77,40,100,-16.78,35,-28.0,41.0,-972.0,11:23:43.621610,192.168.0.115
1798,-1,-100,-100,-100,"0,0,0",-2,-2,0,0,0,0,63,65,77,40,100,-16.65,35,-56.0,37.0,-991.0,11:23:43.723714,192.168.0.115
1803,-1,-100,-100,-100,"0,0,0",-2,-1,0,0,0,0,63,66,77,40,100,-16.53,35,-19.0,36.0,-997.0,11:23:43.825379,192.168.0.115
1808,-1,-100,-100,-100,"0,0,0",-1,-2,0,0,0,0,63,66,76,40,100,-16.6,36,-54.0,18.0,-1005.0,11:23:43.927597,192.168.0.115
1813,-1,-100,-100,-100,"0,0,0",-1,-2,0,0,0,0,63,66,76,40,100,-16.63,36,-62.0,5.0,-978.0,11:23:44.029546,192.168.0.115
1818,-1,-100,-100,-100,"0,0,0",-1,-1,0,0,0,0,63,66,77,40,100,-16.59,36,-42.0,28.0,-964.0,11:23:44.131678,192.168.0.115
1823,-1,-100,-100,-100,"0,0,0",-2,0,0,0,0,0,63,66,76,40,100,-16.7,36,-51.0,49.0,-1018.0,11:23:44.233475,192.168.0.115
1828,-1,-100,-100,-100,"0,0,0",-2,0,0,0,0,0,63,66,76,40,100,-16.59,36,-38.0,43.0,-993.0,11:23:44.335392,192.168.0.115
1833,-1,-100,-100,-100,"0,0,0",-2,-1,0,0,0,0,63,66,76,40,100,-16.5,36,-40.0,37.0,-1007.0,11:23:44.437600,192.168.0.115
1838,-1,-100,-100,-100,"0,0,0",-2,-2,0,0,0,0,63,66,76,40,100,-16.56,36,-20.0,0.0,-1034.0,11:23:44.539462,192.168.0.115
1844,-1,-100,-100,-100,"0,0,0",-1,-2,0,0,0,0,63,66,76,40,100,-16.58,36,-9.0,41.0,-984.0,11:23:44.641914,192.168.0.115
1849,-1,-100,-100,-100,"0,0,0",0,-1,0,0,0,0,63,66,76,40,100,-16.59,36,-36.0,41.0,-1006.0,11:23:44.743650,192.168.0.115
1854,-1,-100,-100,-100,"0,0,0",0,0,0,0,0,0,63,66,77,40,100,-16.52,36,3.0,8.0,-1002.0,11:23:44.845736,192.168.0.115
1859,-1,-100,-100,-100,"0,0,0",0,-1,0,0,0,0,63,66,77,40,100,-16.47,37,2.0,0.0,-983.0,11:23:44.947213,192.168.0.115
1864,-1,-100,-100,-100,"0,0,0",0,0,0,0,0,0,63,66,77,40,100,-16.52,37,-21.0,24.0,-974.0,11:23:45.050122,192.168.0.115
1869,-1,-100,-100,-100,"0,0,0",0,0,0,0,0,0,63,66,77,40,100,-16.47,37,-13.0,14.0,-993.0,11:23:45.151515,192.168.0.115
1874,-1,-100,-100,-100,"0,0,0",-1,0,0,0,0,0,63,66,77,40,100,-16.53,37,2.0,15.0,-1031.0,11:23:45.255698,192.168.0.115
1879,-1,-100,-100,-100,"0,0,0",-1,-1,0,0,0,0,63,66,77,40,100,-16.78,37,-20.0,18.0,-1041.0,11:23:45.355469,192.168.0.115
1884,-1,-100,-100,-100,"0,0,0",-1,-1,0,0,0,0,63,66,77,40,100,-16.5,37,-26.0,28.0,-946.0,11:23:45.457630,192.168.0.115
1889,-1,-100,-100,-100,"0,0,0",0,0,0,0,0,0,63,66,77,40,100,-16.56,37,-21.0,51.0,-1006.0,11:23:45.559476,192.168.0.115
1894,-1,-100,-100,-100,"0,0,0",0,0,0,0,0,0,63,66,77,40,100,-16.44,37,-4.0,51.0,-957.0,11:23:45.661516,192.168.0.115
1899,-1,-100,-100,-100,"0,0,0",0,-1,0,0,0,0,63,66,76,40,100,-16.94,37,-68.0,53.0,-1042.0,11:23:45.763259,192.168.0.115
1904,-1,-100,-100,-100,"0,0,0",0,-2,0,0,0,0,64,66,77,40,100,-16.88,37,-72.0,6.0,-1016.0,11:23:45.865812,192.168.0.115
1909,-1,-100,-100,-100,"0,0,0",-2,-2,0,1,0,0,64,66,77,40,100,-16.87,38,-73.0,-2.0,-1019.0,11:23:45.967425,192.168.0.115
1914,-1,-100,-100,-100,"0,0,0",-4,-1,0,1,0,0,64,66,78,40,100,-16.7,38,-32.0,-12.0,-978.0,11:23:46.070158,192.168.0.115
1919,-1,-100,-100,-100,"0,0,0",-5,-1,0,0,0,0,64,66,78,40,100,-17.03,38,-60.0,11.0,-1012.0,11:23:46.171714,192.168.0.115
1922,-1,-100,-100,-100,"0,0,0",-3,0,0,0,0,0,64,66,79,40,100,-16.56,38,-81.0,35.0,-952.0,11:23:46.222400,192.168.0.115
1927,-1,-100,-100,-100,"0,0,0",-4,0,0,0,0,0,64,66,79,40,100,-16.57,38,-45.0,50.0,-970.0,11:23:46.324382,192.168.0.115
1932,-1,-100,-100,-100,"0,0,0",-4,-1,0,0,0,0,64,66,79,40,100,-16.42,38,-52.0,51.0,-977.0,11:23:46.426766,192.168.0.115
1938,-1,-100,-100,-100,"0,0,0",-3,-2,-1,0,0,0,64,66,79,40,100,-16.75,38,-103.0,25.0,-1096.0,11:23:46.528578,192.168.0.115
1943,-1,-100,-100,-100,"0,0,0",-2,-2,0,0,0,0,64,66,79,40,100,-16.73,38,-73.0,-9.0,-1025.0,11:23:46.630608,192.168.0.115
1948,-1,-100,-100,-100,"0,0,0",-4,0,0,1,0,0,64,66,80,40,100,-16.52,38,-78.0,-19.0,-903.0,11:23:46.732520,192.168.0.115
1953,-1,-100,-100,-100,"0,0,0",-6,0,0,1,0,0,65,67,80,40,100,-16.61,38,-82.0,-28.0,-933.0,11:23:46.834750,192.168.0.115
1958,-1,-100,-100,-100,"0,0,0",-6,0,-1,1,0,0,65,67,80,40,100,-16.41,39,-25.0,4.0,-941.0,11:23:46.936883,192.168.0.115
1963,-1,-100,-100,-100,"0,0,0",-6,0,-1,0,0,0,65,67,79,40,100,-16.66,39,-74.0,-18.0,-1025.0,11:23:47.038557,192.168.0.115
1968,-1,-100,-100,-100,"0,0,0",-4,0,0,0,0,0,65,67,77,40,100,-16.67,39,-103.0,1.0,-1103.0,11:23:47.140546,192.168.0.115
1973,-1,-100,-100,-100,"0,0,0",-4,1,0,0,0,0,65,67,77,40,100,-16.64,39,-64.0,25.0,-1015.0,11:23:47.243077,192.168.0.115
1978,-1,-100,-100,-100,"0,0,0",-4,0,0,0,0,0,65,67,78,40,100,-16.71,39,-74.0,36.0,-937.0,11:23:47.344495,192.168.0.115
1983,-1,-100,-100,-100,"0,0,0",-4,0,0,0,0,0,65,67,77,40,100,-16.97,39,-87.0,22.0,-1044.0,11:23:47.447306,192.168.0.115
1988,-1,-100,-100,-100,"0,0,0",-3,0,0,0,0,0,65,67,77,40,100,-16.79,39,-152.0,-2.0,-1011.0,11:23:47.548243,192.168.0.115
1993,-1,-100,-100,-100,"0,0,0",-4,0,0,0,0,0,65,67,78,40,100,-16.88,39,-104.0,7.0,-1012.0,11:23:47.650425,192.168.0.115
1998,-1,-100,-100,-100,"0,0,0",-6,0,0,0,0,0,65,67,78,40,100,-16.9,39,-111.0,-9.0,-939.0,11:23:47.752639,192.168.0.115
2003,-1,-100,-100,-100,"0,0,0",-5,0,0,0,0,0,64,66,77,40,100,-16.7,39,-87.0,19.0,-1001.0,11:23:47.854512,192.168.0.115
2008,-1,-100,-100,-100,"0,0,0",-5,0,-1,0,0,0,64,66,77,40,100,-16.83,40,-110.0,-42.0,-1048.0,11:23:47.956534,192.168.0.115
2014,-1,-100,-100,-100,"0,0,0",-5,0,-1,0,0,0,64,66,78,40,100,-16.8,40,-97.0,5.0,-950.0,11:23:48.058300,192.168.0.115
2019,-1,-100,-100,-100,"0,0,0",-7,1,0,0,0,0,64,66,78,40,100,-16.69,40,-93.0,0.0,-963.0,11:23:48.160557,192.168.0.115
2024,-1,-100,-100,-100,"0,0,0",-7,0,0,0,0,0,64,66,78,40,100,-16.82,40,-124.0,29.0,-976.0,11:23:48.262556,192.168.0.115
2029,-1,-100,-100,-100,"0,0,0",-7,-1,0,0,0,0,64,66,78,40,100,-16.74,40,-92.0,-22.0,-1000.0,11:23:48.364914,192.168.0.115
2034,-1,-100,-100,-100,"0,0,0",-6,0,0,0,0,0,64,66,78,40,100,-16.92,40,-105.0,-21.0,-973.0,11:23:48.466359,192.168.0.115
2039,-1,-100,-100,-100,"0,0,0",-6,1,0,0,0,0,64,66,78,40,100,-16.79,40,-103.0,13.0,-965.0,11:23:48.569102,192.168.0.115
2044,-1,-100,-100,-100,"0,0,0",-6,1,0,0,0,0,64,66,78,40,100,-16.8,40,-81.0,23.0,-991.0,11:23:48.670243,192.168.0.115
2049,-1,-100,-100,-100,"0,0,0",-5,1,0,0,0,0,64,66,77,40,100,-16.78,40,-73.0,30.0,-1004.0,11:23:48.772109,192.168.0.115
2054,-1,-100,-100,-100,"0,0,0",-5,0,0,0,0,0,64,66,77,40,100,-16.61,40,-91.0,47.0,-989.0,11:23:48.874252,192.168.0.115
2059,-1,-100,-100,-100,"0,0,0",-5,-1,0,0,0,0,64,66,75,40,100,-16.88,41,-89.0,33.0,-990.0,11:23:48.976388,192.168.0.115
2064,-1,-100,-100,-100,"0,0,0",-4,0,0,0,0,0,64,66,75,40,100,-16.77,41,-91.0,13.0,-1025.0,11:23:49.084716,192.168.0.115
2069,-1,-100,-100,-100,"0,0,0",-3,0,0,0,0,0,64,66,74,40,100,-16.94,41,-107.0,10.0,-1042.0,11:23:49.180616,192.168.0.115
2074,-1,-100,-100,-100,"0,0,0",-3,-1,0,0,0,0,64,66,74,40,100,-16.84,41,-89.0,27.0,-1034.0,11:23:49.282656,192.168.0.115
2079,-1,-100,-100,-100,"0,0,0",-5,0,0,0,0,0,64,66,74,40,100,-16.9,41,-90.0,18.0,-987.0,11:23:49.384356,192.168.0.115
2084,-1,-100,-100,-100,"0,0,0",-5,0,0,0,0,0,64,66,75,40,100,-16.74,41,-81.0,5.0,-959.0,11:23:49.487869,192.168.0.115
2087,-1,-100,-100,-100,"0,0,0",-6,0,-1,0,0,0,64,66,74,40,100,-16.78,41,-30.0,-35.0,-1002.0,11:23:49.537569,192.168.0.115
2092,-1,-100,-100,-100,"0,0,0",-3,-1,0,0,0,0,64,66,75,40,100,-16.83,41,-80.0,-1.0,-980.0,11:23:49.639996,192.168.0.115
2097,-1,-100,-100,-100,"0,0,0",-2,0,0,0,0,0,64,66,74,40,100,-16.7,41,-36.0,-1.0,-993.0,11:23:49.741452,192.168.0.115
2102,-1,-100,-100,-100,"0,0,0",-2,0,0,0,0,0,64,66,74,40,100,-16.68,41,-74.0,-17.0,-1019.0,11:23:49.843544,192.168.0.115
2107,-1,-100,-100,-100,"0,0,0",-3,1,-1,0,0,0,64,66,74,40,100,-16.88,42,-63.0,-32.0,-1006.0,11:23:49.945630,192.168.0.115
2112,-1,-100,-100,-100,"0,0,0",-2,1,-1,0,0,0,64,66,74,40,100,-16.95,42,-52.0,-38.0,-1008.0,11:23:50.047818,192.168.0.115
2117,-1,-100,-100,-100,"0,0,0",-3,1,0,0,0,0,64,66,75,40,100,-17.04,42,-54.0,-21.0,-1014.0,11:23:50.149474,192.168.0.115
2122,-1,-100,-100,-100,"0,0,0",-3,1,0,0,0,0,64,66,76,40,100,-16.78,42,-102.0,2.0,-1064.0,11:23:50.251631,192.168.0.115
2127,-1,-100,-100,-100,"0,0,0",-5,1,0,0,0,0,64,66,76,40,100,-16.69,42,-118.0,19.0,-1020.0,11:23:50.353497,192.168.0.115
2132,-1,-100,-100,-100,"0,0,0",-5,0,0,0,0,0,64,66,76,40,100,-16.7,42,-73.0,12.0,-926.0,11:23:50.457830,192.168.0.115
2138,-1,-100,-100,-100,"0,0,0",-4,-1,0,0,0,0,64,66,76,40,100,-17.05,42,-29.0,18.0,-966.0,11:23:50.557485,192.168.0.115
2143,-1,-100,-100,-100,"0,0,0",-2,-1,0,0,0,0,64,66,76,40,100,-16.96,42,-74.0,25.0,-1047.0,11:23:50.660641,192.168.0.115
2148,-1,-100,-100,-100,"0,0,0",-1,-1,0,0,0,0,64,66,76,40,100,-16.82,42,-50.0,12.0,-1034.0,11:23:50.761181,192.168.0.115
2153,-1,-100,-100,-100,"0,0,0",-4,-1,0,0,0,0,64,67,76,40,100,-16.83,42,-75.0,4.0,-1036.0,11:23:50.863376,192.168.0.115
2158,-1,-100,-100,-100,"0,0,0",-4,-1,0,0,0,0,64,67,76,40,100,-16.82,43,-47.0,4.0,-977.0,11:23:50.965263,192.168.0.115
2163,-1,-100,-100,-100,"0,0,0",-2,0,0,0,0,0,64,67,76,40,100,-16.58,43,-24.0,-9.0,-1004.0,11:23:51.067816,192.168.0.115
2168,-1,-100,-100,-100,"0,0,0",-2,0,0,0,0,0,64,67,77,40,100,-16.69,43,-40.0,6.0,-1043.0,11:23:51.169615,192.168.0.115
2173,-1,-100,-100,-100,"0,0,0",-1,-1,0,0,0,0,64,67,77,40,100,-16.76,43,-31.0,7.0,-976.0,11:23:51.271583,192.168.0.115
2179,-1,-100,-100,-100,"0,0,0",0,0,0,0,0,0,64,67,77,40,100,-16.86,43,-35.0,3.0,-1006.0,11:23:51.373420,192.168.0.115
2184,-1,-100,-100,-100,"0,0,0",-1,0,0,0,0,0,64,67,77,40,100,-16.65,43,-53.0,-16.0,-1009.0,11:23:51.475908,192.168.0.115
2189,-1,-100,-100,-100,"0,0,0",-2,0,0,0,0,0,64,67,78,40,100,-16.59,43,-92.0,17.0,-1019.0,11:23:51.577670,192.168.0.115
2194,-1,-100,-100,-100,"0,0,0",-4,0,0,0,0,0,64,67,78,40,100,-16.62,43,-111.0,32.0,-990.0,11:23:51.679444,192.168.0.115
2199,-1,-100,-100,-100,"0,0,0",-4,0,0,0,0,0,64,67,79,40,100,-16.51,43,-78.0,-7.0,-983.0,11:23:51.781337,192.168.0.115
2204,-1,-100,-100,-100,"0,0,0",-4,0,-1,0,0,0,65,66,78,40,100,-16.66,43,-45.0,-36.0,-1035.0,11:23:51.883364,192.168.0.115
2209,-1,-100,-100,-100,"0,0,0",-3,2,0,0,0,0,65,66,78,40,100,-16.78,44,-102.0,12.0,-1026.0,11:23:51.985212,192.168.0.115
2214,-1,-100,-100,-100,"0,0,0",-4,2,0,1,0,0,65,66,79,40,100,-16.76,44,-115.0,61.0,-968.0,11:23:52.091975,192.168.0.115
2219,-1,-100,-100,-100,"0,0,0",-6,1,0,1,0,0,65,66,79,40,100,-16.8,44,-139.0,16.0,-1010.0,11:23:52.189346,192.168.0.115
2224,-1,-100,-100,-100,"0,0,0",-6,0,0,1,0,0,65,66,79,40,100,-16.7,44,-117.0,-1.0,-955.0,11:23:52.291328,192.168.0.115
2229,-1,-100,-100,-100,"0,0,0",-6,0,0,0,0,0,65,66,79,40,100,-16.74,44,-80.0,-17.0,-1022.0,11:23:52.393588,192.168.0.115
2234,-1,-100,-100,-100,"0,0,0",-6,0,0,0,0,0,65,66,78,40,100,-16.84,44,-124.0,-2.0,-1023.0,11:23:52.495524,192.168.0.115
2239,-1,-100,-100,-100,"0,0,0",-4,0,0,0,0,0,65,66,77,40,100,-16.65,44,-107.0,3.0,-997.0,11:23:52.598013,192.168.0.115
2244,-1,-100,-100,-100,"0,0,0",-5,0,0,0,0,0,65,66,77,40,100,-17.05,44,-115.0,9.0,-1028.0,11:23:52.699224,192.168.0.115
2247,-1,-100,-100,-100,"0,0,0",-5,1,0,0,0,0,65,66,78,40,100,-16.74,44,-136.0,-6.0,-933.0,11:23:52.750601,192.168.0.115
2254,-1,-100,-100,-100,"0,0,0",-7,0,0,0,0,0,64,66,77,40,100,-16.72,45,-109.0,-3.0,-964.0,11:23:52.903543,192.168.0.115
2257,-1,-100,-100,-100,"0,0,0",-7,-1,0,0,0,0,64,66,78,40,100,-16.84,45,-123.0,3.0,-989.0,11:23:52.954180,192.168.0.115
2262,-1,-100,-100,-100,"0,0,0",-6,0,0,0,0,0,64,66,77,40,100,-16.69,45,-84.0,-34.0,-1071.0,11:23:53.056230,192.168.0.115
2267,-1,-100,-100,-100,"0,0,0",-6,0,0,0,0,0,64,66,77,40,100,-16.74,45,-84.0,-26.0,-1001.0,11:23:53.158391,192.168.0.115
2272,-1,-100,-100,-100,"0,0,0",-6,0,0,0,0,0,64,66,77,40,100,-16.72,45,-77.0,-28.0,-953.0,11:23:53.260487,192.168.0.115
2277,-1,-100,-100,-100,"0,0,0",-5,1,0,0,0,0,64,66,77,40,100,-16.69,45,-73.0,-17.0,-1008.0,11:23:53.363998,192.168.0.115
2282,-1,-100,-100,-100,"0,0,0",-4,2,0,0,0,0,64,66,76,40,100,-16.68,45,-75.0,15.0,-971.0,11:23:53.464439,192.168.0.115
2287,-1,-100,-100,-100,"0,0,0",-3,1,0,-1,0,0,64,66,76,40,100,-16.75,45,-59.0,21.0,-963.0,11:23:53.566146,192.168.0.115
2293,-1,-100,-100,-100,"0,0,0",-2,0,0,-1,0,0,64,66,76,40,100,-16.77,45,-46.0,22.0,-997.0,11:23:53.669268,192.168.0.115
2298,-1,-100,-100,-100,"0,0,0",-2,-1,0,0,0,0,64,66,76,40,100,-16.82,45,-111.0,0.0,-1021.0,11:23:53.770209,192.168.0.115
2302,-1,-100,-100,-100,"0,0,0",-3,0,0,0,0,0,65,67,75,40,100,-16.74,46,-76.0,-10.0,-1018.0,11:23:53.872631,192.168.0.115
2307,-1,-100,-100,-100,"0,0,0",-3,0,0,0,0,0,65,67,75,40,100,-16.61,46,-89.0,2.0,-987.0,11:23:53.974415,192.168.0.115
2313,-1,-100,-100,-100,"0,0,0",-3,0,0,0,0,0,65,67,75,40,100,-16.67,46,-80.0,3.0,-1001.0,11:23:54.076405,192.168.0.115
2318,-1,-100,-100,-100,"0,0,0",-4,0,0,0,0,0,65,67,75,40,100,-16.61,46,-52.0,-13.0,-999.0,11:23:54.178154,192.168.0.115
2323,-1,-100,-100,-100,"0,0,0",-2,0,0,0,0,0,65,67,75,40,100,-16.68,46,-56.0,-12.0,-1020.0,11:23:54.280194,192.168.0.115
2328,-1,-100,-100,-100,"0,0,0",-2,0,0,0,0,0,65,67,75,40,100,-16.93,46,-83.0,12.0,-997.0,11:23:54.382515,192.168.0.115
2333,-1,-100,-100,-100,"0,0,0",-3,0,0,0,0,0,65,67,75,40,100,-16.51,46,-46.0,20.0,-958.0,11:23:54.483921,192.168.0.115
2338,-1,-100,-100,-100,"0,0,0",-3,-1,0,0,0,0,65,67,75,40,100,-16.64,46,-80.0,15.0,-1007.0,11:23:54.586371,192.168.0.115
2343,-1,-100,-100,-100,"0,0,0",-3,-1,0,0,0,0,65,67,75,40,100,-16.82,46,-63.0,0.0,-1000.0,11:23:54.688282,192.168.0.115
2348,-1,-100,-100,-100,"0,0,0",-4,0,0,0,0,0,65,67,75,40,100,-16.78,46,-59.0,28.0,-964.0,11:23:54.790910,192.168.0.115
2354,-1,-100,-100,-100,"0,0,0",-4,0,0,0,0,0,65,67,75,40,100,-16.71,47,-70.0,15.0,-991.0,11:23:54.892408,192.168.0.115
2359,-1,-100,-100,-100,"0,0,0",-3,0,0,0,0,0,65,67,76,40,100,-16.67,47,-41.0,16.0,-1016.0,11:23:54.994047,192.168.0.115
2364,-1,-100,-100,-100,"0,0,0",-3,0,0,0,0,0,65,67,76,40,100,-16.65,47,-47.0,-17.0,-1051.0,11:23:55.096420,192.168.0.115
2369,-1,-100,-100,-100,"0,0,0",-3,-1,0,0,0,0,65,67,76,40,100,-16.77,47,-76.0,-38.0,-1017.0,11:23:55.198036,192.168.0.115
2374,-1,-100,-100,-100,"0,0,0",-4,0,0,0,0,0,65,67,76,40,100,-16.74,47,-115.0,22.0,-945.0,11:23:55.301202,192.168.0.115
2379,-1,-100,-100,-100,"0,0,0",-5,0,0,0,0,0,65,67,77,40,100,-16.69,47,-35.0,25.0,-957.0,11:23:55.404333,192.168.0.115
2384,-1,-100,-100,-100,"0,0,0",-4,-1,0,0,0,0,65,67,77,40,100,-16.95,47,-50.0,4.0,-1036.0,11:23:55.505548,192.168.0.115
2389,-1,-100,-100,-100,"0,0,0",-4,-1,0,0,0,0,65,67,77,40,100,-16.8,47,-55.0,21.0,-1029.0,11:23:55.607449,192.168.0.115
2394,-1,-100,-100,-100,"0,0,0",-3,-2,0,0,0,0,65,67,77,40,100,-16.88,47,-63.0,46.0,-1023.0,11:23:55.708961,192.168.0.115
2399,-1,-100,-100,-100,"0,0,0",-3,-2,0,0,0,0,65,67,76,40,100,-16.8,47,-65.0,31.0,-995.0,11:23:55.811241,192.168.0.115
2404,-1,-100,-100,-100,"0,0,0",-3,-1,0,0,0,0,65,67,76,40,100,-16.67,48,-45.0,12.0,-996.0,11:23:55.913326,192.168.0.115
2409,-1,-100,-100,-100,"0,0,0",-3,-2,0,0,0,0,65,67,75,40,100,-16.69,48,-66.0,7.0,-975.0,11:23:56.015186,192.168.0.115
2414,-1,-100,-100,-100,"0,0,0",-2,0,0,0,0,0,65,67,75,40,100,-16.59,48,-21.0,-17.0,-1007.0,11:23:56.117294,192.168.0.115
2417,-1,-100,-100,-100,"0,0,0",-1,0,0,0,0,0,65,67,74,40,100,-16.93,48,-78.0,20.0,-1047.0,11:23:56.169843,192.168.0.115
2422,-1,-100,-100,-100,"0,0,0",-2,0,0,0,0,0,65,67,74,40,100,-16.69,48,-96.0,32.0,-1010.0,11:23:56.270496,192.168.0.115
2427,-1,-100,-100,-100,"0,0,0",-3,0,0,0,0,0,65,67,74,40,100,-16.81,48,-65.0,20.0,-1005.0,11:23:56.372049,192.168.0.115
2432,-1,-100,-100,-100,"0,0,0",-4,0,0,0,0,0,65,67,74,40,100,-16.78,48,-119.0,33.0,-1026.0,11:23:56.474210,192.168.0.115
2437,-1,-100,-100,-100,"0,0,0",-4,0,0,0,0,0,65,67,75,40,100,-16.72,48,-82.0,-4.0,-1057.0,11:23:56.576476,192.168.0.115
2442,-1,-100,-100,-100,"0,0,0",-4,0,0,0,0,0,65,67,74,40,100,-16.84,48,-60.0,27.0,-994.0,11:23:56.678339,192.168.0.115
2447,-1,-100,-100,-100,"0,0,0",-4,-1,0,0,0,0,65,67,75,40,100,-16.77,48,-103.0,13.0,-1011.0,11:23:56.780309,192.168.0.115
2452,-1,-100,-100,-100,"0,0,0",-4,-1,0,0,0,0,65,67,75,40,100,-16.77,49,-117.0,9.0,-993.0,11:23:56.885522,192.168.0.115
2457,-1,-100,-100,-100,"0,0,0",-5,0,0,0,0,0,65,67,76,40,100,-16.53,49,-102.0,-13.0,-1031.0,11:23:56.984313,192.168.0.115
2462,-1,-100,-100,-100,"0,0,0",-5,0,-1,0,0,0,65,67,77,40,100,-16.87,49,-84.0,-3.0,-951.0,11:23:57.086452,192.168.0.115
2467,-1,-100,-100,-100,"0,0,0",-5,1,-1,0,0,0,65,67,77,40,100,-16.91,49,-98.0,-5.0,-1033.0,11:23:57.188258,192.168.0.115
2473,-1,-100,-100,-100,"0,0,0",-6,2,-1,0,0,0,65,67,78,40,100,-16.69,49,-113.0,24.0,-892.0,11:23:57.291203,192.168.0.115
2478,-1,-100,-100,-100,"0,0,0",-7,0,-1,0,0,0,65,67,78,40,100,-16.64,49,-76.0,-46.0,-971.0,11:23:57.392652,192.168.0.115
2483,-1,-100,-100,-100,"0,0,0",-6,0,-1,0,0,0,65,67,78,40,100,-16.77,49,-82.0,-23.0,-1039.0,11:23:57.494208,192.168.0.115
2488,-1,-100,-100,-100,"0,0,0",-5,1,-1,0,0,0,65,67,77,40,100,-16.54,49,-67.0,-17.0,-964.0,11:23:57.596595,192.168.0.115
2493,-1,-100,-100,-100,"0,0,0",-4,2,0,0,0,0,65,67,76,40,100,-16.83,49,-49.0,-41.0,-1059.0,11:23:57.698207,192.168.0.115
2498,-1,-100,-100,-100,"0,0,0",-3,3,0,0,0,0,65,67,76,40,100,-16.86,49,-115.0,-20.0,-1074.0,11:23:57.800483,192.168.0.115
2504,-1,-100,-100,-100,"0,0,0",-4,3,0,0,0,0,64,67,77,40,100,-16.74,50,-99.0,-1.0,-994.0,11:23:57.902197,192.168.0.115
2508,-1,-100,-100,-100,"0,0,0",-3,2,0,0,0,0,64,67,77,40,100,-16.86,50,-59.0,24.0,-950.0,11:23:58.004474,192.168.0.115
2514,-1,-100,-100,-100,"0,0,0",-4,0,0,0,0,0,64,67,76,40,100,-16.63,50,-35.0,-9.0,-1031.0,11:23:58.106046,192.168.0.115
2519,-1,-100,-100,-100,"0,0,0",-3,0,0,0,0,0,64,67,76,40,100,-16.8,50,-65.0,-6.0,-1022.0,11:23:58.208319,192.168.0.115
2524,-1,-100,-100,-100,"0,0,0",-3,0,0,0,0,0,64,67,76,40,100,-16.77,50,-56.0,-16.0,-1024.0,11:23:58.310509,192.168.0.115
