,mid,x,y,z,mpry,pitch,roll,yaw,vgx,vgy,vgz,templ,temph,tof,h,bat,baro,time,agx,agy,agz,timestamp,address
4,-1,-100,-100,-100,"0,0,0",0,0,0,0,0,0,57,59,6553,0,100,-17.44,0,6.0,-6.0,-998.0,11:23:07.683434,192.168.0.111
5,-1,-100,-100,-100,"0,0,0",0,0,0,0,0,0,57,59,6553,0,100,-17.48,0,7.0,-8.0,-998.0,11:23:07.733773,192.168.0.111
10,-1,-100,-100,-100,"0,0,0",0,0,0,0,0,0,57,59,6553,0,100,-17.47,0,6.0,-6.0,-999.0,11:23:07.835613,192.168.0.111
16,-1,-100,-100,-100,"0,0,0",0,0,0,0,0,0,57,59,6553,0,100,-17.47,0,4.0,-7.0,-997.0,11:23:07.937651,192.168.0.111
21,-1,-100,-100,-100,"0,0,0",0,0,0,0,0,0,57,59,6553,0,100,-17.47,0,5.0,-6.0,-1001.0,11:23:08.040611,192.168.0.111
27,-1,-100,-100,-100,"0,0,0",0,0,0,0,0,0,57,59,6553,0,100,-17.47,0,8.0,0.0,-1006.0,11:23:08.141549,192.168.0.111
32,-1,-100,-100,-100,"0,0,0",0,0,0,0,0,0,57,59,6553,0,100,-17.47,0,-6.0,-1.0,-1002.0,11:23:08.243281,192.168.0.111
37,-1,-100,-100,-100,"0,0,0",0,0,0,0,0,1,57,59,10,0,100,-17.47,0,-8.0,-7.0,-1007.0,11:23:08.345199,192.168.0.111
42,-1,-100,-100,-100,"0,0,0",0,0,0,0,0,4,57,59,10,0,100,-17.47,0,0.0,-1.0,-1175.0,11:23:08.447427,192.168.0.111
47,-1,-100,-100,-100,"0,0,0",0,0,0,0,0,7,57,60,10,0,100,-17.37,0,-11.0,13.0,-1064.0,11:23:08.549142,192.168.0.111
52,-1,-100,-100,-100,"0,0,0",-1,-1,0,0,0,8,57,60,19,10,100,-17.11,0,-24.0,31.0,-1037.0,11:23:08.651517,192.168.0.111
58,-1,-100,-100,-100,"0,0,0",-1,-1,0,0,0,8,57,60,29,20,100,-17.06,0,-22.0,16.0,-977.0,11:23:08.753426,192.168.0.111
63,-1,-100,-100,-100,"0,0,0",-1,-1,0,0,0,8,57,60,37,30,100,-16.92,1,-27.0,6.0,-923.0,11:23:08.857034,192.168.0.111
68,-1,-100,-100,-100,"0,0,0",-1,-2,0,0,0,7,57,60,45,40,100,-16.9,1,-41.0,-10.0,-891.0,11:23:08.957535,192.168.0.111
73,-1,-100,-100,-100,"0,0,0",-1,-1,0,0,0,6,57,60,52,40,100,-16.85,1,-41.0,-23.0,-873.0,11:23:09.059484,192.168.0.111
78,-1,-100,-100,-100,"0,0,0",-2,0,0,0,0,5,57,60,58,50,100,-16.71,1,-33.0,-9.0,-857.0,11:23:09.161545,192.168.0.111
83,-1,-100,-100,-100,"0,0,0",-1,0,0,0,0,4,57,60,62,60,100,-16.76,1,-32.0,-5.0,-892.0,11:23:09.263512,192.168.0.111
88,3,-4,-4,50,"2,-3,178",-2,0,0,0,0,3,57,60,66,60,100,-16.69,1,-32.0,3.0,-918.0,11:23:09.365142,192.168.0.111
93,3,-4,-4,50,"2,-3,178",-2,0,0,0,0,2,57,60,68,60,100,-16.69,1,-32.0,17.0,-941.0,11:23:09.467193,192.168.0.111
99,3,-4,-4,50,"2,-3,178",-2,0,0,0,0,1,58,60,70,60,100,-16.62,1,-21.0,18.0,-960.0,11:23:09.571427,192.168.0.111
104,3,-4,-4,50,"2,-3,178",-2,0,0,0,0,1,58,60,71,70,100,-16.54,1,-23.0,30.0,-961.0,11:23:09.671526,192.168.0.111
109,3,-4,-5,69,"4,-3,-178",-1,0,0,0,0,0,58,60,72,70,100,-16.57,1,-16.0,36.0,-976.0,11:23:09.773204,192.168.0.111
114,3,-4,-5,69,"4,-3,-178",-1,-1,0,0,0,0,58,60,72,70,100,-16.54,2,-18.0,20.0,-989.0,11:23:09.876041,192.168.0.111
119,3,-4,-5,69,"4,-3,-178",-1,-2,0,0,0,0,58,60,73,70,100,-16.55,2,-11.0,26.0,-997.0,11:23:09.977307,192.168.0.111
124,3,-4,-5,69,"4,-3,-178",0,-2,0,0,0,0,58,60,73,70,100,-16.59,2,-16.0,22.0,-994.0,11:23:10.080417,192.168.0.111
129,3,-3,-3,75,"3,-3,178",0,-1,0,0,0,0,58,60,74,70,100,-16.56,2,-8.0,33.0,-1036.0,11:23:10.181225,192.168.0.111
134,3,-3,-3,75,"3,-3,178",0,-1,0,0,0,0,58,60,74,70,100,-16.54,2,0.0,26.0,-1016.0,11:23:10.283322,192.168.0.111
135,3,-3,-3,75,"3,-3,178",0,-1,0,0,0,0,58,60,75,70,100,-16.54,2,10.0,20.0,-982.0,11:23:10.334602,192.168.0.111
140,3,-3,-3,75,"3,-3,178",0,-2,0,0,0,0,58,60,76,70,100,-16.55,2,12.0,20.0,-1001.0,11:23:10.436255,192.168.0.111
145,3,-2,-4,77,"2,-3,176",0,-2,0,0,0,0,58,62,76,70,100,-16.5,2,8.0,36.0,-996.0,11:23:10.538244,192.168.0.111
151,3,-2,-4,77,"2,-3,176",1,-2,0,0,0,0,58,62,76,70,100,-16.54,2,3.0,30.0,-976.0,11:23:10.639889,192.168.0.111
157,3,-2,-4,77,"2,-3,176",1,-2,0,0,0,0,58,62,77,70,100,-16.62,2,8.0,23.0,-1004.0,11:23:10.742146,192.168.0.111
162,3,-2,-4,77,"2,-3,176",1,-2,0,0,0,0,58,62,78,70,100,-16.56,3,10.0,32.0,-1013.0,11:23:10.844362,192.168.0.111
167,3,0,-8,79,"0,-3,177",0,-2,0,0,0,0,58,62,78,70,100,-16.52,3,16.0,16.0,-999.0,11:23:10.946142,192.168.0.111
172,3,0,-8,79,"0,-3,177",1,-1,0,0,0,0,58,62,79,70,100,-16.63,3,5.0,30.0,-1006.0,11:23:11.048264,192.168.0.111
177,3,0,-8,79,"0,-3,177",1,-1,0,0,0,0,58,62,79,70,100,-16.59,3,13.0,23.0,-993.0,11:23:11.150712,192.168.0.111
182,3,1,-7,80,"0,-3,177",1,-1,0,0,0,0,58,62,79,80,100,-16.63,3,14.0,25.0,-997.0,11:23:11.252290,192.168.0.111
187,3,1,-7,80,"0,-3,177",1,-1,0,0,0,0,58,62,80,80,100,-16.56,3,18.0,21.0,-995.0,11:23:11.356651,192.168.0.111
192,3,1,-7,80,"0,-3,177",1,-1,0,0,0,0,58,62,80,80,100,-16.53,3,21.0,25.0,-993.0,11:23:11.456186,192.168.0.111
197,3,1,-7,80,"0,-3,177",1,-1,0,0,0,0,58,61,80,80,100,-16.55,3,11.0,12.0,-989.0,11:23:11.558201,192.168.0.111
202,3,0,-7,82,"-4,-3,177",1,-1,0,0,0,0,58,61,81,80,100,-16.58,3,15.0,22.0,-997.0,11:23:11.762132,192.168.0.111
207,3,0,-7,82,"-4,-3,177",1,-1,0,0,0,0,58,61,81,80,100,-16.6,3,6.0,12.0,-1006.0,11:23:11.762948,192.168.0.111
212,3,0,-7,82,"-4,-3,177",1,-1,0,0,0,0,58,61,81,80,100,-16.62,4,7.0,22.0,-998.0,11:23:11.968982,192.168.0.111
218,3,0,-7,82,"-4,-3,177",1,-1,0,0,0,0,58,61,81,80,100,-16.6,4,23.0,15.0,-994.0,11:23:11.970284,192.168.0.111
223,3,3,-7,84,"-2,-3,177",1,-1,0,0,0,0,58,61,81,80,100,-16.49,4,20.0,2.0,-984.0,11:23:12.175082,192.168.0.111
229,3,3,-7,84,"-2,-3,177",1,0,0,0,0,0,58,61,81,80,100,-16.57,4,12.0,15.0,-994.0,11:23:12.175874,192.168.0.111
234,3,3,-7,84,"-2,-3,177",1,0,0,0,0,0,58,61,81,80,100,-16.55,4,13.0,18.0,-993.0,11:23:12.272277,192.168.0.111
239,3,3,-7,84,"-2,-3,177",1,0,0,0,0,0,58,61,82,80,100,-16.65,4,27.0,16.0,-1004.0,11:23:12.374411,192.168.0.111
244,3,2,-8,84,"-2,-3,179",1,-1,0,0,0,0,58,61,82,80,100,-16.65,4,22.0,25.0,-1010.0,11:23:12.583995,192.168.0.111
249,3,2,-8,84,"-2,-3,179",1,-1,0,0,0,0,58,61,82,80,100,-16.56,4,23.0,14.0,-1004.0,11:23:12.584725,192.168.0.111
254,3,2,-8,84,"-2,-3,179",1,-1,0,0,0,0,58,61,82,80,100,-16.65,4,20.0,27.0,-1008.0,11:23:12.788117,192.168.0.111
259,3,0,-7,85,"-3,-3,180",1,0,0,0,0,0,58,61,82,80,100,-16.59,4,23.0,10.0,-1000.0,11:23:12.789620,192.168.0.111
260,3,0,-7,85,"-3,-3,180",0,-1,0,0,0,0,58,61,82,80,100,-16.59,5,26.0,13.0,-999.0,11:23:12.992221,192.168.0.111
265,3,0,-7,85,"-3,-3,180",1,-1,0,0,0,0,58,61,82,80,100,-16.59,5,24.0,9.0,-997.0,11:23:12.992519,192.168.0.111
270,3,0,-7,85,"-3,-3,180",1,0,0,0,0,0,58,61,82,80,100,-16.57,5,33.0,-1.0,-996.0,11:23:13.036924,192.168.0.111
275,3,1,-5,85,"-2,-3,179",1,0,0,0,0,0,58,61,83,80,100,-16.6,5,39.0,1.0,-1000.0,11:23:13.199607,192.168.0.111
281,3,1,-5,85,"-2,-3,179",1,0,0,0,0,0,58,61,82,80,100,-16.57,5,39.0,4.0,-986.0,11:23:13.241111,192.168.0.111
286,3,1,-5,85,"-2,-3,179",1,0,0,0,0,0,58,61,83,80,100,-16.61,5,32.0,-2.0,-993.0,11:23:13.405684,192.168.0.111
291,3,1,-5,85,"-2,-3,179",2,0,0,0,0,0,58,61,83,80,100,-16.59,5,38.0,-1.0,-999.0,11:23:13.445138,192.168.0.111
296,3,0,-3,86,"-3,-3,178",2,0,0,0,0,0,58,62,83,80,100,-16.6,5,44.0,2.0,-1008.0,11:23:13.612411,192.168.0.111
302,3,0,-3,86,"-3,-3,178",2,0,0,0,0,0,58,62,83,80,100,-16.59,5,40.0,8.0,-976.0,11:23:13.649176,192.168.0.111
306,3,0,-3,86,"-3,-3,178",2,0,0,0,0,0,58,62,83,80,100,-16.58,5,45.0,-11.0,-991.0,11:23:13.829594,192.168.0.111
311,3,0,-3,86,"-3,-3,178",2,0,0,0,0,0,58,62,84,80,100,-16.56,6,40.0,4.0,-986.0,11:23:13.853135,192.168.0.111
316,3,0,-3,86,"-4,-3,178",2,0,0,0,0,0,58,62,84,80,100,-16.55,6,38.0,-4.0,-980.0,11:23:13.955077,192.168.0.111
321,3,0,-3,86,"-4,-3,178",2,0,0,0,0,0,58,62,84,80,100,-16.57,6,45.0,13.0,-997.0,11:23:14.057319,192.168.0.111
326,3,0,-3,86,"-4,-3,178",2,0,0,0,0,0,58,62,84,80,100,-16.54,6,32.0,-3.0,-1002.0,11:23:14.159641,192.168.0.111
332,3,0,-5,87,"-5,-3,-178",2,0,0,0,0,0,58,62,84,80,100,-16.51,6,48.0,-1.0,-990.0,11:23:14.261052,192.168.0.111
337,3,0,-5,87,"-5,-3,-178",2,0,0,0,0,0,58,62,84,80,100,-16.52,6,31.0,0.0,-990.0,11:23:14.363840,192.168.0.111
342,3,0,-5,87,"-5,-3,-178",2,0,0,0,0,0,58,62,84,80,100,-16.54,6,46.0,2.0,-1000.0,11:23:14.465497,192.168.0.111
347,3,0,-5,87,"-5,-3,-178",2,0,0,0,0,0,58,62,84,80,100,-16.56,6,28.0,-1.0,-994.0,11:23:14.566830,192.168.0.111
353,3,1,-7,86,"-5,-3,-176",2,0,0,0,0,0,58,62,84,80,100,-16.52,6,39.0,-5.0,-1001.0,11:23:14.669056,192.168.0.111
358,3,1,-7,86,"-5,-3,-176",2,0,0,0,0,0,58,62,84,80,100,-16.55,6,43.0,-1.0,-999.0,11:23:14.771338,192.168.0.111
363,3,1,-7,86,"-5,-3,-176",2,0,0,0,0,0,58,62,84,80,100,-16.57,7,34.0,3.0,-1004.0,11:23:14.872707,192.168.0.111
368,3,1,-7,86,"-5,-3,-176",2,0,0,0,0,0,58,62,83,80,100,-16.61,7,33.0,-7.0,-993.0,11:23:14.974974,192.168.0.111
373,3,1,-4,87,"-5,-3,-178",2,0,0,0,0,0,58,62,84,80,100,-16.5,7,42.0,-3.0,-1004.0,11:23:15.077034,192.168.0.111
378,3,1,-4,87,"-5,-3,-178",2,0,0,0,0,0,58,62,84,80,100,-16.56,7,38.0,-6.0,-989.0,11:23:15.179324,192.168.0.111
384,3,1,-4,87,"-5,-3,-178",2,0,0,0,0,0,58,62,83,80,100,-16.57,7,38.0,-3.0,-1001.0,11:23:15.281371,192.168.0.111
389,3,0,-6,87,"-5,-3,-176",2,0,0,0,0,0,58,62,83,80,100,-16.51,7,48.0,-12.0,-997.0,11:23:15.383076,192.168.0.111
390,3,0,-6,87,"-5,-3,-176",2,0,0,0,0,0,58,62,83,80,100,-16.56,7,37.0,0.0,-991.0,11:23:15.434254,192.168.0.111
395,3,0,-6,87,"-5,-3,-176",2,0,0,0,0,0,59,61,83,80,100,-16.52,7,39.0,-6.0,-992.0,11:23:15.536368,192.168.0.111
400,3,0,-6,87,"-5,-3,-176",2,0,0,0,0,0,59,61,83,80,100,-16.47,7,38.0,-8.0,-984.0,11:23:15.638106,192.168.0.111
405,3,0,-5,87,"-5,-3,-177",2,0,0,0,0,0,59,61,83,80,100,-16.58,7,50.0,-7.0,-992.0,11:23:15.740152,192.168.0.111
410,3,0,-5,87,"-5,-3,-177",2,0,0,0,0,0,59,61,83,80,100,-16.51,8,31.0,-14.0,-992.0,11:23:15.842083,192.168.0.111
415,3,0,-5,87,"-5,-3,-177",2,0,0,0,0,0,59,61,83,80,100,-16.53,8,35.0,-2.0,-994.0,11:23:15.944481,192.168.0.111
420,3,0,-5,87,"-5,-3,-177",2,0,0,0,0,0,59,61,83,80,100,-16.53,8,37.0,3.0,-1003.0,11:23:16.046183,192.168.0.111
426,3,-4,-6,86,"-8,-3,-175",2,0,0,0,0,0,59,61,83,80,100,-16.47,8,35.0,-9.0,-988.0,11:23:16.148317,192.168.0.111
431,3,-4,-6,86,"-8,-3,-175",2,0,0,0,0,0,59,61,84,80,100,-16.46,8,42.0,-4.0,-981.0,11:23:16.250683,192.168.0.111
436,3,-4,-6,86,"-8,-3,-175",2,0,0,0,0,0,59,61,83,80,100,-16.56,8,39.0,-10.0,-1000.0,11:23:16.352149,192.168.0.111
441,3,-4,-6,86,"-8,-3,-175",2,0,0,0,0,0,59,61,83,80,100,-16.52,8,37.0,-2.0,-1001.0,11:23:16.454057,192.168.0.111
446,3,-3,-8,86,"-6,-3,-175",2,0,0,0,0,0,58,61,83,80,100,-16.51,8,37.0,-7.0,-995.0,11:23:16.556066,192.168.0.111
451,3,-3,-8,86,"-6,-3,-175",2,0,0,0,0,0,58,61,83,80,100,-16.57,8,31.0,-7.0,-1003.0,11:23:16.658164,192.168.0.111
456,3,-3,-8,86,"-6,-3,-175",2,0,0,0,0,0,58,61,83,80,100,-16.59,8,35.0,-7.0,-994.0,11:23:16.760252,192.168.0.111
461,3,-1,-5,86,"-5,-3,-177",2,0,0,0,0,0,58,61,83,80,100,-16.54,9,33.0,-1.0,-995.0,11:23:16.861865,192.168.0.111
466,3,-1,-5,86,"-5,-3,-177",2,0,0,0,0,0,58,61,82,80,100,-16.54,9,42.0,-4.0,-997.0,11:23:16.963920,192.168.0.111
471,3,-1,-5,86,"-5,-3,-177",1,0,0,0,0,0,58,61,83,80,100,-16.5,9,30.0,-6.0,-984.0,11:23:17.066010,192.168.0.111
476,3,-1,-5,86,"-5,-3,-177",1,0,0,0,0,0,58,61,83,80,100,-16.53,9,33.0,-4.0,-997.0,11:23:17.168107,192.168.0.111
482,3,-1,-5,86,"-4,-3,-177",1,0,0,0,0,0,58,61,82,80,100,-16.5,9,32.0,4.0,-1005.0,11:23:17.270056,192.168.0.111
487,3,-1,-5,86,"-4,-3,-177",2,0,0,0,0,0,58,61,82,80,100,-16.5,9,37.0,-4.0,-1008.0,11:23:17.371962,192.168.0.111
492,3,-1,-5,86,"-4,-3,-177",1,0,0,0,0,0,58,61,82,80,100,-16.54,9,39.0,-2.0,-1005.0,11:23:17.473993,192.168.0.111
497,3,-1,-5,86,"-4,-3,-177",1,0,0,0,0,0,59,62,82,80,100,-16.52,9,32.0,-5.0,-992.0,11:23:17.577193,192.168.0.111
502,3,-1,-5,85,"-4,-3,-178",1,0,0,0,0,0,59,62,82,80,100,-16.47,9,33.0,-7.0,-1012.0,11:23:17.677949,192.168.0.111
507,3,-1,-5,85,"-4,-3,-178",2,0,0,0,0,0,59,62,82,80,100,-16.48,9,30.0,-3.0,-999.0,11:23:17.780086,192.168.0.111
513,3,-1,-5,85,"-4,-3,-178",2,0,0,0,0,0,59,62,82,80,100,-16.51,10,38.0,-6.0,-997.0,11:23:17.881766,192.168.0.111
515,3,-1,-5,85,"-4,-3,-178",1,0,0,0,0,0,59,62,82,80,100,-16.44,10,35.0,-13.0,-997.0,11:23:17.933111,192.168.0.111
520,3,-1,-6,85,"-4,-3,-177",1,0,0,0,0,0,59,62,82,80,100,-16.45,10,31.0,-5.0,-999.0,11:23:18.034668,192.168.0.111
525,3,-1,-6,85,"-4,-3,-177",1,0,0,0,0,0,59,62,81,80,100,-16.48,10,38.0,0.0,-993.0,11:23:18.137768,192.168.0.111
530,3,-1,-6,85,"-4,-3,-177",1,0,0,0,0,0,59,62,82,80,100,-16.56,10,50.0,1.0,-995.0,11:23:18.239342,192.168.0.111
535,3,-1,-5,85,"-3,-3,-177",2,0,0,0,0,0,59,62,82,80,100,-16.65,10,47.0,9.0,-992.0,11:23:18.341246,192.168.0.111
540,3,-1,-5,85,"-3,-3,-177",2,0,0,0,0,0,59,62,81,80,100,-16.54,10,39.0,1.0,-1001.0,11:23:18.443278,192.168.0.111
545,3,-1,-5,85,"-3,-3,-177",2,0,0,0,0,0,59,61,82,80,100,-16.48,10,47.0,1.0,-1012.0,11:23:18.545089,192.168.0.111
550,3,-1,-5,85,"-3,-3,-177",2,0,0,0,0,0,59,61,81,80,100,-16.53,10,38.0,2.0,-991.0,11:23:18.646917,192.168.0.111
555,3,-1,-4,84,"-3,-3,-178",2,0,0,0,0,0,59,61,81,80,100,-16.48,10,38.0,6.0,-999.0,11:23:18.748944,192.168.0.111
560,3,-1,-4,84,"-3,-3,-178",2,0,0,0,0,0,59,61,81,80,100,-16.43,11,33.0,10.0,-998.0,11:23:18.850760,192.168.0.111
565,3,-1,-4,84,"-3,-3,-178",2,0,0,0,0,0,59,61,81,80,100,-16.54,11,28.0,12.0,-1013.0,11:23:18.952687,192.168.0.111
570,3,-1,-4,84,"-3,-3,-178",2,-1,0,0,0,0,59,61,81,80,100,-16.46,11,32.0,21.0,-991.0,11:23:19.054964,192.168.0.111
575,3,-1,-6,84,"-4,-3,-179",2,-1,0,0,0,0,59,61,81,80,100,-16.43,11,28.0,7.0,-995.0,11:23:19.156954,192.168.0.111
580,3,-1,-6,84,"-4,-3,-179",1,-1,0,0,0,0,59,61,81,80,100,-16.45,11,33.0,19.0,-1003.0,11:23:19.258782,192.168.0.111
585,3,-1,-6,84,"-4,-3,-179",1,-1,0,0,0,0,59,61,81,80,100,-16.46,11,38.0,16.0,-1010.0,11:23:19.361137,192.168.0.111
591,3,-1,-6,84,"-4,-3,-179",2,-1,0,0,0,0,59,61,81,80,100,-16.52,11,36.0,0.0,-1011.0,11:23:19.462847,192.168.0.111
596,3,0,-6,83,"-4,-3,179",1,-1,0,0,0,0,59,62,81,80,100,-16.5,11,42.0,2.0,-985.0,11:23:19.565030,192.168.0.111
601,3,0,-6,83,"-4,-3,179",1,0,0,0,0,0,59,62,81,80,100,-16.51,11,42.0,1.0,-998.0,11:23:19.667147,192.168.0.111
606,3,0,-6,83,"-4,-3,179",2,0,0,0,0,0,59,62,80,80,100,-16.47,11,42.0,-2.0,-1000.0,11:23:19.768785,192.168.0.111
611,3,0,-5,83,"-3,-3,178",2,-1,0,0,0,0,59,62,81,80,100,-16.41,12,36.0,-7.0,-989.0,11:23:19.870986,192.168.0.111
616,3,0,-5,83,"-3,-3,178",2,0,0,0,0,0,59,62,81,80,100,-16.45,12,20.0,3.0,-992.0,11:23:19.974483,192.168.0.111
621,3,0,-5,83,"-3,-3,178",2,0,0,0,0,0,59,62,80,80,100,-16.47,12,36.0,7.0,-1008.0,11:23:20.074863,192.168.0.111
626,3,0,-5,83,"-3,-3,178",1,0,0,0,0,0,59,62,80,80,100,-16.47,12,6.0,17.0,-994.0,11:23:20.177126,192.168.0.111
631,3,0,-4,83,"-3,-3,177",1,0,0,0,0,0,59,62,80,80,100,-16.49,12,21.0,1.0,-987.0,11:23:20.278814,192.168.0.111
636,3,0,-4,83,"-3,-3,177",1,0,0,0,0,0,59,62,80,80,100,-16.48,12,10.0,2.0,-996.0,11:23:20.380975,192.168.0.111
641,3,0,-4,83,"-3,-3,177",1,0,0,0,0,0,59,62,81,80,100,-16.44,12,35.0,12.0,-986.0,11:23:20.482809,192.168.0.111
645,3,0,-4,83,"-3,-3,177",1,0,0,0,0,0,60,62,81,80,100,-16.36,12,11.0,24.0,-992.0,11:23:20.534044,192.168.0.111
650,3,-1,-7,83,"-2,-2,-178",1,0,0,0,0,0,60,62,81,80,100,-16.32,12,23.0,9.0,-1016.0,11:23:20.635886,192.168.0.111
655,3,-1,-7,83,"-2,-2,-178",1,-1,0,0,0,0,60,62,80,80,100,-16.34,12,12.0,18.0,-1009.0,11:23:20.737704,192.168.0.111
660,3,-1,-7,83,"-2,-2,-178",1,-1,0,0,0,0,60,62,80,80,100,-16.46,13,14.0,18.0,-999.0,11:23:20.840140,192.168.0.111
665,3,-1,-7,83,"-2,-2,-178",1,-1,0,0,0,0,60,62,81,80,100,-16.45,13,25.0,18.0,-987.0,11:23:20.942734,192.168.0.111
670,3,-1,-6,83,"-1,-3,179",1,-1,0,0,0,0,60,62,81,80,100,-16.44,13,37.0,13.0,-995.0,11:23:21.044842,192.168.0.111
675,3,-1,-6,83,"-1,-3,179",1,-1,0,0,0,0,60,62,81,80,100,-16.44,13,29.0,20.0,-981.0,11:23:21.145798,192.168.0.111
680,3,-1,-6,83,"-1,-3,179",1,-1,0,0,0,0,60,62,81,80,100,-16.45,13,43.0,9.0,-983.0,11:23:21.248002,192.168.0.111
685,3,-2,-5,83,"-1,-3,177",1,-1,0,0,0,0,60,62,80,80,100,-16.44,13,26.0,17.0,-992.0,11:23:21.350457,192.168.0.111
690,3,-2,-5,83,"-1,-3,177",1,-1,0,0,0,0,60,62,80,80,100,-16.51,13,38.0,21.0,-1015.0,11:23:21.452587,192.168.0.111
695,3,-2,-5,83,"-1,-3,177",1,-1,0,0,0,0,59,63,80,80,100,-16.42,13,30.0,12.0,-1013.0,11:23:21.553905,192.168.0.111
700,3,-2,-5,83,"-1,-3,177",2,-1,0,0,0,0,59,63,80,80,100,-16.49,13,40.0,12.0,-1000.0,11:23:21.656139,192.168.0.111
705,3,-2,-4,83,"-1,-3,176",2,-1,0,0,0,0,59,63,80,70,100,-16.43,13,32.0,14.0,-1001.0,11:23:21.757947,192.168.0.111
710,3,-2,-4,83,"-1,-3,176",2,0,0,0,0,0,59,63,79,70,100,-16.42,14,32.0,17.0,-1008.0,11:23:21.859612,192.168.0.111
715,3,-2,-4,83,"-1,-3,176",2,0,0,0,0,0,59,63,80,70,100,-16.45,14,52.0,17.0,-1008.0,11:23:21.961578,192.168.0.111
720,3,-2,-4,83,"-1,-3,176",2,0,0,0,0,0,59,63,80,70,100,-16.4,14,45.0,4.0,-1010.0,11:23:22.064185,192.168.0.111
725,3,-1,-7,82,"-2,-3,178",2,0,0,0,0,0,59,63,80,70,100,-16.39,14,40.0,8.0,-986.0,11:23:22.165797,192.168.0.111
730,3,-1,-7,82,"-2,-3,178",2,0,0,0,0,0,59,63,80,70,100,-16.41,14,35.0,4.0,-1009.0,11:23:22.267982,192.168.0.111
735,3,-1,-7,82,"-2,-3,178",2,0,0,0,0,0,59,63,80,70,100,-16.39,14,30.0,7.0,-1012.0,11:23:22.369806,192.168.0.111
740,3,-1,-7,82,"-2,-3,178",2,0,0,0,0,0,59,63,80,80,100,-16.43,14,28.0,9.0,-986.0,11:23:22.471944,192.168.0.111
745,3,-1,-7,82,"-4,-3,179",2,0,0,0,0,0,59,63,81,80,100,-16.39,14,44.0,0.0,-1007.0,11:23:22.573619,192.168.0.111
750,3,-1,-7,82,"-4,-3,179",2,0,0,0,0,0,59,63,81,80,100,-16.34,14,33.0,0.0,-1001.0,11:23:22.675846,192.168.0.111
755,3,-1,-7,82,"-4,-3,179",2,0,0,0,0,0,59,63,81,80,100,-16.42,14,47.0,6.0,-1008.0,11:23:22.777822,192.168.0.111
760,3,0,-7,83,"-3,-3,180",2,0,0,0,0,0,59,63,82,80,100,-16.42,15,36.0,10.0,-995.0,11:23:22.879610,192.168.0.111
766,3,0,-7,83,"-3,-3,180",2,0,0,0,0,0,59,63,82,80,100,-16.43,15,47.0,-6.0,-990.0,11:23:22.982867,192.168.0.111
771,3,0,-7,83,"-3,-3,180",2,0,0,0,0,0,59,63,82,80,100,-16.45,15,38.0,2.0,-1013.0,11:23:23.084099,192.168.0.111
776,3,0,-7,83,"-3,-3,180",2,0,0,0,0,0,59,63,82,80,100,-16.45,15,40.0,-3.0,-980.0,11:23:23.185948,192.168.0.111
781,3,0,-6,84,"-3,-3,180",2,0,0,0,0,0,59,63,82,80,100,-16.41,15,47.0,4.0,-1006.0,11:23:23.287586,192.168.0.111
786,3,0,-6,84,"-3,-3,180",2,0,0,0,0,0,59,63,81,80,100,-16.32,15,33.0,12.0,-992.0,11:23:23.389496,192.168.0.111
791,3,0,-6,84,"-3,-3,180",2,0,0,0,0,0,59,63,82,80,100,-16.38,15,35.0,6.0,-1000.0,11:23:23.493152,192.168.0.111
796,3,0,-6,84,"-3,-3,180",2,0,0,0,0,0,60,63,82,80,100,-16.48,15,45.0,2.0,-986.0,11:23:23.596508,192.168.0.111
801,3,-2,-4,84,"-4,-3,180",2,0,0,0,0,0,60,63,81,80,100,-16.41,15,49.0,-3.0,-1005.0,11:23:23.695439,192.168.0.111
805,3,-2,-4,84,"-4,-3,180",2,0,0,0,0,0,60,63,82,80,100,-16.41,15,46.0,2.0,-1008.0,11:23:23.747327,192.168.0.111
810,3,-2,-4,84,"-4,-3,180",2,0,0,0,0,0,60,63,81,80,100,-16.43,16,38.0,9.0,-992.0,11:23:23.849013,192.168.0.111
815,3,-2,-4,84,"-4,-3,180",2,0,0,0,0,0,60,63,82,80,100,-16.33,16,40.0,-3.0,-994.0,11:23:23.951444,192.168.0.111
820,3,-2,-4,84,"-4,-3,-179",2,0,0,0,0,0,60,63,81,80,100,-16.44,16,42.0,-5.0,-999.0,11:23:24.052466,192.168.0.111
825,3,-2,-4,84,"-4,-3,-179",2,0,0,0,0,0,60,63,82,80,100,-16.33,16,34.0,0.0,-997.0,11:23:24.154551,192.168.0.111
830,3,-2,-4,84,"-4,-3,-179",2,0,0,0,0,0,60,63,82,80,100,-16.4,16,38.0,-3.0,-994.0,11:23:24.256951,192.168.0.111
835,3,-2,-4,84,"-4,-3,-179",2,0,0,0,0,0,60,63,81,80,100,-16.43,16,29.0,5.0,-999.0,11:23:24.358535,192.168.0.111
840,3,-2,-4,84,"-4,-3,-179",2,0,0,0,0,0,60,63,81,80,100,-16.47,16,42.0,-3.0,-999.0,11:23:24.460705,192.168.0.111
845,3,-2,-4,84,"-4,-3,-179",1,0,0,0,0,0,60,62,81,80,100,-16.47,16,33.0,1.0,-1003.0,11:23:24.562611,192.168.0.111
850,3,-2,-4,84,"-4,-3,-179",1,0,0,0,0,0,60,62,80,80,100,-16.42,16,36.0,-9.0,-1004.0,11:23:24.664715,192.168.0.111
855,3,-3,-3,84,"-4,-3,-179",1,0,0,0,0,0,60,62,80,80,100,-16.39,16,28.0,0.0,-1011.0,11:23:24.766399,192.168.0.111
860,3,-3,-3,84,"-4,-3,-179",1,0,0,0,0,0,60,62,80,80,100,-16.41,17,31.0,-12.0,-997.0,11:23:24.868967,192.168.0.111
865,3,-3,-3,84,"-4,-3,-179",1,0,0,0,0,0,60,62,79,80,100,-16.44,17,26.0,0.0,-1004.0,11:23:24.970663,192.168.0.111
870,3,-3,-3,84,"-4,-3,-179",1,0,0,0,0,0,60,62,79,80,100,-16.42,17,36.0,-9.0,-1008.0,11:23:25.073376,192.168.0.111
875,3,-2,-3,83,"-2,-3,-178",1,0,0,0,0,0,60,62,79,80,100,-16.42,17,29.0,-8.0,-1004.0,11:23:25.174458,192.168.0.111
880,3,-2,-3,83,"-2,-3,-178",1,0,0,0,0,0,60,62,79,80,100,-16.47,17,32.0,-10.0,-1013.0,11:23:25.276985,192.168.0.111
885,3,-2,-3,83,"-2,-3,-178",1,0,0,0,0,0,60,62,79,70,100,-16.4,17,35.0,-8.0,-1001.0,11:23:25.378784,192.168.0.111
890,3,-2,-3,83,"-2,-3,-178",1,0,0,0,0,0,60,62,79,70,100,-16.44,17,33.0,1.0,-1000.0,11:23:25.480902,192.168.0.111
895,3,-3,-3,82,"-2,-3,-178",1,0,0,0,0,0,60,62,79,70,100,-16.38,17,31.0,-2.0,-1011.0,11:23:25.582751,192.168.0.111
900,3,-3,-3,82,"-2,-3,-178",1,0,0,0,0,0,60,62,79,70,100,-16.44,17,39.0,-9.0,-996.0,11:23:25.684846,192.168.0.111
905,3,-3,-3,82,"-2,-3,-178",1,0,0,0,0,0,60,62,79,70,100,-16.41,17,23.0,2.0,-1003.0,11:23:25.787011,192.168.0.111
910,3,-3,-3,82,"-2,-3,-178",1,0,0,0,0,0,60,62,79,70,100,-16.4,18,29.0,0.0,-1001.0,11:23:25.888873,192.168.0.111
915,3,-3,-4,82,"-3,-3,-178",1,0,0,0,0,0,60,62,79,70,100,-16.38,18,32.0,-9.0,-996.0,11:23:25.990963,192.168.0.111
921,3,-3,-4,82,"-3,-3,-178",1,0,0,0,0,0,60,62,79,70,100,-16.41,18,26.0,-1.0,-1008.0,11:23:26.092614,192.168.0.111
926,3,-3,-4,82,"-3,-3,-178",1,0,0,0,0,0,60,62,79,70,100,-16.38,18,22.0,0.0,-989.0,11:23:26.194532,192.168.0.111
931,3,-3,-4,82,"-2,-3,-178",1,0,0,0,0,0,60,62,79,70,100,-16.36,18,25.0,-3.0,-1002.0,11:23:26.296705,192.168.0.111
936,3,-3,-4,82,"-2,-3,-178",1,0,0,0,0,0,60,62,79,70,100,-16.38,18,26.0,4.0,-1007.0,11:23:26.398771,192.168.0.111
941,3,-3,-4,82,"-2,-3,-178",1,0,0,0,0,0,60,62,79,70,100,-16.4,18,17.0,-1.0,-999.0,11:23:26.500469,192.168.0.111
946,3,-3,-4,82,"-2,-3,-178",1,0,0,0,0,0,59,63,79,70,100,-16.37,18,24.0,-3.0,-996.0,11:23:26.602956,192.168.0.111
951,3,-2,-3,82,"-2,-3,-178",1,0,0,0,0,0,59,63,79,70,100,-16.37,18,35.0,-9.0,-1003.0,11:23:26.704479,192.168.0.111
956,3,-2,-3,82,"-2,-3,-178",1,0,0,0,0,0,59,63,80,70,100,-16.35,18,22.0,1.0,-1000.0,11:23:26.806315,192.168.0.111
961,3,-2,-3,82,"-2,-3,-178",1,0,0,0,0,0,59,63,80,80,100,-16.39,19,30.0,-9.0,-1003.0,11:23:26.908620,192.168.0.111
966,3,-2,-3,82,"-2,-3,-178",1,0,0,0,0,0,59,63,80,80,100,-16.35,19,43.0,-13.0,-999.0,11:23:27.010690,192.168.0.111
970,3,-2,-4,82,"-2,-3,-178",1,0,0,0,0,0,59,63,80,80,100,-16.35,19,32.0,-9.0,-989.0,11:23:27.061359,192.168.0.111
975,3,-2,-4,82,"-2,-3,-178",1,0,0,0,0,0,59,63,80,80,100,-16.39,19,25.0,-7.0,-1001.0,11:23:27.163714,192.168.0.111
980,3,-2,-4,82,"-2,-3,-178",2,0,0,0,0,0,59,63,79,80,100,-16.44,19,23.0,-3.0,-1007.0,11:23:27.266089,192.168.0.111
985,3,-2,-4,82,"-2,-3,-178",1,0,0,0,0,0,59,63,80,80,100,-16.43,19,26.0,-1.0,-1015.0,11:23:27.367843,192.168.0.111
990,3,-3,-4,82,"-3,-3,-178",1,0,0,0,0,0,59,63,80,80,100,-16.43,19,27.0,-8.0,-1001.0,11:23:27.470046,192.168.0.111
995,3,-3,-4,82,"-3,-3,-178",1,0,0,0,0,0,61,62,79,80,100,-16.4,19,27.0,-7.0,-1008.0,11:23:27.572123,192.168.0.111
1000,3,-3,-4,82,"-3,-3,-178",1,0,0,0,0,0,61,62,80,80,100,-16.33,19,39.0,-12.0,-992.0,11:23:27.673792,192.168.0.111
1005,3,-3,-3,83,"-3,-3,-178",1,0,0,0,0,0,61,62,80,80,100,-16.45,19,28.0,-11.0,-989.0,11:23:27.775794,192.168.0.111
1010,3,-3,-3,83,"-3,-3,-178",1,0,0,0,0,0,61,62,79,80,100,-16.37,20,30.0,-13.0,-1004.0,11:23:27.878451,192.168.0.111
1015,3,-3,-3,83,"-3,-3,-178",1,0,0,0,0,0,61,62,79,80,100,-16.47,20,33.0,-19.0,-998.0,11:23:27.980792,192.168.0.111
1020,3,-3,-3,83,"-3,-3,-178",1,0,0,0,0,0,61,62,79,80,100,-16.38,20,33.0,-14.0,-999.0,11:23:28.083316,192.168.0.111
1025,3,-3,-4,82,"-2,-3,-177",1,0,0,0,0,0,61,62,79,80,100,-16.42,20,35.0,-17.0,-1000.0,11:23:28.183926,192.168.0.111
1030,3,-3,-4,82,"-2,-3,-177",1,0,0,0,0,0,61,62,79,80,100,-16.37,20,33.0,-9.0,-1004.0,11:23:28.285777,192.168.0.111
1035,3,-3,-4,82,"-2,-3,-177",1,0,0,0,0,0,61,62,79,80,100,-16.41,20,31.0,-11.0,-998.0,11:23:28.387907,192.168.0.111
1040,3,-3,-4,82,"-2,-3,-177",1,0,0,0,0,0,61,62,79,80,100,-16.37,20,30.0,-21.0,-997.0,11:23:28.490002,192.168.0.111
1045,3,-4,-2,82,"-2,-3,-178",1,0,0,0,0,0,60,63,79,80,100,-16.41,20,32.0,-13.0,-1000.0,11:23:28.592007,192.168.0.111
1050,3,-4,-2,82,"-2,-3,-178",1,0,0,0,0,0,60,63,79,80,100,-16.43,20,37.0,-14.0,-1001.0,11:23:28.693664,192.168.0.111
1055,3,-4,-2,82,"-2,-3,-178",1,0,0,0,0,0,60,63,79,80,100,-16.44,20,40.0,-13.0,-997.0,11:23:28.795490,192.168.0.111
1060,3,-5,-2,82,"-3,-3,-177",1,0,0,0,0,0,60,63,79,80,100,-16.47,21,23.0,-4.0,-1013.0,11:23:28.897745,192.168.0.111
1065,3,-5,-2,82,"-3,-3,-177",1,0,0,0,0,0,60,63,79,70,100,-16.44,21,35.0,-11.0,-1006.0,11:23:28.999832,192.168.0.111
1070,3,-5,-2,82,"-3,-3,-177",1,0,0,0,0,0,60,63,79,70,100,-16.45,21,31.0,-5.0,-1001.0,11:23:29.101499,192.168.0.111
1075,3,-5,-2,82,"-3,-3,-177",1,0,0,0,0,0,60,63,79,70,100,-16.52,21,29.0,-7.0,-996.0,11:23:29.203488,192.168.0.111
1080,3,-3,-4,82,"-2,-3,-176",1,0,0,0,0,0,60,63,78,70,100,-16.41,21,38.0,-11.0,-1006.0,11:23:29.305399,192.168.0.111
1085,3,-3,-4,82,"-2,-3,-176",1,0,0,0,0,0,60,63,79,70,100,-16.47,21,41.0,-17.0,-993.0,11:23:29.407468,192.168.0.111
1090,3,-3,-4,82,"-2,-3,-176",1,0,0,0,0,0,60,63,79,70,100,-16.44,21,37.0,-18.0,-1000.0,11:23:29.509618,192.168.0.111
1096,3,-3,-4,82,"-2,-3,-176",1,0,0,0,0,0,61,63,79,70,100,-16.46,21,32.0,-15.0,-1003.0,11:23:29.611497,192.168.0.111
1101,3,-4,-3,82,"-2,-3,-177",1,0,0,0,0,0,61,63,78,70,100,-16.43,21,21.0,-6.0,-1004.0,11:23:29.713392,192.168.0.111
1106,3,-4,-3,82,"-2,-3,-177",1,0,0,0,0,0,61,63,78,70,100,-16.45,21,40.0,-14.0,-999.0,11:23:29.815821,192.168.0.111
1111,3,-4,-3,82,"-2,-3,-177",1,0,0,0,0,0,61,63,78,70,100,-16.45,22,33.0,-20.0,-994.0,11:23:29.917518,192.168.0.111
1116,3,-4,-3,82,"-2,-3,-177",1,0,0,0,0,0,61,63,78,70,100,-16.47,22,32.0,-12.0,-1011.0,11:23:30.019940,192.168.0.111
1121,3,-4,-3,82,"-3,-3,-177",1,0,0,0,0,0,61,63,79,70,100,-16.47,22,28.0,-5.0,-1009.0,11:23:30.121630,192.168.0.111
1125,3,-4,-3,82,"-3,-3,-177",1,0,0,0,0,0,61,63,79,70,100,-16.46,22,32.0,-18.0,-1004.0,11:23:30.172427,192.168.0.111
1130,3,-4,-3,82,"-3,-3,-177",1,0,0,0,0,0,61,63,79,70,100,-16.44,22,39.0,-13.0,-1004.0,11:23:30.274653,192.168.0.111
1135,3,-4,-3,82,"-2,-3,-176",1,0,0,0,0,0,61,63,79,70,100,-16.51,22,44.0,-14.0,-995.0,11:23:30.376614,192.168.0.111
1140,3,-4,-3,82,"-2,-3,-176",1,0,0,0,0,0,61,63,79,80,100,-16.49,22,31.0,-20.0,-1000.0,11:23:30.478478,192.168.0.111
1146,3,-4,-3,82,"-2,-3,-176",1,0,0,0,0,0,61,64,79,80,100,-16.47,22,32.0,-10.0,-992.0,11:23:30.631261,192.168.0.111
1150,3,-4,-3,82,"-2,-3,-176",2,0,0,0,0,0,61,64,79,80,100,-16.43,22,31.0,-16.0,-994.0,11:23:30.682302,192.168.0.111
1155,3,-3,-3,83,"-2,-3,-176",2,0,0,0,0,0,61,64,79,80,100,-16.49,23,30.0,-4.0,-996.0,11:23:30.784295,192.168.0.111
1160,3,-3,-3,83,"-2,-3,-176",1,0,0,0,0,0,61,64,79,80,100,-16.51,23,39.0,-13.0,-998.0,11:23:30.886687,192.168.0.111
1165,3,-3,-3,83,"-2,-3,-176",2,0,0,0,0,0,61,64,79,80,100,-16.46,23,34.0,-1.0,-999.0,11:23:30.988256,192.168.0.111
1170,3,-3,-3,83,"-2,-3,-176",2,0,0,0,0,0,61,64,79,80,100,-16.39,23,45.0,-13.0,-998.0,11:23:31.090587,192.168.0.111
1175,3,-4,-3,83,"-3,-3,-177",2,0,0,0,0,0,61,64,80,80,100,-16.42,23,34.0,0.0,-995.0,11:23:31.192563,192.168.0.111
1180,3,-4,-3,83,"-3,-3,-177",2,0,0,0,0,0,61,64,80,80,100,-16.47,23,34.0,0.0,-1020.0,11:23:31.294292,192.168.0.111
1185,3,-4,-3,83,"-3,-3,-177",2,0,0,0,0,0,61,64,79,80,100,-16.47,23,28.0,-7.0,-1008.0,11:23:31.396352,192.168.0.111
1190,3,-4,-3,83,"-3,-3,-177",2,0,0,0,0,0,61,64,80,70,100,-16.52,23,33.0,-4.0,-991.0,11:23:31.498463,192.168.0.111
1195,3,-3,-4,83,"-3,-3,-177",2,0,0,0,0,0,61,63,79,70,100,-16.52,23,28.0,-5.0,-1000.0,11:23:31.600678,192.168.0.111
1200,3,-3,-4,83,"-3,-3,-177",2,0,0,0,0,0,61,63,80,70,100,-16.52,23,43.0,-17.0,-1008.0,11:23:31.702716,192.168.0.111
1205,3,-3,-4,83,"-3,-3,-177",2,0,0,0,0,0,61,63,79,70,100,-16.54,24,29.0,-7.0,-997.0,11:23:31.805084,192.168.0.111
1210,3,-2,-4,82,"-2,-3,-177",2,0,0,0,0,0,61,63,79,70,100,-16.52,24,39.0,-11.0,-998.0,11:23:31.907515,192.168.0.111
1215,3,-2,-4,82,"-2,-3,-177",2,0,0,0,0,0,61,63,79,70,100,-16.46,24,53.0,-8.0,-1001.0,11:23:32.009853,192.168.0.111
1220,3,-2,-4,82,"-2,-3,-177",2,0,0,0,0,0,61,63,79,70,100,-16.44,24,38.0,0.0,-1006.0,11:23:32.112783,192.168.0.111
1225,3,-2,-4,82,"-2,-3,-177",2,0,0,0,0,0,61,63,79,70,100,-16.5,24,32.0,-13.0,-995.0,11:23:32.214677,192.168.0.111
1230,3,-3,-4,82,"-3,-3,-177",2,0,0,0,0,0,61,63,79,80,100,-16.46,24,45.0,-13.0,-997.0,11:23:32.314360,192.168.0.111
1235,3,-3,-4,82,"-3,-3,-177",2,0,0,0,0,0,61,63,80,80,100,-16.48,24,25.0,-6.0,-994.0,11:23:32.416286,192.168.0.111
1240,3,-3,-4,82,"-3,-3,-177",2,0,0,0,0,0,61,63,80,80,100,-16.47,24,42.0,-3.0,-1008.0,11:23:32.518576,192.168.0.111
1245,3,-3,-4,82,"-3,-3,-177",2,0,0,0,0,0,61,64,80,80,100,-16.41,24,32.0,-4.0,-995.0,11:23:32.620246,192.168.0.111
1250,3,-3,-4,83,"-3,-3,-177",2,0,0,0,0,0,61,64,80,80,100,-16.47,24,41.0,-12.0,-998.0,11:23:32.722594,192.168.0.111
1255,3,-3,-4,83,"-3,-3,-177",2,0,0,0,0,0,61,64,80,80,100,-16.48,25,39.0,0.0,-1001.0,11:23:32.824641,192.168.0.111
1260,3,-3,-4,83,"-3,-3,-177",2,0,0,0,0,0,61,64,80,80,100,-16.52,25,40.0,7.0,-1011.0,11:23:32.926579,192.168.0.111
1265,3,-3,-4,83,"-3,-3,-177",2,0,0,0,0,0,61,64,80,80,100,-16.48,25,37.0,-5.0,-1001.0,11:23:33.028604,192.168.0.111
1271,3,-4,-3,83,"-4,-2,-178",2,0,0,0,0,0,61,64,80,80,100,-16.5,25,42.0,-8.0,-1002.0,11:23:33.130471,192.168.0.111
1276,3,-4,-3,83,"-4,-2,-178",1,0,0,0,0,0,61,64,80,80,100,-16.47,25,25.0,-1.0,-998.0,11:23:33.232132,192.168.0.111
1281,3,-4,-3,83,"-4,-2,-178",1,0,0,0,0,0,61,64,79,80,100,-16.47,25,33.0,-13.0,-985.0,11:23:33.334875,192.168.0.111
1286,3,-4,-4,83,"-4,-3,-178",1,0,0,0,0,0,61,64,79,80,100,-16.55,25,35.0,-11.0,-1010.0,11:23:33.436538,192.168.0.111
1291,3,-4,-4,83,"-4,-3,-178",1,0,0,0,0,0,61,64,80,80,100,-16.42,25,26.0,-11.0,-991.0,11:23:33.538668,192.168.0.111
1296,3,-4,-4,83,"-4,-3,-178",1,0,0,0,0,0,61,63,79,80,100,-16.5,25,39.0,-11.0,-997.0,11:23:33.640617,192.168.0.111
1301,3,-4,-4,83,"-4,-3,-178",1,0,0,0,0,0,61,63,79,80,100,-16.48,25,38.0,-5.0,-1009.0,11:23:33.742470,192.168.0.111
1306,3,-2,-4,83,"-2,-2,-178",1,0,0,0,0,0,61,63,79,80,100,-16.43,26,29.0,-8.0,-1002.0,11:23:33.844467,192.168.0.111
1311,3,-2,-4,83,"-2,-2,-178",1,0,0,0,0,0,61,63,79,80,100,-16.45,26,21.0,-4.0,-1003.0,11:23:33.946457,192.168.0.111
1316,3,-2,-4,83,"-2,-2,-178",1,0,0,0,0,0,61,63,79,80,100,-16.43,26,35.0,-1.0,-997.0,11:23:34.051386,192.168.0.111
1320,3,-2,-4,83,"-2,-2,-178",1,0,0,0,0,0,61,63,79,80,100,-16.38,26,30.0,-14.0,-992.0,11:23:34.099426,192.168.0.111
1325,3,-4,-3,83,"-3,-2,-178",1,0,0,0,0,0,61,63,79,80,100,-16.46,26,31.0,-8.0,-1008.0,11:23:34.202341,192.168.0.111
1330,3,-4,-3,83,"-3,-2,-178",1,0,0,0,0,0,61,63,79,80,100,-16.45,26,31.0,-1.0,-1006.0,11:23:34.303456,192.168.0.111
1335,3,-4,-3,83,"-3,-2,-178",1,0,0,0,0,0,61,63,79,70,100,-16.4,26,29.0,-5.0,-1003.0,11:23:34.405645,192.168.0.111
1340,3,-3,-2,83,"-2,-3,180",1,0,0,0,0,0,61,63,79,70,100,-16.38,26,26.0,-3.0,-1004.0,11:23:34.507139,192.168.0.111
1345,3,-3,-2,83,"-2,-3,180",1,0,0,0,0,0,61,63,79,70,100,-16.45,26,24.0,-2.0,-996.0,11:23:34.609507,192.168.0.111
1350,3,-3,-2,83,"-2,-3,180",1,0,0,0,0,0,61,63,78,80,100,-16.47,26,36.0,-11.0,-1002.0,11:23:34.712047,192.168.0.111
1355,3,-3,-2,83,"-2,-3,180",1,0,0,0,0,0,61,63,79,80,100,-16.44,27,27.0,-18.0,-990.0,11:23:34.813318,192.168.0.111
1360,3,-4,-1,83,"-2,-2,180",1,0,0,0,0,0,61,63,79,80,100,-16.52,27,32.0,-11.0,-1006.0,11:23:34.915992,192.168.0.111
1365,3,-4,-1,83,"-2,-2,180",1,0,0,0,0,0,61,63,79,70,100,-16.47,27,32.0,-6.0,-1008.0,11:23:35.017533,192.168.0.111
1370,3,-4,-1,83,"-2,-2,180",1,0,0,0,0,0,61,63,79,80,100,-16.42,27,36.0,-8.0,-992.0,11:23:35.119664,192.168.0.111
1375,3,-4,-1,83,"-2,-2,180",1,0,0,0,0,0,61,63,79,80,100,-16.44,27,32.0,-12.0,-1007.0,11:23:35.221160,192.168.0.111
1380,3,-5,-3,82,"-3,-2,-178",1,0,0,0,0,0,61,63,80,80,100,-16.41,27,28.0,-10.0,-997.0,11:23:35.323484,192.168.0.111
1385,3,-5,-3,82,"-3,-2,-178",1,0,0,0,0,0,61,63,79,80,100,-16.49,27,34.0,-4.0,-997.0,11:23:35.425406,192.168.0.111
1390,3,-5,-3,82,"-3,-2,-178",1,0,0,0,0,0,61,63,80,80,100,-16.49,27,25.0,-17.0,-985.0,11:23:35.527185,192.168.0.111
1395,3,-5,-3,82,"-3,-2,-178",1,0,0,0,0,0,62,63,80,80,100,-16.43,27,30.0,-7.0,-1004.0,11:23:35.629775,192.168.0.111
1400,3,-5,-2,83,"-2,-2,-178",1,0,0,0,0,0,62,63,80,80,100,-16.45,27,26.0,-8.0,-999.0,11:23:35.731092,192.168.0.111
1405,3,-5,-2,83,"-2,-2,-178",1,0,0,0,0,0,62,63,80,80,100,-16.48,28,25.0,-16.0,-992.0,11:23:35.833404,192.168.0.111
1410,3,-5,-2,83,"-2,-2,-178",1,0,0,0,0,0,62,63,80,80,100,-16.49,28,33.0,-14.0,-997.0,11:23:35.935212,192.168.0.111
1415,3,-5,-2,83,"-2,-2,-177",1,0,0,0,0,0,62,63,80,80,100,-16.45,28,30.0,-13.0,-993.0,11:23:36.037247,192.168.0.111
1420,3,-5,-2,83,"-2,-2,-177",1,0,0,0,0,0,62,63,80,80,100,-16.43,28,28.0,-17.0,-1002.0,11:23:36.139397,192.168.0.111
1425,3,-5,-2,83,"-2,-2,-177",1,0,0,0,0,0,62,63,80,80,100,-16.41,28,27.0,-14.0,-999.0,11:23:36.241926,192.168.0.111
1431,3,-5,-2,83,"-2,-2,-177",1,0,0,0,0,0,62,63,80,80,100,-16.45,28,26.0,-18.0,-996.0,11:23:36.343851,192.168.0.111
1436,3,-5,-1,84,"-2,-2,-178",1,1,0,0,0,0,62,63,80,80,100,-16.43,28,29.0,-7.0,-1000.0,11:23:36.446062,192.168.0.111
1441,3,-5,-1,84,"-2,-2,-178",1,1,0,0,0,0,62,63,80,80,100,-16.42,28,31.0,-12.0,-1001.0,11:23:36.547546,192.168.0.111
1446,3,-5,-1,84,"-2,-2,-178",1,1,0,0,0,0,61,64,79,80,100,-16.44,28,30.0,-15.0,-1005.0,11:23:36.649278,192.168.0.111
1451,3,-5,-1,84,"-2,-2,-178",1,1,0,0,0,0,61,64,80,80,100,-16.43,28,35.0,-13.0,-1001.0,11:23:36.752091,192.168.0.111
1456,3,-5,-1,83,"-2,-2,-178",1,1,0,0,0,0,61,64,79,80,100,-16.43,29,27.0,-15.0,-1000.0,11:23:36.853509,192.168.0.111
1461,3,-5,-1,83,"-2,-2,-178",1,0,0,0,0,0,61,64,79,80,100,-16.48,29,30.0,-19.0,-1008.0,11:23:36.955353,192.168.0.111
1466,3,-5,-1,83,"-2,-2,-178",1,1,0,0,0,0,61,64,80,80,100,-16.43,29,32.0,-16.0,-1009.0,11:23:37.057418,192.168.0.111
1471,3,-5,-1,83,"-2,-2,-178",1,1,0,0,0,0,61,64,79,80,100,-16.41,29,34.0,-14.0,-998.0,11:23:37.159357,192.168.0.111
1475,3,-5,-1,83,"-2,-2,-177",1,1,0,0,0,0,61,64,79,80,100,-16.5,29,31.0,-16.0,-1000.0,11:23:37.213919,192.168.0.111
1480,3,-5,-1,83,"-2,-2,-177",1,1,0,0,0,0,61,64,79,70,100,-16.43,29,35.0,-17.0,-995.0,11:23:37.312270,192.168.0.111
1485,3,-5,-1,83,"-2,-2,-177",1,1,0,0,0,0,61,64,79,70,100,-16.45,29,45.0,-16.0,-997.0,11:23:37.414527,192.168.0.111
1490,3,-5,-1,83,"-2,-2,-177",1,1,0,0,0,0,61,64,78,70,100,-16.5,29,34.0,-16.0,-1001.0,11:23:37.516722,192.168.0.111
1495,3,-5,-1,82,"-2,-2,-177",1,1,0,0,0,0,61,64,78,70,100,-16.48,29,34.0,-15.0,-995.0,11:23:37.618459,192.168.0.111
1500,3,-5,-1,82,"-2,-2,-177",1,1,0,0,0,0,61,64,79,70,100,-16.45,29,37.0,-20.0,-995.0,11:23:37.720290,192.168.0.111
1505,3,-5,-1,82,"-2,-2,-177",1,0,0,0,0,0,61,64,78,70,100,-16.48,30,42.0,-16.0,-997.0,11:23:37.822306,192.168.0.111
1510,3,-5,-1,82,"-3,-2,-177",2,0,0,0,0,0,61,64,78,70,100,-16.44,30,30.0,-16.0,-1000.0,11:23:37.924151,192.168.0.111
1515,3,-5,-1,82,"-3,-2,-177",2,1,0,0,0,0,61,64,78,70,100,-16.44,30,32.0,-15.0,-1004.0,11:23:38.026604,192.168.0.111
1520,3,-5,-1,82,"-3,-2,-177",2,1,0,0,0,0,61,64,79,70,100,-16.45,30,30.0,-17.0,-999.0,11:23:38.128325,192.168.0.111
1525,3,-5,-1,82,"-3,-2,-177",1,1,0,0,0,0,61,64,79,70,100,-16.47,30,34.0,-11.0,-1001.0,11:23:38.230382,192.168.0.111
1530,3,-5,-2,82,"-3,-2,-177",1,1,0,0,0,0,61,64,79,70,100,-16.4,30,33.0,-19.0,-1002.0,11:23:38.336031,192.168.0.111
1535,3,-5,-2,82,"-3,-2,-177",2,1,0,0,0,0,61,64,79,70,100,-16.45,30,34.0,-22.0,-1000.0,11:23:38.434275,192.168.0.111
1540,3,-5,-2,82,"-3,-2,-177",1,1,0,0,0,0,61,64,79,70,100,-16.47,30,19.0,-13.0,-990.0,11:23:38.536467,192.168.0.111
1545,3,-5,-2,82,"-3,-2,-177",1,1,0,0,0,0,62,64,80,70,100,-16.44,30,43.0,-23.0,-1001.0,11:23:38.638345,192.168.0.111
1550,3,-5,-2,82,"-3,-2,-176",1,1,0,0,0,0,62,64,79,70,100,-16.44,30,30.0,-18.0,-1002.0,11:23:38.740305,192.168.0.111
1555,3,-5,-2,82,"-3,-2,-176",1,1,0,0,0,0,62,64,79,80,100,-16.42,31,35.0,-14.0,-1009.0,11:23:38.843221,192.168.0.111
1560,3,-5,-2,82,"-3,-2,-176",1,1,0,0,0,0,62,64,79,80,100,-16.47,31,31.0,-14.0,-1007.0,11:23:38.944273,192.168.0.111
1565,3,-5,-1,83,"-3,-2,-177",1,1,0,0,0,0,62,64,80,80,100,-16.44,31,29.0,-10.0,-1002.0,11:23:39.046434,192.168.0.111
1570,3,-5,-1,83,"-3,-2,-177",1,1,0,0,0,0,62,64,80,80,100,-16.43,31,32.0,-21.0,-982.0,11:23:39.148315,192.168.0.111
1575,3,-5,-1,83,"-3,-2,-177",1,1,0,0,0,0,62,64,80,80,100,-16.38,31,33.0,-21.0,-990.0,11:23:39.250554,192.168.0.111
1580,3,-5,-1,83,"-3,-2,-177",1,0,0,0,0,0,62,64,80,80,100,-16.41,31,35.0,-17.0,-989.0,11:23:39.352376,192.168.0.111
1585,3,-5,-1,83,"-2,-2,-177",1,1,0,0,0,0,62,64,79,80,100,-16.49,31,36.0,-15.0,-1003.0,11:23:39.454624,192.168.0.111
1590,3,-5,-1,83,"-2,-2,-177",1,1,0,0,0,0,62,64,79,80,100,-16.45,31,22.0,-27.0,-996.0,11:23:39.556541,192.168.0.111
1595,3,-5,-1,83,"-2,-2,-177",1,1,0,0,0,0,61,65,80,80,100,-16.44,31,36.0,-28.0,-997.0,11:23:39.658481,192.168.0.111
1600,3,-5,-1,83,"-2,-2,-177",1,1,0,0,0,0,61,65,79,80,100,-16.43,31,34.0,-10.0,-1006.0,11:23:39.760149,192.168.0.111
1605,3,-5,-1,83,"-2,-2,-177",1,1,0,0,0,0,61,65,80,80,100,-16.36,32,32.0,-16.0,-994.0,11:23:39.862363,192.168.0.111
1610,3,-5,-1,83,"-2,-2,-177",1,0,0,0,0,0,61,65,79,80,100,-16.38,32,40.0,-24.0,-989.0,11:23:39.964508,192.168.0.111
1615,3,-5,-1,83,"-2,-2,-177",1,0,0,0,0,0,61,65,79,70,100,-16.33,32,34.0,-18.0,-997.0,11:23:40.066555,192.168.0.111
1620,3,-5,-1,83,"-2,-2,-177",1,1,0,0,0,0,61,65,79,70,100,-16.29,32,25.0,-20.0,-1007.0,11:23:40.168295,192.168.0.111
1626,3,-5,-1,82,"-2,-2,-177",1,1,0,0,0,0,61,65,79,70,100,-16.3,32,27.0,-14.0,-998.0,11:23:40.270178,192.168.0.111
1631,3,-5,-1,82,"-2,-2,-177",1,0,0,0,0,0,61,65,79,70,100,-16.39,32,24.0,-15.0,-1016.0,11:23:40.372355,192.168.0.111
1636,3,-5,-1,82,"-2,-2,-177",1,0,0,0,0,0,61,65,79,70,100,-16.44,32,24.0,-28.0,-1001.0,11:23:40.475286,192.168.0.111
1641,3,-5,-1,82,"-1,-2,-177",1,1,0,0,0,0,61,65,79,70,100,-16.39,32,30.0,-24.0,-1004.0,11:23:40.577207,192.168.0.111
1646,3,-5,-1,82,"-1,-2,-177",1,1,0,0,0,0,61,65,80,70,100,-16.48,32,22.0,-30.0,-1001.0,11:23:40.678274,192.168.0.111
1651,3,-5,-1,82,"-1,-2,-177",1,1,0,0,0,0,61,65,79,70,100,-16.48,32,24.0,-35.0,-1003.0,11:23:40.780092,192.168.0.111
1656,3,-5,-1,82,"-1,-2,-177",1,1,0,0,0,0,61,65,79,70,100,-16.55,33,16.0,-30.0,-997.0,11:23:40.882309,192.168.0.111
1660,3,-6,-1,82,"-2,-2,-177",0,1,0,0,0,0,61,65,80,80,100,-16.48,33,11.0,-25.0,-991.0,11:23:40.933157,192.168.0.111
1665,3,-6,-1,82,"-2,-2,-177",0,2,0,0,0,0,61,65,80,80,100,-16.45,33,7.0,-33.0,-981.0,11:23:41.035009,192.168.0.111
1670,3,-6,-1,82,"-2,-2,-177",0,1,0,0,0,0,61,65,80,80,100,-16.42,33,14.0,-35.0,-994.0,11:23:41.137546,192.168.0.111
1675,3,-6,-1,82,"-2,-2,-177",0,1,0,0,0,0,61,65,80,80,100,-16.33,33,14.0,-45.0,-999.0,11:23:41.239423,192.168.0.111
1680,3,-6,-1,82,"-2,-2,-176",0,2,0,0,0,0,61,65,79,80,100,-16.47,33,14.0,-34.0,-992.0,11:23:41.341446,192.168.0.111
1685,3,-6,-1,82,"-2,-2,-176",0,2,0,0,0,0,61,65,79,70,100,-16.46,33,21.0,-30.0,-986.0,11:23:41.442935,192.168.0.111
1690,3,-6,-1,82,"-2,-2,-176",0,2,0,0,0,0,61,65,78,70,100,-16.48,33,11.0,-26.0,-1018.0,11:23:41.545359,192.168.0.111
1695,3,-6,-1,82,"-2,-2,-176",0,2,0,0,0,0,62,65,78,70,100,-16.49,33,2.0,-25.0,-1017.0,11:23:41.647083,192.168.0.111
1700,3,-7,-3,82,"-1,-2,-173",0,2,0,0,0,0,62,65,78,70,100,-16.48,33,-5.0,-35.0,-1012.0,11:23:41.749385,192.168.0.111
1705,3,-7,-3,82,"-1,-2,-173",0,2,0,0,0,0,62,65,79,70,100,-16.37,34,5.0,-45.0,-1001.0,11:23:41.851405,192.168.0.111
1710,3,-7,-3,82,"-1,-2,-173",0,2,0,0,0,0,62,65,79,70,100,-16.57,34,4.0,-27.0,-971.0,11:23:41.954028,192.168.0.111
1715,3,-7,0,81,"-1,-3,-175",0,2,0,0,0,0,62,65,79,70,100,-16.49,34,-8.0,-49.0,-1008.0,11:23:42.055299,192.168.0.111
1720,3,-7,0,81,"-1,-3,-175",0,1,0,0,0,0,62,65,79,70,100,-16.47,34,-7.0,-37.0,-1023.0,11:23:42.157454,192.168.0.111
1725,3,-7,0,81,"-1,-3,-175",0,2,0,0,0,0,62,65,79,70,100,-16.37,34,-20.0,-35.0,-979.0,11:23:42.261805,192.168.0.111
1730,3,-7,0,81,"-1,-3,-175",0,2,0,0,0,0,62,65,80,70,100,-16.41,34,8.0,-47.0,-1007.0,11:23:42.362886,192.168.0.111
1735,3,-7,2,82,"0,-3,-177",0,3,0,0,0,0,62,65,80,80,100,-16.45,34,7.0,-36.0,-991.0,11:23:42.463653,192.168.0.111
1740,3,-7,2,82,"0,-3,-177",0,3,0,0,0,0,62,65,80,80,100,-16.47,34,-14.0,-41.0,-998.0,11:23:42.566320,192.168.0.111
1745,3,-7,2,82,"0,-3,-177",0,2,0,0,0,0,62,65,79,80,100,-16.44,34,-25.0,-40.0,-1007.0,11:23:42.667303,192.168.0.111
1750,3,-7,2,82,"0,-3,-177",-1,1,0,0,0,0,62,65,79,80,100,-16.29,34,-15.0,-37.0,-1010.0,11:23:42.769668,192.168.0.111
1755,3,-6,2,83,"2,-2,-175",-1,2,0,0,0,0,62,65,79,80,100,-16.35,35,-4.0,-32.0,-940.0,11:23:42.874384,192.168.0.111
1760,3,-6,2,83,"2,-2,-175",-1,2,0,0,0,0,62,65,79,80,100,-16.35,35,2.0,-31.0,-984.0,11:23:42.973262,192.168.0.111
1765,3,-6,2,83,"2,-2,-175",-1,1,0,0,0,0,62,65,78,70,100,-16.46,35,-3.0,-33.0,-1009.0,11:23:43.075155,192.168.0.111
1770,3,-6,2,83,"2,-2,-175",0,1,0,0,0,0,62,65,78,70,100,-16.5,35,0.0,-42.0,-995.0,11:23:43.177262,192.168.0.111
1775,3,-9,-3,82,"1,-2,-173",0,1,0,0,0,0,62,65,78,70,100,-16.4,35,13.0,-29.0,-1000.0,11:23:43.279254,192.168.0.111
1781,3,-9,-3,82,"1,-2,-173",0,1,0,0,0,0,62,65,79,70,100,-16.38,35,12.0,-27.0,-1006.0,11:23:43.381326,192.168.0.111
1786,3,-9,-3,82,"1,-2,-173",0,1,0,0,0,0,62,65,78,70,100,-16.48,35,4.0,-9.0,-1012.0,11:23:43.483453,192.168.0.111
1791,3,-9,-3,82,"1,-2,-173",0,1,0,0,0,0,62,65,78,70,100,-16.34,35,28.0,-15.0,-1030.0,11:23:43.585300,192.168.0.111
1796,3,-9,3,81,"0,-3,-178",0,0,0,0,0,0,62,64,78,70,100,-16.32,35,10.0,-4.0,-969.0,11:23:43.687468,192.168.0.111
1801,3,-9,3,81,"0,-3,-178",1,0,0,0,0,0,62,64,78,70,100,-16.27,35,26.0,-5.0,-1017.0,11:23:43.789658,192.168.0.111
1806,3,-9,3,81,"0,-3,-178",0,0,0,0,0,0,62,64,78,70,100,-16.28,36,31.0,-17.0,-1008.0,11:23:43.891241,192.168.0.111
1811,3,-7,0,81,"0,-2,-178",0,0,0,0,0,0,62,64,79,70,100,-16.26,36,32.0,-21.0,-1014.0,11:23:43.993320,192.168.0.111
1816,3,-7,0,81,"0,-2,-178",1,0,0,0,0,0,62,64,80,70,100,-16.27,36,47.0,0.0,-998.0,11:23:44.095249,192.168.0.111
1821,3,-7,0,81,"0,-2,-178",2,0,0,0,0,0,62,64,80,70,100,-16.33,36,36.0,11.0,-988.0,11:23:44.197085,192.168.0.111
1825,3,-7,0,81,"0,-2,-178",2,0,0,0,0,0,62,64,80,70,100,-16.14,36,23.0,18.0,-1001.0,11:23:44.248100,192.168.0.111
1830,3,-6,-1,82,"0,-2,-179",2,0,0,0,0,0,62,64,80,70,100,-16.15,36,23.0,20.0,-993.0,11:23:44.352893,192.168.0.111
1835,3,-6,-1,82,"0,-2,-179",2,-1,0,0,-1,0,62,64,81,70,100,-16.09,36,38.0,8.0,-1010.0,11:23:44.452438,192.168.0.111
1840,3,-6,-1,82,"0,-2,-179",1,-1,0,0,0,0,62,64,81,70,100,-16.16,36,39.0,-4.0,-1021.0,11:23:44.554217,192.168.0.111
1845,3,-6,-1,82,"0,-2,-179",1,-2,0,0,0,0,63,64,82,70,100,-16.33,36,31.0,-3.0,-980.0,11:23:44.657096,192.168.0.111
1850,3,-6,-3,83,"-3,-2,178",1,-1,0,0,0,0,63,64,82,80,100,-16.27,36,33.0,9.0,-1008.0,11:23:44.760219,192.168.0.111
1855,3,-6,-3,83,"-3,-2,178",2,0,0,0,0,0,63,64,83,80,100,-16.3,37,40.0,4.0,-979.0,11:23:44.860320,192.168.0.111
1860,3,-6,-3,83,"-3,-2,178",2,0,0,0,0,0,63,64,83,80,100,-16.24,37,25.0,6.0,-985.0,11:23:44.962261,192.168.0.111
1865,3,-6,-3,83,"-3,-2,178",2,0,0,0,0,0,63,64,84,80,100,-16.3,37,33.0,0.0,-996.0,11:23:45.064451,192.168.0.111
1870,3,-3,-4,85,"-1,-2,176",1,0,0,0,0,0,63,64,84,80,100,-16.36,37,22.0,13.0,-983.0,11:23:45.165972,192.168.0.111
1875,3,-3,-4,85,"-1,-2,176",1,0,0,0,0,0,63,64,85,80,100,-16.37,37,35.0,2.0,-1007.0,11:23:45.269993,192.168.0.111
1880,3,-3,-4,85,"-1,-2,176",1,0,0,0,0,0,63,64,84,80,100,-16.38,37,32.0,-6.0,-988.0,11:23:45.370285,192.168.0.111
1885,3,-2,-5,87,"-2,-2,178",1,0,0,0,0,0,63,64,84,80,100,-16.39,37,47.0,-6.0,-996.0,11:23:45.472358,192.168.0.111
1890,3,-2,-5,87,"-2,-2,178",1,0,0,0,0,0,63,64,84,80,100,-16.38,37,37.0,-8.0,-986.0,11:23:45.574300,192.168.0.111
1895,3,-2,-5,87,"-2,-2,178",1,0,0,0,0,0,62,65,84,80,100,-16.38,37,34.0,5.0,-1003.0,11:23:45.676645,192.168.0.111
1900,3,-2,-5,87,"-2,-2,178",1,0,0,0,0,0,62,65,83,80,100,-16.37,37,32.0,1.0,-991.0,11:23:45.778360,192.168.0.111
1905,3,-3,-6,87,"-2,-2,179",1,0,0,0,0,0,62,65,82,80,100,-16.33,38,22.0,7.0,-996.0,11:23:45.880764,192.168.0.111
1910,3,-3,-6,87,"-2,-2,179",1,0,0,0,0,0,62,65,82,80,100,-16.4,38,33.0,-4.0,-987.0,11:23:45.981850,192.168.0.111
1915,3,-3,-6,87,"-2,-2,179",1,0,0,0,0,0,62,65,82,80,100,-16.44,38,26.0,0.0,-1022.0,11:23:46.084340,192.168.0.111
1920,3,-3,-6,87,"-2,-2,179",1,0,0,0,0,0,62,65,82,80,100,-16.44,38,26.0,4.0,-997.0,11:23:46.186137,192.168.0.111
1925,3,-3,-5,86,"-1,-2,179",1,0,0,0,0,0,62,65,81,80,100,-16.41,38,36.0,-2.0,-1002.0,11:23:46.288315,192.168.0.111
1930,3,-3,-5,86,"-1,-2,179",1,0,0,0,0,0,62,65,81,80,100,-16.41,38,36.0,-1.0,-1001.0,11:23:46.390268,192.168.0.111
1936,3,-3,-5,86,"-1,-2,179",1,0,0,0,0,0,62,65,82,80,100,-16.4,38,38.0,4.0,-997.0,11:23:46.493005,192.168.0.111
1941,3,-3,-5,86,"-1,-2,179",1,0,0,0,0,0,62,65,82,80,100,-16.39,38,34.0,-5.0,-987.0,11:23:46.594066,192.168.0.111
1946,3,-3,-3,85,"-1,-2,179",1,0,0,0,0,0,62,65,82,80,100,-16.38,38,31.0,8.0,-991.0,11:23:46.696844,192.168.0.111
1951,3,-3,-3,85,"-1,-2,179",1,0,0,0,0,0,62,65,82,80,100,-16.41,38,38.0,5.0,-1001.0,11:23:46.798182,192.168.0.111
1956,3,-3,-3,85,"-1,-2,179",1,0,0,0,0,0,62,65,83,80,100,-16.35,39,31.0,0.0,-995.0,11:23:46.903704,192.168.0.111
1961,3,-4,-4,85,"-2,-2,179",1,0,0,0,0,0,62,65,82,80,100,-16.38,39,28.0,2.0,-987.0,11:23:47.001859,192.168.0.111
1966,3,-4,-4,85,"-2,-2,179",1,0,0,0,0,0,62,65,83,80,100,-16.24,39,27.0,4.0,-999.0,11:23:47.103999,192.168.0.111
1971,3,-4,-4,85,"-2,-2,179",1,0,0,0,0,0,62,65,82,80,100,-16.34,39,40.0,8.0,-1013.0,11:23:47.206429,192.168.0.111
1976,3,-4,-4,85,"-2,-2,179",1,0,0,0,0,0,62,65,83,80,100,-16.37,39,30.0,8.0,-998.0,11:23:47.308442,192.168.0.111
1981,3,-4,-4,85,"-2,-2,179",1,0,0,0,0,0,62,65,82,80,100,-16.37,39,34.0,2.0,-997.0,11:23:47.414197,192.168.0.111
1986,3,-4,-4,85,"-2,-2,179",1,0,0,0,0,0,62,65,82,80,100,-16.33,39,36.0,1.0,-992.0,11:23:47.512522,192.168.0.111
1990,3,-4,-4,85,"-2,-2,179",1,0,0,0,0,0,62,65,82,80,100,-16.35,39,33.0,1.0,-999.0,11:23:47.563077,192.168.0.111
1995,3,-4,-4,85,"-2,-2,179",1,0,0,0,0,0,62,65,82,80,100,-16.44,39,34.0,1.0,-1007.0,11:23:47.665280,192.168.0.111
2000,3,-4,-4,85,"-2,-2,179",1,0,0,0,0,0,62,65,82,80,100,-16.37,39,34.0,10.0,-1002.0,11:23:47.767104,192.168.0.111
2005,3,-4,-4,85,"-2,-2,179",1,0,0,0,0,0,62,65,82,80,100,-16.36,40,28.0,10.0,-986.0,11:23:47.869336,192.168.0.111
2010,3,-4,-4,85,"-2,-2,179",1,0,0,0,0,0,62,65,83,80,100,-16.36,40,24.0,7.0,-998.0,11:23:47.971177,192.168.0.111
2015,3,-4,-4,85,"-2,-2,179",1,0,0,0,0,0,62,65,83,80,100,-16.34,40,24.0,16.0,-1017.0,11:23:48.073305,192.168.0.111
2020,3,-4,-4,85,"-3,-2,180",1,0,0,0,0,0,62,65,83,80,100,-16.35,40,25.0,4.0,-990.0,11:23:48.177762,192.168.0.111
2025,3,-4,-4,85,"-3,-2,180",1,0,0,0,0,0,62,65,82,80,100,-16.41,40,27.0,2.0,-996.0,11:23:48.277355,192.168.0.111
2030,3,-4,-4,85,"-3,-2,180",1,0,0,0,0,0,62,65,82,80,100,-16.4,40,24.0,14.0,-990.0,11:23:48.379393,192.168.0.111
2035,3,-2,-4,85,"-2,-2,179",1,0,0,0,0,0,62,65,82,80,100,-16.35,40,19.0,8.0,-988.0,11:23:48.481266,192.168.0.111
2040,3,-2,-4,85,"-2,-2,179",1,0,0,0,0,0,62,65,82,80,100,-16.34,40,18.0,15.0,-1001.0,11:23:48.583404,192.168.0.111
2045,3,-2,-4,85,"-2,-2,179",1,0,0,0,0,0,62,65,82,80,100,-16.33,40,22.0,0.0,-986.0,11:23:48.684883,192.168.0.111
2050,3,-2,-4,85,"-2,-2,179",1,0,0,0,0,0,62,65,82,80,100,-16.41,40,19.0,10.0,-999.0,11:23:48.786831,192.168.0.111
2055,3,-4,-3,85,"-2,-2,179",0,0,0,0,0,0,62,65,82,80,100,-16.43,41,19.0,-2.0,-1010.0,11:23:48.888716,192.168.0.111
2060,3,-4,-3,85,"-2,-2,179",0,0,0,0,0,0,62,65,82,80,100,-16.42,41,26.0,5.0,-1008.0,11:23:48.991240,192.168.0.111
2065,3,-4,-3,85,"-2,-2,179",0,0,0,0,0,0,62,65,81,80,100,-16.37,41,31.0,-1.0,-995.0,11:23:49.093253,192.168.0.111
2070,3,-4,-3,85,"-2,-2,179",1,0,0,0,0,0,62,65,81,80,100,-16.35,41,26.0,-1.0,-988.0,11:23:49.195371,192.168.0.111
2075,3,-2,-3,85,"0,-2,178",0,0,0,0,0,0,62,65,82,80,100,-16.38,41,23.0,7.0,-990.0,11:23:49.297291,192.168.0.111
2080,3,-2,-3,85,"0,-2,178",0,0,0,0,0,0,62,65,81,80,100,-16.4,41,21.0,10.0,-1009.0,11:23:49.399312,192.168.0.111
2085,3,-2,-3,85,"0,-2,178",0,0,0,0,0,0,62,65,81,80,100,-16.37,41,21.0,14.0,-1006.0,11:23:49.501219,192.168.0.111
2090,3,-2,-3,85,"0,-2,178",0,0,0,0,0,0,62,65,81,80,100,-16.36,41,20.0,10.0,-996.0,11:23:49.603581,192.168.0.111
2095,3,-4,-2,84,"0,-2,179",1,0,0,0,0,0,63,65,82,80,100,-16.35,41,26.0,6.0,-1009.0,11:23:49.705533,192.168.0.111
2100,3,-4,-2,84,"0,-2,179",1,0,0,0,0,0,63,65,82,80,100,-16.34,41,29.0,9.0,-1000.0,11:23:49.807095,192.168.0.111
2105,3,-4,-2,84,"0,-2,179",1,0,0,0,0,0,63,65,82,80,100,-16.41,42,20.0,7.0,-998.0,11:23:49.909020,192.168.0.111
2110,3,-4,-2,84,"0,-2,179",1,0,0,0,0,0,63,65,81,80,100,-16.39,42,11.0,16.0,-1001.0,11:23:50.011180,192.168.0.111
2115,3,-3,-2,84,"0,-2,178",1,0,0,0,0,0,63,65,81,80,100,-16.4,42,16.0,15.0,-1012.0,11:23:50.113217,192.168.0.111
2120,3,-3,-2,84,"0,-2,178",1,0,0,0,0,0,63,65,81,80,100,-16.39,42,19.0,17.0,-998.0,11:23:50.215281,192.168.0.111
2125,3,-3,-2,84,"0,-2,178",0,0,0,0,0,0,63,65,81,80,100,-16.37,42,35.0,16.0,-1000.0,11:23:50.317002,192.168.0.111
2130,3,-3,-1,84,"-1,-2,177",0,0,0,0,0,0,63,65,81,80,100,-16.34,42,32.0,7.0,-995.0,11:23:50.419121,192.168.0.111
2135,3,-3,-1,84,"-1,-2,177",0,0,0,0,0,0,63,65,81,80,100,-16.33,42,13.0,4.0,-994.0,11:23:50.521275,192.168.0.111
2140,3,-3,-1,84,"-1,-2,177",0,0,0,0,0,0,63,65,81,80,100,-16.28,42,24.0,12.0,-995.0,11:23:50.571951,192.168.0.111
2146,3,-3,-1,84,"-1,-2,177",1,0,0,0,0,0,63,65,81,80,100,-16.36,42,17.0,22.0,-981.0,11:23:50.724677,192.168.0.111
2151,3,-4,-1,83,"0,-2,177",1,0,0,0,0,0,63,65,81,80,100,-16.38,43,25.0,18.0,-1002.0,11:23:50.827095,192.168.0.111
2156,3,-4,-1,83,"0,-2,177",1,0,0,0,0,0,63,65,81,80,100,-16.38,43,24.0,11.0,-1005.0,11:23:50.929094,192.168.0.111
2161,3,-4,-1,83,"0,-2,177",0,0,0,0,0,0,63,65,81,80,100,-16.36,43,31.0,22.0,-1026.0,11:23:51.031367,192.168.0.111
2165,3,-4,-1,83,"0,-2,177",1,0,0,0,0,0,63,65,81,80,100,-16.33,43,12.0,28.0,-1008.0,11:23:51.082123,192.168.0.111
2170,3,-4,-3,83,"-1,-2,178",0,-1,0,0,0,0,63,65,81,80,100,-16.38,43,15.0,26.0,-994.0,11:23:51.185066,192.168.0.111
2175,3,-4,-3,83,"-1,-2,178",0,-1,0,0,0,0,63,65,81,80,100,-16.32,43,19.0,23.0,-989.0,11:23:51.289274,192.168.0.111
2180,3,-4,-3,83,"-1,-2,178",0,-1,0,0,0,0,63,65,82,80,100,-16.3,43,20.0,25.0,-992.0,11:23:51.388164,192.168.0.111
2185,3,-4,-3,83,"-1,-2,178",0,-1,0,0,0,0,63,65,81,80,100,-16.28,43,29.0,20.0,-1006.0,11:23:51.489979,192.168.0.111
2190,3,-4,-3,83,"0,-2,178",0,-1,0,0,0,0,63,65,82,80,100,-16.31,43,29.0,24.0,-1006.0,11:23:51.592207,192.168.0.111
2195,3,-4,-3,83,"0,-2,178",1,-1,0,0,0,0,62,65,81,80,100,-16.26,43,40.0,20.0,-997.0,11:23:51.694207,192.168.0.111
2200,3,-4,-3,83,"0,-2,178",1,-1,0,0,0,0,62,65,82,80,100,-16.28,44,28.0,27.0,-1010.0,11:23:51.796312,192.168.0.111
2205,3,-4,-3,83,"0,-2,178",1,-1,0,0,0,0,62,65,82,80,100,-16.32,44,36.0,16.0,-992.0,11:23:51.898258,192.168.0.111
2210,3,-4,-3,84,"0,-2,177",1,-1,0,0,0,0,62,65,81,80,100,-16.38,44,29.0,22.0,-996.0,11:23:52.000111,192.168.0.111
2215,3,-4,-3,84,"0,-2,177",2,-1,0,0,0,0,62,65,82,80,100,-16.37,44,28.0,19.0,-1001.0,11:23:52.102192,192.168.0.111
2220,3,-4,-3,84,"0,-2,177",2,-1,0,0,0,0,62,65,81,80,100,-16.41,44,29.0,15.0,-995.0,11:23:52.207902,192.168.0.111
2225,3,-3,-3,84,"-1,-2,177",1,0,0,0,0,0,62,65,82,80,100,-16.42,44,34.0,12.0,-988.0,11:23:52.306049,192.168.0.111
2230,3,-3,-3,84,"-1,-2,177",1,0,0,0,0,0,62,65,82,80,100,-16.32,44,30.0,17.0,-994.0,11:23:52.416496,192.168.0.111
2235,3,-3,-3,84,"-1,-2,177",1,0,0,0,0,0,62,65,82,80,100,-16.36,44,27.0,10.0,-994.0,11:23:52.511563,192.168.0.111
2240,3,-3,-3,84,"-1,-2,177",1,0,0,0,0,0,62,65,81,80,100,-16.38,44,28.0,16.0,-999.0,11:23:52.612513,192.168.0.111
2245,3,-3,-3,84,"-2,-2,178",1,0,0,0,0,0,63,66,81,80,100,-16.39,44,21.0,14.0,-998.0,11:23:52.714320,192.168.0.111
2250,3,-3,-3,84,"-2,-2,178",1,0,0,0,0,0,63,66,81,80,100,-16.4,45,24.0,5.0,-1003.0,11:23:52.816267,192.168.0.111
2255,3,-3,-3,84,"-2,-2,178",1,0,0,0,0,0,63,66,81,80,100,-16.34,45,18.0,4.0,-986.0,11:23:52.917915,192.168.0.111
2260,3,-3,-3,84,"-2,-2,178",1,0,0,0,0,0,63,66,82,80,100,-16.42,45,18.0,9.0,-1009.0,11:23:53.020945,192.168.0.111
2265,3,-3,-3,84,"-2,-2,178",1,0,0,0,0,0,63,66,82,80,100,-16.44,45,22.0,2.0,-1001.0,11:23:53.121924,192.168.0.111
2270,3,-3,-3,84,"-2,-2,178",0,0,0,0,0,0,63,66,81,80,100,-16.37,45,21.0,-5.0,-996.0,11:23:53.224042,192.168.0.111
2275,3,-3,-3,84,"-2,-2,178",0,0,0,0,0,0,63,66,82,80,100,-16.34,45,18.0,1.0,-991.0,11:23:53.326201,192.168.0.111
2280,3,-3,-3,84,"-2,-2,178",0,0,0,0,0,0,63,66,82,80,100,-16.37,45,23.0,5.0,-998.0,11:23:53.428261,192.168.0.111
2285,3,-3,-1,84,"-1,-2,178",1,0,0,0,0,0,63,66,81,80,100,-16.37,45,28.0,0.0,-997.0,11:23:53.529884,192.168.0.111
2291,3,-3,-1,84,"-1,-2,178",1,0,0,0,0,0,63,66,81,80,100,-16.39,45,19.0,0.0,-991.0,11:23:53.631884,192.168.0.111
2296,3,-3,-1,84,"-1,-2,178",1,0,0,0,0,0,63,65,82,80,100,-16.36,45,28.0,-6.0,-998.0,11:23:53.734107,192.168.0.111
2300,3,-3,-1,84,"0,-2,180",1,0,0,0,0,0,63,65,81,80,100,-16.35,46,23.0,3.0,-1011.0,11:23:53.836311,192.168.0.111
2305,3,-3,-1,84,"0,-2,180",1,0,0,0,0,0,63,65,81,80,100,-16.4,46,33.0,-6.0,-1009.0,11:23:53.938159,192.168.0.111
2311,3,-3,-1,84,"0,-2,180",1,0,0,0,0,0,63,65,81,80,100,-16.39,46,33.0,-1.0,-992.0,11:23:54.039872,192.168.0.111
2316,3,-3,-1,84,"0,-2,180",1,0,0,0,0,0,63,65,81,80,100,-16.36,46,26.0,-6.0,-994.0,11:23:54.141573,192.168.0.111
2321,3,-4,-1,84,"-1,-2,-179",1,0,0,0,0,0,63,65,80,80,100,-16.28,46,30.0,-9.0,-986.0,11:23:54.244031,192.168.0.111
2326,3,-4,-1,84,"-1,-2,-179",1,0,0,0,0,0,63,65,80,80,100,-16.31,46,26.0,-3.0,-1003.0,11:23:54.346163,192.168.0.111
2331,3,-4,-1,84,"-1,-2,-179",1,0,0,0,0,0,63,65,80,80,100,-16.41,46,19.0,-3.0,-1002.0,11:23:54.447932,192.168.0.111
2336,3,-4,-1,84,"-1,-2,-179",1,0,0,0,0,0,63,65,80,80,100,-16.39,46,29.0,-3.0,-1004.0,11:23:54.549772,192.168.0.111
2340,3,-5,0,83,"-3,-2,-179",1,0,0,0,0,0,63,65,80,80,100,-16.4,46,28.0,-1.0,-1014.0,11:23:54.601075,192.168.0.111
2345,3,-5,0,83,"-3,-2,-179",1,0,0,0,0,0,63,66,81,80,100,-16.36,46,24.0,5.0,-1007.0,11:23:54.702935,192.168.0.111
2350,3,-5,0,83,"-3,-2,-179",1,0,0,0,0,0,63,66,81,80,100,-16.41,47,20.0,-1.0,-1001.0,11:23:54.804641,192.168.0.111
2355,3,-5,0,83,"-3,-2,-179",1,0,0,0,0,0,63,66,81,80,100,-16.37,47,26.0,-4.0,-990.0,11:23:54.907041,192.168.0.111
2360,3,-4,0,83,"-2,-2,-179",1,0,0,0,0,0,63,66,81,80,100,-16.37,47,14.0,1.0,-982.0,11:23:55.008824,192.168.0.111
2365,3,-4,0,83,"-2,-2,-179",1,0,0,0,0,0,63,66,82,80,100,-16.37,47,16.0,-6.0,-992.0,11:23:55.111191,192.168.0.111
2370,3,-4,0,83,"-2,-2,-179",1,0,0,0,0,0,63,66,81,80,100,-16.4,47,13.0,-6.0,-980.0,11:23:55.217484,192.168.0.111
2375,3,-4,0,83,"-2,-2,-179",0,0,0,0,0,0,63,66,81,80,100,-16.31,47,10.0,1.0,-991.0,11:23:55.314703,192.168.0.111
2380,3,-5,-4,84,"-2,-2,-175",0,0,0,0,0,0,63,66,81,80,100,-16.39,47,10.0,-4.0,-1007.0,11:23:55.417341,192.168.0.111
2385,3,-5,-4,84,"-2,-2,-175",0,0,0,0,0,0,63,66,81,80,100,-16.4,47,19.0,3.0,-1008.0,11:23:55.518991,192.168.0.111
2390,3,-5,-4,84,"-2,-2,-175",0,0,0,0,0,0,63,66,81,80,100,-16.45,47,20.0,3.0,-975.0,11:23:55.621179,192.168.0.111
2395,3,-4,0,84,"-1,-2,-178",1,0,0,0,0,0,63,65,81,80,100,-16.39,47,24.0,-5.0,-986.0,11:23:55.722502,192.168.0.111
2400,3,-4,0,84,"-1,-2,-178",1,0,0,0,0,0,63,65,80,80,100,-16.34,48,28.0,4.0,-1003.0,11:23:55.825100,192.168.0.111
2405,3,-4,0,84,"-1,-2,-178",1,0,0,0,0,0,63,65,80,80,100,-16.35,48,32.0,0.0,-1007.0,11:23:55.927292,192.168.0.111
2410,3,-4,0,84,"-1,-2,-178",1,0,0,0,0,0,63,65,80,80,100,-16.32,48,42.0,1.0,-1010.0,11:23:56.029111,192.168.0.111
2415,3,-4,0,83,"-1,-2,-178",2,0,0,0,0,0,63,65,80,80,100,-16.39,48,33.0,19.0,-996.0,11:23:56.130972,192.168.0.111
2420,3,-4,0,83,"-1,-2,-178",2,0,0,0,0,0,63,65,80,80,100,-16.25,48,25.0,13.0,-1001.0,11:23:56.232873,192.168.0.111
2425,3,-4,0,83,"-1,-2,-178",1,-1,0,0,0,0,63,65,80,80,100,-16.29,48,27.0,20.0,-997.0,11:23:56.335648,192.168.0.111
2430,3,-4,0,83,"-1,-2,-178",1,0,0,0,0,0,63,65,79,80,100,-16.32,48,13.0,12.0,-986.0,11:23:56.436928,192.168.0.111
2435,3,-4,0,83,"-2,-2,-179",1,0,0,0,0,0,63,65,79,70,100,-16.27,48,17.0,20.0,-984.0,11:23:56.539155,192.168.0.111
2440,3,-4,0,83,"-2,-2,-179",1,0,0,0,0,0,63,65,79,70,100,-16.3,48,29.0,9.0,-991.0,11:23:56.640985,192.168.0.111
2445,3,-4,0,83,"-2,-2,-179",1,0,0,0,0,0,63,66,78,70,100,-16.26,48,28.0,7.0,-995.0,11:23:56.743142,192.168.0.111
2450,3,-4,0,83,"-2,-2,-179",1,0,0,0,0,0,63,66,79,70,100,-16.3,49,36.0,3.0,-984.0,11:23:56.845200,192.168.0.111
2455,3,-5,0,82,"-3,-2,179",1,0,0,0,0,0,63,66,79,70,100,-16.3,49,41.0,5.0,-995.0,11:23:56.947033,192.168.0.111
2460,3,-5,0,82,"-3,-2,179",1,0,0,0,0,0,63,66,78,70,100,-16.27,49,18.0,6.0,-1007.0,11:23:57.048925,192.168.0.111
2465,3,-5,0,82,"-3,-2,179",1,0,0,0,0,0,63,66,78,70,100,-16.36,49,39.0,-23.0,-998.0,11:23:57.151881,192.168.0.111
2471,3,-5,0,82,"-3,-2,179",1,0,0,0,0,0,63,66,78,70,100,-16.54,49,23.0,2.0,-978.0,11:23:57.253074,192.168.0.111
2476,3,-4,-1,82,"-2,-2,178",1,0,0,0,0,0,63,66,78,70,100,-16.43,49,39.0,2.0,-1006.0,11:23:57.355051,192.168.0.111
2481,3,-4,-1,82,"-2,-2,178",2,1,0,0,0,0,63,66,78,70,100,-16.42,49,37.0,5.0,-1021.0,11:23:57.457137,192.168.0.111
2486,3,-4,-1,82,"-2,-2,178",2,0,0,0,0,0,63,66,78,70,100,-16.42,49,25.0,-1.0,-997.0,11:23:57.558904,192.168.0.111
2490,3,-4,-1,81,"-2,-2,-178",1,0,0,0,0,0,63,66,79,70,100,-16.36,49,33.0,-4.0,-996.0,11:23:57.611009,192.168.0.111
2496,3,-4,-1,81,"-2,-2,-178",2,0,0,0,0,0,63,65,80,70,100,-16.37,49,40.0,5.0,-1023.0,11:23:57.763943,192.168.0.111
2500,3,-4,-1,81,"-2,-2,-178",2,0,0,0,0,0,63,65,81,80,100,-16.34,50,47.0,-1.0,-997.0,11:23:57.815466,192.168.0.111
2505,3,-4,-1,81,"-2,-2,-178",2,0,0,0,0,0,63,65,81,80,100,-16.36,50,54.0,4.0,-985.0,11:23:57.917800,192.168.0.111
2512,3,-3,0,82,"-2,-2,-178",2,0,0,0,0,0,63,65,82,80,100,-16.35,50,52.0,8.0,-975.0,11:23:58.068726,192.168.0.111
2515,3,-3,0,82,"-2,-2,-178",2,0,0,0,0,0,63,65,82,80,100,-16.36,50,48.0,8.0,-980.0,11:23:58.120083,192.168.0.111
2520,3,-3,0,82,"-2,-2,-178",2,0,0,0,0,0,63,65,83,80,100,-16.32,50,41.0,23.0,-965.0,11:23:58.221790,192.168.0.111
2525,3,-3,0,82,"-2,-2,-178",2,0,0,0,0,0,63,65,83,80,100,-16.28,50,48.0,0.0,-989.0,11:23:58.324048,192.168.0.111
2530,3,-5,0,84,"-5,-1,-178",2,0,0,0,0,0,63,65,82,80,100,-16.38,50,66.0,2.0,-993.0,11:23:58.426034,192.168.0.111
2535,3,-5,0,84,"-5,-1,-178",2,0,0,0,0,0,63,65,82,80,100,-16.45,50,34.0,13.0,-995.0,11:23:58.528202,192.168.0.111
2540,3,-5,0,84,"-5,-1,-178",2,0,0,0,0,0,63,65,82,80,100,-16.29,50,46.0,28.0,-999.0,11:23:58.634787,192.168.0.111
2545,3,-5,0,84,"-5,-1,-178",2,-1,0,0,0,0,63,65,82,80,100,-16.38,50,38.0,22.0,-1012.0,11:23:58.731768,192.168.0.111
2550,3,-3,0,85,"-4,-1,179",2,-1,0,0,0,0,63,65,81,80,100,-16.38,51,40.0,21.0,-1011.0,11:23:58.834010,192.168.0.111
2555,3,-3,0,85,"-4,-1,179",2,-1,0,0,0,0,63,65,81,80,100,-16.43,51,42.0,23.0,-997.0,11:23:58.936020,192.168.0.111
2560,3,-3,0,85,"-4,-1,179",2,-1,0,0,0,0,63,65,81,80,100,-16.4,51,43.0,15.0,-996.0,11:23:59.038304,192.168.0.111
2565,3,-3,-1,84,"-5,-2,179",2,-1,0,0,0,0,63,65,81,80,100,-16.37,51,33.0,13.0,-1000.0,11:23:59.139484,192.168.0.111
2570,3,-3,-1,84,"-5,-2,179",2,-1,0,0,0,0,63,65,81,80,100,-16.4,51,25.0,8.0,-1011.0,11:23:59.242027,192.168.0.111
2575,3,-3,-1,84,"-5,-2,179",2,0,0,0,0,0,63,65,81,80,100,-16.35,51,34.0,7.0,-1001.0,11:23:59.344003,192.168.0.111
2580,3,-3,-1,84,"-5,-2,179",1,0,0,0,0,0,63,65,80,80,100,-16.37,51,38.0,0.0,-997.0,11:23:59.446022,192.168.0.111
2585,3,-2,-1,84,"-3,-2,178",1,0,0,0,0,0,63,65,81,80,100,-16.36,51,48.0,-2.0,-1006.0,11:23:59.547896,192.168.0.111
2590,3,-2,-1,84,"-3,-2,178",1,0,0,0,0,0,63,65,81,80,100,-16.42,51,35.0,3.0,-998.0,11:23:59.650562,192.168.0.111
2595,3,-2,-1,84,"-3,-2,178",1,0,0,0,0,0,63,67,81,80,100,-16.43,51,31.0,8.0,-994.0,11:23:59.752861,192.168.0.111
2600,3,-2,-1,84,"-3,-2,178",1,0,0,0,0,0,63,67,81,80,100,-16.34,52,37.0,2.0,-989.0,11:23:59.855028,192.168.0.111
2605,3,-3,-1,84,"-3,-2,179",1,0,0,0,0,0,63,67,81,80,100,-16.43,52,38.0,10.0,-1003.0,11:23:59.956873,192.168.0.111
2610,3,-3,-1,84,"-3,-2,179",1,0,0,0,0,0,63,67,81,80,100,-16.38,52,30.0,5.0,-999.0,11:24:00.059317,192.168.0.111
2615,3,-3,-1,84,"-3,-2,179",1,0,0,0,0,0,63,67,81,80,100,-16.41,52,33.0,7.0,-993.0,11:24:00.162871,192.168.0.111
2620,3,-3,-1,84,"-3,-2,179",1,0,0,0,0,0,63,67,81,80,100,-16.4,52,31.0,9.0,-1000.0,11:24:00.263017,192.168.0.111
2625,3,-2,-1,84,"-2,-2,-179",1,0,0,0,0,0,63,67,81,80,100,-16.42,52,32.0,10.0,-995.0,11:24:00.364884,192.168.0.111
2630,3,-2,-1,84,"-2,-2,-179",1,0,0,0,0,0,63,67,80,80,100,-16.44,52,32.0,11.0,-997.0,11:24:00.467674,192.168.0.111
2636,3,-2,-1,84,"-2,-2,-179",1,0,0,0,0,0,63,67,81,80,100,-16.39,52,32.0,6.0,-994.0,11:24:00.569722,192.168.0.111
2641,3,-3,0,85,"-2,-2,180",1,0,0,0,0,0,63,67,81,80,100,-16.39,52,29.0,0.0,-998.0,11:24:00.671258,192.168.0.111
