,mid,x,y,z,mpry,pitch,roll,yaw,vgx,vgy,vgz,templ,temph,tof,h,bat,baro,time,agx,agy,agz,timestamp,address
1,-2,-200,-200,-200,"0,0,0",0,0,6,0,0,0,60,62,10,0,95,-21.49,0,3.0,-1.0,-1001.0,11:56:13.806883,192.168.0.112
6,-2,-200,-200,-200,"0,0,0",0,0,6,0,0,0,60,62,10,0,95,-21.45,0,1.0,0.0,-998.0,11:56:13.831402,192.168.0.112
12,-2,-200,-200,-200,"0,0,0",0,0,6,0,0,0,60,62,10,0,94,-21.46,0,2.0,-1.0,-1003.0,11:56:14.015078,192.168.0.112
16,-2,-200,-200,-200,"0,0,0",0,0,6,0,0,0,60,63,10,0,94,-21.43,0,3.0,-1.0,-1001.0,11:56:14.034456,192.168.0.112
23,-2,-200,-200,-200,"0,0,0",0,0,6,0,0,0,60,63,10,0,94,-21.44,0,3.0,-2.0,-1001.0,11:56:14.223407,192.168.0.112
28,-2,-200,-200,-200,"0,0,0",0,0,6,0,0,0,60,63,10,0,94,-21.46,0,2.0,1.0,-997.0,11:56:14.238473,192.168.0.112
33,-2,-200,-200,-200,"0,0,0",0,0,6,0,0,0,60,63,10,0,94,-21.46,0,4.0,-4.0,-1001.0,11:56:14.429916,192.168.0.112
39,-2,-200,-200,-200,"0,0,0",0,0,6,0,0,0,60,63,10,0,94,-21.46,0,0.0,-4.0,-1003.0,11:56:14.442699,192.168.0.112
44,-2,-200,-200,-200,"0,0,0",0,0,6,0,0,0,60,63,10,0,94,-21.46,0,6.0,-6.0,-1021.0,11:56:14.637160,192.168.0.112
49,-2,-200,-200,-200,"0,0,0",-1,0,7,0,0,0,60,63,10,0,94,-21.46,0,0.0,10.0,-1205.0,11:56:14.646687,192.168.0.112
54,-2,-200,-200,-200,"0,0,0",0,0,7,0,0,2,60,63,10,-10,94,-21.46,0,16.0,2.0,-1391.0,11:56:14.844604,192.168.0.112
59,-2,-200,-200,-200,"0,0,0",1,0,7,0,0,4,60,63,10,0,94,-21.46,0,2.0,9.0,-1250.0,11:56:14.850299,192.168.0.112
64,-2,-200,-200,-200,"0,0,0",1,0,7,0,0,6,60,63,16,0,94,-21.13,0,-17.0,19.0,-1106.0,11:56:15.050786,192.168.0.112
69,-2,-200,-200,-200,"0,0,0",1,0,7,0,0,6,60,62,26,0,94,-20.95,0,2.0,4.0,-1051.0,11:56:15.054476,192.168.0.112
73,-2,-200,-200,-200,"0,0,0",0,0,7,0,0,6,60,62,36,0,94,-20.95,1,14.0,-3.0,-1001.0,11:56:15.257707,192.168.0.112
79,-2,-200,-200,-200,"0,0,0",0,0,7,0,0,5,60,62,46,0,94,-20.89,1,7.0,2.0,-960.0,11:56:15.258641,192.168.0.112
84,-2,-200,-200,-200,"0,0,0",0,0,7,0,0,5,60,62,56,0,94,-20.74,1,11.0,10.0,-942.0,11:56:15.360147,192.168.0.112
85,-2,-200,-200,-200,"0,0,0",0,0,7,0,0,4,60,62,64,0,94,-20.64,1,11.0,2.0,-928.0,11:56:15.411403,192.168.0.112
90,-2,-200,-200,-200,"0,0,0",0,0,7,0,0,3,60,62,73,0,94,-20.54,1,13.0,4.0,-923.0,11:56:15.513399,192.168.0.112
95,-2,-200,-200,-200,"0,0,0",0,0,7,0,0,2,60,62,80,10,94,-20.53,1,21.0,9.0,-903.0,11:56:15.615664,192.168.0.112
100,-2,-200,-200,-200,"0,0,0",0,0,7,0,0,1,60,62,87,10,94,-20.51,1,17.0,-2.0,-915.0,11:56:15.717515,192.168.0.112
105,2,20,-2,55,"1,-1,-178",0,0,7,0,0,1,60,62,92,10,94,-20.38,1,23.0,1.0,-921.0,11:56:15.819473,192.168.0.112
110,2,20,-2,55,"1,-1,-178",0,0,7,0,0,0,60,62,98,20,94,-20.29,1,2.0,5.0,-917.0,11:56:15.923377,192.168.0.112
115,2,20,-2,55,"1,-1,-178",0,0,7,0,0,0,61,63,103,20,94,-20.2,1,19.0,2.0,-930.0,11:56:16.023464,192.168.0.112
120,2,20,-2,55,"1,-1,-178",0,0,7,0,0,0,61,63,106,20,94,-20.17,2,16.0,4.0,-926.0,11:56:16.125440,192.168.0.112
125,2,20,-2,55,"1,-1,-178",0,0,7,0,0,0,61,63,110,20,94,-20.2,2,28.0,-4.0,-925.0,11:56:16.227771,192.168.0.112
130,2,12,0,89,"-1,0,179",0,0,7,0,0,-1,61,63,112,30,94,-20.18,2,14.0,0.0,-942.0,11:56:16.329394,192.168.0.112
135,2,12,0,89,"-1,0,179",0,0,7,0,0,-1,61,63,114,30,94,-20.16,2,11.0,4.0,-924.0,11:56:16.431436,192.168.0.112
140,2,12,0,89,"-1,0,179",0,0,7,0,0,-1,61,63,114,30,94,-20.13,2,18.0,-2.0,-945.0,11:56:16.533385,192.168.0.112
145,2,12,0,89,"-1,0,179",0,0,7,0,0,-2,61,63,115,30,94,-20.19,2,12.0,0.0,-949.0,11:56:16.635378,192.168.0.112
150,2,10,0,107,"-1,0,-179",0,0,7,0,0,-2,61,63,115,30,94,-20.17,2,21.0,6.0,-947.0,11:56:16.737372,192.168.0.112
155,2,10,0,107,"-1,0,-179",0,0,7,0,0,-2,61,63,115,30,94,-20.13,2,6.0,3.0,-965.0,11:56:16.839005,192.168.0.112
160,2,10,0,107,"-1,0,-179",0,0,7,0,0,-2,61,63,114,30,94,-20.17,2,25.0,-4.0,-969.0,11:56:16.941660,192.168.0.112
166,2,10,0,107,"-1,0,-179",0,0,7,0,0,-2,61,63,113,30,94,-20.12,2,20.0,0.0,-963.0,11:56:17.043406,192.168.0.112
171,2,7,1,112,"-1,0,-178",0,0,7,0,0,-2,61,63,112,30,94,-20.17,3,13.0,-4.0,-978.0,11:56:17.145406,192.168.0.112
176,2,7,1,112,"-1,0,-178",0,0,7,0,0,-2,61,63,110,30,94,-20.18,3,18.0,-13.0,-980.0,11:56:17.247691,192.168.0.112
181,2,7,1,112,"-1,0,-178",0,0,7,0,0,-2,61,63,109,30,94,-20.25,3,1.0,4.0,-983.0,11:56:17.349374,192.168.0.112
189,2,7,1,112,"-1,0,-178",0,0,7,0,0,-2,61,63,107,30,94,-20.19,3,8.0,9.0,-976.0,11:56:17.451257,192.168.0.112
194,2,7,3,110,"0,0,-179",0,0,7,0,0,-2,61,63,105,30,94,-20.21,3,20.0,0.0,-991.0,11:56:17.553266,192.168.0.112
199,2,7,3,110,"0,0,-179",0,0,7,0,0,-2,61,63,103,30,94,-20.21,3,8.0,-1.0,-994.0,11:56:17.655029,192.168.0.112
204,2,7,3,110,"0,0,-179",0,0,7,0,0,-2,61,63,101,30,94,-20.33,3,12.0,1.0,-1000.0,11:56:17.757200,192.168.0.112
208,2,7,3,110,"0,0,-179",0,0,7,0,0,-2,61,63,99,30,94,-20.2,3,12.0,0.0,-1001.0,11:56:17.859277,192.168.0.112
214,2,6,1,104,"0,0,-178",0,0,7,0,0,-2,61,63,96,30,94,-20.3,3,7.0,-11.0,-997.0,11:56:17.961643,192.168.0.112
215,2,6,1,104,"0,0,-178",0,0,7,0,0,-2,61,62,94,30,94,-20.27,3,12.0,0.0,-1015.0,11:56:18.013153,192.168.0.112
220,2,6,1,104,"0,0,-178",0,0,7,0,0,-2,61,62,91,20,94,-20.31,4,8.0,1.0,-1007.0,11:56:18.114433,192.168.0.112
225,2,6,1,104,"0,0,-178",0,0,7,0,0,-1,61,62,89,20,94,-20.39,4,0.0,5.0,-1014.0,11:56:18.216179,192.168.0.112
230,2,6,1,104,"0,0,-178",0,0,7,0,0,-1,61,62,87,20,94,-20.41,4,20.0,-5.0,-1010.0,11:56:18.319435,192.168.0.112
235,2,4,3,95,"-1,0,-179",0,0,7,0,0,-1,61,62,86,20,94,-20.48,4,-1.0,5.0,-1016.0,11:56:18.420308,192.168.0.112
240,2,4,3,95,"-1,0,-179",0,0,7,0,0,-1,61,62,83,20,94,-20.44,4,8.0,-2.0,-1003.0,11:56:18.536736,192.168.0.112
245,2,4,3,95,"-1,0,-179",0,0,7,0,0,-1,61,62,82,20,94,-20.41,4,8.0,0.0,-1027.0,11:56:18.624489,192.168.0.112
250,2,4,3,95,"-1,0,-179",0,0,7,0,0,-1,61,62,80,10,94,-20.49,4,18.0,-3.0,-1016.0,11:56:18.726152,192.168.0.112
255,2,4,3,95,"-1,0,-179",0,0,7,0,0,-1,61,62,79,10,94,-20.44,4,-3.0,7.0,-1026.0,11:56:18.828716,192.168.0.112
260,2,3,2,85,"-1,0,-179",0,0,7,0,0,0,61,62,77,10,94,-20.52,4,17.0,-5.0,-1004.0,11:56:18.930292,192.168.0.112
265,2,3,2,85,"-1,0,-179",0,0,7,0,0,0,61,63,76,10,94,-20.45,4,0.0,1.0,-1021.0,11:56:19.032896,192.168.0.112
270,2,3,2,85,"-1,0,-179",0,0,7,0,0,0,61,63,75,10,94,-20.51,5,8.0,1.0,-1019.0,11:56:19.134508,192.168.0.112
275,2,3,2,85,"-1,0,-179",0,0,7,0,0,0,61,63,75,10,94,-20.49,5,23.0,-13.0,-1019.0,11:56:19.236298,192.168.0.112
280,2,3,2,78,"-1,0,179",0,0,7,0,0,0,61,63,74,10,94,-20.47,5,4.0,4.0,-1001.0,11:56:19.338343,192.168.0.112
285,2,3,2,78,"-1,0,179",0,0,7,0,0,0,61,63,73,10,94,-20.48,5,12.0,-7.0,-1014.0,11:56:19.440419,192.168.0.112
291,2,3,2,78,"-1,0,179",0,0,7,0,0,0,61,63,73,10,94,-20.46,5,4.0,-3.0,-1008.0,11:56:19.542217,192.168.0.112
296,2,3,2,78,"-1,0,179",0,0,7,0,0,0,61,63,73,10,94,-20.57,5,27.0,-9.0,-1005.0,11:56:19.644269,192.168.0.112
301,2,3,2,78,"-1,0,179",0,0,7,0,0,0,61,63,72,10,94,-20.53,5,4.0,7.0,-1002.0,11:56:19.746331,192.168.0.112
306,2,3,1,73,"-1,0,179",0,0,7,0,0,0,61,63,73,10,94,-20.49,5,15.0,-4.0,-1011.0,11:56:19.848269,192.168.0.112
311,2,3,1,73,"-1,0,179",0,0,7,0,0,0,61,63,72,10,94,-20.55,5,6.0,9.0,-1007.0,11:56:19.950163,192.168.0.112
317,2,3,1,73,"-1,0,179",0,0,7,0,0,0,60,63,72,10,94,-20.52,5,8.0,3.0,-1001.0,11:56:20.052271,192.168.0.112
322,2,3,1,73,"-1,0,179",0,0,7,0,0,0,60,63,72,10,94,-20.53,6,2.0,3.0,-999.0,11:56:20.154412,192.168.0.112
327,2,2,1,71,"-2,0,178",0,0,7,0,0,0,60,63,72,10,94,-20.54,6,8.0,6.0,-998.0,11:56:20.256506,192.168.0.112
332,2,2,1,71,"-2,0,178",0,0,7,0,0,0,60,63,72,10,94,-20.49,6,7.0,-2.0,-1005.0,11:56:20.358521,192.168.0.112
337,2,2,1,71,"-2,0,178",0,0,7,0,0,0,60,63,72,10,94,-20.53,6,17.0,-1.0,-1007.0,11:56:20.460435,192.168.0.112
342,2,2,1,71,"-2,0,178",0,0,7,0,0,0,60,63,72,10,94,-20.49,6,4.0,5.0,-1000.0,11:56:20.562467,192.168.0.112
345,2,2,1,70,"-1,0,178",0,0,7,0,0,0,60,63,72,10,94,-20.48,6,19.0,-11.0,-1003.0,11:56:20.613103,192.168.0.112
350,2,2,1,70,"-1,0,178",0,0,7,0,0,0,60,63,73,10,94,-20.45,6,13.0,1.0,-1001.0,11:56:20.715111,192.168.0.112
355,2,2,1,70,"-1,0,178",0,0,7,0,0,0,60,63,73,10,94,-20.49,6,15.0,0.0,-1005.0,11:56:20.817216,192.168.0.112
360,2,2,1,70,"-1,0,178",0,0,7,0,0,0,60,63,74,10,94,-20.47,6,7.0,-5.0,-1001.0,11:56:20.919142,192.168.0.112
365,2,2,1,70,"-1,0,178",0,0,7,0,0,0,61,63,74,10,94,-20.48,6,13.0,6.0,-1010.0,11:56:21.021258,192.168.0.112
370,2,1,1,70,"-1,0,179",0,0,7,0,0,0,61,63,74,10,94,-20.43,7,0.0,6.0,-1002.0,11:56:21.123243,192.168.0.112
375,2,1,1,70,"-1,0,179",0,0,7,0,0,0,61,63,74,10,94,-20.52,7,10.0,-11.0,-998.0,11:56:21.225430,192.168.0.112
380,2,1,1,70,"-1,0,179",0,0,7,0,0,0,61,63,74,10,94,-20.52,7,11.0,2.0,-1006.0,11:56:21.327294,192.168.0.112
385,2,1,1,70,"-1,0,179",0,0,7,0,0,0,61,63,75,10,94,-20.48,7,8.0,1.0,-1000.0,11:56:21.429184,192.168.0.112
390,2,3,0,71,"0,0,-179",0,0,7,0,0,0,61,63,75,10,94,-20.49,7,14.0,0.0,-1005.0,11:56:21.531240,192.168.0.112
395,2,3,0,71,"0,0,-179",0,0,7,0,0,0,61,63,75,10,94,-20.47,7,13.0,1.0,-993.0,11:56:21.633201,192.168.0.112
400,2,3,0,71,"0,0,-179",0,0,7,0,0,0,61,63,75,10,94,-20.46,7,-9.0,11.0,-988.0,11:56:21.735180,192.168.0.112
405,2,3,0,71,"0,0,-179",0,0,7,0,0,0,61,63,76,10,94,-20.45,7,2.0,0.0,-991.0,11:56:21.837243,192.168.0.112
410,2,3,0,71,"0,0,-179",0,0,7,0,0,0,61,63,76,10,94,-20.5,7,15.0,1.0,-997.0,11:56:21.939235,192.168.0.112
415,2,1,1,73,"-1,0,179",0,0,7,0,0,0,61,63,77,10,94,-20.53,7,6.0,-1.0,-996.0,11:56:22.041131,192.168.0.112
420,2,1,1,73,"-1,0,179",0,0,7,0,0,0,61,63,76,10,94,-20.46,8,9.0,0.0,-999.0,11:56:22.142921,192.168.0.112
426,2,1,1,73,"-1,0,179",0,0,7,0,0,0,61,63,77,10,94,-20.41,8,5.0,0.0,-1002.0,11:56:22.245148,192.168.0.112
431,2,1,1,73,"-1,0,179",0,0,7,0,0,0,61,63,77,10,94,-20.45,8,-8.0,16.0,-1005.0,11:56:22.347816,192.168.0.112
436,2,2,1,75,"-1,0,179",0,0,7,0,0,0,61,63,77,10,94,-20.45,8,7.0,8.0,-994.0,11:56:22.451900,192.168.0.112
441,2,2,1,75,"-1,0,179",0,0,7,0,0,0,61,63,76,10,94,-20.43,8,14.0,-1.0,-998.0,11:56:22.561075,192.168.0.112
446,2,2,1,75,"-1,0,179",0,0,7,0,0,0,61,63,77,10,94,-20.45,8,4.0,7.0,-1002.0,11:56:22.653227,192.168.0.112
451,2,2,1,75,"-1,0,179",0,0,7,0,0,0,61,63,76,10,94,-20.47,8,21.0,-12.0,-999.0,11:56:22.755115,192.168.0.112
456,2,2,1,75,"-1,0,179",0,0,7,0,0,0,61,63,75,10,94,-20.48,8,26.0,-7.0,-1007.0,11:56:22.857334,192.168.0.112
461,2,3,1,75,"-1,-1,-179",0,0,7,0,0,0,61,63,76,10,94,-20.43,8,25.0,-3.0,-1011.0,11:56:22.959137,192.168.0.112
466,2,3,1,75,"-1,-1,-179",0,0,7,0,0,0,61,64,76,10,94,-20.43,8,20.0,-7.0,-1000.0,11:56:23.060944,192.168.0.112
470,2,3,1,75,"-1,-1,-179",0,0,7,0,0,0,61,64,76,10,94,-20.49,9,12.0,0.0,-1006.0,11:56:23.112172,192.168.0.112
475,2,3,1,75,"-1,-1,-179",0,0,7,0,0,0,61,64,76,10,94,-20.42,9,10.0,-10.0,-1002.0,11:56:23.214368,192.168.0.112
480,2,3,2,75,"-1,0,179",0,0,7,0,0,0,61,64,76,10,94,-20.47,9,3.0,9.0,-995.0,11:56:23.315794,192.168.0.112
485,2,3,2,75,"-1,0,179",0,0,7,0,0,0,61,64,76,10,94,-20.39,9,13.0,-2.0,-999.0,11:56:23.417897,192.168.0.112
490,2,3,2,75,"-1,0,179",0,0,7,0,0,0,61,64,76,10,94,-20.47,9,8.0,4.0,-975.0,11:56:23.520256,192.168.0.112
495,2,3,2,75,"-1,0,179",-2,0,7,0,0,0,61,64,76,10,94,-20.43,9,16.0,4.0,-978.0,11:56:23.621841,192.168.0.112
500,2,3,2,75,"-1,0,179",-1,0,7,-1,0,0,61,64,75,10,94,-20.54,9,9.0,0.0,-1001.0,11:56:23.723905,192.168.0.112
505,2,4,1,74,"0,-1,179",0,0,7,-1,0,0,61,64,74,10,94,-20.48,9,4.0,2.0,-993.0,11:56:23.826077,192.168.0.112
510,2,4,1,74,"0,-1,179",0,0,7,-1,0,0,61,64,73,10,94,-20.48,9,6.0,3.0,-1003.0,11:56:23.928136,192.168.0.112
515,2,4,1,74,"0,-1,179",0,0,7,-1,0,0,62,63,73,10,94,-20.44,9,5.0,5.0,-1007.0,11:56:24.030057,192.168.0.112
520,2,4,1,74,"0,-1,179",0,0,7,-1,0,0,62,63,73,10,94,-20.47,10,4.0,2.0,-1007.0,11:56:24.131993,192.168.0.112
525,2,4,1,74,"0,-1,179",0,0,7,-1,0,0,62,63,73,10,94,-20.45,10,0.0,5.0,-999.0,11:56:24.233987,192.168.0.112
530,2,4,1,74,"0,-1,179",0,0,7,-1,0,0,62,63,73,0,94,-20.53,10,30.0,-6.0,-1004.0,11:56:24.336185,192.168.0.112
534,2,6,2,72,"-1,-1,179",0,0,7,-1,0,0,62,63,73,0,94,-20.48,10,0.0,9.0,-1008.0,11:56:24.438426,192.168.0.112
540,2,6,2,72,"-1,-1,179",0,0,7,-1,0,0,62,63,73,0,94,-20.42,10,-4.0,13.0,-1000.0,11:56:24.539936,192.168.0.112
545,2,6,2,72,"-1,-1,179",0,0,7,-1,0,0,62,63,73,0,94,-20.45,10,11.0,5.0,-1002.0,11:56:24.641931,192.168.0.112
550,2,6,2,72,"-1,-1,179",0,0,7,-1,0,0,62,63,73,0,94,-20.48,10,0.0,6.0,-997.0,11:56:24.743995,192.168.0.112
556,2,6,2,72,"-1,-1,179",0,0,7,0,0,0,62,63,72,0,94,-20.49,10,-2.0,9.0,-999.0,11:56:24.845824,192.168.0.112
561,2,6,2,72,"-1,-1,179",0,0,7,0,0,0,62,63,73,0,94,-20.46,10,27.0,1.0,-1003.0,11:56:24.948288,192.168.0.112
566,2,6,2,72,"-1,-1,179",2,0,7,0,0,0,61,64,72,0,94,-20.49,10,6.0,7.0,-998.0,11:56:25.049512,192.168.0.112
571,2,11,2,69,"-2,-1,-179",1,0,7,0,0,0,61,64,72,0,94,-20.53,11,1.0,17.0,-1018.0,11:56:25.152073,192.168.0.112
575,2,11,2,69,"-2,-1,-179",0,0,7,0,0,0,61,64,71,0,94,-20.47,11,5.0,9.0,-1012.0,11:56:25.255358,192.168.0.112
580,2,11,2,69,"-2,-1,-179",-1,0,7,0,0,0,61,64,72,0,94,-20.48,11,11.0,9.0,-1019.0,11:56:25.357046,192.168.0.112
586,2,11,2,69,"-2,-1,-179",-1,0,7,0,0,0,61,64,72,0,94,-20.47,11,20.0,0.0,-998.0,11:56:25.459383,192.168.0.112
591,2,11,2,69,"-2,-1,-179",-1,0,7,0,0,0,61,64,72,0,94,-20.47,11,18.0,-7.0,-1000.0,11:56:25.561224,192.168.0.112
595,2,11,2,69,"-2,-1,-179",-1,0,7,0,0,0,61,64,72,0,94,-20.47,11,21.0,-7.0,-998.0,11:56:25.663466,192.168.0.112
600,2,11,2,69,"-2,-1,-179",-1,0,7,-1,0,0,61,64,72,0,94,-20.52,11,20.0,3.0,-1008.0,11:56:25.765713,192.168.0.112
605,2,11,3,69,"-1,-1,-179",-1,0,7,-1,0,0,61,64,73,0,94,-20.54,11,6.0,2.0,-991.0,11:56:25.868124,192.168.0.112
611,2,11,3,69,"-1,-1,-179",-1,0,7,-1,0,0,61,64,73,0,94,-20.43,11,16.0,7.0,-998.0,11:56:25.970726,192.168.0.112
616,2,11,3,69,"-1,-1,-179",0,0,7,-1,0,0,61,64,73,0,94,-20.51,11,9.0,7.0,-994.0,11:56:26.069905,192.168.0.112
621,2,11,3,69,"-1,-1,-179",0,0,7,-1,0,0,61,64,73,0,94,-20.51,12,13.0,12.0,-993.0,11:56:26.172106,192.168.0.112
626,2,11,3,69,"-1,-1,-179",0,0,7,-1,0,0,61,64,73,0,94,-20.49,12,15.0,-8.0,-982.0,11:56:26.273851,192.168.0.112
631,2,11,3,69,"-1,-1,-179",0,0,7,-1,0,0,61,64,73,0,94,-20.45,12,1.0,2.0,-997.0,11:56:26.376087,192.168.0.112
633,2,15,4,69,"0,-1,179",0,0,7,-1,0,0,61,64,73,0,94,-20.43,12,9.0,-3.0,-995.0,11:56:26.426792,192.168.0.112
638,2,15,4,69,"0,-1,179",0,0,7,-1,0,0,61,64,73,0,94,-20.44,12,3.0,8.0,-998.0,11:56:26.531218,192.168.0.112
643,2,15,4,69,"0,-1,179",0,0,7,-1,0,0,61,64,73,0,94,-20.47,12,3.0,2.0,-1007.0,11:56:26.630764,192.168.0.112
648,2,15,4,69,"0,-1,179",0,0,7,-1,0,0,61,64,73,0,94,-20.43,12,12.0,0.0,-997.0,11:56:26.732922,192.168.0.112
653,2,15,4,69,"0,-1,179",0,0,7,-1,0,0,61,64,73,0,94,-20.45,12,7.0,-1.0,-1001.0,11:56:26.834952,192.168.0.112
658,2,15,4,69,"0,-1,179",0,0,7,-1,0,0,61,64,73,0,94,-20.51,12,-9.0,15.0,-997.0,11:56:26.936743,192.168.0.112
663,2,15,4,69,"0,-1,179",0,0,7,-1,0,0,62,64,72,0,94,-20.49,12,15.0,-6.0,-995.0,11:56:27.038879,192.168.0.112
668,2,31,1,66,"3,-2,-178",0,0,7,-2,0,0,62,64,72,0,94,-20.5,13,9.0,-1.0,-997.0,11:56:27.140835,192.168.0.112
673,2,31,1,66,"3,-2,-178",0,0,7,-1,0,0,62,64,72,0,94,-20.52,13,11.0,-11.0,-1006.0,11:56:27.243406,192.168.0.112
678,2,31,1,66,"3,-2,-178",0,0,7,-2,0,0,62,64,72,0,94,-20.51,13,-3.0,0.0,-994.0,11:56:27.344827,192.168.0.112
684,2,31,1,66,"3,-2,-178",0,0,7,-1,0,0,62,64,72,0,94,-20.44,13,6.0,-14.0,-1009.0,11:56:27.446866,192.168.0.112
688,2,31,1,66,"3,-2,-178",0,0,7,-1,0,0,62,64,72,0,94,-20.51,13,-10.0,5.0,-987.0,11:56:27.548872,192.168.0.112
694,2,31,1,66,"3,-2,-178",0,0,7,-1,0,0,62,64,72,0,94,-20.48,13,-12.0,2.0,-997.0,11:56:27.650849,192.168.0.112
700,2,31,1,66,"3,-2,-178",0,0,7,-1,0,0,62,64,72,0,94,-20.48,13,14.0,-7.0,-995.0,11:56:27.752956,192.168.0.112
705,2,40,1,65,"3,-2,-178",0,0,7,-1,0,0,62,64,72,0,94,-20.49,13,12.0,-14.0,-999.0,11:56:27.854691,192.168.0.112
710,2,40,1,65,"3,-2,-178",0,0,7,-1,0,0,62,64,72,0,94,-20.45,13,14.0,-20.0,-1003.0,11:56:27.956670,192.168.0.112
715,2,40,1,65,"3,-2,-178",0,0,7,-1,0,0,62,63,71,0,94,-20.51,13,-2.0,0.0,-1002.0,11:56:28.058892,192.168.0.112
720,2,40,1,65,"3,-2,-178",0,0,7,-1,0,0,62,63,72,0,94,-20.51,14,-10.0,3.0,-1003.0,11:56:28.160957,192.168.0.112
725,2,40,1,65,"3,-2,-178",0,0,7,-1,0,0,62,63,72,0,94,-20.48,14,0.0,-2.0,-1007.0,11:56:28.262847,192.168.0.112
730,2,40,1,65,"3,-2,-178",0,0,7,-1,0,0,62,63,71,0,94,-20.52,14,2.0,-6.0,-1000.0,11:56:28.364864,192.168.0.112
735,2,40,1,65,"3,-2,-178",0,0,7,-1,0,0,62,63,71,0,94,-20.51,14,1.0,-8.0,-1011.0,11:56:28.466792,192.168.0.112
740,2,40,1,65,"3,-2,-178",0,0,7,-1,0,0,62,63,71,0,94,-20.52,14,6.0,-3.0,-1006.0,11:56:28.568944,192.168.0.112
745,2,40,1,65,"3,-2,-178",0,0,7,-1,0,0,62,63,71,0,94,-20.53,14,-2.0,2.0,-1001.0,11:56:28.670743,192.168.0.112
750,2,40,1,65,"3,-2,-178",0,0,7,-1,0,0,62,63,71,0,94,-20.52,14,-6.0,-5.0,-1009.0,11:56:28.772656,192.168.0.112
755,2,40,1,65,"3,-2,-178",0,0,7,-1,0,0,62,63,71,0,94,-20.48,14,2.0,0.0,-992.0,11:56:28.874744,192.168.0.112
760,2,40,1,65,"3,-2,-178",0,0,7,-1,0,0,62,63,71,0,94,-20.55,14,-17.0,0.0,-1010.0,11:56:28.976741,192.168.0.112
765,2,40,1,65,"3,-2,-178",0,0,7,-1,0,0,62,65,71,0,94,-20.49,14,10.0,-14.0,-1009.0,11:56:29.078810,192.168.0.112
770,2,40,1,65,"3,-2,-178",0,0,7,-1,0,0,62,65,71,0,94,-20.49,15,-13.0,10.0,-1004.0,11:56:29.181018,192.168.0.112
775,2,40,1,65,"3,-2,-178",0,0,7,-1,0,0,62,65,71,0,94,-20.56,15,-9.0,-3.0,-998.0,11:56:29.282836,192.168.0.112
780,2,40,1,65,"3,-2,-178",-1,0,7,-1,0,0,62,65,71,0,94,-20.58,15,-13.0,-4.0,-997.0,11:56:29.384921,192.168.0.112
785,2,40,1,65,"3,-2,-178",-1,0,7,-1,0,0,62,65,72,0,94,-20.55,15,-17.0,-4.0,-997.0,11:56:29.486862,192.168.0.112
790,2,40,1,65,"3,-2,-178",-1,0,7,-1,0,0,62,65,72,0,94,-20.5,15,1.0,1.0,-992.0,11:56:29.590332,192.168.0.112
795,2,40,1,65,"3,-2,-178",-1,0,7,-1,0,0,62,65,72,0,94,-20.52,15,2.0,-15.0,-996.0,11:56:29.691161,192.168.0.112
801,2,40,1,65,"3,-2,-178",-1,0,7,-1,0,0,62,65,72,0,94,-20.52,15,-4.0,2.0,-1001.0,11:56:29.798652,192.168.0.112
806,2,40,1,65,"3,-2,-178",0,0,7,-1,0,0,62,65,72,0,94,-20.53,15,-3.0,-14.0,-986.0,11:56:29.897190,192.168.0.112
810,2,40,1,65,"3,-2,-178",0,0,7,-1,0,0,62,65,72,0,94,-20.52,15,-5.0,-1.0,-1006.0,11:56:29.996862,192.168.0.112
815,2,40,1,65,"3,-2,-178",0,0,7,-1,0,0,62,64,73,0,94,-20.49,15,0.0,-6.0,-1004.0,11:56:30.098809,192.168.0.112
820,2,40,1,65,"3,-2,-178",0,0,7,-1,0,0,62,64,72,0,94,-20.54,16,0.0,-9.0,-1006.0,11:56:30.200793,192.168.0.112
825,2,40,1,65,"3,-2,-178",0,0,7,-1,0,0,62,64,72,0,94,-20.51,16,-4.0,2.0,-996.0,11:56:30.302673,192.168.0.112
830,2,40,1,65,"3,-2,-178",0,0,7,-1,0,0,62,64,72,0,94,-20.56,16,5.0,6.0,-1010.0,11:56:30.404668,192.168.0.112
835,2,40,1,65,"3,-2,-178",0,0,7,-1,0,0,62,64,72,0,94,-20.54,16,-3.0,5.0,-1004.0,11:56:30.506717,192.168.0.112
840,2,40,1,65,"3,-2,-178",0,0,7,-1,0,0,62,64,72,0,94,-20.5,16,8.0,-10.0,-997.0,11:56:30.608752,192.168.0.112
845,2,40,1,65,"3,-2,-178",0,0,7,-1,0,0,62,64,72,0,94,-20.54,16,16.0,-2.0,-1000.0,11:56:30.710696,192.168.0.112
850,2,40,1,65,"3,-2,-178",0,0,7,-1,0,0,62,64,72,0,94,-20.55,16,18.0,-12.0,-1020.0,11:56:30.812691,192.168.0.112
855,2,40,1,65,"3,-2,-178",0,0,7,-1,0,0,62,64,72,0,94,-20.57,16,-4.0,-8.0,-1001.0,11:56:30.914770,192.168.0.112
860,2,40,1,65,"3,-2,-178",0,0,7,-1,0,0,62,64,72,0,94,-20.57,16,-9.0,-4.0,-990.0,11:56:31.016762,192.168.0.112
865,2,40,1,65,"3,-2,-178",-1,0,7,-1,0,0,62,64,72,0,94,-20.52,16,-2.0,-3.0,-991.0,11:56:31.118799,192.168.0.112
868,2,40,1,65,"3,-2,-178",-1,0,7,-1,0,0,62,64,72,0,94,-20.59,17,0.0,3.0,-998.0,11:56:31.170327,192.168.0.112
874,2,40,1,65,"3,-2,-178",-1,0,7,-1,0,0,62,64,72,0,94,-20.55,17,6.0,-7.0,-996.0,11:56:31.272440,192.168.0.112
879,2,40,1,65,"3,-2,-178",0,0,7,-1,0,0,62,64,72,0,94,-20.54,17,1.0,-5.0,-999.0,11:56:31.373960,192.168.0.112
885,2,40,1,65,"3,-2,-178",0,0,7,-1,0,0,62,64,72,0,94,-20.55,17,-6.0,-2.0,-1006.0,11:56:31.475779,192.168.0.112
889,2,40,1,65,"3,-2,-178",0,0,7,-1,0,0,62,64,72,0,94,-20.58,17,-3.0,0.0,-1006.0,11:56:31.578173,192.168.0.112
894,2,40,1,65,"3,-2,-178",-1,0,7,-1,0,0,62,64,71,0,94,-20.5,17,0.0,-8.0,-1001.0,11:56:31.679789,192.168.0.112
899,2,40,1,65,"3,-2,-178",0,0,6,-1,0,0,62,64,72,0,94,-20.54,17,3.0,-14.0,-1011.0,11:56:31.783295,192.168.0.112
904,2,40,1,65,"3,-2,-178",-1,0,7,-1,0,0,62,64,71,0,94,-20.51,17,-2.0,-17.0,-1005.0,11:56:31.883779,192.168.0.112
910,2,40,1,65,"3,-2,-178",-1,0,7,-1,0,0,62,64,72,0,94,-20.53,17,0.0,-9.0,-992.0,11:56:31.985764,192.168.0.112
915,2,40,1,65,"3,-2,-178",-1,0,7,-1,0,0,62,64,72,0,94,-20.55,17,-13.0,1.0,-1006.0,11:56:32.087937,192.168.0.112
920,2,40,1,65,"3,-2,-178",-1,0,7,-1,0,0,62,64,73,0,94,-20.54,18,-1.0,-13.0,-1000.0,11:56:32.189783,192.168.0.112
925,2,40,1,65,"3,-2,-178",-1,0,7,-1,0,0,62,64,73,0,94,-20.45,18,6.0,-12.0,-983.0,11:56:32.291868,192.168.0.112
930,2,40,1,65,"3,-2,-178",-1,0,7,-1,0,0,62,64,72,0,94,-20.54,18,-10.0,-17.0,-981.0,11:56:32.393614,192.168.0.112
935,2,40,1,65,"3,-2,-178",-1,0,7,-1,0,0,62,64,72,0,94,-20.59,18,-2.0,-14.0,-977.0,11:56:32.495773,192.168.0.112
940,2,40,1,65,"3,-2,-178",-1,0,7,-1,0,0,62,64,73,0,94,-20.57,18,-19.0,-5.0,-1016.0,11:56:32.599054,192.168.0.112
945,2,40,1,65,"3,-2,-178",-1,0,7,-1,0,0,62,64,72,0,94,-20.65,18,-8.0,-7.0,-1010.0,11:56:32.699914,192.168.0.112
950,2,40,1,65,"3,-2,-178",-1,0,7,-1,0,0,62,64,72,0,94,-20.62,18,-11.0,0.0,-1009.0,11:56:32.801721,192.168.0.112
955,2,40,1,65,"3,-2,-178",-1,0,7,-1,0,0,62,64,73,0,94,-20.63,18,-16.0,7.0,-999.0,11:56:32.903827,192.168.0.112
960,2,40,1,65,"3,-2,-178",-1,0,7,-1,0,0,62,64,72,0,94,-20.61,18,-25.0,3.0,-993.0,11:56:33.005790,192.168.0.112
966,2,40,1,65,"3,-2,-178",-1,0,7,-1,0,0,62,65,73,0,94,-20.61,18,12.0,-13.0,-1006.0,11:56:33.108696,192.168.0.112
970,2,40,1,65,"3,-2,-178",-1,0,7,-1,0,0,62,65,72,0,94,-20.59,19,4.0,-9.0,-1015.0,11:56:33.209637,192.168.0.112
975,2,40,1,65,"3,-2,-178",-1,0,7,-1,0,0,62,65,72,0,94,-20.63,19,18.0,-24.0,-995.0,11:56:33.311816,192.168.0.112
980,2,40,1,65,"3,-2,-178",0,0,7,-1,0,0,62,65,72,0,94,-20.61,19,-6.0,-5.0,-998.0,11:56:33.413702,192.168.0.112
985,2,40,1,65,"3,-2,-178",0,0,7,-1,0,0,62,65,72,0,94,-20.54,19,17.0,-21.0,-987.0,11:56:33.515761,192.168.0.112
990,2,40,1,65,"3,-2,-178",0,0,7,-1,0,0,62,65,72,0,94,-20.57,19,8.0,-3.0,-992.0,11:56:33.617676,192.168.0.112
995,2,40,1,65,"3,-2,-178",0,0,7,-1,0,0,62,65,72,0,94,-20.54,19,5.0,8.0,-1013.0,11:56:33.719564,192.168.0.112
1000,2,40,1,65,"3,-2,-178",-1,0,7,-1,0,0,62,65,72,0,94,-20.56,19,-5.0,2.0,-1000.0,11:56:33.821681,192.168.0.112
1005,2,40,1,65,"3,-2,-178",-1,0,7,-1,0,0,62,65,71,0,94,-20.6,19,-3.0,18.0,-1014.0,11:56:33.923982,192.168.0.112
1010,2,40,1,65,"3,-2,-178",-1,0,7,-1,0,0,62,65,71,0,94,-20.59,19,-9.0,10.0,-1017.0,11:56:34.025669,192.168.0.112
1015,2,40,1,65,"3,-2,-178",-1,0,7,-1,0,0,62,65,71,0,94,-20.64,20,20.0,-13.0,-1007.0,11:56:34.127817,192.168.0.112
1020,2,40,1,65,"3,-2,-178",-1,0,7,-1,0,0,62,65,72,0,94,-20.63,20,-9.0,-5.0,-1015.0,11:56:34.229539,192.168.0.112
1025,2,40,1,65,"3,-2,-178",-1,0,7,-1,0,0,62,65,72,0,94,-20.64,20,1.0,-13.0,-992.0,11:56:34.331772,192.168.0.112
1030,2,40,1,65,"3,-2,-178",-1,0,7,-1,0,0,62,65,72,0,94,-20.55,20,-24.0,6.0,-958.0,11:56:34.433799,192.168.0.112
1035,2,40,1,65,"3,-2,-178",-1,0,7,-1,0,0,62,65,72,0,94,-20.71,20,-5.0,10.0,-1002.0,11:56:34.535719,192.168.0.112
1040,2,40,1,65,"3,-2,-178",-1,0,7,-1,0,0,62,65,71,0,94,-20.65,20,-16.0,-1.0,-1013.0,11:56:34.637598,192.168.0.112
1043,2,40,1,65,"3,-2,-178",-2,0,7,-1,0,0,62,65,71,0,94,-20.73,20,-21.0,-1.0,-1018.0,11:56:34.688494,192.168.0.112
1048,2,40,1,65,"3,-2,-178",-2,0,7,-1,0,0,62,65,72,0,94,-20.81,20,-22.0,-2.0,-1005.0,11:56:34.790462,192.168.0.112
1053,2,40,1,65,"3,-2,-178",-2,0,7,-1,0,0,62,65,72,0,94,-20.63,20,-21.0,0.0,-992.0,11:56:34.892510,192.168.0.112
1059,2,40,1,65,"3,-2,-178",-2,0,7,-1,0,0,62,65,72,0,94,-20.79,20,-14.0,4.0,-1005.0,11:56:34.994561,192.168.0.112
1063,2,40,1,65,"3,-2,-178",-2,0,7,-1,0,0,63,65,72,0,94,-20.67,21,-22.0,0.0,-1015.0,11:56:35.096660,192.168.0.112
1068,2,40,1,65,"3,-2,-178",-2,0,7,-1,0,0,63,65,72,0,94,-20.78,21,-8.0,2.0,-997.0,11:56:35.198651,192.168.0.112
1073,2,40,1,65,"3,-2,-178",-2,0,7,-1,0,0,63,65,73,0,94,-20.69,21,-26.0,1.0,-988.0,11:56:35.300478,192.168.0.112
1078,2,40,1,65,"3,-2,-178",-2,0,7,-1,0,0,63,65,72,0,94,-20.78,21,-32.0,0.0,-990.0,11:56:35.402522,192.168.0.112
1083,2,40,1,65,"3,-2,-178",-2,0,6,-1,0,0,63,65,72,0,94,-20.7,21,-11.0,0.0,-986.0,11:56:35.504482,192.168.0.112
1088,2,40,1,65,"3,-2,-178",-2,0,6,-1,0,0,63,65,72,0,94,-20.69,21,-7.0,-6.0,-1008.0,11:56:35.606494,192.168.0.112
1093,2,40,1,65,"3,-2,-178",-1,0,6,-1,0,0,63,65,72,0,94,-20.53,21,-16.0,-5.0,-1006.0,11:56:35.708426,192.168.0.112
1098,2,40,1,65,"3,-2,-178",-1,0,6,-1,0,0,63,65,72,0,94,-20.57,21,11.0,-14.0,-996.0,11:56:35.810644,192.168.0.112
1104,2,40,1,65,"3,-2,-178",-2,0,6,-1,0,0,63,65,72,0,94,-20.73,21,-10.0,6.0,-999.0,11:56:35.912876,192.168.0.112
1109,2,40,1,65,"3,-2,-178",-1,0,6,-1,0,0,63,65,72,0,94,-20.59,21,-22.0,6.0,-988.0,11:56:36.014430,192.168.0.112
1114,2,40,1,65,"3,-2,-178",-1,0,6,-1,0,0,63,65,71,0,94,-20.72,22,-21.0,5.0,-1004.0,11:56:36.117133,192.168.0.112
1119,2,40,1,65,"3,-2,-178",-1,0,6,-1,0,0,63,65,71,0,94,-20.77,22,1.0,-15.0,-998.0,11:56:36.219302,192.168.0.112
1124,2,40,1,65,"3,-2,-178",-1,0,6,-1,0,0,63,65,71,0,94,-20.7,22,0.0,-11.0,-1018.0,11:56:36.320243,192.168.0.112
1130,2,40,1,65,"3,-2,-178",-1,0,6,-1,0,0,63,65,71,0,94,-20.72,22,-17.0,-9.0,-994.0,11:56:36.422459,192.168.0.112
1135,2,40,1,65,"3,-2,-178",-1,0,6,-1,0,0,63,65,71,0,94,-20.69,22,-13.0,-3.0,-991.0,11:56:36.524339,192.168.0.112
1140,2,40,1,65,"3,-2,-178",-1,0,7,-1,0,0,63,65,71,0,94,-20.67,22,-7.0,-2.0,-999.0,11:56:36.626583,192.168.0.112
1145,2,40,1,65,"3,-2,-178",-1,0,7,-1,0,0,63,65,71,0,94,-20.61,22,-10.0,9.0,-993.0,11:56:36.728334,192.168.0.112
1150,2,40,1,65,"3,-2,-178",-1,0,7,-1,0,0,63,65,71,0,94,-20.7,22,-15.0,-7.0,-994.0,11:56:36.830418,192.168.0.112
1155,2,40,1,65,"3,-2,-178",-1,0,7,-1,0,0,63,65,72,0,94,-20.72,22,-4.0,-13.0,-1014.0,11:56:36.932246,192.168.0.112
1160,2,40,1,65,"3,-2,-178",-1,0,7,-1,0,0,63,65,72,0,94,-20.72,22,-7.0,-8.0,-1011.0,11:56:37.034305,192.168.0.112
1165,2,40,1,65,"3,-2,-178",-1,0,7,-1,0,0,62,65,72,0,94,-20.75,23,-23.0,11.0,-985.0,11:56:37.136198,192.168.0.112
1170,2,40,1,65,"3,-2,-178",-1,0,7,-1,0,0,62,65,72,0,94,-20.57,23,-17.0,8.0,-998.0,11:56:37.238858,192.168.0.112
1175,2,40,1,65,"3,-2,-178",-2,0,7,-1,0,0,62,65,71,0,94,-20.47,23,-2.0,31.0,-983.0,11:56:37.340278,192.168.0.112
1180,2,40,1,65,"3,-2,-178",-2,0,7,-1,0,0,62,65,71,0,94,-20.46,23,-7.0,20.0,-996.0,11:56:37.442465,192.168.0.112
1185,2,40,1,65,"3,-2,-178",-2,0,6,-1,-1,0,62,65,71,0,94,-20.43,23,0.0,10.0,-1008.0,11:56:37.544322,192.168.0.112
1190,2,40,1,65,"3,-2,-178",-2,-1,6,-1,-1,0,62,65,71,0,94,-20.58,23,1.0,15.0,-993.0,11:56:37.646433,192.168.0.112
1195,2,40,1,65,"3,-2,-178",-1,-1,6,-2,0,0,62,65,71,0,94,-20.55,23,3.0,15.0,-1011.0,11:56:37.748540,192.168.0.112
1200,2,40,1,65,"3,-2,-178",0,-1,6,-2,0,0,62,65,72,0,94,-20.51,23,29.0,5.0,-1033.0,11:56:37.850274,192.168.0.112
1205,2,40,1,65,"3,-2,-178",0,0,6,-2,0,0,62,65,72,0,94,-20.51,23,9.0,5.0,-979.0,11:56:37.952271,192.168.0.112
1210,2,40,1,65,"3,-2,-178",0,0,6,-2,0,0,62,65,71,0,94,-20.48,23,22.0,-2.0,-995.0,11:56:38.054467,192.168.0.112
1215,2,40,1,65,"3,-2,-178",0,0,6,-2,0,0,63,65,71,0,94,-20.52,24,30.0,13.0,-1019.0,11:56:38.156501,192.168.0.112
1220,2,40,1,65,"3,-2,-178",0,0,6,-2,0,0,63,65,71,0,94,-20.54,24,15.0,-20.0,-981.0,11:56:38.258098,192.168.0.112
1225,2,40,1,65,"3,-2,-178",0,0,6,-2,0,0,63,65,71,0,94,-20.46,24,23.0,-3.0,-992.0,11:56:38.367264,192.168.0.112
1228,2,40,1,65,"3,-2,-178",0,0,6,-2,0,0,63,65,70,0,94,-20.46,24,26.0,-27.0,-1005.0,11:56:38.469785,192.168.0.112
1233,2,40,1,65,"3,-2,-178",0,0,6,-2,0,0,63,65,70,0,94,-20.46,24,5.0,-21.0,-990.0,11:56:38.572390,192.168.0.112
1238,2,40,1,65,"3,-2,-178",0,1,6,-2,0,0,63,65,70,0,94,-20.48,24,10.0,-24.0,-992.0,11:56:38.623738,192.168.0.112
1243,2,40,1,65,"3,-2,-178",0,1,6,-2,0,0,63,65,70,0,94,-20.59,24,-2.0,-23.0,-1033.0,11:56:38.777962,192.168.0.112
1248,2,40,1,65,"3,-2,-178",0,1,6,-2,0,0,63,65,71,0,94,-20.66,24,4.0,-12.0,-1031.0,11:56:38.880714,192.168.0.112
1253,2,40,1,65,"3,-2,-178",0,2,6,-2,0,0,63,65,71,0,93,-20.56,24,7.0,-22.0,-1003.0,11:56:38.983441,192.168.0.112
1258,2,40,1,65,"3,-2,-178",0,2,6,-2,0,0,63,65,71,0,93,-20.59,24,5.0,-5.0,-1026.0,11:56:39.086332,192.168.0.112
1265,2,40,1,65,"3,-2,-178",0,1,6,-2,0,0,63,66,71,0,93,-20.59,25,7.0,-49.0,-987.0,11:56:39.189058,192.168.0.112
1270,2,40,1,65,"3,-2,-178",0,1,7,-1,0,0,63,66,71,0,93,-20.53,25,2.0,-3.0,-1009.0,11:56:39.292285,192.168.0.112
1275,2,40,1,65,"3,-2,-178",0,1,7,-1,0,0,63,66,71,0,93,-20.6,25,-14.0,6.0,-1036.0,11:56:39.394657,192.168.0.112
1280,2,40,1,65,"3,-2,-178",-1,0,7,-1,0,0,63,66,71,0,93,-20.51,25,-13.0,11.0,-993.0,11:56:39.585885,192.168.0.112
1285,2,40,1,65,"3,-2,-178",-1,0,7,-1,0,0,63,66,72,0,93,-20.4,25,14.0,14.0,-951.0,11:56:39.586767,192.168.0.112
1290,2,40,1,65,"3,-2,-178",-1,0,7,-1,0,0,63,66,72,0,93,-20.49,25,11.0,5.0,-978.0,11:56:39.794841,192.168.0.112
1296,2,40,1,65,"3,-2,-178",-1,0,7,-1,0,0,63,66,72,0,93,-20.51,25,2.0,20.0,-976.0,11:56:39.795960,192.168.0.112
1299,2,40,1,65,"3,-2,-178",-1,0,7,-1,0,0,63,66,71,0,93,-20.48,25,-12.0,33.0,-991.0,11:56:39.840175,192.168.0.112
1304,2,40,1,65,"3,-2,-178",-1,-1,7,-1,-1,0,63,66,71,0,93,-20.53,25,-2.0,2.0,-987.0,11:56:40.065843,192.168.0.112
1309,2,40,1,65,"3,-2,-178",-1,-1,7,-1,0,0,63,66,71,0,93,-20.51,25,8.0,12.0,-1012.0,11:56:40.066700,192.168.0.112
1315,2,40,1,65,"3,-2,-178",-1,-1,7,-1,0,0,63,65,71,0,93,-20.43,26,-6.0,19.0,-1001.0,11:56:40.272396,192.168.0.112
1320,2,40,1,65,"3,-2,-178",-1,-1,7,-1,0,0,63,65,71,0,93,-20.51,26,-29.0,20.0,-1001.0,11:56:40.273183,192.168.0.112
1325,2,40,1,65,"3,-2,-178",-1,-1,7,-1,0,0,63,65,71,0,93,-20.37,26,11.0,4.0,-989.0,11:56:40.478894,192.168.0.112
1330,2,40,1,65,"3,-2,-178",-1,-1,7,-1,0,0,63,65,71,0,93,-20.46,26,11.0,8.0,-1000.0,11:56:40.479743,192.168.0.112
1334,2,40,1,65,"3,-2,-178",-1,0,7,-1,0,0,63,65,71,0,93,-20.45,26,-6.0,18.0,-1009.0,11:56:40.685274,192.168.0.112
1340,2,40,1,65,"3,-2,-178",-1,0,7,-1,0,0,63,65,71,0,93,-20.46,26,-10.0,11.0,-1019.0,11:56:40.686384,192.168.0.112
1345,2,40,1,65,"3,-2,-178",-1,0,7,-1,0,0,63,65,71,0,93,-20.49,26,4.0,8.0,-999.0,11:56:40.891861,192.168.0.112
1351,2,40,1,65,"3,-2,-178",-1,0,7,-1,0,0,63,65,72,0,93,-20.53,26,3.0,22.0,-1004.0,11:56:40.892836,192.168.0.112
1355,2,40,1,65,"3,-2,-178",-1,0,7,-1,0,0,63,65,72,0,93,-20.44,26,15.0,25.0,-989.0,11:56:41.097792,192.168.0.112
1360,2,40,1,65,"3,-2,-178",-1,0,7,-1,0,0,63,65,72,0,93,-20.44,26,4.0,27.0,-1003.0,11:56:41.099069,192.168.0.112
1365,2,40,1,65,"3,-2,-178",-1,0,7,-1,0,0,63,65,72,0,93,-20.49,27,6.0,27.0,-1003.0,11:56:41.304258,192.168.0.112
1370,2,40,1,65,"3,-2,-178",-1,0,7,-1,0,0,63,65,72,0,93,-20.45,27,6.0,20.0,-991.0,11:56:41.305443,192.168.0.112
1375,2,40,1,65,"3,-2,-178",0,0,7,-1,0,0,63,65,72,0,93,-20.5,27,9.0,14.0,-992.0,11:56:41.510820,192.168.0.112
1380,2,40,1,65,"3,-2,-178",0,0,7,-1,0,0,63,65,73,0,93,-20.5,27,-3.0,18.0,-987.0,11:56:41.511698,192.168.0.112
1385,2,40,1,65,"3,-2,-178",0,0,7,-1,0,0,63,65,73,0,93,-20.45,27,4.0,5.0,-993.0,11:56:41.718156,192.168.0.112
1390,2,40,1,65,"3,-2,-178",0,0,7,-1,0,0,63,65,73,0,93,-20.53,27,-5.0,6.0,-989.0,11:56:41.719046,192.168.0.112
1395,2,40,1,65,"3,-2,-178",-1,0,6,-1,0,0,63,65,73,0,93,-20.46,27,18.0,2.0,-989.0,11:56:41.924357,192.168.0.112
1400,2,40,1,65,"3,-2,-178",-1,0,7,-1,0,0,63,65,72,0,92,-20.38,27,-10.0,2.0,-994.0,11:56:41.925191,192.168.0.112
1405,2,40,1,65,"3,-2,-178",0,0,7,-1,0,0,63,65,72,0,92,-20.43,27,13.0,0.0,-998.0,11:56:42.130579,192.168.0.112
1410,2,40,1,65,"3,-2,-178",0,0,7,-1,0,0,63,65,72,0,92,-20.41,27,-18.0,13.0,-1014.0,11:56:42.131623,192.168.0.112
1415,2,40,1,65,"3,-2,-178",0,0,7,-1,0,0,63,65,72,0,92,-20.51,28,4.0,8.0,-1002.0,11:56:42.337353,192.168.0.112
1420,2,40,1,65,"3,-2,-178",-1,0,7,-1,0,0,63,65,71,0,92,-20.42,28,0.0,-7.0,-1010.0,11:56:42.338163,192.168.0.112
1426,2,40,1,65,"3,-2,-178",-1,0,7,-1,0,0,63,65,71,0,92,-20.48,28,2.0,6.0,-1015.0,11:56:42.545698,192.168.0.112
1431,2,40,1,65,"3,-2,-178",-1,0,7,-1,0,0,63,65,72,0,92,-20.46,28,2.0,-6.0,-1012.0,11:56:42.546487,192.168.0.112
1436,2,40,1,65,"3,-2,-178",-1,0,7,-1,0,0,63,65,72,0,92,-20.4,28,0.0,3.0,-1009.0,11:56:42.752132,192.168.0.112
1441,2,40,1,65,"3,-2,-178",-1,0,7,-1,0,0,63,65,71,0,92,-20.44,28,0.0,5.0,-999.0,11:56:42.752927,192.168.0.112
1443,2,40,1,65,"3,-2,-178",-1,0,7,-1,0,0,63,65,72,0,92,-20.53,28,-4.0,12.0,-999.0,11:56:42.753256,192.168.0.112
1448,2,40,1,65,"3,-2,-178",-1,0,7,-1,0,0,63,65,72,0,92,-20.46,28,0.0,-13.0,-997.0,11:56:42.958814,192.168.0.112
1453,2,40,1,65,"3,-2,-178",-1,0,7,-1,0,0,63,65,72,0,92,-20.4,28,-2.0,0.0,-992.0,11:56:42.959649,192.168.0.112
1459,2,40,1,65,"3,-2,-178",-1,0,7,-1,0,0,63,65,72,0,92,-20.51,28,-19.0,-5.0,-1018.0,11:56:43.164936,192.168.0.112
1464,2,40,1,65,"3,-2,-178",-1,0,7,-1,0,0,64,66,72,0,92,-20.43,29,3.0,-8.0,-981.0,11:56:43.165934,192.168.0.112
1469,2,40,1,65,"3,-2,-178",-1,0,7,-1,0,0,64,66,73,0,92,-20.54,29,-9.0,-21.0,-993.0,11:56:43.371374,192.168.0.112
1474,2,40,1,65,"3,-2,-178",-1,0,7,-1,0,0,64,66,72,0,92,-20.65,29,3.0,-26.0,-1033.0,11:56:43.372197,192.168.0.112
1479,-1,-100,-100,-100,"-1,-1,-1",-2,0,7,-1,0,0,64,66,72,0,92,-20.55,29,-17.0,2.0,-997.0,11:56:43.577844,192.168.0.112
1484,-1,-100,-100,-100,"-1,-1,-1",-1,1,7,-1,0,0,64,66,73,0,92,-20.63,29,-17.0,-12.0,-1007.0,11:56:43.578609,192.168.0.112
1489,-1,-100,-100,-100,"-1,-1,-1",-1,1,7,-1,0,0,64,66,73,0,92,-20.56,29,-13.0,-18.0,-987.0,11:56:43.784359,192.168.0.112
1494,-1,-100,-100,-100,"-1,-1,-1",-2,1,7,-1,0,0,64,66,73,0,92,-20.45,29,-10.0,-9.0,-983.0,11:56:43.785143,192.168.0.112
1499,-1,-100,-100,-100,"-1,-1,-1",-2,0,6,-1,0,0,64,66,73,0,92,-20.48,29,-22.0,-23.0,-943.0,11:56:43.990465,192.168.0.112
1504,-1,-100,-100,-100,"-1,-1,-1",-2,0,6,-1,0,0,64,66,73,0,92,-20.56,29,0.0,-25.0,-996.0,11:56:43.991259,192.168.0.112
1509,-1,-100,-100,-100,"-1,-1,-1",-1,1,6,-1,0,0,64,66,72,0,92,-20.55,29,-25.0,-16.0,-1007.0,11:56:44.198896,192.168.0.112
1514,-1,-100,-100,-100,"-1,-1,-1",-1,1,6,-1,0,0,64,66,73,0,92,-20.56,30,-33.0,-12.0,-989.0,11:56:44.199784,192.168.0.112
1519,-1,-100,-100,-100,"-1,-1,-1",-1,1,6,-1,0,0,64,66,72,0,92,-20.51,30,-5.0,-19.0,-998.0,11:56:44.405186,192.168.0.112
1524,-1,-100,-100,-100,"-1,-1,-1",-1,1,6,-1,0,0,64,66,72,0,92,-20.53,30,-6.0,-22.0,-1010.0,11:56:44.406034,192.168.0.112
1529,-1,-100,-100,-100,"-1,-1,-1",-2,1,6,-1,0,0,64,66,72,0,92,-20.48,30,1.0,-44.0,-1029.0,11:56:44.610357,192.168.0.112
1534,-1,-100,-100,-100,"-1,-1,-1",-2,1,7,-1,0,0,64,66,72,0,92,-20.61,30,-15.0,-28.0,-990.0,11:56:44.611167,192.168.0.112
1539,-1,-100,-100,-100,"-1,-1,-1",-1,1,7,-1,0,0,64,66,72,0,92,-20.48,30,-22.0,-39.0,-1000.0,11:56:44.815268,192.168.0.112
1544,-1,-100,-100,-100,"-1,-1,-1",-2,2,7,-1,0,0,64,66,72,0,92,-20.43,30,2.0,-26.0,-996.0,11:56:44.816113,192.168.0.112
1548,-1,-100,-100,-100,"-1,-1,-1",-2,2,7,-1,0,0,64,66,72,0,92,-20.43,30,3.0,-32.0,-993.0,11:56:45.023680,192.168.0.112
1553,-1,-100,-100,-100,"-1,-1,-1",-2,2,7,-1,0,0,64,66,72,0,92,-20.66,30,-9.0,-23.0,-1013.0,11:56:45.024502,192.168.0.112
1558,-1,-100,-100,-100,"-1,-1,-1",-1,2,7,-1,0,0,64,66,72,0,92,-20.72,30,-6.0,-21.0,-1008.0,11:56:45.228184,192.168.0.112
1563,-1,-100,-100,-100,"-1,-1,-1",-1,1,7,-1,0,0,63,66,71,0,92,-20.43,31,-20.0,-8.0,-1022.0,11:56:45.229004,192.168.0.112
1568,-1,-100,-100,-100,"-1,-1,-1",-1,1,7,-1,0,0,63,66,72,0,92,-20.54,31,-3.0,-20.0,-991.0,11:56:45.295710,192.168.0.112
1573,-1,-100,-100,-100,"-1,-1,-1",-1,1,7,-1,0,0,63,66,72,0,92,-20.49,31,-8.0,-6.0,-995.0,11:56:45.398095,192.168.0.112
1579,-1,-100,-100,-100,"-1,-1,-1",-1,1,7,-1,0,0,63,66,72,0,92,-20.55,31,6.0,-16.0,-983.0,11:56:45.508187,192.168.0.112
1583,-1,-100,-100,-100,"-1,-1,-1",-1,1,7,-1,0,0,63,66,72,0,92,-20.57,31,-8.0,-1.0,-1010.0,11:56:45.602221,192.168.0.112
1586,-1,-100,-100,-100,"-1,-1,-1",-1,0,7,-1,0,0,63,66,72,0,92,-20.38,31,-8.0,8.0,-991.0,11:56:45.653189,192.168.0.112
1591,-1,-100,-100,-100,"-1,-1,-1",-1,0,7,-1,0,0,63,66,72,0,92,-20.5,31,-8.0,-10.0,-996.0,11:56:45.755166,192.168.0.112
1596,-1,-100,-100,-100,"-1,-1,-1",-1,0,7,-1,0,0,63,66,72,0,91,-20.46,31,-8.0,-22.0,-991.0,11:56:45.857252,192.168.0.112
1601,-1,-100,-100,-100,"-1,-1,-1",-1,0,7,-1,0,0,63,66,72,0,91,-20.53,31,0.0,-22.0,-1004.0,11:56:45.959355,192.168.0.112
1607,-1,-100,-100,-100,"-1,-1,-1",-2,0,7,-1,0,0,63,66,72,0,91,-20.54,31,-29.0,-14.0,-1004.0,11:56:46.061307,192.168.0.112
1612,-1,-100,-100,-100,"-1,-1,-1",-1,0,7,-1,0,0,63,66,72,0,91,-20.56,32,-7.0,-23.0,-991.0,11:56:46.163752,192.168.0.112
1616,-1,-100,-100,-100,"-1,-1,-1",-1,1,7,-1,0,0,63,66,71,0,91,-20.41,32,4.0,-28.0,-991.0,11:56:46.265353,192.168.0.112
1621,-1,-100,-100,-100,"-1,-1,-1",-1,1,7,-1,0,0,63,66,71,0,91,-20.58,32,-10.0,-21.0,-1023.0,11:56:46.367852,192.168.0.112
1626,-1,-100,-100,-100,"-1,-1,-1",-1,1,7,-1,0,0,63,66,72,0,91,-20.49,32,-3.0,-16.0,-984.0,11:56:46.470560,192.168.0.112
1633,-1,-100,-100,-100,"-1,-1,-1",-1,1,7,-1,0,0,63,66,72,0,91,-20.54,32,-11.0,-34.0,-984.0,11:56:46.571201,192.168.0.112
1637,-1,-100,-100,-100,"-1,-1,-1",-1,1,7,-1,0,0,63,66,72,0,91,-20.43,32,-15.0,-19.0,-1007.0,11:56:46.673203,192.168.0.112
1642,-1,-100,-100,-100,"-1,-1,-1",-1,2,7,-1,0,0,63,66,72,0,91,-20.52,32,-15.0,-12.0,-995.0,11:56:46.775126,192.168.0.112
1647,-1,-100,-100,-100,"-1,-1,-1",-1,2,7,-1,0,0,63,66,71,0,91,-20.49,32,-19.0,-4.0,-984.0,11:56:46.877108,192.168.0.112
1652,-1,-100,-100,-100,"-1,-1,-1",-1,1,7,-1,0,0,63,66,71,0,91,-20.42,32,-12.0,-18.0,-989.0,11:56:46.979089,192.168.0.112
1657,-1,-100,-100,-100,"-1,-1,-1",-1,1,7,-1,0,0,63,66,71,0,91,-20.46,32,-8.0,-25.0,-999.0,11:56:47.081097,192.168.0.112
1663,-1,-100,-100,-100,"-1,-1,-1",-2,0,7,-1,0,0,65,66,71,0,91,-20.51,33,-20.0,-11.0,-1002.0,11:56:47.183175,192.168.0.112
1668,-1,-100,-100,-100,"-1,-1,-1",-1,1,7,-1,0,0,65,66,72,0,91,-20.53,33,-6.0,-24.0,-995.0,11:56:47.287305,192.168.0.112
1673,-1,-100,-100,-100,"-1,-1,-1",-1,1,7,-1,0,0,65,66,71,0,91,-20.54,33,-24.0,-12.0,-997.0,11:56:47.387268,192.168.0.112
1678,-1,-100,-100,-100,"-1,-1,-1",-2,0,7,-1,0,0,65,66,72,0,91,-20.5,33,-16.0,-15.0,-993.0,11:56:47.490299,192.168.0.112
1683,-1,-100,-100,-100,"-1,-1,-1",-2,0,7,-1,0,0,65,66,72,0,91,-20.47,33,-14.0,-11.0,-1007.0,11:56:47.592241,192.168.0.112
1688,-1,-100,-100,-100,"-1,-1,-1",-2,0,7,-1,0,0,65,66,72,0,91,-20.43,33,-9.0,-13.0,-997.0,11:56:47.693294,192.168.0.112
1693,-1,-100,-100,-100,"-1,-1,-1",-2,0,7,-1,0,0,65,66,72,0,91,-20.44,33,-9.0,-12.0,-995.0,11:56:47.795250,192.168.0.112
1698,-1,-100,-100,-100,"-1,-1,-1",-2,1,7,-1,0,0,65,66,72,0,91,-20.39,33,-22.0,-10.0,-988.0,11:56:47.897004,192.168.0.112
1703,-1,-100,-100,-100,"-1,-1,-1",-2,1,7,-1,0,0,65,66,73,0,91,-20.36,33,-8.0,-11.0,-989.0,11:56:48.000304,192.168.0.112
1708,-1,-100,-100,-100,"-1,-1,-1",-2,0,7,-1,0,0,65,66,73,0,91,-20.38,33,-7.0,-22.0,-1022.0,11:56:48.101084,192.168.0.112
1713,-1,-100,-100,-100,"-1,-1,-1",-2,0,7,-1,0,0,64,66,73,0,91,-20.43,34,-4.0,-24.0,-1001.0,11:56:48.203260,192.168.0.112
1718,-1,-100,-100,-100,"-1,-1,-1",-1,1,7,-1,0,0,64,66,73,0,91,-20.41,34,2.0,-30.0,-1013.0,11:56:48.306930,192.168.0.112
1723,-1,-100,-100,-100,"-1,-1,-1",-2,1,7,-1,0,0,64,66,72,0,91,-20.52,34,-35.0,7.0,-998.0,11:56:48.407326,192.168.0.112
1728,-1,-100,-100,-100,"-1,-1,-1",-2,0,7,-1,-1,0,64,66,72,0,91,-20.54,34,-18.0,2.0,-987.0,11:56:48.509081,192.168.0.112
1733,-1,-100,-100,-100,"-1,-1,-1",-2,0,7,-1,-1,0,64,66,72,0,91,-20.49,34,-47.0,7.0,-1039.0,11:56:48.611101,192.168.0.112
1738,-1,-100,-100,-100,"-1,-1,-1",-3,0,7,-1,-1,0,64,66,72,0,91,-20.46,34,-17.0,-20.0,-1030.0,11:56:48.712979,192.168.0.112
1743,-1,-100,-100,-100,"-1,-1,-1",-2,0,7,-1,-1,0,64,66,71,0,91,-20.42,34,-32.0,0.0,-975.0,11:56:48.815088,192.168.0.112
1748,-1,-100,-100,-100,"-1,-1,-1",-2,0,7,-1,-1,0,64,66,71,0,91,-20.44,34,-16.0,5.0,-1014.0,11:56:48.917862,192.168.0.112
1753,-1,-100,-100,-100,"-1,-1,-1",-2,0,7,-2,-1,0,64,66,71,0,91,-20.48,34,-22.0,23.0,-1023.0,11:56:49.020952,192.168.0.112
1758,-1,-100,-100,-100,"-1,-1,-1",-2,0,7,-2,-1,0,64,66,70,0,91,-20.57,35,-22.0,-3.0,-993.0,11:56:49.120926,192.168.0.112
1763,-1,-100,-100,-100,"-1,-1,-1",-2,-1,7,-1,-1,0,64,67,70,0,91,-20.51,35,-12.0,22.0,-1012.0,11:56:49.223162,192.168.0.112
1768,-1,-100,-100,-100,"-1,-1,-1",-2,-1,7,-2,-1,0,64,67,70,0,91,-20.55,35,-17.0,24.0,-1032.0,11:56:49.325047,192.168.0.112
1773,-1,-100,-100,-100,"-1,-1,-1",-2,-2,7,-1,0,0,64,67,70,0,91,-20.57,35,-45.0,27.0,-1002.0,11:56:49.429820,192.168.0.112
1778,-1,-100,-100,-100,"-1,-1,-1",-2,-2,7,-1,0,0,64,67,70,0,91,-20.46,35,-2.0,-19.0,-1009.0,11:56:49.528990,192.168.0.112
1783,-1,-100,-100,-100,"-1,-1,-1",-2,-1,7,-2,0,0,64,67,71,0,91,-20.43,35,-20.0,15.0,-975.0,11:56:49.631103,192.168.0.112
1788,-1,-100,-100,-100,"-1,-1,-1",-2,0,7,-2,0,0,64,67,71,0,91,-20.39,35,-1.0,10.0,-987.0,11:56:49.733112,192.168.0.112
1793,-1,-100,-100,-100,"-1,-1,-1",-2,0,6,-2,0,0,64,67,71,0,91,-20.34,35,-5.0,21.0,-979.0,11:56:49.835876,192.168.0.112
1798,-1,-100,-100,-100,"-1,-1,-1",-2,0,6,-2,0,0,64,67,71,0,90,-20.35,35,-3.0,23.0,-1004.0,11:56:49.937006,192.168.0.112
1800,-1,-100,-100,-100,"-1,-1,-1",-1,-1,6,-2,0,0,64,67,71,0,90,-20.49,35,-19.0,19.0,-1022.0,11:56:49.988398,192.168.0.112
1805,-1,-100,-100,-100,"-1,-1,-1",-1,-1,6,-2,0,0,64,67,71,0,90,-20.43,36,-16.0,9.0,-997.0,11:56:50.090300,192.168.0.112
1810,-1,-100,-100,-100,"-1,-1,-1",-1,-1,6,-2,0,0,64,67,71,0,90,-20.42,36,-16.0,6.0,-1018.0,11:56:50.192103,192.168.0.112
1816,-1,-100,-100,-100,"-1,-1,-1",-1,0,6,-2,0,0,64,67,71,0,90,-20.43,36,-10.0,5.0,-985.0,11:56:50.294126,192.168.0.112
1821,6,-45,-9,64,"-4,-4,178",-1,0,6,-2,0,0,64,67,71,0,90,-20.46,36,2.0,2.0,-977.0,11:56:50.395796,192.168.0.112
1825,6,-45,-9,64,"-4,-4,178",0,0,6,-2,0,0,64,67,71,0,90,-20.44,36,0.0,4.0,-988.0,11:56:50.497852,192.168.0.112
1831,6,-45,-9,64,"-4,-4,178",2,0,6,-2,0,0,64,67,71,0,90,-20.51,36,-10.0,3.0,-1022.0,11:56:50.599971,192.168.0.112
1836,6,-45,-9,64,"-4,-4,178",3,0,7,-1,0,0,64,67,72,0,90,-20.46,36,-9.0,10.0,-997.0,11:56:50.703114,192.168.0.112
1840,6,-45,-9,64,"-4,-4,178",1,0,7,0,0,0,64,67,71,0,90,-20.48,36,9.0,0.0,-998.0,11:56:50.804891,192.168.0.112
1845,6,-45,-9,64,"-4,-4,178",0,0,7,0,0,0,64,67,71,0,90,-20.47,36,16.0,-12.0,-1011.0,11:56:50.905555,192.168.0.112
1851,6,-45,-9,64,"-4,-4,178",0,0,7,0,0,0,64,67,71,0,90,-20.53,36,15.0,-9.0,-972.0,11:56:51.007968,192.168.0.112
1856,6,-27,-6,68,"-5,-4,177",-1,0,7,0,0,0,64,67,71,0,90,-20.5,37,4.0,-9.0,-960.0,11:56:51.109998,192.168.0.112
1861,6,-27,-6,68,"-5,-4,177",-4,0,7,0,0,0,64,67,71,0,90,-20.42,37,15.0,-12.0,-994.0,11:56:51.211809,192.168.0.112
1866,6,-27,-6,68,"-5,-4,177",-3,0,7,-1,0,0,64,67,70,0,90,-20.55,37,-21.0,2.0,-1017.0,11:56:51.313979,192.168.0.112
1871,6,-27,-6,68,"-5,-4,177",-2,0,7,-1,0,0,64,67,70,0,90,-20.48,37,-20.0,10.0,-996.0,11:56:51.416030,192.168.0.112
1876,6,-27,-6,68,"-5,-4,177",-1,0,7,-1,0,0,64,67,70,0,90,-20.46,37,-17.0,7.0,-1007.0,11:56:51.517909,192.168.0.112
1881,6,-27,-6,68,"-5,-4,177",-2,0,7,-1,0,0,64,67,69,0,90,-20.53,37,-8.0,14.0,-1019.0,11:56:51.619688,192.168.0.112
1885,6,-27,-6,68,"-5,-4,177",-2,0,7,-1,0,0,64,67,69,0,90,-20.4,37,-4.0,-3.0,-984.0,11:56:51.721969,192.168.0.112
1890,6,-27,-4,67,"0,-4,177",-1,0,7,-1,0,0,64,67,69,0,90,-20.48,37,-15.0,5.0,-985.0,11:56:51.823897,192.168.0.112
1895,6,-27,-4,67,"0,-4,177",-2,0,7,-1,0,0,64,67,69,0,90,-20.5,37,-12.0,-3.0,-1009.0,11:56:51.925498,192.168.0.112
1900,6,-27,-4,67,"0,-4,177",-2,0,7,-1,0,0,64,67,69,0,90,-20.59,37,-12.0,-1.0,-999.0,11:56:52.028015,192.168.0.112
1906,6,-27,-4,67,"0,-4,177",-2,0,6,-1,0,0,64,67,69,0,90,-20.62,38,-7.0,6.0,-992.0,11:56:52.130898,192.168.0.112
1911,6,-27,-4,67,"0,-4,177",-1,0,6,-2,0,0,65,67,70,0,90,-20.61,38,4.0,-8.0,-1016.0,11:56:52.231892,192.168.0.112
1916,6,-27,-4,67,"0,-4,177",-1,0,6,-2,0,0,65,67,70,0,90,-20.52,38,5.0,0.0,-971.0,11:56:52.333843,192.168.0.112
1921,6,-18,-1,67,"0,-4,177",-1,1,6,-2,0,0,65,67,70,0,90,-20.41,38,-6.0,-3.0,-985.0,11:56:52.436600,192.168.0.112
1926,6,-18,-1,67,"0,-4,177",-1,1,6,-2,0,0,65,67,70,0,90,-20.28,38,27.0,12.0,-979.0,11:56:52.537362,192.168.0.112
1931,6,-18,-1,67,"0,-4,177",0,0,6,-2,0,0,65,67,70,0,90,-20.46,38,10.0,11.0,-984.0,11:56:52.639853,192.168.0.112
1936,6,-18,-1,67,"0,-4,177",0,0,6,-2,0,0,65,67,69,0,90,-20.33,38,-5.0,13.0,-977.0,11:56:52.741807,192.168.0.112
1941,6,-18,-1,67,"0,-4,177",0,0,6,-2,0,0,65,67,68,0,90,-20.36,38,2.0,-1.0,-1001.0,11:56:52.843734,192.168.0.112
1945,6,-18,-1,67,"0,-4,177",0,-1,6,-2,0,0,65,67,68,0,90,-20.37,38,4.0,-2.0,-1011.0,11:56:52.945958,192.168.0.112
1950,6,-18,-1,67,"0,-4,177",0,0,7,-2,0,0,65,67,69,0,90,-20.38,38,0.0,-7.0,-1018.0,11:56:53.047928,192.168.0.112
1955,6,-5,1,68,"0,-3,179",0,0,7,-2,0,0,65,67,69,0,90,-20.47,39,-7.0,-6.0,-1010.0,11:56:53.149709,192.168.0.112
1961,6,-5,1,68,"0,-3,179",-1,0,7,-2,0,0,64,67,70,0,90,-20.57,39,16.0,-7.0,-993.0,11:56:53.251411,192.168.0.112
1966,6,-5,1,68,"0,-3,179",0,0,7,-2,0,0,64,67,70,0,90,-20.46,39,4.0,1.0,-976.0,11:56:53.353730,192.168.0.112
1971,6,-5,1,68,"0,-3,179",0,0,7,-1,0,0,64,67,70,0,90,-20.41,39,-2.0,7.0,-959.0,11:56:53.455894,192.168.0.112
1976,6,-5,1,68,"0,-3,179",0,0,7,-1,0,0,64,67,70,0,90,-20.43,39,8.0,-12.0,-994.0,11:56:53.557612,192.168.0.112
1981,6,-5,1,68,"0,-3,179",0,0,7,-1,0,0,64,67,70,0,90,-20.34,39,4.0,-11.0,-1000.0,11:56:53.660081,192.168.0.112
1986,6,2,2,69,"-1,-4,179",0,0,7,-1,0,0,64,67,70,0,90,-20.43,39,-4.0,13.0,-1020.0,11:56:53.761761,192.168.0.112
1991,6,2,2,69,"-1,-4,179",-1,0,7,-1,0,0,64,67,69,0,90,-20.52,39,10.0,6.0,-1008.0,11:56:53.863753,192.168.0.112
1996,6,2,2,69,"-1,-4,179",0,0,7,-1,0,0,64,67,69,0,90,-20.42,39,10.0,7.0,-1004.0,11:56:53.965862,192.168.0.112
2001,6,2,2,69,"-1,-4,179",0,0,7,-1,0,0,64,67,69,0,90,-20.43,39,14.0,14.0,-997.0,11:56:54.067797,192.168.0.112
2006,6,2,2,69,"-1,-4,179",0,0,7,-1,0,0,64,67,69,0,90,-20.41,40,10.0,12.0,-1006.0,11:56:54.169780,192.168.0.112
2011,6,2,2,69,"-1,-4,179",0,0,7,-1,0,0,64,67,69,0,90,-20.44,40,18.0,15.0,-1004.0,11:56:54.271883,192.168.0.112
2016,6,2,2,69,"-1,-4,179",0,0,7,-1,0,0,64,67,69,0,90,-20.46,40,15.0,11.0,-1005.0,11:56:54.373724,192.168.0.112
2021,6,7,1,68,"-3,-4,179",0,0,7,-1,0,0,64,67,68,0,90,-20.39,40,9.0,19.0,-1003.0,11:56:54.476556,192.168.0.112
2026,6,7,1,68,"-3,-4,179",0,0,7,-1,0,0,64,67,69,0,90,-20.4,40,17.0,1.0,-991.0,11:56:54.577667,192.168.0.112
2031,6,7,1,68,"-3,-4,179",0,0,7,-1,0,0,64,67,68,0,90,-20.36,40,21.0,7.0,-1002.0,11:56:54.679723,192.168.0.112
2036,6,7,1,68,"-3,-4,179",0,-1,7,-1,0,0,64,67,68,0,90,-20.37,40,28.0,-4.0,-1007.0,11:56:54.781476,192.168.0.112
2041,6,7,1,68,"-3,-4,179",1,0,7,-1,0,0,64,67,69,0,89,-20.41,40,0.0,16.0,-1019.0,11:56:54.886262,192.168.0.112
2045,6,7,1,68,"-3,-4,179",2,0,6,0,0,0,64,67,69,0,89,-20.47,40,12.0,0.0,-994.0,11:56:54.934749,192.168.0.112
2051,6,13,0,67,"-2,-4,179",1,0,6,0,0,0,64,67,69,0,89,-20.43,40,17.0,5.0,-997.0,11:56:55.087687,192.168.0.112
2056,6,13,0,67,"-2,-4,179",0,0,6,0,0,0,64,67,69,0,89,-20.41,41,14.0,9.0,-999.0,11:56:55.189768,192.168.0.112
2061,6,13,0,67,"-2,-4,179",0,0,6,0,0,0,64,66,69,0,89,-20.46,41,19.0,9.0,-969.0,11:56:55.291792,192.168.0.112
2066,6,13,0,67,"-2,-4,179",0,0,6,0,0,0,64,66,69,0,89,-20.42,41,21.0,-5.0,-928.0,11:56:55.394526,192.168.0.112
2071,6,13,0,67,"-2,-4,179",0,0,6,0,0,0,64,66,68,0,89,-20.38,41,9.0,11.0,-924.0,11:56:55.495913,192.168.0.112
2076,6,13,0,67,"-2,-4,179",0,0,6,0,0,-1,64,66,67,0,89,-20.48,41,26.0,4.0,-927.0,11:56:55.597622,192.168.0.112
2079,6,13,0,67,"-2,-4,179",0,0,6,0,0,-2,64,66,65,0,89,-20.48,41,17.0,-4.0,-920.0,11:56:55.648993,192.168.0.112
2084,6,18,1,66,"-1,-3,179",0,0,7,0,0,-2,64,66,62,0,89,-20.53,41,18.0,4.0,-929.0,11:56:55.754970,192.168.0.112
2090,6,18,1,66,"-1,-3,179",0,0,7,0,0,-3,64,66,58,0,89,-20.57,41,-1.0,19.0,-951.0,11:56:55.852723,192.168.0.112
2095,6,18,1,66,"-1,-3,179",0,0,7,0,0,-4,64,66,54,0,89,-20.67,41,18.0,-4.0,-984.0,11:56:55.954582,192.168.0.112
2100,6,18,1,66,"-1,-3,179",0,0,7,0,0,-4,64,66,50,-10,89,-20.72,41,22.0,1.0,-988.0,11:56:56.056813,192.168.0.112
2105,6,18,1,66,"-1,-3,179",0,0,7,0,0,-4,64,66,45,-10,89,-20.76,42,22.0,-10.0,-979.0,11:56:56.158801,192.168.0.112
2110,6,18,1,66,"-1,-3,179",0,0,7,0,0,-4,65,66,41,-10,89,-20.71,42,30.0,-1.0,-1015.0,11:56:56.260803,192.168.0.112
2115,6,17,2,52,"0,-4,178",0,0,7,0,0,-4,65,66,34,-20,89,-20.74,42,10.0,2.0,-996.0,11:56:56.362933,192.168.0.112
2120,6,17,2,52,"0,-4,178",0,0,7,0,0,-4,65,66,29,-20,89,-20.74,42,8.0,8.0,-991.0,11:56:56.464655,192.168.0.112
2125,6,17,2,52,"0,-4,178",0,0,7,0,0,-4,65,66,25,-30,89,-20.82,42,-6.0,39.0,-999.0,11:56:56.568120,192.168.0.112
2130,6,17,2,52,"0,-4,178",0,0,7,0,0,-4,65,66,18,-30,89,-20.66,42,26.0,34.0,-1022.0,11:56:56.668740,192.168.0.112
2135,6,17,2,52,"0,-4,178",-1,0,7,0,0,-4,65,66,13,-40,89,-20.98,42,-2.0,73.0,-990.0,11:56:56.773201,192.168.0.112
2140,6,17,2,52,"0,-4,178",0,-2,7,0,0,-4,65,66,11,-40,89,-21.56,42,-11.0,-35.0,-1110.0,11:56:56.872451,192.168.0.112
2145,6,17,2,52,"0,-4,178",0,-2,7,0,0,-4,65,66,10,-50,89,-22.37,42,-3.0,-36.0,-1080.0,11:56:56.974562,192.168.0.112
2150,6,17,2,52,"0,-4,178",0,0,6,0,0,-3,65,66,10,-50,89,-23.85,42,20.0,-13.0,-1013.0,11:56:57.076826,192.168.0.112
2155,6,17,2,52,"0,-4,178",0,0,6,0,0,-3,65,66,10,-50,89,-23.99,43,37.0,330.0,-1170.0,11:56:57.178679,192.168.0.112
2160,6,17,2,52,"0,-4,178",-5,3,7,-1,0,0,65,67,6553,-60,89,-23.57,43,-22.0,-185.0,-839.0,11:56:57.280617,192.168.0.112
2165,6,17,2,52,"0,-4,178",-1,0,9,-1,0,0,65,67,6553,-60,89,-23.55,43,-106.0,-43.0,-1186.0,11:56:57.382723,192.168.0.112
2170,6,17,2,52,"0,-4,178",-1,0,10,-1,0,0,65,67,6553,-60,89,-22.91,43,-28.0,0.0,-1006.0,11:56:57.486039,192.168.0.112
2175,6,17,2,52,"0,-4,178",-1,0,10,-1,0,0,65,67,6553,-60,89,-22.6,43,-14.0,-6.0,-1000.0,11:56:57.586848,192.168.0.112
2180,6,17,2,52,"0,-4,178",-1,0,10,-1,0,0,65,67,6553,-60,89,-22.34,43,-3.0,0.0,-1005.0,11:56:57.688747,192.168.0.112
2186,6,17,2,52,"0,-4,178",-1,0,10,-1,0,0,65,67,6553,-60,89,-22.39,43,-21.0,-1.0,-1001.0,11:56:57.790717,192.168.0.112
2191,6,17,2,52,"0,-4,178",-1,0,10,-1,0,0,65,67,6553,-60,89,-22.25,43,-6.0,0.0,-996.0,11:56:57.892635,192.168.0.112
2196,6,17,2,52,"0,-4,178",-1,0,10,-1,0,0,65,67,6553,-60,89,-22.23,43,-30.0,1.0,-1005.0,11:56:57.994615,192.168.0.112
2201,6,17,2,52,"0,-4,178",-1,0,10,-1,0,0,65,67,6553,-50,89,-21.86,43,-18.0,-1.0,-1002.0,11:56:58.096662,192.168.0.112
2206,6,17,2,52,"0,-4,178",-1,0,10,-1,0,0,65,67,6553,0,89,-21.68,43,-17.0,0.0,-1002.0,11:56:58.198551,192.168.0.112
2211,-2,-200,-200,-200,"-1,-1,-1",-1,0,10,-2,0,0,64,66,6553,0,89,-21.52,43,-17.0,-5.0,-999.0,11:56:58.300530,192.168.0.112
