,mid,x,y,z,mpry,pitch,roll,yaw,vgx,vgy,vgz,templ,temph,tof,h,bat,baro,time,agx,agy,agz,timestamp,address
4,-1,-100,-100,-100,"-1,-1,-1",0,0,3,0,0,0,60,63,10,0,94,-21.71,0,12.0,-5.0,-997.0,11:56:13.807365,192.168.0.115
9,-1,-100,-100,-100,"-1,-1,-1",0,0,3,0,0,0,60,63,10,0,94,-21.67,0,13.0,-6.0,-1000.0,11:56:14.014889,192.168.0.115
14,-1,-100,-100,-100,"-1,-1,-1",0,0,3,0,0,0,60,63,10,0,94,-21.7,0,11.0,-6.0,-998.0,11:56:14.015226,192.168.0.115
19,-1,-100,-100,-100,"-1,-1,-1",0,0,3,0,0,0,60,63,10,0,94,-21.65,0,13.0,-7.0,-1001.0,11:56:14.222645,192.168.0.115
21,-1,-100,-100,-100,"-1,-1,-1",0,0,3,0,0,0,60,63,10,0,94,-21.69,0,14.0,-7.0,-1000.0,11:56:14.223079,192.168.0.115
26,-1,-100,-100,-100,"-1,-1,-1",0,0,3,0,0,0,60,63,10,0,94,-21.69,0,20.0,-6.0,-997.0,11:56:14.230471,192.168.0.115
31,-1,-100,-100,-100,"-1,-1,-1",0,0,3,0,0,0,60,63,10,0,94,-21.69,0,18.0,-10.0,-998.0,11:56:14.429589,192.168.0.115
37,-1,-100,-100,-100,"-1,-1,-1",0,0,3,0,0,0,60,63,10,0,94,-21.69,0,0.0,-4.0,-998.0,11:56:14.435635,192.168.0.115
42,-1,-100,-100,-100,"-1,-1,-1",0,0,3,0,0,0,60,63,10,0,94,-21.69,0,17.0,4.0,-1000.0,11:56:14.636833,192.168.0.115
47,-1,-100,-100,-100,"-1,-1,-1",0,0,3,0,0,0,61,63,10,0,94,-21.69,0,10.0,-12.0,-1169.0,11:56:14.638173,192.168.0.115
52,-1,-100,-100,-100,"-1,-1,-1",0,0,2,0,0,-1,61,63,14,-10,94,-21.69,0,12.0,-1.0,-1351.0,11:56:14.844195,192.168.0.115
57,-1,-100,-100,-100,"-1,-1,-1",0,0,3,0,0,-5,61,63,13,-10,94,-21.69,0,2.0,-13.0,-1311.0,11:56:14.845082,192.168.0.115
62,-1,-100,-100,-100,"-1,-1,-1",1,0,3,0,0,-6,61,63,17,0,94,-21.35,0,-7.0,-16.0,-1119.0,11:56:15.050467,192.168.0.115
67,-1,-100,-100,-100,"-1,-1,-1",0,1,3,0,0,-6,61,63,24,0,94,-21.27,0,7.0,-21.0,-1046.0,11:56:15.051251,192.168.0.115
72,-1,-100,-100,-100,"-1,-1,-1",0,0,3,0,0,-6,61,63,34,0,94,-21.19,1,6.0,-11.0,-1010.0,11:56:15.257545,192.168.0.115
77,1,17,3,36,"0,2,177",0,0,2,0,0,-6,61,63,46,0,94,-21.09,1,7.0,2.0,-967.0,11:56:15.258337,192.168.0.115
82,1,17,1,51,"0,1,179",0,0,2,0,0,-5,61,63,56,0,94,-21.0,1,-2.0,-4.0,-946.0,11:56:15.351877,192.168.0.115
88,1,17,0,56,"0,0,-179",0,0,2,0,0,-4,61,63,66,0,94,-20.9,1,5.0,-9.0,-907.0,11:56:15.454373,192.168.0.115
93,1,16,4,65,"0,2,177",0,0,2,0,0,-3,61,63,74,0,94,-20.82,1,24.0,-21.0,-898.0,11:56:15.557413,192.168.0.115
98,1,9,5,79,"-4,1,176",0,0,2,0,0,-2,60,63,81,0,94,-20.8,1,0.0,-9.0,-905.0,11:56:15.658530,192.168.0.115
103,1,10,6,83,"-3,1,176",0,0,3,0,0,-1,60,63,88,10,94,-20.7,1,0.0,4.0,-919.0,11:56:15.760526,192.168.0.115
108,1,6,4,94,"-5,1,177",0,0,3,0,0,0,60,63,94,10,94,-20.71,1,-1.0,-9.0,-921.0,11:56:15.862536,192.168.0.115
113,1,6,5,96,"-5,1,177",0,0,3,0,0,0,60,63,99,10,94,-20.59,1,4.0,-17.0,-912.0,11:56:15.964294,192.168.0.115
118,1,8,6,102,"-3,1,176",0,0,3,0,0,0,60,63,105,10,94,-20.47,1,-3.0,6.0,-926.0,11:56:16.066339,192.168.0.115
123,1,5,5,107,"-4,1,177",0,0,3,0,0,0,60,63,109,20,94,-20.45,2,11.0,-11.0,-918.0,11:56:16.168028,192.168.0.115
128,1,6,7,109,"-3,1,176",0,0,3,0,0,0,60,63,112,20,94,-20.45,2,7.0,-3.0,-923.0,11:56:16.270227,192.168.0.115
133,1,7,2,113,"-2,0,179",0,0,3,0,0,1,60,63,115,20,94,-20.35,2,8.0,-6.0,-923.0,11:56:16.373820,192.168.0.115
138,1,2,9,115,"-4,1,176",0,0,3,0,0,1,60,63,117,20,94,-20.4,2,5.0,-23.0,-929.0,11:56:16.474365,192.168.0.115
143,1,9,11,117,"-1,1,175",0,0,3,0,0,1,60,63,118,30,94,-20.43,2,7.0,-12.0,-946.0,11:56:16.576313,192.168.0.115
148,4,51,-58,92,"16,0,-171",0,0,3,0,0,2,61,64,119,30,94,-20.34,2,9.0,-6.0,-943.0,11:56:16.678301,192.168.0.115
153,4,32,-71,93,"9,-1,-165",0,0,3,0,0,2,61,64,120,30,94,-20.36,2,0.0,-6.0,-949.0,11:56:16.780205,192.168.0.115
158,1,6,6,121,"-2,1,178",0,0,3,0,0,2,61,64,120,30,94,-20.32,2,3.0,-9.0,-955.0,11:56:16.882498,192.168.0.115
163,1,3,6,122,"-4,1,178",0,0,3,0,0,2,61,64,118,30,94,-20.31,2,0.0,7.0,-959.0,11:56:16.984347,192.168.0.115
168,1,6,3,121,"-2,1,-179",0,0,3,0,0,2,61,64,118,30,94,-20.42,2,0.0,1.0,-963.0,11:56:17.089330,192.168.0.115
173,1,6,8,120,"-2,1,178",0,0,3,0,0,2,61,64,117,30,94,-20.43,3,-11.0,2.0,-974.0,11:56:17.188260,192.168.0.115
178,1,5,10,118,"-2,1,177",0,0,3,0,0,2,61,64,115,30,94,-20.39,3,0.0,-9.0,-975.0,11:56:17.290421,192.168.0.115
183,1,2,8,117,"-4,1,178",0,0,3,0,0,2,61,64,114,30,94,-20.41,3,17.0,0.0,-984.0,11:56:17.392629,192.168.0.115
187,4,42,-57,93,"13,0,-170",0,0,3,0,0,2,61,64,111,30,94,-20.46,3,-7.0,-6.0,-987.0,11:56:17.443366,192.168.0.115
192,1,1,9,114,"-5,1,178",0,0,3,0,0,2,61,64,109,30,94,-20.52,3,4.0,-5.0,-988.0,11:56:17.545796,192.168.0.115
197,1,6,9,111,"-2,1,178",0,0,3,0,0,2,60,63,107,30,94,-20.41,3,0.0,-9.0,-986.0,11:56:17.647245,192.168.0.115
202,1,3,7,109,"-4,1,179",0,0,3,0,0,2,60,63,104,30,94,-20.47,3,3.0,-13.0,-984.0,11:56:17.749062,192.168.0.115
207,1,6,8,107,"-3,1,179",0,0,3,0,0,2,60,63,102,20,94,-20.48,3,-5.0,-6.0,-995.0,11:56:17.851223,192.168.0.115
212,1,8,5,105,"-2,0,-179",0,0,3,0,0,2,60,63,99,20,94,-20.51,3,1.0,-16.0,-994.0,11:56:17.953328,192.168.0.115
218,1,6,7,102,"-3,1,179",0,0,3,0,0,2,60,63,96,20,94,-20.56,3,2.0,-9.0,-1000.0,11:56:18.055786,192.168.0.115
224,1,6,9,99,"-3,1,178",0,0,3,0,0,2,60,63,94,20,94,-20.63,4,-2.0,0.0,-1010.0,11:56:18.165422,192.168.0.115
228,1,5,5,99,"-3,0,-179",0,0,3,0,0,2,60,63,92,20,94,-20.63,4,0.0,-3.0,-1005.0,11:56:18.259497,192.168.0.115
233,1,5,6,94,"-3,1,179",0,0,3,0,0,1,60,63,89,20,94,-20.66,4,5.0,-13.0,-1002.0,11:56:18.361347,192.168.0.115
238,1,5,7,92,"-3,1,179",0,0,3,0,0,1,60,63,87,10,94,-20.66,4,-2.0,-13.0,-1016.0,11:56:18.463299,192.168.0.115
243,1,5,8,90,"-3,1,178",0,0,3,0,0,1,60,63,85,10,94,-20.66,4,-4.0,-9.0,-1010.0,11:56:18.566367,192.168.0.115
248,1,7,6,87,"-2,1,179",0,0,3,0,0,1,61,64,83,10,94,-20.68,4,5.0,-15.0,-1017.0,11:56:18.667305,192.168.0.115
253,1,6,5,85,"-2,1,-179",0,0,3,0,0,1,61,64,81,10,94,-20.8,4,18.0,-19.0,-1014.0,11:56:18.774978,192.168.0.115
258,1,6,4,84,"-2,0,-179",0,0,3,0,0,1,61,64,80,10,94,-20.8,4,-7.0,-7.0,-1022.0,11:56:18.871187,192.168.0.115
263,1,5,5,82,"-3,1,179",0,0,3,0,0,0,61,64,78,10,94,-20.68,4,1.0,-7.0,-1019.0,11:56:18.975076,192.168.0.115
268,1,5,4,81,"-3,0,-179",0,0,3,0,0,0,61,64,77,10,94,-20.75,4,-1.0,-18.0,-1003.0,11:56:19.075117,192.168.0.115
273,1,5,4,80,"-4,0,-179",0,0,3,0,0,0,61,64,76,0,94,-20.78,5,2.0,-13.0,-1010.0,11:56:19.177886,192.168.0.115
278,1,6,5,79,"-3,0,179",0,0,3,0,0,0,61,64,75,0,94,-20.78,5,-9.0,-4.0,-1020.0,11:56:19.279475,192.168.0.115
283,1,8,4,78,"-2,0,-179",0,0,3,0,0,0,61,64,74,0,94,-20.69,5,7.0,-13.0,-1004.0,11:56:19.381440,192.168.0.115
288,1,7,4,77,"-3,0,179",0,0,3,0,0,0,61,64,73,0,94,-20.74,5,-7.0,-7.0,-1011.0,11:56:19.483093,192.168.0.115
293,1,8,5,76,"-3,1,178",0,0,3,0,0,0,61,64,73,0,94,-20.77,5,-6.0,5.0,-1024.0,11:56:19.585292,192.168.0.115
298,1,6,4,76,"-3,0,179",0,0,3,0,0,0,61,64,73,0,94,-20.78,5,-1.0,-6.0,-1006.0,11:56:19.687279,192.168.0.115
303,1,7,4,76,"-3,0,179",0,0,3,0,0,0,61,64,73,0,94,-20.79,5,-4.0,-11.0,-1007.0,11:56:19.790962,192.168.0.115
308,1,9,5,75,"-2,1,178",0,0,3,0,0,0,61,64,72,0,94,-20.78,5,1.0,0.0,-1003.0,11:56:19.891258,192.168.0.115
313,1,8,4,75,"-3,1,178",0,0,3,0,0,0,61,64,73,0,94,-20.74,5,2.0,-2.0,-1006.0,11:56:19.993142,192.168.0.115
318,1,9,5,75,"-2,1,178",0,0,3,0,0,0,61,64,73,0,94,-20.72,5,-3.0,-3.0,-1012.0,11:56:20.095180,192.168.0.115
323,1,8,5,75,"-2,1,177",0,0,3,0,0,0,61,64,73,0,94,-20.74,6,-2.0,0.0,-1003.0,11:56:20.197308,192.168.0.115
328,1,10,2,75,"-1,0,179",0,0,3,0,0,0,61,64,73,0,94,-20.64,6,0.0,-8.0,-994.0,11:56:20.299012,192.168.0.115
333,1,8,4,76,"-3,1,177",0,0,3,0,0,0,61,64,73,0,94,-20.67,6,-5.0,-1.0,-997.0,11:56:20.401211,192.168.0.115
338,1,8,6,76,"-3,1,176",0,0,3,0,0,0,61,64,74,0,94,-20.69,6,-10.0,-8.0,-1006.0,11:56:20.503258,192.168.0.115
343,1,8,5,76,"-3,1,177",0,0,3,0,0,0,61,64,73,0,94,-20.71,6,-4.0,-17.0,-998.0,11:56:20.605129,192.168.0.115
348,1,8,5,76,"-3,1,177",0,0,3,0,0,0,62,65,74,0,94,-20.73,6,-1.0,-12.0,-997.0,11:56:20.707334,192.168.0.115
353,1,8,5,76,"-3,1,177",0,0,3,0,0,0,62,65,74,0,94,-20.69,6,-1.0,-5.0,-1000.0,11:56:20.809044,192.168.0.115
358,1,8,5,76,"-3,1,177",0,0,3,0,0,0,62,65,74,0,94,-20.72,6,0.0,14.0,-1006.0,11:56:20.911075,192.168.0.115
363,1,8,4,77,"-3,1,178",0,0,3,0,0,0,62,65,74,0,94,-20.66,6,-1.0,-2.0,-996.0,11:56:21.013087,192.168.0.115
368,1,7,5,77,"-4,1,177",0,0,3,0,0,0,62,65,74,0,94,-20.66,6,6.0,-7.0,-999.0,11:56:21.115170,192.168.0.115
373,1,8,4,77,"-3,1,177",0,0,3,0,0,0,62,65,74,0,94,-20.7,7,-4.0,-4.0,-1001.0,11:56:21.217219,192.168.0.115
378,1,8,4,77,"-3,1,177",0,0,3,0,0,0,62,65,75,0,94,-20.73,7,0.0,-7.0,-993.0,11:56:21.319106,192.168.0.115
383,1,7,4,77,"-4,1,178",0,0,3,0,0,0,62,65,75,0,94,-20.74,7,1.0,0.0,-1000.0,11:56:21.421426,192.168.0.115
388,1,7,3,78,"-4,1,178",0,0,3,0,0,0,62,65,75,0,94,-20.68,7,8.0,-6.0,-995.0,11:56:21.523365,192.168.0.115
393,1,7,4,78,"-4,1,178",0,0,3,0,0,0,62,65,75,0,94,-20.66,7,-1.0,-4.0,-1001.0,11:56:21.625203,192.168.0.115
398,1,7,4,78,"-4,1,178",0,0,3,0,0,0,61,65,76,0,94,-20.72,7,0.0,-12.0,-1005.0,11:56:21.727072,192.168.0.115
403,1,8,3,78,"-3,1,179",0,0,3,0,0,0,61,65,75,0,94,-20.73,7,14.0,-7.0,-980.0,11:56:21.829174,192.168.0.115
408,1,8,4,78,"-4,1,178",0,0,3,0,0,0,61,65,75,0,94,-20.71,7,11.0,-15.0,-986.0,11:56:21.931204,192.168.0.115
413,1,8,3,78,"-3,1,178",0,0,3,0,0,0,61,65,76,0,94,-20.68,7,-1.0,-15.0,-990.0,11:56:22.033054,192.168.0.115
418,1,8,4,78,"-4,1,177",0,0,3,0,0,0,61,65,75,0,94,-20.79,7,-2.0,0.0,-986.0,11:56:22.084252,192.168.0.115
423,1,7,3,78,"-4,1,178",0,0,3,0,0,0,61,65,76,0,94,-20.75,8,-2.0,7.0,-999.0,11:56:22.186042,192.168.0.115
428,1,8,4,78,"-4,1,178",0,0,3,0,0,0,61,65,76,0,94,-20.74,8,-2.0,-3.0,-1001.0,11:56:22.288051,192.168.0.115
433,1,8,4,78,"-3,1,178",0,0,3,0,0,0,61,65,76,0,94,-20.75,8,6.0,-3.0,-1010.0,11:56:22.390183,192.168.0.115
438,1,9,4,78,"-3,1,177",0,0,3,0,0,0,61,65,76,0,94,-20.75,8,4.0,3.0,-993.0,11:56:22.491963,192.168.0.115
443,1,8,4,78,"-4,1,178",0,0,3,0,0,0,61,65,76,0,94,-20.7,8,4.0,-2.0,-999.0,11:56:22.594855,192.168.0.115
448,1,7,4,78,"-4,1,178",0,0,3,0,0,0,60,65,76,0,94,-20.75,8,4.0,-3.0,-1002.0,11:56:22.696320,192.168.0.115
453,1,8,4,78,"-4,1,178",0,0,3,0,0,0,60,65,76,0,94,-20.71,8,7.0,-6.0,-995.0,11:56:22.797669,192.168.0.115
458,1,8,5,78,"-4,1,177",0,0,3,0,0,0,60,65,75,0,94,-20.77,8,1.0,-2.0,-1008.0,11:56:22.899775,192.168.0.115
463,1,9,4,78,"-3,1,178",0,0,3,0,0,0,60,65,75,0,94,-20.75,8,-3.0,15.0,-1001.0,11:56:23.002745,192.168.0.115
468,1,10,1,78,"-2,0,-179",0,0,3,0,0,0,60,65,76,0,94,-20.76,8,3.0,0.0,-1010.0,11:56:23.106225,192.168.0.115
473,1,10,1,78,"-2,0,-179",0,0,3,0,0,0,60,65,76,0,94,-20.72,9,-1.0,-4.0,-987.0,11:56:23.206813,192.168.0.115
478,1,10,1,78,"-2,0,-179",0,0,3,0,0,0,60,65,76,0,94,-20.67,9,-6.0,-5.0,-1002.0,11:56:23.308842,192.168.0.115
483,1,8,4,78,"-4,1,178",0,0,3,0,0,0,60,65,76,0,94,-20.67,9,-2.0,-18.0,-988.0,11:56:23.411003,192.168.0.115
488,1,8,4,78,"-4,1,178",0,0,3,0,0,0,60,65,75,0,94,-20.73,9,0.0,-12.0,-1006.0,11:56:23.513077,192.168.0.115
493,1,10,1,78,"-2,0,-179",-2,1,3,0,0,0,60,65,75,0,94,-20.74,9,3.0,-15.0,-964.0,11:56:23.615010,192.168.0.115
498,1,10,1,78,"-2,0,-179",-3,2,3,0,0,0,62,65,75,0,94,-20.76,9,6.0,-9.0,-987.0,11:56:23.717684,192.168.0.115
503,1,10,3,77,"0,1,-179",-2,1,3,1,0,0,62,65,74,0,94,-20.72,9,-7.0,-4.0,-999.0,11:56:23.819981,192.168.0.115
508,1,10,3,77,"0,1,-179",-1,0,3,1,0,0,62,65,73,0,94,-20.74,9,-14.0,-17.0,-998.0,11:56:23.922543,192.168.0.115
513,1,14,5,75,"-1,1,175",0,-1,3,1,0,0,62,65,73,0,94,-20.74,9,-7.0,14.0,-997.0,11:56:24.025154,192.168.0.115
518,1,14,5,75,"-1,1,175",0,0,3,1,0,0,62,65,73,0,94,-20.75,9,-7.0,-10.0,-1006.0,11:56:24.127478,192.168.0.115
523,1,14,5,75,"-1,1,175",0,0,3,1,0,0,62,65,72,0,94,-20.76,10,3.0,-1.0,-1003.0,11:56:24.227029,192.168.0.115
528,1,20,3,73,"0,1,178",0,0,3,1,0,0,62,65,71,0,94,-20.78,10,-5.0,-19.0,-1001.0,11:56:24.328762,192.168.0.115
533,1,20,3,73,"0,1,178",1,0,3,0,0,0,62,65,71,0,94,-20.77,10,-18.0,0.0,-1001.0,11:56:24.430909,192.168.0.115
538,1,23,4,72,"-1,1,177",1,0,3,0,0,0,62,65,71,0,94,-20.76,10,-7.0,8.0,-1015.0,11:56:24.533030,192.168.0.115
543,1,23,4,72,"-1,1,177",0,0,3,0,0,0,62,65,71,0,94,-20.75,10,0.0,-3.0,-1018.0,11:56:24.635065,192.168.0.115
548,1,25,0,71,"0,0,-179",0,0,3,0,0,0,62,64,71,0,94,-20.77,10,-1.0,0.0,-1005.0,11:56:24.737053,192.168.0.115
554,1,25,0,71,"0,0,-179",0,0,3,0,0,0,62,64,71,0,94,-20.81,10,-6.0,1.0,-1012.0,11:56:24.839033,192.168.0.115
559,1,23,2,72,"0,1,178",0,0,3,0,0,0,62,64,71,0,94,-20.76,10,0.0,2.0,-1003.0,11:56:24.941362,192.168.0.115
564,1,23,2,72,"0,1,178",0,0,3,0,0,0,62,64,71,0,94,-20.73,10,9.0,-10.0,-992.0,11:56:25.042557,192.168.0.115
569,1,23,2,72,"0,1,178",0,0,3,0,0,0,62,64,71,0,94,-20.73,11,-1.0,-2.0,-998.0,11:56:25.144906,192.168.0.115
574,1,22,3,73,"-1,1,179",-1,0,3,0,0,0,62,64,71,0,94,-20.82,11,-7.0,4.0,-996.0,11:56:25.246920,192.168.0.115
579,1,22,3,73,"-1,1,179",-1,0,3,0,0,0,62,64,71,0,94,-20.76,11,3.0,6.0,-997.0,11:56:25.348903,192.168.0.115
584,1,24,7,72,"1,2,176",-1,0,3,0,0,0,62,64,72,0,94,-20.74,11,2.0,-4.0,-992.0,11:56:25.450846,192.168.0.115
589,1,24,7,72,"1,2,176",-1,0,3,1,0,0,62,64,71,0,94,-20.78,11,-6.0,3.0,-999.0,11:56:25.553999,192.168.0.115
594,1,25,6,73,"0,1,177",-1,0,3,1,0,0,62,64,72,0,94,-20.78,11,2.0,6.0,-997.0,11:56:25.655010,192.168.0.115
599,1,25,6,73,"0,1,177",-1,0,3,1,0,0,62,66,72,0,94,-20.77,11,0.0,-11.0,-993.0,11:56:25.756841,192.168.0.115
604,1,28,6,72,"2,1,177",-1,0,2,1,0,0,62,66,72,0,94,-20.75,11,3.0,-9.0,-987.0,11:56:25.858927,192.168.0.115
609,1,28,6,72,"2,1,177",-1,0,2,1,0,0,62,66,72,0,94,-20.78,11,-14.0,3.0,-1001.0,11:56:25.961049,192.168.0.115
614,1,28,6,72,"2,1,177",-1,0,2,1,0,0,62,66,72,0,94,-20.78,11,-12.0,8.0,-995.0,11:56:26.063048,192.168.0.115
619,1,33,4,72,"2,1,178",-1,0,2,1,0,0,62,66,72,0,94,-20.79,12,-15.0,1.0,-997.0,11:56:26.165011,192.168.0.115
624,1,33,4,72,"2,1,178",-1,0,2,1,0,0,62,66,72,0,94,-20.71,12,-18.0,0.0,-1003.0,11:56:26.266704,192.168.0.115
629,1,35,4,74,"0,1,179",-1,0,2,1,0,0,62,66,72,0,94,-20.7,12,-13.0,17.0,-998.0,11:56:26.368934,192.168.0.115
635,1,35,4,74,"0,1,179",-1,0,2,1,0,0,62,66,72,0,94,-20.73,12,-23.0,7.0,-1009.0,11:56:26.471436,192.168.0.115
640,1,37,9,74,"0,2,176",-1,0,2,1,0,0,62,66,72,0,94,-20.74,12,-15.0,4.0,-1000.0,11:56:26.573394,192.168.0.115
645,1,37,9,74,"0,2,176",-1,0,2,1,0,0,62,66,71,0,94,-20.75,12,-12.0,-6.0,-996.0,11:56:26.674821,192.168.0.115
650,1,37,9,74,"0,2,176",-1,0,2,1,0,0,62,66,71,0,94,-20.79,12,-23.0,12.0,-999.0,11:56:26.776797,192.168.0.115
655,1,37,9,74,"0,2,176",0,0,2,1,0,0,62,66,71,0,94,-20.79,12,-9.0,-1.0,-994.0,11:56:26.878802,192.168.0.115
660,1,37,9,74,"0,2,176",0,0,2,1,0,0,62,66,71,0,94,-20.71,12,-10.0,6.0,-998.0,11:56:26.981213,192.168.0.115
665,1,37,9,74,"0,2,176",0,0,2,1,0,0,62,66,70,0,94,-20.75,12,-12.0,1.0,-996.0,11:56:27.082880,192.168.0.115
670,1,37,9,74,"0,2,176",-1,0,2,1,0,0,62,66,71,0,94,-20.75,13,-16.0,-3.0,-999.0,11:56:27.184838,192.168.0.115
675,1,37,9,74,"0,2,176",-1,0,2,1,0,0,62,66,71,0,94,-20.76,13,-23.0,6.0,-1006.0,11:56:27.288684,192.168.0.115
680,1,37,9,74,"0,2,176",-1,0,2,1,0,0,62,66,71,0,94,-20.77,13,-25.0,8.0,-991.0,11:56:27.389027,192.168.0.115
685,1,37,9,74,"0,2,176",-1,0,2,1,0,0,62,66,71,0,94,-20.73,13,-13.0,-5.0,-994.0,11:56:27.491220,192.168.0.115
690,1,37,9,74,"0,2,176",0,0,2,1,0,0,62,66,71,0,94,-20.77,13,-30.0,-5.0,-997.0,11:56:27.592848,192.168.0.115
693,1,37,9,74,"0,2,176",-1,0,2,1,0,0,62,66,71,0,94,-20.72,13,-5.0,-9.0,-985.0,11:56:27.643892,192.168.0.115
699,1,37,9,74,"0,2,176",-1,0,2,1,0,0,63,66,71,0,94,-20.77,13,-25.0,0.0,-1006.0,11:56:27.745690,192.168.0.115
704,1,37,9,74,"0,2,176",-1,0,2,1,0,0,63,66,71,0,94,-20.73,13,-4.0,-6.0,-996.0,11:56:27.848154,192.168.0.115
709,1,37,9,74,"0,2,176",-1,0,2,1,0,0,63,66,71,0,94,-20.79,13,-14.0,8.0,-1004.0,11:56:27.949791,192.168.0.115
714,1,37,9,74,"0,2,176",-1,0,2,1,0,0,63,66,71,0,94,-20.8,13,-22.0,6.0,-1011.0,11:56:28.051846,192.168.0.115
719,1,37,9,74,"0,2,176",-1,0,3,1,0,0,63,66,71,0,94,-20.74,14,-6.0,-10.0,-998.0,11:56:28.153805,192.168.0.115
724,1,37,9,74,"0,2,176",-1,0,3,1,0,0,63,66,71,0,94,-20.73,14,-24.0,-4.0,-992.0,11:56:28.255819,192.168.0.115
729,1,37,9,74,"0,2,176",-1,0,3,1,0,0,63,66,71,0,94,-20.79,14,-12.0,-10.0,-982.0,11:56:28.357941,192.168.0.115
734,1,37,9,74,"0,2,176",-1,0,3,1,0,0,63,66,70,0,94,-20.77,14,-13.0,-2.0,-998.0,11:56:28.459637,192.168.0.115
739,1,37,9,74,"0,2,176",-1,0,3,1,0,0,63,66,71,0,94,-20.84,14,-22.0,6.0,-993.0,11:56:28.561841,192.168.0.115
744,1,37,9,74,"0,2,176",-1,0,3,1,0,0,63,66,70,0,94,-20.79,14,-14.0,-2.0,-998.0,11:56:28.663864,192.168.0.115
749,1,37,9,74,"0,2,176",-1,0,3,1,0,0,63,66,70,0,94,-20.75,14,-28.0,-17.0,-1004.0,11:56:28.765712,192.168.0.115
754,1,37,9,74,"0,2,176",-1,0,3,1,0,0,63,66,70,0,94,-20.76,14,-16.0,-19.0,-997.0,11:56:28.867727,192.168.0.115
759,1,37,9,74,"0,2,176",-1,0,3,1,0,0,63,66,70,0,94,-20.81,14,-18.0,-11.0,-1009.0,11:56:28.970081,192.168.0.115
764,1,37,9,74,"0,2,176",-1,0,3,1,0,0,63,66,70,0,94,-20.86,14,-3.0,-13.0,-991.0,11:56:29.071694,192.168.0.115
769,1,37,9,74,"0,2,176",-1,0,3,1,0,0,63,66,70,0,94,-20.88,15,-13.0,-4.0,-992.0,11:56:29.173851,192.168.0.115
774,1,37,9,74,"0,2,176",-1,0,3,1,0,0,63,66,70,0,94,-20.78,15,12.0,-9.0,-981.0,11:56:29.276403,192.168.0.115
779,1,37,9,74,"0,2,176",-1,0,3,1,0,0,63,66,70,0,94,-20.85,15,-8.0,-18.0,-996.0,11:56:29.377826,192.168.0.115
784,1,37,9,74,"0,2,176",-1,0,3,1,0,0,63,66,70,0,94,-20.76,15,-28.0,-7.0,-1000.0,11:56:29.479741,192.168.0.115
789,1,37,9,74,"0,2,176",-1,0,3,1,0,0,63,66,70,0,94,-20.8,15,-20.0,-12.0,-984.0,11:56:29.581895,192.168.0.115
794,1,37,9,74,"0,2,176",-1,1,3,1,0,0,63,66,70,0,94,-20.76,15,-18.0,-22.0,-985.0,11:56:29.683695,192.168.0.115
799,1,37,9,74,"0,2,176",-1,1,3,1,0,0,62,66,70,0,94,-20.82,15,-22.0,-19.0,-998.0,11:56:29.785576,192.168.0.115
804,1,37,9,74,"0,2,176",-1,1,3,1,0,0,62,66,70,0,94,-20.74,15,-22.0,-19.0,-1003.0,11:56:29.887781,192.168.0.115
809,1,37,9,74,"0,2,176",0,0,3,1,0,0,62,66,70,0,94,-20.82,15,-1.0,52.0,-920.0,11:56:29.989762,192.168.0.115
814,1,37,9,74,"0,2,176",0,0,3,1,0,0,62,66,69,0,94,-20.81,15,-19.0,-44.0,-1084.0,11:56:30.091899,192.168.0.115
819,1,37,9,74,"0,2,176",-1,0,3,1,0,0,62,66,69,0,94,-20.82,16,-12.0,15.0,-951.0,11:56:30.193696,192.168.0.115
824,1,37,9,74,"0,2,176",-1,0,3,1,0,0,62,66,68,0,94,-20.75,16,-27.0,16.0,-997.0,11:56:30.295988,192.168.0.115
829,1,37,9,74,"0,2,176",0,0,3,1,0,0,62,66,68,0,94,-20.87,16,-28.0,11.0,-940.0,11:56:30.397548,192.168.0.115
834,1,37,9,74,"0,2,176",0,0,3,2,0,0,62,66,68,0,94,-20.86,16,37.0,165.0,-922.0,11:56:30.499705,192.168.0.115
839,1,37,9,74,"0,2,176",0,0,3,1,0,0,62,66,69,0,94,-20.9,16,-19.0,47.0,-954.0,11:56:30.601737,192.168.0.115
844,1,37,9,74,"0,2,176",-1,0,2,1,0,0,62,66,68,0,94,-20.89,16,14.0,-2.0,-940.0,11:56:30.703638,192.168.0.115
849,1,37,9,74,"0,2,176",-1,0,3,1,0,0,63,67,69,0,94,-20.89,16,-4.0,64.0,-890.0,11:56:30.805579,192.168.0.115
854,1,37,9,74,"0,2,176",0,0,3,1,0,0,63,67,69,0,94,-20.9,16,17.0,36.0,-918.0,11:56:30.907764,192.168.0.115
859,1,37,9,74,"0,2,176",-1,0,2,1,0,0,63,67,69,0,94,-20.82,16,-19.0,7.0,-963.0,11:56:31.009687,192.168.0.115
864,1,37,9,74,"0,2,176",-1,0,2,1,0,0,63,67,69,0,94,-20.9,16,-52.0,-5.0,-1048.0,11:56:31.111641,192.168.0.115
870,1,37,9,74,"0,2,176",-1,0,3,1,0,0,63,67,69,0,94,-20.79,17,-7.0,16.0,-959.0,11:56:31.213715,192.168.0.115
876,1,37,9,74,"0,2,176",-1,0,3,1,0,0,63,67,69,0,94,-20.73,17,-33.0,36.0,-1023.0,11:56:31.315926,192.168.0.115
881,1,37,9,74,"0,2,176",-1,0,2,2,0,0,63,67,68,0,94,-20.68,17,-36.0,-2.0,-1004.0,11:56:31.417666,192.168.0.115
884,1,37,9,74,"0,2,176",0,0,2,1,0,0,63,67,69,0,94,-20.81,17,-25.0,-9.0,-994.0,11:56:31.468455,192.168.0.115
888,-1,-100,-100,-100,"-1,-1,-1",-1,0,2,1,0,0,63,67,69,0,94,-20.84,17,22.0,-74.0,-1030.0,11:56:31.570534,192.168.0.115
893,-1,-100,-100,-100,"-1,-1,-1",-1,0,2,2,0,0,63,67,69,0,94,-20.74,17,-17.0,34.0,-967.0,11:56:31.672655,192.168.0.115
898,-1,-100,-100,-100,"-1,-1,-1",0,0,2,1,0,0,64,67,69,0,94,-20.78,17,-10.0,-19.0,-1022.0,11:56:31.774645,192.168.0.115
903,-1,-100,-100,-100,"-1,-1,-1",-1,-1,2,1,0,0,64,67,70,0,94,-20.77,17,-32.0,-20.0,-1003.0,11:56:31.876631,192.168.0.115
909,-1,-100,-100,-100,"-1,-1,-1",-1,-1,2,1,0,0,64,67,71,0,94,-20.79,17,-6.0,12.0,-1000.0,11:56:31.978691,192.168.0.115
914,-1,-100,-100,-100,"-1,-1,-1",0,-1,2,2,0,0,64,67,71,0,94,-20.73,17,20.0,92.0,-929.0,11:56:32.080915,192.168.0.115
919,-1,-100,-100,-100,"-1,-1,-1",0,-1,3,2,0,0,64,67,70,0,94,-20.8,18,-22.0,-11.0,-1090.0,11:56:32.182716,192.168.0.115
924,-1,-100,-100,-100,"-1,-1,-1",0,-1,3,2,0,0,64,67,70,0,94,-20.77,18,-3.0,28.0,-944.0,11:56:32.284513,192.168.0.115
929,-1,-100,-100,-100,"-1,-1,-1",0,-1,3,2,0,0,64,67,69,0,94,-20.85,18,36.0,79.0,-857.0,11:56:32.386683,192.168.0.115
934,-1,-100,-100,-100,"-1,-1,-1",0,0,3,2,0,0,64,67,69,0,94,-20.83,18,-37.0,-16.0,-1157.0,11:56:32.488602,192.168.0.115
939,-1,-100,-100,-100,"-1,-1,-1",0,0,3,1,0,0,64,67,69,0,94,-20.84,18,19.0,41.0,-961.0,11:56:32.590672,192.168.0.115
944,-1,-100,-100,-100,"-1,-1,-1",0,0,3,1,0,0,64,67,69,0,94,-20.77,18,-49.0,-23.0,-1043.0,11:56:32.692638,192.168.0.115
949,-1,-100,-100,-100,"-1,-1,-1",0,0,3,1,0,0,63,67,69,0,94,-20.83,18,26.0,55.0,-872.0,11:56:32.794615,192.168.0.115
954,-1,-100,-100,-100,"-1,-1,-1",-1,0,3,1,0,0,63,67,69,0,94,-20.79,18,-50.0,-11.0,-1057.0,11:56:32.896612,192.168.0.115
959,-1,-100,-100,-100,"-1,-1,-1",-2,0,3,1,0,0,63,67,69,0,94,-20.87,18,-28.0,3.0,-988.0,11:56:32.998586,192.168.0.115
964,-1,-100,-100,-100,"-1,-1,-1",-1,0,3,1,0,0,63,67,69,0,94,-20.77,18,-4.0,-1.0,-950.0,11:56:33.100733,192.168.0.115
969,-1,-100,-100,-100,"-1,-1,-1",-1,0,3,1,0,0,63,67,69,0,94,-20.83,19,-36.0,-12.0,-1015.0,11:56:33.202750,192.168.0.115
974,-1,-100,-100,-100,"-1,-1,-1",-1,0,2,1,0,0,63,67,69,0,94,-20.7,19,7.0,-7.0,-971.0,11:56:33.304476,192.168.0.115
979,-1,-100,-100,-100,"-1,-1,-1",-1,0,2,1,0,0,63,67,69,0,94,-20.76,19,-28.0,-10.0,-1012.0,11:56:33.407783,192.168.0.115
984,-1,-100,-100,-100,"-1,-1,-1",-1,0,2,1,0,0,63,67,69,0,94,-20.81,19,-54.0,-2.0,-1039.0,11:56:33.508577,192.168.0.115
989,-1,-100,-100,-100,"-1,-1,-1",-2,1,2,1,0,0,63,67,68,0,94,-20.97,19,-55.0,18.0,-1016.0,11:56:33.610616,192.168.0.115
994,-1,-100,-100,-100,"-1,-1,-1",-2,0,2,1,0,0,63,67,68,0,94,-20.82,19,-43.0,164.0,-1047.0,11:56:33.712603,192.168.0.115
999,-1,-100,-100,-100,"-1,-1,-1",3,-6,5,0,-1,1,63,67,69,0,94,-20.85,19,-77.0,7.0,-1095.0,11:56:33.814392,192.168.0.115
1004,-1,-100,-100,-100,"-1,-1,-1",2,0,2,0,-2,0,63,67,69,0,94,-20.91,19,-58.0,33.0,-985.0,11:56:33.916537,192.168.0.115
1009,-1,-100,-100,-100,"-1,-1,-1",-3,5,2,-1,-2,1,63,67,71,0,94,-20.67,19,38.0,94.0,-963.0,11:56:34.018470,192.168.0.115
1014,-1,-100,-100,-100,"-1,-1,-1",-10,7,1,0,0,0,63,67,71,0,94,-20.33,19,59.0,41.0,-1004.0,11:56:34.120642,192.168.0.115
1019,-1,-100,-100,-100,"-1,-1,-1",-6,5,1,2,1,0,63,67,70,0,94,-20.68,20,-5.0,31.0,-1000.0,11:56:34.222613,192.168.0.115
1024,-1,-100,-100,-100,"-1,-1,-1",0,-2,2,2,2,0,63,67,70,0,94,-20.94,20,-64.0,-5.0,-1086.0,11:56:34.324503,192.168.0.115
1029,-1,-100,-100,-100,"-1,-1,-1",1,-6,2,1,1,0,63,67,71,0,94,-20.76,20,-44.0,-34.0,-1103.0,11:56:34.426462,192.168.0.115
1034,-1,-100,-100,-100,"-1,-1,-1",0,-2,3,1,0,0,63,67,73,0,94,-20.7,20,-11.0,-17.0,-1021.0,11:56:34.528501,192.168.0.115
1039,-1,-100,-100,-100,"-1,-1,-1",-2,0,3,1,0,-1,63,67,74,0,94,-20.77,20,-23.0,22.0,-984.0,11:56:34.630361,192.168.0.115
1045,-1,-100,-100,-100,"-1,-1,-1",-2,0,2,1,0,-1,63,67,75,0,94,-20.68,20,-22.0,0.0,-952.0,11:56:34.733111,192.168.0.115
1050,-1,-100,-100,-100,"-1,-1,-1",-1,0,2,1,0,-1,64,68,77,0,94,-20.76,20,-24.0,-13.0,-981.0,11:56:34.834561,192.168.0.115
1055,-1,-100,-100,-100,"-1,-1,-1",-1,0,3,1,0,0,64,68,77,0,94,-20.71,20,-12.0,3.0,-994.0,11:56:34.936439,192.168.0.115
1058,-1,-100,-100,-100,"-1,-1,-1",-1,1,2,1,0,0,64,68,78,0,94,-20.83,20,-35.0,16.0,-971.0,11:56:34.987463,192.168.0.115
1066,-1,-100,-100,-100,"-1,-1,-1",-1,0,2,1,0,0,64,68,78,0,94,-20.77,20,-21.0,17.0,-997.0,11:56:35.140771,192.168.0.115
1071,-1,-100,-100,-100,"-1,-1,-1",-1,0,2,1,0,0,64,68,78,0,94,-20.7,21,-34.0,-1.0,-993.0,11:56:35.242092,192.168.0.115
1077,-1,-100,-100,-100,"-1,-1,-1",-1,0,2,1,0,0,64,68,77,0,94,-20.67,21,-27.0,-20.0,-989.0,11:56:35.345346,192.168.0.115
1082,-1,-100,-100,-100,"-1,-1,-1",-2,0,2,2,0,0,64,68,77,0,94,-20.87,21,-11.0,-31.0,-995.0,11:56:35.446334,192.168.0.115
1086,-1,-100,-100,-100,"-1,-1,-1",-2,0,2,2,0,0,64,68,78,0,94,-20.82,21,-38.0,6.0,-1040.0,11:56:35.548359,192.168.0.115
1091,-1,-100,-100,-100,"-1,-1,-1",-1,0,2,2,0,0,64,68,77,0,94,-20.91,21,-43.0,40.0,-1036.0,11:56:35.650522,192.168.0.115
1096,-1,-100,-100,-100,"-1,-1,-1",-2,0,2,2,0,0,64,68,77,0,94,-20.82,21,-29.0,-30.0,-993.0,11:56:35.752247,192.168.0.115
1102,-1,-100,-100,-100,"-1,-1,-1",-2,0,2,2,0,0,64,67,78,0,94,-20.86,21,-61.0,35.0,-1039.0,11:56:35.854458,192.168.0.115
1103,-1,-100,-100,-100,"-1,-1,-1",-2,0,2,2,0,0,64,67,77,0,94,-20.85,21,-43.0,-10.0,-982.0,11:56:35.905475,192.168.0.115
1108,-1,-100,-100,-100,"-1,-1,-1",-2,0,2,2,0,0,64,67,79,0,94,-20.86,21,-36.0,-32.0,-969.0,11:56:36.007612,192.168.0.115
1113,-1,-100,-100,-100,"-1,-1,-1",-2,0,2,2,0,0,64,67,79,0,94,-20.77,21,-11.0,-33.0,-993.0,11:56:36.109552,192.168.0.115
1118,-1,-100,-100,-100,"-1,-1,-1",-2,0,2,2,0,0,64,67,79,0,94,-20.78,22,-46.0,-7.0,-964.0,11:56:36.211350,192.168.0.115
1123,-1,-100,-100,-100,"-1,-1,-1",-2,0,2,1,0,0,64,67,78,0,94,-20.87,22,-52.0,-13.0,-974.0,11:56:36.313506,192.168.0.115
1129,-1,-100,-100,-100,"-1,-1,-1",-2,0,2,1,0,0,64,67,78,0,94,-20.84,22,-47.0,1.0,-972.0,11:56:36.415493,192.168.0.115
1134,-1,-100,-100,-100,"-1,-1,-1",-2,0,2,1,0,0,64,67,77,0,94,-20.88,22,-35.0,-24.0,-972.0,11:56:36.517826,192.168.0.115
1139,-1,-100,-100,-100,"-1,-1,-1",-2,0,2,1,0,0,64,67,77,0,94,-20.88,22,-68.0,13.0,-1019.0,11:56:36.620114,192.168.0.115
1144,-1,-100,-100,-100,"-1,-1,-1",-2,0,2,1,0,0,64,67,75,0,94,-20.84,22,-33.0,-9.0,-989.0,11:56:36.722498,192.168.0.115
1149,-1,-100,-100,-100,"-1,-1,-1",-2,0,2,1,0,0,65,68,73,0,94,-20.89,22,-48.0,7.0,-972.0,11:56:36.825343,192.168.0.115
1154,-1,-100,-100,-100,"-1,-1,-1",-2,0,2,1,0,1,65,68,72,0,94,-20.89,22,-35.0,-16.0,-995.0,11:56:36.927298,192.168.0.115
1159,-1,-100,-100,-100,"-1,-1,-1",-2,0,2,1,0,1,65,68,71,0,94,-20.88,22,-24.0,2.0,-1012.0,11:56:37.029881,192.168.0.115
1164,-1,-100,-100,-100,"-1,-1,-1",-2,0,2,1,0,1,65,68,69,0,94,-20.9,22,-27.0,-13.0,-1030.0,11:56:37.132205,192.168.0.115
1169,-1,-100,-100,-100,"-1,-1,-1",-2,1,2,1,0,1,65,68,68,0,94,-20.88,23,-34.0,2.0,-1040.0,11:56:37.231171,192.168.0.115
1174,-1,-100,-100,-100,"-1,-1,-1",-2,1,2,1,0,0,65,68,67,0,94,-20.91,23,-33.0,-21.0,-1038.0,11:56:37.333383,192.168.0.115
1179,-1,-100,-100,-100,"-1,-1,-1",-2,0,2,1,0,0,65,68,67,0,94,-20.94,23,-36.0,-1.0,-1038.0,11:56:37.435281,192.168.0.115
1184,-1,-100,-100,-100,"-1,-1,-1",-2,1,2,1,0,0,65,68,67,0,94,-20.92,23,-32.0,9.0,-1056.0,11:56:37.537497,192.168.0.115
1189,-1,-100,-100,-100,"-1,-1,-1",-2,1,2,2,0,0,65,68,67,0,94,-20.91,23,-28.0,-8.0,-1033.0,11:56:37.639444,192.168.0.115
1194,-1,-100,-100,-100,"-1,-1,-1",-2,1,2,2,0,0,65,68,68,0,94,-20.89,23,-28.0,-24.0,-1050.0,11:56:37.741411,192.168.0.115
1199,-1,-100,-100,-100,"-1,-1,-1",-2,0,2,2,0,-1,65,69,69,0,94,-20.84,23,-49.0,-8.0,-1031.0,11:56:37.843426,192.168.0.115
1204,-1,-100,-100,-100,"-1,-1,-1",-2,1,2,2,0,-1,65,69,70,0,94,-20.93,23,-32.0,-13.0,-971.0,11:56:37.945709,192.168.0.115
1209,-1,-100,-100,-100,"-1,-1,-1",-1,1,2,2,0,0,65,69,71,0,94,-20.8,23,-42.0,-14.0,-963.0,11:56:38.047572,192.168.0.115
1214,-1,-100,-100,-100,"-1,-1,-1",-1,0,2,2,0,0,65,69,72,0,93,-20.89,24,-35.0,-16.0,-997.0,11:56:38.149563,192.168.0.115
1219,-1,-100,-100,-100,"-1,-1,-1",-1,1,3,2,0,0,65,69,72,0,93,-20.84,24,-31.0,-25.0,-974.0,11:56:38.250897,192.168.0.115
1224,-1,-100,-100,-100,"-1,-1,-1",-1,1,3,1,0,0,65,69,72,0,93,-20.86,24,-32.0,-29.0,-1004.0,11:56:38.367060,192.168.0.115
1230,-1,-100,-100,-100,"-1,-1,-1",-1,2,3,1,0,0,65,69,72,0,93,-20.81,24,-12.0,-16.0,-1015.0,11:56:38.470237,192.168.0.115
1235,-1,-100,-100,-100,"-1,-1,-1",-1,2,3,1,0,0,65,69,72,0,93,-20.88,24,-35.0,-38.0,-957.0,11:56:38.572771,192.168.0.115
1240,-1,-100,-100,-100,"-1,-1,-1",-1,1,3,1,0,0,65,69,72,0,93,-20.9,24,-18.0,-60.0,-969.0,11:56:38.659399,192.168.0.115
1246,-1,-100,-100,-100,"-1,-1,-1",-1,2,3,2,0,0,65,69,71,0,93,-20.9,24,-17.0,-46.0,-989.0,11:56:38.778529,192.168.0.115
1250,-1,-100,-100,-100,"-1,-1,-1",-1,2,3,1,0,0,64,70,71,0,93,-20.87,24,-21.0,-29.0,-1007.0,11:56:38.881115,192.168.0.115
1256,-1,-100,-100,-100,"-1,-1,-1",-1,2,3,1,0,0,64,70,71,0,93,-20.88,24,-60.0,-11.0,-1001.0,11:56:38.984076,192.168.0.115
1261,-1,-100,-100,-100,"-1,-1,-1",-1,2,3,1,0,0,64,70,71,0,93,-20.96,24,-55.0,-25.0,-1003.0,11:56:39.086884,192.168.0.115
1264,8,-36,-35,67,"0,1,-171",-1,2,3,1,0,0,64,70,71,0,93,-20.89,25,-16.0,-24.0,-988.0,11:56:39.118253,192.168.0.115
1269,8,-36,-35,67,"0,1,-171",-1,1,3,2,0,0,64,70,71,0,93,-20.84,25,-21.0,-21.0,-987.0,11:56:39.220291,192.168.0.115
1274,8,-36,-35,67,"0,1,-171",-1,1,3,2,0,0,64,70,70,0,93,-20.81,25,1.0,-31.0,-995.0,11:56:39.322327,192.168.0.115
1279,8,-31,-34,68,"1,1,-172",0,1,3,2,0,0,64,70,71,0,93,-20.74,25,-37.0,-24.0,-1007.0,11:56:39.424342,192.168.0.115
1284,8,-31,-34,68,"1,1,-172",0,2,3,2,0,0,64,70,70,0,93,-20.89,25,-25.0,-28.0,-993.0,11:56:39.586621,192.168.0.115
1289,5,-29,24,70,"0,-1,-179",0,2,3,2,0,0,64,70,71,0,93,-20.86,25,-4.0,-25.0,-1010.0,11:56:39.628213,192.168.0.115
1294,5,-29,24,70,"0,-1,-179",-1,2,3,2,0,0,64,70,70,0,93,-20.87,25,-22.0,-25.0,-1014.0,11:56:39.795629,192.168.0.115
1301,8,-21,-34,66,"0,0,-171",-1,2,3,2,0,0,65,70,70,0,93,-20.88,25,2.0,-38.0,-996.0,11:56:39.883304,192.168.0.115
1306,8,-21,-34,66,"0,0,-171",0,2,3,2,0,0,65,70,71,0,93,-20.88,25,-17.0,-38.0,-1005.0,11:56:40.066208,192.168.0.115
1311,8,-21,-34,66,"0,0,-171",0,2,3,2,0,0,65,70,70,0,93,-20.77,25,-14.0,-27.0,-999.0,11:56:40.087261,192.168.0.115
1314,5,-18,24,70,"-1,-1,-179",0,2,3,2,0,0,65,70,71,0,92,-20.76,26,-3.0,-53.0,-988.0,11:56:40.272230,192.168.0.115
1319,5,-18,24,70,"-1,-1,-179",0,2,3,2,0,0,65,70,70,0,92,-20.78,26,-7.0,-28.0,-986.0,11:56:40.273018,192.168.0.115
1324,5,-9,20,72,"0,-1,-177",0,2,3,2,0,0,65,70,70,0,92,-20.79,26,1.0,-33.0,-991.0,11:56:40.478722,192.168.0.115
1329,5,-9,20,72,"0,-1,-177",0,2,3,2,0,0,65,70,71,0,92,-20.83,26,-10.0,-36.0,-997.0,11:56:40.479521,192.168.0.115
1336,5,-4,20,71,"0,-1,-177",0,2,3,2,1,0,65,70,70,0,92,-20.81,26,-1.0,-24.0,-992.0,11:56:40.685756,192.168.0.115
1339,5,-4,20,71,"0,-1,-177",0,2,3,2,1,0,65,70,70,0,92,-20.8,26,-18.0,-31.0,-1014.0,11:56:40.686229,192.168.0.115
1344,5,-4,20,71,"0,-1,-177",0,2,3,2,1,0,65,70,71,0,92,-20.78,26,-6.0,-54.0,-999.0,11:56:40.891703,192.168.0.115
1350,5,4,16,72,"2,-1,-176",0,2,3,2,1,0,66,70,71,0,92,-20.83,26,-29.0,-19.0,-993.0,11:56:40.892692,192.168.0.115
1354,5,4,16,72,"2,-1,-176",0,3,3,2,1,0,66,70,70,0,92,-20.85,26,-2.0,-38.0,-995.0,11:56:41.097482,192.168.0.115
1359,5,11,15,71,"2,-2,-177",0,3,3,2,1,0,66,70,71,0,92,-20.83,26,-12.0,-36.0,-998.0,11:56:41.098773,192.168.0.115
1364,5,11,15,71,"2,-2,-177",0,2,3,2,1,0,66,70,71,0,92,-20.82,27,-34.0,-23.0,-995.0,11:56:41.304027,192.168.0.115
1369,5,17,10,71,"3,-2,-176",0,1,3,2,1,0,66,70,71,0,92,-20.79,27,-12.0,-22.0,-1009.0,11:56:41.305145,192.168.0.115
1374,5,17,10,71,"3,-2,-176",0,1,3,2,1,0,66,70,71,0,92,-20.85,27,-22.0,-17.0,-1013.0,11:56:41.510550,192.168.0.115
1379,5,17,10,71,"3,-2,-176",0,0,3,2,1,0,66,70,71,0,92,-20.78,27,-4.0,-29.0,-1007.0,11:56:41.511462,192.168.0.115
1384,5,19,6,72,"1,-2,-177",4,-3,3,1,1,0,66,70,72,0,92,-20.86,27,-4.0,-14.0,-998.0,11:56:41.717929,192.168.0.115
1389,5,19,6,72,"1,-2,-177",3,-1,3,1,0,0,66,70,71,0,92,-20.78,27,2.0,-24.0,-985.0,11:56:41.718887,192.168.0.115
1394,5,22,4,73,"-4,-1,178",1,0,3,0,0,0,66,70,71,0,92,-20.71,27,-13.0,-24.0,-1018.0,11:56:41.924154,192.168.0.115
1399,5,22,4,73,"-4,-1,178",0,0,3,0,0,0,65,71,72,0,92,-20.81,27,3.0,-10.0,-1012.0,11:56:41.925017,192.168.0.115
1404,5,28,0,71,"2,-2,-178",0,0,3,0,0,0,65,71,72,0,92,-20.84,27,4.0,-1.0,-998.0,11:56:42.130376,192.168.0.115
1409,5,28,0,71,"2,-2,-178",0,0,3,0,0,0,65,71,72,0,92,-20.79,27,-1.0,-3.0,-998.0,11:56:42.131429,192.168.0.115
1414,5,27,0,72,"1,-2,-178",0,0,3,0,0,0,65,71,72,0,92,-20.72,28,31.0,-33.0,-1006.0,11:56:42.337086,192.168.0.115
1419,5,27,0,72,"1,-2,-178",0,0,3,0,0,0,65,71,72,0,92,-20.71,28,-3.0,-4.0,-1004.0,11:56:42.338018,192.168.0.115
1424,5,29,5,71,"2,0,177",0,0,3,0,0,0,65,71,72,0,92,-20.7,28,9.0,-10.0,-986.0,11:56:42.382040,192.168.0.115
1429,5,29,5,71,"2,0,177",0,0,3,0,0,0,65,71,72,0,92,-20.74,28,-1.0,-8.0,-1008.0,11:56:42.546170,192.168.0.115
1434,5,26,0,73,"0,-2,-178",0,0,3,0,0,0,65,71,72,0,92,-20.65,28,2.0,-13.0,-1006.0,11:56:42.586412,192.168.0.115
1439,5,26,0,73,"0,-2,-178",0,0,3,0,0,0,65,71,72,0,92,-20.64,28,3.0,-17.0,-990.0,11:56:42.752617,192.168.0.115
1445,5,26,0,73,"0,-2,-178",0,0,3,0,0,0,65,71,72,0,92,-20.62,28,4.0,-19.0,-998.0,11:56:42.790208,192.168.0.115
1450,5,26,0,73,"0,-2,-178",0,0,3,0,0,0,66,70,72,0,92,-20.7,28,-5.0,-16.0,-991.0,11:56:42.959153,192.168.0.115
1455,5,27,2,72,"1,-2,-178",0,1,3,0,0,0,66,70,71,0,92,-20.68,28,-2.0,-23.0,-990.0,11:56:42.994075,192.168.0.115
1460,5,27,2,72,"1,-2,-178",0,1,3,0,0,0,66,70,71,0,92,-20.66,28,8.0,-6.0,-1001.0,11:56:43.165110,192.168.0.115
1465,5,29,2,71,"3,-2,-177",0,1,3,0,0,0,66,70,71,0,92,-20.68,29,-5.0,-33.0,-1012.0,11:56:43.198086,192.168.0.115
1470,5,29,2,71,"3,-2,-177",0,2,3,0,0,0,66,70,71,0,92,-20.69,29,-6.0,-21.0,-1016.0,11:56:43.371573,192.168.0.115
1478,5,26,3,72,"1,-2,-175",0,3,3,0,0,0,66,70,70,0,92,-20.61,29,-8.0,-3.0,-1015.0,11:56:43.577642,192.168.0.115
1483,5,26,3,72,"1,-2,-175",0,2,3,0,0,0,66,70,71,0,92,-20.76,29,-25.0,-10.0,-1016.0,11:56:43.578462,192.168.0.115
1488,5,27,4,71,"1,-1,-177",0,1,2,0,0,0,66,70,71,0,92,-20.68,29,3.0,-19.0,-996.0,11:56:43.784179,192.168.0.115
1493,5,27,4,71,"1,-1,-177",0,0,2,0,0,0,66,70,71,0,92,-20.81,29,-4.0,-25.0,-995.0,11:56:43.784979,192.168.0.115
1498,5,28,2,71,"3,-2,-177",0,1,3,0,0,0,66,70,72,0,92,-20.75,29,0.0,-22.0,-983.0,11:56:43.990305,192.168.0.115
1503,5,28,2,71,"3,-2,-177",0,1,3,0,0,0,66,71,72,0,92,-20.75,29,-6.0,-16.0,-1005.0,11:56:43.991101,192.168.0.115
1508,5,27,0,72,"2,-2,-176",0,1,3,0,0,0,66,71,72,0,92,-20.71,29,4.0,-25.0,-992.0,11:56:44.198704,192.168.0.115
1513,5,27,0,72,"2,-2,-176",0,1,3,0,0,0,66,71,73,0,92,-20.7,30,-3.0,-20.0,-1005.0,11:56:44.199518,192.168.0.115
1518,5,26,0,73,"2,-2,-175",0,0,3,0,0,0,66,71,73,0,92,-20.7,30,-4.0,-15.0,-989.0,11:56:44.405036,192.168.0.115
1523,5,26,0,73,"2,-2,-175",0,0,2,0,0,0,66,71,73,0,92,-20.66,30,-5.0,-6.0,-994.0,11:56:44.405883,192.168.0.115
1528,5,26,0,73,"2,-2,-175",0,0,2,0,0,0,66,71,73,0,92,-20.62,30,-1.0,-7.0,-995.0,11:56:44.610201,192.168.0.115
1533,5,27,1,72,"3,-1,-178",0,0,2,0,0,0,66,71,73,0,92,-20.71,30,12.0,-35.0,-978.0,11:56:44.611005,192.168.0.115
1538,5,27,1,72,"3,-1,-178",0,0,2,0,0,0,66,71,73,0,92,-20.67,30,30.0,-25.0,-987.0,11:56:44.815090,192.168.0.115
1543,5,24,1,73,"1,-1,-178",0,0,2,0,0,0,66,71,73,0,92,-20.59,30,2.0,-16.0,-978.0,11:56:44.815963,192.168.0.115
1547,5,24,1,73,"1,-1,-178",0,0,2,0,0,0,66,71,72,0,92,-20.67,30,7.0,-9.0,-1002.0,11:56:45.023436,192.168.0.115
1552,5,24,1,73,"1,-1,-178",0,0,2,0,0,0,67,70,72,0,92,-20.64,30,12.0,-4.0,-998.0,11:56:45.024356,192.168.0.115
1557,5,24,1,73,"1,-1,-178",0,0,2,0,0,0,67,70,72,0,92,-20.68,30,13.0,-5.0,-993.0,11:56:45.228003,192.168.0.115
1562,5,26,0,71,"2,-1,-177",0,0,2,0,0,0,67,70,71,0,92,-20.6,31,36.0,-20.0,-1018.0,11:56:45.228828,192.168.0.115
1565,5,26,0,71,"2,-1,-177",0,0,2,0,0,0,67,70,71,0,92,-20.6,31,2.0,-6.0,-1009.0,11:56:45.238024,192.168.0.115
1570,5,25,0,71,"0,-1,-178",0,0,2,0,0,0,67,70,71,0,92,-20.66,31,4.0,0.0,-1012.0,11:56:45.339616,192.168.0.115
1575,5,25,0,71,"0,-1,-178",0,0,2,0,0,0,67,70,71,0,92,-20.62,31,2.0,-14.0,-1000.0,11:56:45.445726,192.168.0.115
1580,5,29,-5,69,"3,-3,-174",0,0,3,0,0,0,67,70,71,0,92,-20.58,31,27.0,-22.0,-1001.0,11:56:45.544337,192.168.0.115
1585,5,29,-5,69,"3,-3,-174",1,0,3,0,0,0,67,70,71,0,92,-20.67,31,4.0,-6.0,-1008.0,11:56:45.647474,192.168.0.115
1590,5,30,-1,69,"3,-2,-177",0,0,3,0,0,0,67,70,71,0,92,-20.66,31,20.0,-23.0,-997.0,11:56:45.747780,192.168.0.115
1595,5,30,-1,69,"3,-2,-177",0,0,3,0,0,0,67,70,71,0,92,-20.62,31,7.0,-12.0,-1008.0,11:56:45.850088,192.168.0.115
1600,5,30,-1,69,"3,-2,-177",0,0,3,0,0,0,66,70,71,0,92,-20.61,31,12.0,-18.0,-999.0,11:56:45.952211,192.168.0.115
1606,5,30,0,70,"2,-2,-178",0,0,3,0,0,0,66,70,71,0,92,-20.69,31,16.0,-11.0,-1000.0,11:56:46.053990,192.168.0.115
1611,5,30,0,70,"2,-2,-178",0,0,3,0,0,0,66,70,72,0,92,-20.62,32,8.0,-7.0,-996.0,11:56:46.155923,192.168.0.115
1615,5,30,-1,70,"3,-2,-176",0,0,3,0,0,0,66,70,72,0,92,-20.58,32,16.0,-21.0,-996.0,11:56:46.257999,192.168.0.115
1620,5,30,-1,70,"3,-2,-176",0,1,3,0,0,0,66,70,72,0,92,-20.64,32,2.0,-25.0,-996.0,11:56:46.360142,192.168.0.115
1625,5,31,0,70,"2,-2,-176",0,1,3,0,0,0,66,70,72,0,92,-20.63,32,22.0,-28.0,-999.0,11:56:46.461745,192.168.0.115
1632,5,31,0,70,"2,-2,-176",0,1,3,0,0,0,66,70,72,0,92,-20.63,32,26.0,-32.0,-1013.0,11:56:46.563805,192.168.0.115
1636,5,30,1,70,"3,-2,-177",0,1,3,0,0,0,66,70,72,0,92,-20.61,32,18.0,-24.0,-998.0,11:56:46.666110,192.168.0.115
1641,5,30,1,70,"3,-2,-177",0,1,3,0,0,0,66,70,72,0,92,-20.61,32,29.0,-32.0,-1004.0,11:56:46.767958,192.168.0.115
1646,5,29,2,71,"2,-2,-177",0,1,3,0,0,0,66,70,71,0,92,-20.64,32,6.0,-18.0,-999.0,11:56:46.869847,192.168.0.115
1651,5,29,2,71,"2,-2,-177",0,1,3,0,0,0,66,71,72,0,92,-20.61,32,18.0,-24.0,-1006.0,11:56:46.972047,192.168.0.115
1656,5,29,2,71,"2,-2,-177",0,1,3,0,0,0,66,71,72,0,92,-20.7,32,29.0,-30.0,-1012.0,11:56:47.073838,192.168.0.115
1662,5,29,2,71,"2,-2,-177",0,1,3,0,0,0,66,71,72,0,92,-20.65,33,27.0,-21.0,-1000.0,11:56:47.177745,192.168.0.115
1667,5,29,2,71,"2,-2,-177",0,1,3,0,0,0,66,71,72,0,92,-20.64,33,11.0,-7.0,-1002.0,11:56:47.279083,192.168.0.115
1672,5,29,3,70,"2,-2,-177",1,1,3,0,0,0,66,71,72,0,92,-20.63,33,11.0,-10.0,-1003.0,11:56:47.383676,192.168.0.115
1677,5,29,3,70,"2,-2,-177",0,1,3,0,0,0,66,71,72,0,92,-20.75,33,24.0,-7.0,-1001.0,11:56:47.481953,192.168.0.115
1682,5,29,3,71,"2,-2,-177",0,1,3,0,0,0,66,71,72,0,92,-20.69,33,24.0,-15.0,-988.0,11:56:47.584201,192.168.0.115
1687,5,29,3,71,"2,-2,-177",0,1,3,0,0,0,66,71,72,0,92,-20.61,33,22.0,4.0,-1008.0,11:56:47.685943,192.168.0.115
1692,5,29,1,71,"2,-2,-176",0,0,3,0,0,0,66,71,72,0,92,-20.66,33,17.0,-16.0,-1001.0,11:56:47.787886,192.168.0.115
1697,5,29,1,71,"2,-2,-176",0,0,3,0,0,0,66,71,72,0,92,-20.65,33,19.0,-18.0,-997.0,11:56:47.890034,192.168.0.115
1702,5,30,1,71,"3,-2,-177",0,0,3,0,0,0,66,70,72,0,92,-20.62,33,8.0,0.0,-1015.0,11:56:47.991926,192.168.0.115
1704,5,30,1,71,"3,-2,-177",0,0,3,0,0,0,66,70,73,0,92,-20.61,33,14.0,-18.0,-997.0,11:56:48.043263,192.168.0.115
1709,5,27,3,73,"0,-2,-179",0,0,3,0,0,0,66,70,73,0,91,-20.64,34,12.0,-6.0,-1009.0,11:56:48.149172,192.168.0.115
1714,5,27,3,73,"0,-2,-179",0,0,3,0,0,0,66,70,73,0,91,-20.62,34,29.0,-27.0,-1000.0,11:56:48.247188,192.168.0.115
1719,5,30,0,72,"2,-2,-176",0,0,2,0,0,0,66,70,73,0,91,-20.63,34,20.0,9.0,-992.0,11:56:48.348888,192.168.0.115
1724,5,30,0,72,"2,-2,-176",0,0,2,0,0,0,66,70,73,0,91,-20.68,34,14.0,-11.0,-992.0,11:56:48.450813,192.168.0.115
1729,5,29,-2,72,"2,-2,-175",0,0,2,0,0,0,66,70,73,0,91,-20.59,34,35.0,-15.0,-989.0,11:56:48.552906,192.168.0.115
1734,5,29,-2,72,"2,-2,-175",0,0,3,0,0,0,66,70,73,0,91,-20.61,34,9.0,7.0,-995.0,11:56:48.654890,192.168.0.115
1739,5,29,-2,72,"2,-2,-175",0,0,3,0,0,0,66,70,73,0,91,-20.59,34,-4.0,0.0,-1013.0,11:56:48.756705,192.168.0.115
1744,5,28,0,72,"2,-2,-177",0,0,3,0,0,0,66,70,72,0,91,-20.6,34,26.0,-14.0,-1002.0,11:56:48.858804,192.168.0.115
1749,5,28,0,72,"2,-2,-177",0,0,3,0,0,0,67,71,72,0,91,-20.67,34,1.0,15.0,-1010.0,11:56:48.960945,192.168.0.115
1754,5,24,1,74,"0,-2,-178",0,0,3,0,0,0,67,71,73,0,91,-20.6,34,1.0,6.0,-1016.0,11:56:49.062617,192.168.0.115
1759,5,24,1,74,"0,-2,-178",0,0,3,0,0,0,67,71,73,0,91,-20.65,35,11.0,18.0,-997.0,11:56:49.166004,192.168.0.115
1764,5,27,0,72,"2,-2,-178",0,0,3,0,0,0,67,71,73,0,91,-20.59,35,11.0,0.0,-997.0,11:56:49.266900,192.168.0.115
1769,5,27,0,72,"2,-2,-178",0,0,3,0,0,0,67,71,73,0,91,-20.67,35,12.0,-6.0,-995.0,11:56:49.368832,192.168.0.115
1774,5,26,-1,72,"2,-2,-177",0,0,3,0,0,0,67,71,73,0,91,-20.68,35,9.0,0.0,-1004.0,11:56:49.470701,192.168.0.115
1779,5,26,-1,72,"2,-2,-177",0,0,3,0,0,0,67,71,73,0,91,-20.66,35,17.0,4.0,-993.0,11:56:49.572585,192.168.0.115
1784,5,25,0,73,"2,-2,-178",0,0,3,0,0,0,67,71,73,0,91,-20.62,35,15.0,-8.0,-1003.0,11:56:49.674721,192.168.0.115
1789,5,25,0,73,"2,-2,-178",0,0,2,0,0,0,67,71,73,0,91,-20.61,35,0.0,6.0,-1007.0,11:56:49.776782,192.168.0.115
1794,5,24,-1,73,"1,-2,-177",0,0,2,0,0,0,67,71,73,0,91,-20.58,35,0.0,10.0,-1004.0,11:56:49.878706,192.168.0.115
1799,5,24,-1,73,"1,-2,-177",0,0,2,0,0,0,67,71,73,0,91,-20.62,35,0.0,10.0,-1008.0,11:56:49.980750,192.168.0.115
1804,5,20,8,74,"0,0,174",0,0,2,0,0,0,67,71,73,0,91,-20.63,35,0.0,0.0,-995.0,11:56:50.082918,192.168.0.115
1809,5,20,8,74,"0,0,174",0,0,2,0,0,0,67,71,73,0,91,-20.57,36,0.0,4.0,-1010.0,11:56:50.184865,192.168.0.115
1815,5,22,0,73,"1,-2,-178",0,0,2,0,0,0,67,71,72,0,91,-20.57,36,5.0,2.0,-1002.0,11:56:50.286745,192.168.0.115
1820,5,22,0,73,"1,-2,-178",0,0,2,0,0,0,67,71,72,0,91,-20.64,36,-15.0,13.0,-1010.0,11:56:50.388835,192.168.0.115
1828,5,19,-2,73,"0,-2,-177",0,0,2,0,0,0,67,71,72,0,91,-20.68,36,6.0,0.0,-1017.0,11:56:50.541705,192.168.0.115
1833,5,19,-2,73,"0,-2,-177",0,0,2,0,0,0,67,71,72,0,91,-20.65,36,-1.0,2.0,-990.0,11:56:50.643723,192.168.0.115
1838,5,19,-1,73,"0,-2,-177",0,0,2,0,0,0,67,71,72,0,91,-20.66,36,-2.0,0.0,-1001.0,11:56:50.747936,192.168.0.115
1843,5,19,-1,73,"0,-2,-177",0,0,2,0,0,0,67,71,72,0,91,-20.66,36,7.0,5.0,-1007.0,11:56:50.847759,192.168.0.115
1848,5,18,0,73,"0,-1,-179",0,0,3,0,0,0,66,71,71,0,91,-20.67,36,-2.0,10.0,-1007.0,11:56:50.949608,192.168.0.115
1853,5,18,0,73,"0,-1,-179",0,0,3,0,0,0,66,71,72,0,91,-20.7,36,-6.0,0.0,-1009.0,11:56:51.051998,192.168.0.115
1858,5,17,0,73,"0,-2,-179",0,0,3,0,0,0,66,71,72,0,91,-20.67,37,-1.0,-5.0,-1003.0,11:56:51.153803,192.168.0.115
1863,5,17,0,73,"0,-2,-179",0,0,3,0,0,0,66,71,72,0,91,-20.64,37,7.0,-4.0,-995.0,11:56:51.255752,192.168.0.115
1868,5,16,2,74,"0,-1,179",0,0,3,0,0,0,66,71,72,0,91,-20.66,37,-1.0,2.0,-995.0,11:56:51.357762,192.168.0.115
1873,5,16,2,74,"0,-1,179",0,0,3,0,0,0,66,71,72,0,91,-20.66,37,-7.0,8.0,-1001.0,11:56:51.460529,192.168.0.115
1878,5,16,2,74,"0,-1,179",0,0,3,0,0,0,66,71,72,0,91,-20.65,37,-7.0,12.0,-1012.0,11:56:51.566693,192.168.0.115
1883,5,15,-1,74,"0,-2,-178",0,0,3,0,0,0,66,71,72,0,91,-20.59,37,-11.0,17.0,-1020.0,11:56:51.663923,192.168.0.115
1888,5,15,-1,74,"0,-2,-178",0,0,3,0,0,0,66,71,72,0,91,-20.61,37,18.0,-3.0,-980.0,11:56:51.765682,192.168.0.115
1893,5,16,0,74,"0,-2,-178",0,0,3,0,0,0,66,71,72,0,91,-20.66,37,-12.0,14.0,-1010.0,11:56:51.867501,192.168.0.115
1898,5,16,0,74,"0,-2,-178",0,0,3,0,0,0,67,70,72,0,91,-20.63,37,0.0,12.0,-997.0,11:56:51.969661,192.168.0.115
1903,5,17,-1,73,"1,-2,-178",0,0,3,0,0,0,67,70,72,0,91,-20.64,37,5.0,8.0,-1001.0,11:56:52.071862,192.168.0.115
1908,5,17,-1,73,"1,-2,-178",0,0,3,0,0,0,67,70,72,0,91,-20.62,38,-2.0,1.0,-995.0,11:56:52.173615,192.168.0.115
1913,5,16,0,74,"0,-2,-179",0,0,3,0,0,0,67,70,72,0,91,-20.6,38,6.0,-3.0,-992.0,11:56:52.275776,192.168.0.115
1918,5,16,0,74,"0,-2,-179",0,0,3,0,0,0,67,70,72,0,91,-20.59,38,18.0,5.0,-990.0,11:56:52.377504,192.168.0.115
1923,5,18,0,73,"1,-2,-178",0,0,3,0,0,0,67,70,72,0,91,-20.67,38,-1.0,22.0,-1016.0,11:56:52.484315,192.168.0.115
1928,5,18,0,73,"1,-2,-178",0,0,3,0,0,0,67,70,72,0,91,-20.61,38,-9.0,12.0,-1015.0,11:56:52.581673,192.168.0.115
1933,5,18,-1,73,"1,-2,-177",0,0,3,0,0,0,67,70,72,0,91,-20.62,38,-7.0,5.0,-1009.0,11:56:52.683761,192.168.0.115
1938,5,18,-1,73,"1,-2,-177",0,0,3,0,0,0,67,70,72,0,91,-20.67,38,-4.0,8.0,-993.0,11:56:52.785692,192.168.0.115
1943,5,15,5,74,"0,-1,177",0,0,3,0,0,0,67,70,72,0,91,-20.67,38,-6.0,4.0,-1006.0,11:56:52.887805,192.168.0.115
1948,5,15,5,74,"0,-1,177",0,0,3,0,0,0,67,71,72,0,91,-20.59,38,8.0,-5.0,-993.0,11:56:52.989713,192.168.0.115
1953,5,14,2,74,"-1,-2,-179",0,0,3,0,0,0,67,71,72,0,91,-20.66,38,-11.0,-1.0,-998.0,11:56:53.092264,192.168.0.115
1958,5,14,2,74,"-1,-2,-179",0,0,3,0,0,0,67,71,72,0,91,-20.6,39,-9.0,12.0,-1007.0,11:56:53.193698,192.168.0.115
1963,5,14,2,74,"-1,-2,-179",0,0,3,0,0,0,67,71,72,0,91,-20.62,39,-8.0,-4.0,-1001.0,11:56:53.295596,192.168.0.115
1968,5,17,1,73,"0,-2,-178",0,0,3,0,0,0,67,71,72,0,91,-20.58,39,3.0,-7.0,-995.0,11:56:53.402085,192.168.0.115
1973,5,17,1,73,"0,-2,-178",0,0,3,0,0,0,67,71,72,0,91,-20.62,39,-1.0,-8.0,-1011.0,11:56:53.501757,192.168.0.115
1978,5,15,0,74,"0,-2,-177",0,0,3,0,0,0,67,71,72,0,91,-20.64,39,-13.0,-1.0,-1004.0,11:56:53.601653,192.168.0.115
1983,5,15,0,74,"0,-2,-177",0,0,3,0,0,0,67,71,72,0,91,-20.63,39,-9.0,5.0,-1007.0,11:56:53.703408,192.168.0.115
1988,5,16,3,73,"0,-2,-178",0,0,3,0,0,0,67,71,72,0,91,-20.63,39,-11.0,-1.0,-994.0,11:56:53.805360,192.168.0.115
1993,5,16,3,73,"0,-2,-178",0,0,3,0,0,0,67,71,72,0,91,-20.62,39,-17.0,-9.0,-995.0,11:56:53.907745,192.168.0.115
1998,5,19,1,73,"1,-2,-177",0,0,2,0,0,0,67,71,72,0,91,-20.55,39,13.0,-21.0,-996.0,11:56:54.009573,192.168.0.115
2003,5,19,1,73,"1,-2,-177",0,0,2,0,0,0,67,71,72,0,91,-20.55,39,1.0,-16.0,-994.0,11:56:54.111674,192.168.0.115
2008,5,16,6,74,"-1,-1,179",0,0,2,0,0,0,67,71,72,0,91,-20.59,40,-22.0,5.0,-993.0,11:56:54.213664,192.168.0.115
2013,5,16,6,74,"-1,-1,179",0,1,2,0,0,0,67,71,72,0,91,-20.59,40,-6.0,-23.0,-989.0,11:56:54.315682,192.168.0.115
2018,5,14,8,74,"-2,-1,178",0,0,2,0,0,0,67,71,71,0,91,-20.59,40,-22.0,-3.0,-1000.0,11:56:54.417595,192.168.0.115
2023,5,14,8,74,"-2,-1,178",0,0,2,0,0,0,67,71,71,0,91,-20.63,40,-12.0,-14.0,-1025.0,11:56:54.519770,192.168.0.115
2029,5,19,4,72,"1,-1,-178",0,0,2,0,0,0,67,71,71,0,91,-20.59,40,-14.0,-6.0,-1002.0,11:56:54.625213,192.168.0.115
2033,5,19,4,72,"1,-1,-178",0,0,2,0,0,0,67,71,71,0,91,-20.54,40,-10.0,-8.0,-1018.0,11:56:54.723597,192.168.0.115
2039,5,19,4,72,"1,-1,-177",0,0,2,0,0,0,67,71,72,0,91,-20.58,40,-6.0,-2.0,-1009.0,11:56:54.825132,192.168.0.115
2044,5,19,4,72,"1,-1,-177",0,0,3,0,0,0,67,71,72,0,91,-20.58,40,0.0,-14.0,-1001.0,11:56:54.927382,192.168.0.115
2050,5,20,4,72,"2,-2,-178",0,0,3,0,0,0,68,71,72,0,91,-20.6,40,-11.0,13.0,-1002.0,11:56:55.080686,192.168.0.115
2055,5,20,4,72,"2,-2,-178",0,0,3,0,0,0,68,71,72,0,91,-20.63,41,-14.0,13.0,-1002.0,11:56:55.182657,192.168.0.115
2060,5,15,7,74,"-1,-1,179",0,0,2,0,0,0,68,71,72,0,91,-20.69,41,-9.0,-1.0,-968.0,11:56:55.284432,192.168.0.115
2065,5,15,7,74,"-1,-1,179",0,0,2,0,0,0,68,71,72,0,91,-20.65,41,11.0,-11.0,-938.0,11:56:55.386491,192.168.0.115
2070,5,20,4,72,"1,-1,-178",0,0,2,0,0,0,68,71,71,0,91,-20.53,41,6.0,-23.0,-926.0,11:56:55.488596,192.168.0.115
2075,5,20,4,72,"1,-1,-178",0,0,2,0,0,1,68,71,69,0,91,-20.63,41,-1.0,-13.0,-907.0,11:56:55.590715,192.168.0.115
2081,5,20,4,72,"1,-1,-178",0,0,2,0,0,2,68,71,67,0,91,-20.64,41,-12.0,-21.0,-906.0,11:56:55.693370,192.168.0.115
2086,5,22,4,67,"2,-1,-178",0,0,2,0,0,3,68,71,63,0,91,-20.65,41,-9.0,-15.0,-927.0,11:56:55.794576,192.168.0.115
2089,5,22,4,67,"2,-1,-178",0,0,2,0,0,4,68,71,59,0,91,-20.61,41,-9.0,-8.0,-949.0,11:56:55.846671,192.168.0.115
2094,5,21,7,59,"2,-1,179",0,0,2,0,0,4,67,72,54,-10,91,-20.64,41,19.0,-4.0,-963.0,11:56:55.950374,192.168.0.115
2099,5,21,7,59,"2,-1,179",0,0,2,0,0,4,67,72,49,-10,91,-20.78,41,-3.0,-1.0,-991.0,11:56:56.049544,192.168.0.115
2104,5,20,6,50,"1,-1,-178",0,0,2,0,0,4,67,72,44,-20,90,-20.8,42,8.0,-30.0,-994.0,11:56:56.151459,192.168.0.115
2109,5,20,6,50,"1,-1,-178",0,0,2,0,0,4,67,72,40,-20,90,-20.92,42,24.0,-11.0,-1018.0,11:56:56.253498,192.168.0.115
2114,5,21,5,37,"3,-2,-177",0,1,2,0,0,4,67,72,34,-30,90,-20.88,42,12.0,-7.0,-999.0,11:56:56.355522,192.168.0.115
2119,5,21,5,37,"3,-2,-177",0,1,2,0,0,4,67,72,30,-30,90,-20.91,42,8.0,-12.0,-1000.0,11:56:56.457637,192.168.0.115
2124,5,21,5,37,"3,-2,-177",0,0,2,0,0,4,67,72,25,-40,90,-21.01,42,21.0,-19.0,-998.0,11:56:56.559648,192.168.0.115
2129,5,21,5,37,"3,-2,-177",0,0,2,0,0,4,67,72,20,-40,90,-21.09,42,17.0,-16.0,-1005.0,11:56:56.665925,192.168.0.115
2134,5,21,5,37,"3,-2,-177",0,1,2,0,0,4,67,72,16,-50,90,-21.25,42,26.0,-27.0,-1021.0,11:56:56.772973,192.168.0.115
2139,5,21,5,37,"3,-2,-177",0,0,2,0,0,4,67,72,10,-50,90,-21.66,42,10.0,-6.0,-1026.0,11:56:56.865281,192.168.0.115
2144,5,21,5,37,"3,-2,-177",0,0,2,0,0,3,68,72,10,-50,90,-22.04,42,11.0,2.0,-1043.0,11:56:56.967270,192.168.0.115
2149,5,21,5,37,"3,-2,-177",0,0,3,0,0,3,68,72,10,-60,90,-23.57,42,14.0,-4.0,-1050.0,11:56:57.069400,192.168.0.115
2154,5,21,5,37,"3,-2,-177",0,0,3,0,0,2,68,72,10,-60,90,-24.8,43,25.0,-21.0,-1053.0,11:56:57.171653,192.168.0.115
2159,5,21,5,37,"3,-2,-177",2,0,3,0,0,0,68,72,10,-60,90,-23.49,43,4.0,-10.0,-794.0,11:56:57.273422,192.168.0.115
2164,5,21,5,37,"3,-2,-177",2,-1,3,0,0,1,68,72,10,-60,90,-24.05,43,281.0,107.0,-1660.0,11:56:57.375269,192.168.0.115
2169,5,21,5,37,"3,-2,-177",0,0,3,0,0,0,68,72,10,-60,90,-23.78,43,12.0,5.0,-788.0,11:56:57.477433,192.168.0.115
2174,5,21,5,37,"3,-2,-177",0,0,3,0,0,0,68,72,10,-60,90,-23.05,43,-43.0,45.0,-1083.0,11:56:57.579764,192.168.0.115
2179,5,21,5,37,"3,-2,-177",0,0,3,0,0,0,68,72,10,-60,90,-22.46,43,-15.0,-35.0,-802.0,11:56:57.681479,192.168.0.115
2185,5,21,5,37,"3,-2,-177",0,0,3,0,0,0,68,72,10,-60,90,-22.26,43,-27.0,-25.0,-997.0,11:56:57.783911,192.168.0.115
2190,5,21,5,37,"3,-2,-177",0,0,3,0,0,0,68,72,10,-60,90,-22.12,43,5.0,0.0,-998.0,11:56:57.885533,192.168.0.115
2195,5,21,5,37,"3,-2,-177",0,0,3,0,0,0,67,72,10,-60,90,-22.19,43,14.0,19.0,-1001.0,11:56:57.987509,192.168.0.115
2200,5,21,5,37,"3,-2,-177",0,0,3,0,0,0,67,72,10,-60,90,-22.19,43,10.0,8.0,-1001.0,11:56:58.089503,192.168.0.115
2205,5,21,5,37,"3,-2,-177",0,0,3,0,0,0,67,72,10,0,90,-21.97,44,3.0,2.0,-993.0,11:56:58.191394,192.168.0.115
2210,5,21,5,37,"3,-2,-177",0,0,3,0,0,0,67,72,10,0,90,-21.79,44,8.0,5.0,-988.0,11:56:58.293043,192.168.0.115
