Unnamed: 0,mid,x,y,z,mpry,pitch,roll,yaw,vgx,vgy,vgz,templ,temph,tof,h,bat,baro,time,agx,agy,agz,timestamp,address,global_x,global_y
1,-1,-100,-100,-100,"-1,-1,-1",0,0,0,0,0,0,82,85,10,0,83,-54.44,0,-5.0,-5.0,-999.0,14:13:44.091365,192.168.0.113,,
6,-1,-100,-100,-100,"-1,-1,-1",0,0,0,0,0,0,82,85,10,0,83,-54.46,0,-6.0,-4.0,-998.0,14:13:44.193796,192.168.0.113,,
12,-1,-100,-100,-100,"-1,-1,-1",0,0,0,0,0,0,83,85,10,0,83,-54.41,0,-7.0,-5.0,-998.0,14:13:44.304075,192.168.0.113,,
17,-1,-100,-100,-100,"-1,-1,-1",0,0,0,0,0,0,83,85,10,0,83,-54.41,0,-6.0,-7.0,-998.0,14:13:44.397559,192.168.0.113,,
23,-1,-100,-100,-100,"-1,-1,-1",0,0,0,0,0,0,83,85,10,0,83,-54.41,0,-3.0,-3.0,-998.0,14:13:44.499703,192.168.0.113,,
28,-1,-100,-100,-100,"-1,-1,-1",0,0,0,0,0,0,83,85,10,0,83,-54.41,0,-26.0,-19.0,-1005.0,14:13:44.601613,192.168.0.113,,
33,-1,-100,-100,-100,"-1,-1,-1",0,0,0,0,0,0,83,85,10,0,83,-54.41,0,-10.0,-24.0,-994.0,14:13:44.703790,192.168.0.113,,
38,-1,-100,-100,-100,"-1,-1,-1",0,0,0,0,0,0,83,85,10,0,83,-54.41,0,11.0,-10.0,-975.0,14:13:44.805390,192.168.0.113,,
43,-1,-100,-100,-100,"-1,-1,-1",0,0,0,0,0,0,83,85,10,0,83,-54.41,0,-31.0,-5.0,-1004.0,14:13:44.908128,192.168.0.113,,
48,-1,-100,-100,-100,"-1,-1,-1",0,0,0,0,0,-1,83,85,10,0,83,-54.41,0,18.0,27.0,-1355.0,14:13:45.010526,192.168.0.113,,
53,-1,-100,-100,-100,"-1,-1,-1",0,0,0,0,0,-4,83,85,10,0,83,-54.29,0,1.0,11.0,-1113.0,14:13:45.112882,192.168.0.113,,
59,-1,-100,-100,-100,"-1,-1,-1",0,0,0,0,0,-7,83,85,17,10,83,-54.18,0,6.0,-45.0,-1107.0,14:13:45.215003,192.168.0.113,,
63,-1,-100,-100,-100,"-1,-1,-1",0,-2,0,0,0,-8,83,85,30,10,83,-54.02,0,15.0,11.0,-989.0,14:13:45.317665,192.168.0.113,,
69,-1,-100,-100,-100,"-1,-1,-1",0,0,0,0,0,-8,83,85,39,20,83,-53.9,0,7.0,2.0,-963.0,14:13:45.420450,192.168.0.113,,
73,-1,-100,-100,-100,"-1,-1,-1",0,0,0,0,0,-8,83,85,47,30,83,-53.89,1,10.0,11.0,-918.0,14:13:45.519636,192.168.0.113,,
78,-1,-100,-100,-100,"-1,-1,-1",0,0,0,0,0,-7,83,85,55,40,83,-53.85,1,19.0,-11.0,-869.0,14:13:45.621413,192.168.0.113,,
83,3,19,-6,52,"-1,-7,-176",0,0,0,0,0,-6,83,85,59,50,83,-53.76,1,0.0,24.0,-888.0,14:13:45.723628,192.168.0.113,19.0,94.0
89,3,20,-7,58,"0,-7,-175",0,0,0,0,0,-5,83,85,65,50,83,-53.7,1,-23.0,-9.0,-866.0,14:13:45.825641,192.168.0.113,20.0,93.0
94,3,21,-7,60,"0,-7,-176",0,0,0,0,0,-4,83,85,69,60,83,-53.69,1,18.0,-28.0,-860.0,14:13:45.927481,192.168.0.113,21.0,93.0
99,3,19,-8,67,"-1,-6,-175",0,0,0,0,0,-3,83,85,71,60,83,-53.67,1,12.0,11.0,-911.0,14:13:46.029586,192.168.0.113,19.0,92.0
104,3,20,-9,67,"0,-7,-175",0,0,0,0,0,-1,83,85,73,60,83,-53.7,1,19.0,-5.0,-931.0,14:13:46.131514,192.168.0.113,20.0,91.0
106,3,19,-8,71,"-1,-7,-175",0,0,0,0,0,-1,83,85,74,60,83,-53.63,1,-1.0,2.0,-965.0,14:13:46.182685,192.168.0.113,19.0,92.0
114,3,20,-4,72,"-1,-6,-178",0,0,0,0,0,0,83,85,75,70,83,-53.61,1,5.0,-5.0,-976.0,14:13:46.335377,192.168.0.113,20.0,96.0
116,3,21,-8,71,"0,-7,-174",0,0,0,0,0,0,83,85,75,70,83,-53.62,1,17.0,-34.0,-981.0,14:13:46.386744,192.168.0.113,21.0,92.0
122,3,22,-8,71,"0,-7,-174",0,0,0,0,0,0,83,85,76,70,83,-53.63,2,5.0,-6.0,-1000.0,14:13:46.490237,192.168.0.113,22.0,92.0
126,3,22,-7,72,"0,-6,-174",0,0,0,0,0,0,83,85,76,70,83,-53.56,2,0.0,11.0,-1004.0,14:13:46.590801,192.168.0.113,22.0,93.0
131,3,20,-5,73,"-1,-6,-176",0,0,0,0,0,0,83,85,76,70,83,-53.5,2,24.0,14.0,-1023.0,14:13:46.692742,192.168.0.113,20.0,95.0
137,3,20,-7,73,"-1,-7,-174",1,0,0,0,0,0,83,85,76,70,83,-53.57,2,21.0,-6.0,-1009.0,14:13:46.795792,192.168.0.113,20.0,93.0
142,3,22,-8,72,"0,-7,-174",1,0,0,0,0,0,83,85,76,70,83,-53.56,2,-6.0,-4.0,-1006.0,14:13:46.897312,192.168.0.113,22.0,92.0
147,3,21,-7,73,"-1,-6,-175",1,0,0,0,0,0,83,85,77,70,83,-53.51,2,34.0,-5.0,-1017.0,14:13:46.998379,192.168.0.113,21.0,93.0
152,3,22,-10,72,"0,-7,-173",0,0,0,0,0,0,83,85,77,70,83,-53.58,2,6.0,15.0,-1008.0,14:13:47.100675,192.168.0.113,22.0,90.0
158,3,22,-8,73,"0,-7,-175",0,0,0,0,0,0,83,85,77,70,83,-53.55,2,20.0,-4.0,-997.0,14:13:47.202706,192.168.0.113,22.0,92.0
163,3,21,-8,74,"-1,-6,-174",1,0,0,0,0,0,84,86,78,70,83,-53.59,2,6.0,9.0,-992.0,14:13:47.304627,192.168.0.113,21.0,92.0
169,3,21,-8,75,"-1,-6,-175",1,0,0,0,0,0,84,86,78,70,83,-53.48,3,9.0,-2.0,-992.0,14:13:47.407385,192.168.0.113,21.0,92.0
173,3,18,-9,76,"-4,-7,-174",1,0,0,0,0,0,84,86,78,70,83,-53.58,3,14.0,7.0,-998.0,14:13:47.509058,192.168.0.113,18.0,91.0
178,3,22,-9,75,"-1,-7,-175",0,0,0,0,0,0,84,86,79,70,83,-53.6,3,6.0,1.0,-1002.0,14:13:47.611006,192.168.0.113,22.0,91.0
183,3,21,-5,76,"-1,-6,-178",0,0,0,0,0,0,84,86,79,70,83,-53.63,3,19.0,7.0,-995.0,14:13:47.712614,192.168.0.113,21.0,95.0
188,3,22,-11,75,"0,-7,-173",0,0,0,0,0,0,84,86,79,70,83,-53.56,3,20.0,-11.0,-989.0,14:13:47.814586,192.168.0.113,22.0,89.0
193,3,23,-11,75,"0,-7,-174",0,0,0,0,0,0,84,86,79,70,83,-53.59,3,0.0,-9.0,-989.0,14:13:47.916535,192.168.0.113,23.0,89.0
198,3,22,-10,76,"-1,-7,-174",0,0,0,0,0,0,84,86,79,70,83,-53.53,3,11.0,0.0,-1004.0,14:13:48.019415,192.168.0.113,22.0,90.0
203,3,22,-10,76,"0,-7,-174",0,0,0,0,0,0,84,86,79,70,83,-53.52,3,3.0,13.0,-999.0,14:13:48.120636,192.168.0.113,22.0,90.0
208,3,17,-10,78,"-4,-7,-174",0,0,0,0,0,0,84,86,79,70,83,-53.53,3,0.0,5.0,-992.0,14:13:48.222573,192.168.0.113,17.0,90.0
213,3,22,-10,76,"-1,-7,-174",0,0,0,0,0,0,83,86,79,70,83,-53.5,3,-7.0,4.0,-992.0,14:13:48.324611,192.168.0.113,22.0,90.0
218,3,25,-10,75,"0,-6,-175",0,0,0,0,0,0,83,86,79,70,83,-53.5,4,11.0,1.0,-998.0,14:13:48.426705,192.168.0.113,25.0,90.0
223,3,23,-14,74,"0,-7,-172",0,0,0,0,0,0,83,86,79,70,83,-53.51,4,18.0,9.0,-1004.0,14:13:48.536633,192.168.0.113,23.0,86.0
228,3,22,-9,76,"-1,-6,-175",0,0,0,0,0,0,83,86,79,70,83,-53.52,4,14.0,-12.0,-1004.0,14:13:48.630759,192.168.0.113,22.0,91.0
233,3,22,-10,76,"-1,-7,-175",0,0,0,0,0,0,83,86,79,70,83,-53.53,4,24.0,2.0,-1009.0,14:13:48.732689,192.168.0.113,22.0,90.0
239,3,19,-15,76,"-3,-8,-171",0,0,0,0,0,0,83,86,79,70,83,-53.59,4,16.0,9.0,-1005.0,14:13:48.835517,192.168.0.113,19.0,85.0
243,3,24,-13,74,"0,-7,-173",0,0,0,0,0,0,83,86,79,70,83,-53.54,4,4.0,-9.0,-1007.0,14:13:48.936618,192.168.0.113,24.0,87.0
247,3,22,-8,76,"-1,-6,-176",0,0,0,0,0,0,83,86,76,70,83,-53.58,4,2.0,-1.0,-999.0,14:13:49.041679,192.168.0.113,22.0,92.0
253,3,24,-8,75,"0,-6,-176",0,0,0,0,0,0,83,86,76,70,83,-53.53,4,-8.0,-9.0,-1006.0,14:13:49.140686,192.168.0.113,24.0,92.0
258,3,23,-12,75,"0,-7,-174",0,0,0,0,0,0,83,86,77,70,83,-53.53,4,5.0,2.0,-1003.0,14:13:49.242565,192.168.0.113,23.0,88.0
264,3,24,-13,75,"0,-7,-173",0,0,0,0,0,0,83,86,77,70,83,-53.53,4,7.0,5.0,-1008.0,14:13:49.344652,192.168.0.113,24.0,87.0
269,3,24,-13,74,"0,-7,-173",0,0,0,0,0,0,83,86,77,70,83,-53.58,5,6.0,-14.0,-1000.0,14:13:49.447061,192.168.0.113,24.0,87.0
274,3,25,-14,74,"0,-7,-173",0,0,0,0,0,0,83,86,77,70,83,-53.54,5,6.0,1.0,-1008.0,14:13:49.548339,192.168.0.113,25.0,86.0
279,3,18,-15,77,"-4,-8,-172",1,0,0,0,0,0,83,86,77,70,83,-53.58,5,5.0,-8.0,-1003.0,14:13:49.650584,192.168.0.113,18.0,85.0
283,3,25,-10,76,"0,-7,-175",1,0,0,0,0,0,83,86,78,70,83,-53.56,5,0.0,6.0,-1008.0,14:13:49.752616,192.168.0.113,25.0,90.0
289,3,9,-18,79,"-11,-9,-168",1,0,0,0,0,0,83,86,78,70,83,-53.57,5,0.0,16.0,-994.0,14:13:49.856106,192.168.0.113,9.0,82.0
294,3,26,-13,75,"0,-7,-173",1,0,0,0,0,0,83,86,78,70,83,-53.58,5,12.0,3.0,-1002.0,14:13:49.956161,192.168.0.113,26.0,87.0
299,3,26,-9,77,"0,-6,-176",1,0,0,0,0,0,83,86,78,70,83,-53.54,5,7.0,17.0,-995.0,14:13:50.058510,192.168.0.113,26.0,91.0
304,3,26,-5,78,"-1,-5,-179",1,0,0,0,0,0,83,86,79,70,83,-53.58,5,6.0,-19.0,-992.0,14:13:50.161029,192.168.0.113,26.0,95.0
309,3,26,-14,77,"0,-7,-173",1,0,0,0,0,0,83,86,79,70,83,-53.6,5,1.0,15.0,-993.0,14:13:50.262750,192.168.0.113,26.0,86.0
314,3,27,-13,77,"0,-7,-174",1,0,0,0,0,0,83,85,78,70,83,-53.61,5,11.0,2.0,-992.0,14:13:50.364497,192.168.0.113,27.0,87.0
319,3,26,-9,78,"-1,-6,-176",1,0,0,0,0,0,83,85,79,70,83,-53.57,6,13.0,2.0,-993.0,14:13:50.466565,192.168.0.113,26.0,91.0
322,3,26,-10,78,"-1,-6,-175",1,0,0,0,0,0,83,85,79,70,83,-53.64,6,12.0,-18.0,-993.0,14:13:50.517284,192.168.0.113,26.0,90.0
327,3,26,-8,79,"-1,-6,-177",1,0,0,0,0,0,83,85,79,70,83,-53.57,6,-4.0,-1.0,-997.0,14:13:50.619524,192.168.0.113,26.0,92.0
332,3,26,-13,78,"-1,-7,-174",1,0,0,0,0,0,83,85,80,70,83,-53.6,6,2.0,6.0,-999.0,14:13:50.721359,192.168.0.113,26.0,87.0
338,3,27,-11,78,"-1,-7,-175",1,0,0,0,0,0,83,85,79,70,83,-53.59,6,-6.0,-13.0,-993.0,14:13:50.823343,192.168.0.113,27.0,89.0
343,3,28,-12,78,"0,-7,-175",1,0,0,0,0,0,83,85,79,70,83,-53.55,6,2.0,-8.0,-996.0,14:13:50.925536,192.168.0.113,28.0,88.0
348,3,26,-11,79,"-2,-7,-175",1,0,0,0,0,0,83,85,80,70,83,-53.55,6,-10.0,9.0,-1003.0,14:13:51.027369,192.168.0.113,26.0,89.0
353,3,28,-14,77,"0,-7,-174",1,0,0,0,0,0,83,85,79,70,83,-53.61,6,-3.0,3.0,-994.0,14:13:51.129283,192.168.0.113,28.0,86.0
358,3,26,-10,79,"-2,-6,-176",1,0,0,0,0,0,83,85,80,70,83,-53.56,6,7.0,4.0,-993.0,14:13:51.231368,192.168.0.113,26.0,90.0
363,3,28,-9,79,"0,-6,-177",1,0,0,0,0,0,83,85,80,70,83,-53.57,6,5.0,6.0,-998.0,14:13:51.333237,192.168.0.113,28.0,91.0
369,3,25,-9,80,"-2,-6,-177",1,0,0,0,0,0,83,85,80,70,83,-53.51,7,12.0,-8.0,-986.0,14:13:51.440946,192.168.0.113,25.0,91.0
373,3,26,-8,80,"-2,-6,-178",1,0,0,0,0,0,83,85,80,70,83,-53.58,7,7.0,6.0,-992.0,14:13:51.537273,192.168.0.113,26.0,92.0
378,3,25,-9,80,"-2,-6,-177",1,0,0,0,0,0,83,85,80,70,83,-53.55,7,0.0,-19.0,-992.0,14:13:51.639487,192.168.0.113,25.0,91.0
384,3,28,-16,77,"0,-7,-173",1,0,0,0,0,0,83,85,80,70,83,-53.55,7,6.0,7.0,-1006.0,14:13:51.742288,192.168.0.113,28.0,84.0
388,3,27,-10,79,"-1,-6,-177",1,0,0,0,0,0,83,85,80,70,83,-53.52,7,6.0,-15.0,-991.0,14:13:51.843059,192.168.0.113,27.0,90.0
393,3,29,-12,77,"0,-7,-175",1,0,0,0,0,0,83,85,80,70,83,-53.53,7,5.0,3.0,-1003.0,14:13:51.946971,192.168.0.113,29.0,88.0
398,3,29,-14,77,"0,-7,-174",1,0,0,0,0,0,83,85,80,70,83,-53.51,7,-1.0,-11.0,-990.0,14:13:52.047045,192.168.0.113,29.0,86.0
403,3,21,-14,81,"-5,-7,-174",0,0,0,0,0,0,83,85,80,70,83,-53.48,7,11.0,-12.0,-993.0,14:13:52.149344,192.168.0.113,21.0,86.0
408,3,28,-9,79,"0,-6,-177",0,0,0,0,0,0,83,85,80,70,83,-53.52,7,1.0,-9.0,-992.0,14:13:52.251298,192.168.0.113,28.0,91.0
413,3,25,-12,80,"-2,-7,-176",0,0,0,0,0,0,83,85,80,70,83,-53.52,7,-1.0,0.0,-1006.0,14:13:52.353275,192.168.0.113,25.0,88.0
418,3,28,-15,78,"0,-7,-174",1,0,0,0,0,0,83,85,80,70,83,-53.58,8,2.0,0.0,-992.0,14:13:52.455340,192.168.0.113,28.0,85.0
423,3,26,-12,80,"-2,-7,-175",1,0,0,0,0,0,83,85,80,70,83,-53.58,8,6.0,10.0,-1004.0,14:13:52.567784,192.168.0.113,26.0,88.0
428,3,26,-9,80,"-2,-6,-177",1,0,0,0,0,0,83,85,80,70,83,-53.56,8,5.0,-2.0,-998.0,14:13:52.659476,192.168.0.113,26.0,91.0
433,3,28,-9,80,"-1,-6,-177",1,0,0,0,0,0,83,85,80,70,83,-53.55,8,16.0,8.0,-1005.0,14:13:52.761100,192.168.0.113,28.0,91.0
438,3,27,-10,80,"-1,-6,-177",1,0,0,0,0,0,83,85,81,70,83,-53.58,8,20.0,-25.0,-996.0,14:13:52.863079,192.168.0.113,27.0,90.0
443,3,27,-10,80,"-1,-6,-177",1,0,0,0,0,0,83,85,81,70,83,-53.63,8,14.0,-20.0,-990.0,14:13:52.965528,192.168.0.113,27.0,90.0
448,3,29,-16,78,"0,-7,-174",1,-3,0,0,0,0,83,85,81,70,83,-53.58,8,1.0,3.0,-1000.0,14:13:53.067359,192.168.0.113,29.0,84.0
453,3,29,-16,78,"0,-7,-174",2,-3,0,0,0,0,83,85,80,70,83,-53.61,8,-11.0,17.0,-981.0,14:13:53.169303,192.168.0.113,29.0,84.0
458,3,29,-15,77,"0,-8,-175",1,-1,0,0,-1,0,83,85,78,70,83,-53.6,8,10.0,2.0,-987.0,14:13:53.271283,192.168.0.113,29.0,85.0
464,3,29,-15,77,"0,-8,-175",1,0,0,0,-1,1,82,84,78,70,83,-53.65,8,0.0,23.0,-1007.0,14:13:53.373210,192.168.0.113,29.0,85.0
469,3,29,-14,75,"0,-8,-173",1,0,0,0,-1,1,82,84,76,70,83,-53.59,9,7.0,-2.0,-1001.0,14:13:53.475217,192.168.0.113,29.0,86.0
474,3,29,-14,75,"0,-8,-173",1,0,0,0,-1,0,82,84,76,70,83,-53.67,9,-14.0,8.0,-1002.0,14:13:53.577262,192.168.0.113,29.0,86.0
479,3,27,-8,75,"-1,-7,-174",1,0,0,0,-1,0,82,84,75,70,83,-53.68,9,15.0,-11.0,-989.0,14:13:53.679340,192.168.0.113,27.0,92.0
484,3,27,-8,75,"-1,-7,-174",1,0,0,0,-1,0,82,84,74,70,83,-53.63,9,4.0,12.0,-1011.0,14:13:53.781106,192.168.0.113,27.0,92.0
489,3,27,-8,75,"-1,-7,-174",1,0,0,0,-1,0,82,84,73,60,83,-53.66,9,0.0,45.0,-1004.0,14:13:53.883224,192.168.0.113,27.0,92.0
494,3,29,-7,72,"0,-7,-173",0,1,0,0,0,0,82,84,72,60,83,-53.64,9,29.0,3.0,-1017.0,14:13:53.985111,192.168.0.113,29.0,93.0
499,3,29,-7,72,"0,-7,-173",1,0,0,0,0,0,82,84,72,60,83,-53.68,9,-6.0,19.0,-1015.0,14:13:54.087577,192.168.0.113,29.0,93.0
504,3,28,-3,72,"0,-7,-174",1,0,0,0,0,0,82,84,72,60,83,-53.65,9,16.0,8.0,-1012.0,14:13:54.189277,192.168.0.113,28.0,97.0
509,3,28,-3,72,"0,-7,-174",-1,0,0,0,0,0,82,84,71,60,83,-53.75,9,3.0,-11.0,-1030.0,14:13:54.291177,192.168.0.113,28.0,97.0
514,3,28,0,71,"2,-6,-177",-5,0,0,0,0,0,82,85,72,60,83,-53.73,9,8.0,-23.0,-999.0,14:13:54.393179,192.168.0.113,28.0,100.0
519,3,28,0,71,"2,-6,-177",-8,0,0,1,0,0,82,85,72,60,83,-53.68,10,-12.0,9.0,-1011.0,14:13:54.495317,192.168.0.113,28.0,100.0
524,3,29,-4,72,"7,-6,-175",-8,0,0,2,0,0,82,85,72,60,83,-53.67,10,-17.0,-2.0,-1007.0,14:13:54.597385,192.168.0.113,29.0,96.0
529,3,29,-4,72,"7,-6,-175",-7,0,0,4,0,0,82,85,72,60,83,-53.66,10,-37.0,-18.0,-1002.0,14:13:54.699778,192.168.0.113,29.0,96.0
534,3,39,-4,73,"5,-6,-176",-6,0,0,5,0,0,82,85,71,60,83,-53.67,10,-34.0,-5.0,-1000.0,14:13:54.801121,192.168.0.113,39.0,96.0
539,3,39,-4,73,"5,-6,-176",-6,0,0,6,0,0,82,85,71,60,83,-53.75,10,-42.0,9.0,-1013.0,14:13:54.903282,192.168.0.113,39.0,96.0
544,3,39,-4,73,"5,-6,-176",-6,0,0,6,0,0,82,85,71,60,83,-53.77,10,-58.0,23.0,-1013.0,14:13:55.014045,192.168.0.113,39.0,96.0
549,3,39,-4,73,"5,-6,-176",-5,0,0,7,0,0,82,85,71,60,83,-53.67,10,-58.0,11.0,-988.0,14:13:55.107167,192.168.0.113,39.0,96.0
554,3,39,-4,73,"5,-6,-176",-5,0,0,8,0,0,82,85,70,60,83,-53.69,10,-30.0,-1.0,-998.0,14:13:55.209005,192.168.0.113,39.0,96.0
559,3,39,-4,73,"5,-6,-176",-4,0,0,8,0,0,82,85,71,60,83,-53.76,10,-69.0,-7.0,-985.0,14:13:55.311126,192.168.0.113,39.0,96.0
564,3,39,-4,73,"5,-6,-176",-4,0,0,8,0,0,82,86,72,60,83,-53.77,10,-49.0,-2.0,-986.0,14:13:55.413050,192.168.0.113,39.0,96.0
569,3,39,-4,73,"5,-6,-176",-4,0,0,9,0,0,82,86,70,60,83,-53.95,11,-60.0,4.0,-994.0,14:13:55.515098,192.168.0.113,39.0,96.0
574,3,39,-4,73,"5,-6,-176",-3,0,0,9,0,0,82,86,70,60,83,-53.84,11,-63.0,-1.0,-994.0,14:13:55.617117,192.168.0.113,39.0,96.0
579,3,39,-4,73,"5,-6,-176",-3,0,0,9,0,0,82,86,70,60,83,-53.83,11,-68.0,18.0,-1001.0,14:13:55.719666,192.168.0.113,39.0,96.0
584,3,39,-4,73,"5,-6,-176",-3,0,0,9,0,0,82,86,70,60,83,-53.76,11,-73.0,10.0,-999.0,14:13:55.821098,192.168.0.113,39.0,96.0
589,3,39,-4,73,"5,-6,-176",-3,0,0,9,0,0,82,86,70,60,83,-53.78,11,-70.0,4.0,-1005.0,14:13:55.923188,192.168.0.113,39.0,96.0
594,3,39,-4,73,"5,-6,-176",-3,0,0,9,0,0,82,86,70,60,83,-53.88,11,-77.0,-5.0,-1002.0,14:13:56.025270,192.168.0.113,39.0,96.0
599,3,39,-4,73,"5,-6,-176",-2,0,0,10,0,0,82,86,70,60,83,-53.77,11,-63.0,4.0,-1006.0,14:13:56.127217,192.168.0.113,39.0,96.0
602,7,-24,-5,68,"0,-5,177",0,0,0,9,0,0,82,86,70,60,83,-53.74,11,-60.0,-2.0,-1004.0,14:13:56.178159,192.168.0.113,176.0,95.0
608,7,-24,-5,68,"0,-5,177",2,0,0,9,0,0,82,86,70,60,83,-53.7,11,-67.0,8.0,-1007.0,14:13:56.280302,192.168.0.113,176.0,95.0
614,7,0,0,71,"-4,-3,172",4,0,0,8,0,0,82,84,70,60,83,-53.78,11,-49.0,18.0,-1019.0,14:13:56.433045,192.168.0.113,200.0,100.0
619,7,0,0,71,"-4,-3,172",6,0,0,7,0,0,82,84,71,60,83,-53.68,12,-55.0,3.0,-1028.0,14:13:56.535253,192.168.0.113,200.0,100.0
624,7,22,2,69,"-4,0,169",8,0,0,4,0,0,82,84,71,60,83,-53.56,12,-26.0,2.0,-1014.0,14:13:56.637068,192.168.0.113,222.0,102.0
629,7,22,2,69,"-4,0,169",8,0,0,3,0,0,82,84,71,60,83,-53.61,12,-13.0,-2.0,-1009.0,14:13:56.739295,192.168.0.113,222.0,102.0
634,7,22,2,69,"-4,0,169",7,0,0,2,0,0,82,84,72,60,83,-53.57,12,-34.0,-1.0,-1054.0,14:13:56.842649,192.168.0.113,222.0,102.0
640,7,22,2,69,"-4,0,169",4,0,0,1,0,0,82,84,71,60,83,-53.6,12,12.0,-7.0,-994.0,14:13:56.945988,192.168.0.113,222.0,102.0
645,7,22,2,69,"-4,0,169",3,0,0,0,0,0,82,84,71,60,83,-53.68,12,17.0,-9.0,-1014.0,14:13:57.044890,192.168.0.113,222.0,102.0
650,7,22,2,69,"-4,0,169",2,0,0,0,0,0,82,84,71,60,83,-53.63,12,7.0,12.0,-980.0,14:13:57.147039,192.168.0.113,222.0,102.0
655,7,22,2,69,"-4,0,169",1,0,0,0,0,0,82,84,71,60,83,-53.6,12,6.0,9.0,-969.0,14:13:57.248982,192.168.0.113,222.0,102.0
660,7,22,2,69,"-4,0,169",1,0,0,0,0,0,82,84,72,60,83,-53.72,12,16.0,-24.0,-976.0,14:13:57.351059,192.168.0.113,222.0,102.0
665,7,22,2,69,"-4,0,169",1,0,0,0,0,0,82,85,71,60,83,-53.67,13,24.0,38.0,-1032.0,14:13:57.453168,192.168.0.113,222.0,102.0
668,7,22,2,69,"-4,0,169",2,0,0,0,0,0,82,85,71,60,83,-53.62,13,-2.0,2.0,-998.0,14:13:57.504281,192.168.0.113,222.0,102.0
673,7,22,2,69,"-4,0,169",2,0,0,0,0,0,82,85,71,60,83,-53.62,13,42.0,-19.0,-983.0,14:13:57.606259,192.168.0.113,222.0,102.0
676,7,22,2,69,"-4,0,169",3,0,0,0,0,0,82,85,71,60,83,-53.53,13,0.0,-23.0,-969.0,14:13:57.709399,192.168.0.113,222.0,102.0
683,7,22,2,69,"-4,0,169",3,0,0,0,0,0,82,85,71,60,83,-53.51,13,13.0,-27.0,-986.0,14:13:57.811784,192.168.0.113,222.0,102.0
689,7,22,2,69,"-4,0,169",3,0,0,0,0,0,82,85,70,60,83,-53.58,13,28.0,1.0,-1044.0,14:13:57.914138,192.168.0.113,222.0,102.0
694,7,22,2,69,"-4,0,169",3,0,0,0,0,0,82,85,70,60,83,-53.63,13,14.0,-8.0,-1005.0,14:13:58.017856,192.168.0.113,222.0,102.0
699,7,22,2,69,"-4,0,169",7,0,0,0,0,0,82,85,71,60,83,-53.6,13,1.0,-23.0,-970.0,14:13:58.117577,192.168.0.113,222.0,102.0
704,7,22,2,69,"-4,0,169",8,0,0,-1,0,0,82,85,71,60,83,-53.54,13,13.0,8.0,-1021.0,14:13:58.219840,192.168.0.113,222.0,102.0
709,7,22,2,69,"-4,0,169",5,0,0,-2,0,0,82,85,70,60,83,-53.57,13,31.0,-2.0,-1015.0,14:13:58.322342,192.168.0.113,222.0,102.0
714,7,22,2,69,"-4,0,169",3,0,0,-2,0,0,82,84,70,60,83,-53.59,14,45.0,-21.0,-992.0,14:13:58.424676,192.168.0.113,222.0,102.0
719,7,22,2,69,"-4,0,169",2,0,0,-2,0,0,82,84,70,60,83,-53.62,14,43.0,-8.0,-1002.0,14:13:58.524271,192.168.0.113,222.0,102.0
724,7,22,2,69,"-4,0,169",2,0,0,-2,0,0,82,84,70,60,83,-53.63,14,32.0,1.0,-1015.0,14:13:58.626839,192.168.0.113,222.0,102.0
729,7,22,2,69,"-4,0,169",2,0,0,-2,0,0,82,84,70,60,83,-53.61,14,15.0,-12.0,-991.0,14:13:58.728173,192.168.0.113,222.0,102.0
734,7,22,2,69,"-4,0,169",2,0,0,-2,0,0,82,84,70,60,83,-53.6,14,44.0,6.0,-993.0,14:13:58.830327,192.168.0.113,222.0,102.0
739,7,22,2,69,"-4,0,169",1,0,0,-2,0,0,82,84,69,60,83,-53.61,14,45.0,9.0,-1007.0,14:13:58.932300,192.168.0.113,222.0,102.0
744,7,22,2,69,"-4,0,169",1,0,0,-1,0,0,82,84,69,60,83,-53.68,14,23.0,-2.0,-999.0,14:13:59.036093,192.168.0.113,222.0,102.0
749,7,22,2,69,"-4,0,169",1,0,0,-1,0,0,82,84,69,60,83,-53.75,14,31.0,-2.0,-1001.0,14:13:59.136301,192.168.0.113,222.0,102.0
754,7,22,2,69,"-4,0,169",1,1,0,-1,0,0,82,84,69,60,83,-53.67,14,18.0,3.0,-997.0,14:13:59.239445,192.168.0.113,222.0,102.0
759,7,22,2,69,"-4,0,169",1,1,0,-1,0,0,82,84,69,60,83,-53.58,14,16.0,20.0,-1016.0,14:13:59.340295,192.168.0.113,222.0,102.0
764,7,39,6,66,"1,1,172",1,1,0,-1,0,0,83,83,69,60,83,-53.57,15,0.0,-32.0,-998.0,14:13:59.442864,192.168.0.113,239.0,106.0
769,7,39,6,66,"1,1,172",1,0,0,-1,0,0,83,83,69,60,83,-53.55,15,-3.0,7.0,-1001.0,14:13:59.544043,192.168.0.113,239.0,106.0
774,7,38,8,66,"1,1,170",1,0,0,-1,0,0,83,83,69,60,83,-53.58,15,27.0,-20.0,-981.0,14:13:59.646198,192.168.0.113,238.0,108.0
779,7,38,8,66,"1,1,170",1,0,0,-1,0,0,83,83,68,60,83,-53.6,15,11.0,12.0,-999.0,14:13:59.748160,192.168.0.113,238.0,108.0
784,7,36,7,66,"1,1,170",2,0,0,-1,0,0,83,83,68,60,83,-53.67,15,15.0,-10.0,-1019.0,14:13:59.850495,192.168.0.113,236.0,107.0
789,7,36,7,66,"1,1,170",2,1,0,-1,0,0,83,83,68,60,83,-53.59,15,24.0,-15.0,-987.0,14:13:59.952156,192.168.0.113,236.0,107.0
794,7,31,0,69,"-2,0,175",2,1,0,-1,0,0,83,83,68,60,83,-53.52,15,22.0,-9.0,-998.0,14:14:00.054110,192.168.0.113,231.0,100.0
799,7,31,0,69,"-2,0,175",2,0,0,-1,0,0,83,83,69,60,83,-53.6,15,14.0,14.0,-1044.0,14:14:00.156058,192.168.0.113,231.0,100.0
803,7,30,-7,68,"0,-3,178",1,0,0,-1,0,0,83,83,69,60,83,-53.62,15,12.0,-21.0,-1001.0,14:14:00.206742,192.168.0.113,230.0,93.0
808,7,30,-7,68,"0,-3,178",1,0,0,-1,0,0,83,83,70,60,83,-53.61,15,21.0,28.0,-1007.0,14:14:00.308967,192.168.0.113,230.0,93.0
814,7,30,-7,68,"0,-3,178",2,0,0,-1,0,0,82,84,70,60,83,-53.59,16,-8.0,6.0,-996.0,14:14:00.462291,192.168.0.113,230.0,93.0
819,7,31,3,67,"1,0,169",2,0,0,-1,0,0,82,84,70,60,83,-53.68,16,22.0,-19.0,-1006.0,14:14:00.564365,192.168.0.113,231.0,103.0
824,7,31,3,67,"1,0,169",1,0,0,-1,0,0,82,84,71,60,83,-53.61,16,8.0,11.0,-996.0,14:14:00.666189,192.168.0.113,231.0,103.0
828,7,28,-4,70,"0,-2,174",1,0,0,-1,0,0,82,84,71,60,83,-53.64,16,1.0,-18.0,-985.0,14:14:00.716856,192.168.0.113,228.0,96.0
833,7,28,-4,70,"0,-2,174",0,0,0,-1,0,0,82,84,71,60,83,-53.66,16,9.0,-6.0,-973.0,14:14:00.819236,192.168.0.113,228.0,96.0
838,7,27,-3,70,"1,-2,174",-1,0,0,-1,0,0,82,84,71,60,83,-53.62,16,2.0,0.0,-993.0,14:14:00.920843,192.168.0.113,227.0,97.0
843,7,27,-3,70,"1,-2,174",0,0,0,0,0,0,82,84,70,60,83,-53.6,16,8.0,18.0,-1010.0,14:14:01.022842,192.168.0.113,227.0,97.0
848,7,28,1,68,"5,-1,171",0,0,0,0,0,0,82,84,71,60,83,-53.6,16,12.0,12.0,-1010.0,14:14:01.127001,192.168.0.113,228.0,101.0
853,7,28,1,68,"5,-1,171",0,0,0,0,0,0,82,84,70,60,83,-53.65,16,-18.0,-9.0,-985.0,14:14:01.226967,192.168.0.113,228.0,101.0
858,7,28,-2,68,"3,-2,175",0,0,0,0,0,0,82,84,70,60,83,-53.66,16,-9.0,28.0,-976.0,14:14:01.328942,192.168.0.113,228.0,98.0
864,7,28,-2,68,"3,-2,175",0,0,0,0,0,0,82,84,70,60,83,-53.63,17,-18.0,0.0,-953.0,14:14:01.431066,192.168.0.113,228.0,98.0
869,7,29,2,67,"3,-1,172",0,0,0,0,0,1,82,84,69,60,83,-53.7,17,-17.0,6.0,-931.0,14:14:01.584296,192.168.0.113,229.0,102.0
874,7,29,2,67,"3,-1,172",0,0,0,0,0,1,82,84,67,60,83,-53.71,17,0.0,39.0,-932.0,14:14:01.686966,192.168.0.113,229.0,102.0
879,7,28,-7,64,"2,-3,179",0,0,0,0,0,2,82,84,63,60,83,-53.65,17,-14.0,-2.0,-905.0,14:14:01.788140,192.168.0.113,228.0,93.0
884,7,28,-7,64,"2,-3,179",0,0,0,0,0,3,82,84,59,50,83,-53.69,17,-20.0,16.0,-944.0,14:14:01.890148,192.168.0.113,228.0,93.0
889,7,27,-2,57,"1,-2,175",0,0,0,0,0,3,82,84,54,50,83,-53.76,17,0.0,-6.0,-963.0,14:14:01.991989,192.168.0.113,227.0,98.0
894,7,27,-2,57,"1,-2,175",0,0,0,0,0,4,82,84,50,50,83,-53.85,17,-1.0,9.0,-979.0,14:14:02.094241,192.168.0.113,227.0,98.0
899,7,27,-2,57,"1,-2,175",0,0,0,0,0,4,82,84,45,40,83,-53.74,17,-4.0,2.0,-975.0,14:14:02.196247,192.168.0.113,227.0,98.0
904,7,27,-2,57,"1,-2,175",0,0,0,0,0,4,82,84,40,40,83,-53.8,17,-9.0,2.0,-989.0,14:14:02.298160,192.168.0.113,227.0,98.0
909,7,27,-2,57,"1,-2,175",1,0,1,0,0,4,82,84,35,30,83,-53.93,17,-3.0,4.0,-995.0,14:14:02.400290,192.168.0.113,227.0,98.0
915,7,27,-2,57,"1,-2,175",1,0,1,0,0,4,82,84,30,30,83,-53.99,18,21.0,2.0,-971.0,14:14:02.502704,192.168.0.113,227.0,98.0
920,7,27,-2,57,"1,-2,175",1,0,1,0,0,4,82,84,25,20,83,-53.93,18,-13.0,25.0,-1015.0,14:14:02.605012,192.168.0.113,227.0,98.0
925,7,27,-2,57,"1,-2,175",1,1,0,0,0,4,82,84,21,20,83,-54.05,18,10.0,-8.0,-981.0,14:14:02.706061,192.168.0.113,227.0,98.0
930,7,27,-2,57,"1,-2,175",1,0,0,0,0,4,82,84,18,10,83,-54.18,18,-6.0,8.0,-1015.0,14:14:02.808329,192.168.0.113,227.0,98.0
935,7,27,-2,57,"1,-2,175",1,0,0,0,0,4,82,84,12,10,83,-54.7,18,-22.0,-4.0,-996.0,14:14:02.910097,192.168.0.113,227.0,98.0
940,7,27,-2,57,"1,-2,175",1,0,0,0,0,4,82,84,10,0,83,-54.91,18,13.0,-6.0,-1046.0,14:14:03.012122,192.168.0.113,227.0,98.0
946,7,27,-2,57,"1,-2,175",0,0,0,0,0,4,82,84,10,0,83,-56.22,18,-26.0,-34.0,-1098.0,14:14:03.114283,192.168.0.113,227.0,98.0
951,7,27,-2,57,"1,-2,175",0,0,0,0,0,3,82,84,10,0,83,-57.77,18,-10.0,23.0,-1537.0,14:14:03.216110,192.168.0.113,227.0,98.0
956,7,27,-2,57,"1,-2,175",0,0,0,0,0,0,82,84,10,0,83,-56.15,18,-2.0,5.0,-685.0,14:14:03.318044,192.168.0.113,227.0,98.0
961,7,27,-2,57,"1,-2,175",-1,-2,0,0,0,0,82,84,10,0,83,-57.0,18,4.0,52.0,-856.0,14:14:03.420213,192.168.0.113,227.0,98.0
966,7,27,-2,57,"1,-2,175",0,0,0,0,0,0,82,84,10,0,83,-56.95,19,-2.0,5.0,-685.0,14:14:03.522064,192.168.0.113,227.0,98.0
971,7,27,-2,57,"1,-2,175",0,0,-1,-1,0,0,82,84,10,0,83,-56.65,19,4.0,52.0,-856.0,14:14:03.624043,192.168.0.113,227.0,98.0
977,7,27,-2,57,"1,-2,175",0,1,-1,-1,0,0,82,84,10,0,83,-55.71,19,35.0,-18.0,-995.0,14:14:03.725939,192.168.0.113,227.0,98.0
982,7,27,-2,57,"1,-2,175",0,1,-1,-1,0,0,82,84,10,0,83,-55.37,19,-24.0,-9.0,-1004.0,14:14:03.828123,192.168.0.113,227.0,98.0
987,7,27,-2,57,"1,-2,175",0,1,-1,-1,0,0,82,84,10,0,83,-55.34,19,12.0,-22.0,-1000.0,14:14:03.930057,192.168.0.113,227.0,98.0
989,7,27,-2,57,"1,-2,175",0,1,-1,-1,0,0,82,84,10,0,83,-55.26,19,3.0,3.0,-990.0,14:14:03.981096,192.168.0.113,227.0,98.0
994,7,27,-2,57,"1,-2,175",0,1,-1,-1,0,0,82,84,10,0,83,-55.21,19,3.0,-12.0,-1004.0,14:14:04.082824,192.168.0.113,227.0,98.0
999,7,27,-2,57,"1,-2,175",0,1,-1,-1,0,0,82,84,10,0,83,-55.05,19,12.0,-21.0,-997.0,14:14:04.184705,192.168.0.113,227.0,98.0
1004,7,27,-2,57,"1,-2,175",0,1,-1,-2,0,0,82,84,10,0,83,-54.87,19,-4.0,-12.0,-999.0,14:14:04.286504,192.168.0.113,227.0,98.0
1009,7,27,-2,57,"1,-2,175",0,1,-1,-2,0,2,82,84,10,0,83,-54.7,19,-1.0,-26.0,-1000.0,14:14:04.388542,192.168.0.113,227.0,98.0
1014,7,27,-2,57,"1,-2,175",0,1,-1,-2,0,2,81,84,10,0,83,-54.53,19,-4.0,-9.0,-1000.0,14:14:04.493683,192.168.0.113,227.0,98.0
