,mid,x,y,z,mpry,pitch,roll,yaw,vgx,vgy,vgz,templ,temph,tof,h,bat,baro,time,agx,agy,agz,timestamp,address
0,-1,-100,-100,-100,"0,0,0",0,0,3,0,0,0,62,64,6553,0,100,-8.3,0,14.0,-6.0,-1001.0,15:57:51.287276,192.168.0.114
6,-1,-100,-100,-100,"0,0,0",0,0,3,0,0,0,62,64,6553,0,100,-8.32,0,15.0,-5.0,-1001.0,15:57:51.526195,192.168.0.114
11,-1,-100,-100,-100,"0,0,0",0,0,3,0,0,0,62,65,6553,0,100,-8.27,0,13.0,-5.0,-999.0,15:57:51.526544,192.168.0.114
16,-1,-100,-100,-100,"0,0,0",0,0,3,0,0,0,62,65,6553,0,100,-8.27,0,14.0,-5.0,-1000.0,15:57:51.563608,192.168.0.114
22,-1,-100,-100,-100,"0,0,0",0,0,3,0,0,0,62,65,6553,0,100,-8.28,0,12.0,-6.0,-1000.0,15:57:51.665852,192.168.0.114
27,-1,-100,-100,-100,"0,0,0",0,0,3,0,0,0,62,65,6553,0,100,-8.27,0,16.0,-3.0,-1000.0,15:57:51.767628,192.168.0.114
32,-1,-100,-100,-100,"0,0,0",0,0,3,0,0,0,62,65,6553,0,100,-8.27,0,12.0,-2.0,-999.0,15:57:51.887142,192.168.0.114
37,-1,-100,-100,-100,"0,0,0",0,0,3,0,0,0,62,65,6553,0,100,-8.27,0,17.0,0.0,-1005.0,15:57:52.006950,192.168.0.114
42,-1,-100,-100,-100,"0,0,0",0,0,3,0,0,0,62,65,6553,0,100,-8.27,0,12.0,-2.0,-985.0,15:57:52.245985,192.168.0.114
47,-1,-100,-100,-100,"0,0,0",0,0,3,0,0,0,62,65,6553,0,100,-8.27,0,-2.0,-7.0,-1084.0,15:57:52.246233,192.168.0.114
52,-1,-100,-100,-100,"0,0,0",-1,0,3,0,0,1,62,65,10,0,100,-8.27,0,9.0,-2.0,-1254.0,15:57:52.277538,192.168.0.114
58,-1,-100,-100,-100,"0,0,0",0,0,3,0,0,4,62,65,10,0,100,-8.27,0,18.0,11.0,-1365.0,15:57:52.379570,192.168.0.114
63,-1,-100,-100,-100,"0,0,0",1,0,3,0,0,7,62,65,10,0,100,-8.23,0,1.0,-4.0,-1123.0,15:57:52.487101,192.168.0.114
68,-1,-100,-100,-100,"0,0,0",1,-1,3,0,0,8,62,65,21,10,100,-7.87,0,-9.0,-28.0,-1087.0,15:57:52.608528,192.168.0.114
73,-1,-100,-100,-100,"0,0,0",1,0,3,0,0,8,62,65,30,20,100,-7.87,0,10.0,-3.0,-995.0,15:57:52.724311,192.168.0.114
75,-1,-100,-100,-100,"0,0,0",0,0,3,0,0,8,62,65,38,30,100,-7.84,1,8.0,1.0,-943.0,15:57:52.736727,192.168.0.114
80,-1,-100,-100,-100,"0,0,0",0,0,3,0,0,7,62,65,45,40,100,-7.68,1,8.0,-2.0,-896.0,15:57:52.963549,192.168.0.114
85,-1,-100,-100,-100,"0,0,0",0,0,3,0,0,6,62,65,52,50,100,-7.64,1,20.0,-5.0,-872.0,15:57:52.963796,192.168.0.114
90,-1,-100,-100,-100,"0,0,0",0,0,3,0,0,5,62,65,58,50,100,-7.53,1,19.0,-6.0,-875.0,15:57:53.087968,192.168.0.114
95,-1,-100,-100,-100,"0,0,0",0,0,3,0,0,4,62,65,63,60,100,-7.52,1,13.0,-1.0,-886.0,15:57:53.204168,192.168.0.114
100,-1,-100,-100,-100,"0,0,0",0,0,3,0,0,3,62,65,66,60,100,-7.53,1,8.0,-6.0,-897.0,15:57:53.246731,192.168.0.114
105,4,2,0,51,"0,0,-178",0,0,3,0,0,2,62,65,69,60,100,-7.41,1,11.0,3.0,-924.0,15:57:53.348801,192.168.0.114
110,4,2,0,51,"0,0,-178",0,0,3,0,0,1,62,65,71,70,100,-7.36,1,9.0,3.0,-952.0,15:57:53.451682,192.168.0.114
115,4,2,0,51,"0,0,-178",0,0,3,0,0,1,62,65,72,70,100,-7.41,1,8.0,2.0,-958.0,15:57:53.658227,192.168.0.114
120,4,2,0,51,"0,0,-178",0,0,3,0,0,0,62,65,73,70,100,-7.36,1,9.0,4.0,-988.0,15:57:53.658454,192.168.0.114
125,4,1,0,71,"0,0,179",0,0,3,0,0,0,62,65,73,70,100,-7.41,2,0.0,11.0,-989.0,15:57:53.877927,192.168.0.114
131,4,1,0,71,"0,0,179",0,0,3,0,0,0,62,65,74,70,100,-7.34,2,14.0,1.0,-991.0,15:57:53.878227,192.168.0.114
136,4,1,0,71,"0,0,179",0,0,3,0,0,0,62,65,74,70,100,-7.38,2,10.0,-3.0,-1001.0,15:57:53.962293,192.168.0.114
141,4,1,0,76,"0,0,180",0,0,3,0,0,0,62,65,76,70,100,-7.37,2,20.0,-4.0,-998.0,15:57:54.062771,192.168.0.114
147,4,1,0,76,"0,0,180",0,0,3,0,0,0,62,65,76,70,100,-7.34,2,5.0,3.0,-997.0,15:57:54.164736,192.168.0.114
152,4,1,0,76,"0,0,180",0,0,3,0,0,0,62,65,76,70,100,-7.26,2,21.0,0.0,-993.0,15:57:54.266701,192.168.0.114
157,4,1,0,76,"0,0,180",0,0,3,0,0,0,62,65,77,70,100,-7.26,2,9.0,7.0,-998.0,15:57:54.368683,192.168.0.114
162,4,0,1,78,"0,0,-179",0,0,3,0,0,0,62,65,77,70,100,-7.3,2,11.0,0.0,-992.0,15:57:54.495747,192.168.0.114
167,4,0,1,78,"0,0,-179",0,0,3,0,0,0,62,65,78,70,100,-7.3,2,13.0,-3.0,-997.0,15:57:54.615847,192.168.0.114
172,4,0,1,78,"0,0,-179",0,0,3,0,0,0,62,65,79,80,100,-7.27,2,25.0,-2.0,-988.0,15:57:54.735896,192.168.0.114
177,4,0,1,78,"0,0,-179",0,0,3,0,0,0,62,65,79,80,100,-7.28,3,7.0,11.0,-995.0,15:57:54.855571,192.168.0.114
182,4,0,2,80,"0,0,180",0,0,3,0,0,0,62,65,79,80,100,-7.37,3,24.0,-2.0,-997.0,15:57:54.878725,192.168.0.114
187,4,0,2,80,"0,0,180",0,0,3,0,0,0,62,65,80,80,100,-7.27,3,5.0,8.0,-1006.0,15:57:54.980688,192.168.0.114
192,4,0,2,80,"0,0,180",0,0,3,0,0,0,62,65,80,80,100,-7.28,3,17.0,1.0,-1000.0,15:57:55.098167,192.168.0.114
197,4,1,1,82,"0,0,-178",0,0,3,0,0,0,62,65,80,80,100,-7.25,3,6.0,0.0,-982.0,15:57:55.218601,192.168.0.114
202,4,1,1,82,"0,0,-178",1,0,3,0,0,0,62,65,80,80,100,-7.24,3,13.0,2.0,-985.0,15:57:55.338175,192.168.0.114
207,4,1,1,82,"0,0,-178",1,0,3,0,0,0,62,65,80,80,100,-7.27,3,10.0,1.0,-993.0,15:57:55.458163,192.168.0.114
212,4,1,1,82,"0,0,-178",1,0,3,0,0,0,62,65,80,80,100,-7.19,3,13.0,3.0,-995.0,15:57:55.578296,192.168.0.114
218,4,2,2,83,"0,0,-178",1,0,3,0,0,0,62,65,80,80,100,-7.22,3,8.0,9.0,-992.0,15:57:55.592710,192.168.0.114
223,4,2,2,83,"0,0,-178",1,0,3,0,0,0,62,65,80,80,100,-7.13,3,11.0,2.0,-994.0,15:57:55.698240,192.168.0.114
225,4,2,2,83,"0,0,-178",1,0,3,0,0,0,62,65,80,80,100,-7.13,4,17.0,8.0,-1001.0,15:57:55.817998,192.168.0.114
230,4,2,2,83,"0,0,-178",1,0,3,0,0,0,62,65,80,80,100,-7.14,4,11.0,2.0,-994.0,15:57:55.937929,192.168.0.114
235,4,2,2,83,"-1,0,-178",1,0,3,0,0,0,62,65,80,80,100,-7.14,4,20.0,0.0,-991.0,15:57:55.949406,192.168.0.114
240,4,2,2,83,"-1,0,-178",1,0,3,0,0,0,62,65,81,80,100,-7.15,4,7.0,7.0,-995.0,15:57:56.058209,192.168.0.114
245,4,2,2,83,"-1,0,-178",1,0,3,0,0,0,62,65,81,80,100,-7.2,4,18.0,0.0,-988.0,15:57:56.178000,192.168.0.114
250,4,2,2,84,"-1,0,-178",1,0,3,0,0,0,62,65,81,80,100,-7.1,4,10.0,-1.0,-986.0,15:57:56.298137,192.168.0.114
256,4,2,2,84,"-1,0,-178",1,0,3,0,0,0,62,65,81,80,100,-7.08,4,4.0,-1.0,-990.0,15:57:56.418111,192.168.0.114
261,4,2,2,84,"-1,0,-178",0,0,3,0,0,0,62,65,82,80,100,-7.11,4,8.0,6.0,-987.0,15:57:56.539353,192.168.0.114
266,4,2,2,84,"-1,0,-178",0,0,3,0,0,0,62,65,82,80,100,-7.14,4,8.0,-2.0,-997.0,15:57:56.561617,192.168.0.114
271,4,2,4,84,"-2,0,-179",0,0,3,0,0,0,62,65,81,80,100,-7.1,4,12.0,1.0,-998.0,15:57:56.663299,192.168.0.114
277,4,2,4,84,"-2,0,-179",1,0,3,0,0,0,62,65,82,80,100,-7.17,5,14.0,-2.0,-992.0,15:57:56.778209,192.168.0.114
282,4,2,4,84,"-2,0,-179",1,0,3,0,0,0,62,65,82,80,100,-7.07,5,8.0,-5.0,-999.0,15:57:56.898321,192.168.0.114
287,4,2,4,84,"-2,0,-179",1,0,3,0,0,0,62,65,83,80,100,-7.05,5,13.0,-6.0,-1002.0,15:57:57.018708,192.168.0.114
292,4,2,3,85,"-1,0,-177",0,0,3,0,0,0,62,65,82,80,100,-7.1,5,2.0,0.0,-1007.0,15:57:57.138540,192.168.0.114
297,4,2,3,85,"-1,0,-177",0,0,3,0,0,0,62,65,83,80,100,-7.12,5,8.0,-5.0,-996.0,15:57:57.258446,192.168.0.114
302,4,2,3,85,"-1,0,-177",0,0,3,0,0,0,62,65,83,80,100,-7.0,5,7.0,-9.0,-987.0,15:57:57.275442,192.168.0.114
307,4,3,4,85,"-1,0,-177",0,0,3,0,0,0,62,65,82,80,100,-7.06,5,2.0,2.0,-1005.0,15:57:57.377966,192.168.0.114
312,4,3,4,85,"-1,0,-177",0,0,3,0,0,0,62,65,83,80,100,-7.01,5,7.0,0.0,-994.0,15:57:57.618076,192.168.0.114
317,4,3,4,85,"-1,0,-177",0,0,3,0,0,0,62,65,83,80,100,-7.03,5,6.0,-3.0,-991.0,15:57:57.618488,192.168.0.114
322,4,3,4,85,"-1,0,-177",0,0,3,0,0,0,62,65,84,80,100,-7.03,5,7.0,-5.0,-1001.0,15:57:57.738622,192.168.0.114
327,4,2,4,86,"-1,0,-177",0,0,3,0,0,0,62,65,83,80,100,-7.03,6,9.0,-5.0,-990.0,15:57:57.858445,192.168.0.114
332,4,2,4,86,"-1,0,-177",0,0,3,0,0,0,62,65,83,80,100,-7.02,6,14.0,-4.0,-1001.0,15:57:57.978578,192.168.0.114
337,4,2,4,86,"-1,0,-177",0,0,3,0,0,0,62,65,83,80,100,-7.03,6,10.0,-8.0,-1001.0,15:57:57.989393,192.168.0.114
343,4,2,4,86,"-1,0,-177",0,0,3,0,0,0,62,65,84,80,100,-7.07,6,8.0,-10.0,-988.0,15:57:58.098634,192.168.0.114
348,4,1,5,86,"-1,0,-177",0,0,3,0,0,0,62,65,84,80,100,-6.99,6,11.0,-8.0,-1002.0,15:57:58.337819,192.168.0.114
353,4,1,5,86,"-1,0,-177",0,0,3,0,0,0,62,65,83,80,100,-7.01,6,11.0,-13.0,-998.0,15:57:58.338079,192.168.0.114
358,4,1,5,86,"-1,0,-177",0,0,3,0,0,0,62,65,84,80,100,-7.02,6,11.0,-8.0,-1001.0,15:57:58.458764,192.168.0.114
363,4,1,5,86,"-1,0,-177",0,0,3,0,0,0,62,65,83,80,100,-6.98,6,7.0,-7.0,-993.0,15:57:58.578444,192.168.0.114
368,4,3,4,87,"0,0,-176",0,1,3,0,0,0,62,65,84,80,100,-6.97,6,11.0,-8.0,-999.0,15:57:58.601519,192.168.0.114
373,4,3,4,87,"0,0,-176",0,0,3,0,0,0,62,65,84,80,100,-7.02,6,0.0,-5.0,-994.0,15:57:58.703408,192.168.0.114
378,4,3,4,87,"0,0,-176",0,0,3,0,0,0,62,65,84,80,100,-6.92,7,9.0,-10.0,-999.0,15:57:58.818783,192.168.0.114
383,4,2,6,87,"-1,0,-177",0,0,3,0,0,0,62,65,84,80,100,-6.96,7,4.0,-6.0,-997.0,15:57:59.057779,192.168.0.114
386,4,2,6,87,"-1,0,-177",0,0,3,0,0,0,62,65,84,80,100,-7.03,7,8.0,-5.0,-1002.0,15:57:59.057931,192.168.0.114
391,4,2,6,87,"-1,0,-177",0,0,3,0,0,0,62,65,84,80,100,-7.03,7,4.0,-6.0,-995.0,15:57:59.060444,192.168.0.114
396,4,2,6,87,"-1,0,-177",0,0,3,0,0,0,62,65,84,80,100,-7.02,7,-6.0,-1.0,-1003.0,15:57:59.178792,192.168.0.114
401,4,2,6,87,"-1,0,-177",0,0,3,0,0,0,62,65,84,80,100,-6.95,7,10.0,-1.0,-995.0,15:57:59.298643,192.168.0.114
406,4,2,6,87,"-1,0,-177",0,0,3,0,0,0,62,65,84,80,100,-7.03,7,1.0,-6.0,-991.0,15:57:59.418631,192.168.0.114
411,4,2,6,87,"-1,0,-177",0,0,3,0,0,0,62,66,84,80,100,-7.06,7,1.0,-6.0,-992.0,15:57:59.538548,192.168.0.114
416,4,2,6,87,"-1,0,-177",0,0,3,0,0,0,62,66,83,80,100,-7.02,7,2.0,-8.0,-998.0,15:57:59.777739,192.168.0.114
421,4,0,6,87,"-2,0,-177",0,1,3,0,0,0,62,66,84,80,100,-6.98,7,18.0,-13.0,-996.0,15:57:59.778058,192.168.0.114
426,4,0,6,87,"-2,0,-177",0,1,3,0,0,0,62,66,83,80,100,-6.98,8,7.0,-5.0,-999.0,15:57:59.778321,192.168.0.114
432,4,0,6,87,"-2,0,-177",0,1,3,0,0,0,62,66,83,80,100,-6.98,8,16.0,-14.0,-1009.0,15:57:59.898598,192.168.0.114
437,4,1,7,87,"-1,0,-176",0,1,3,0,0,0,62,66,84,80,100,-7.0,8,3.0,0.0,-999.0,15:58:00.021052,192.168.0.114
442,4,1,7,87,"-1,0,-176",0,1,3,0,0,0,62,66,83,80,100,-6.99,8,15.0,-10.0,-1002.0,15:58:00.138983,192.168.0.114
447,4,1,7,87,"-1,0,-176",0,1,3,0,0,0,62,66,83,80,100,-6.98,8,0.0,-6.0,-993.0,15:58:00.258423,192.168.0.114
452,4,1,7,87,"-1,0,-176",0,1,3,0,0,0,62,66,84,80,100,-6.98,8,12.0,-3.0,-1002.0,15:58:00.497636,192.168.0.114
457,4,2,7,87,"0,0,-176",0,1,3,0,0,0,62,66,83,80,100,-6.96,8,7.0,-13.0,-996.0,15:58:00.497908,192.168.0.114
462,4,2,7,87,"0,0,-176",0,1,3,0,0,0,62,65,84,80,100,-6.95,8,5.0,-3.0,-993.0,15:58:00.498192,192.168.0.114
467,4,2,7,87,"0,0,-176",0,1,3,0,0,0,62,65,83,80,100,-6.96,8,11.0,-13.0,-999.0,15:58:00.618856,192.168.0.114
473,4,2,7,87,"0,0,-176",0,1,3,0,0,0,62,65,83,80,100,-6.97,8,8.0,-9.0,-1006.0,15:58:00.738824,192.168.0.114
478,4,3,7,86,"0,0,-176",0,1,3,0,0,0,62,65,83,80,100,-6.97,9,10.0,-9.0,-991.0,15:58:00.858721,192.168.0.114
483,4,3,7,86,"0,0,-176",0,1,3,0,0,0,62,65,84,80,100,-6.95,9,11.0,-11.0,-996.0,15:58:00.978707,192.168.0.114
488,4,3,7,86,"0,0,-176",0,1,3,0,0,0,62,65,83,80,100,-6.9,9,12.0,-13.0,-993.0,15:58:00.999157,192.168.0.114
493,4,3,7,86,"0,0,-176",0,1,3,0,0,0,62,65,83,80,100,-6.98,9,8.0,-11.0,-1000.0,15:58:01.104392,192.168.0.114
498,4,2,8,86,"-1,0,-176",0,1,3,0,0,0,62,65,83,80,100,-6.98,9,5.0,-6.0,-991.0,15:58:01.218588,192.168.0.114
503,4,2,8,86,"-1,0,-176",0,1,3,0,0,0,62,65,83,80,100,-6.94,9,-5.0,-8.0,-993.0,15:58:01.338677,192.168.0.114
508,4,2,8,86,"-1,0,-176",-1,0,3,0,0,0,62,65,84,80,100,-6.96,9,15.0,-8.0,-946.0,15:58:01.458632,192.168.0.114
513,4,2,8,86,"-1,0,-176",-3,1,3,0,0,0,64,67,83,80,100,-6.93,9,11.0,-6.0,-977.0,15:58:01.578608,192.168.0.114
518,4,2,8,86,"-1,0,-176",-1,1,3,-1,0,-1,64,67,81,80,100,-6.98,9,-2.0,-7.0,-985.0,15:58:01.698570,192.168.0.114
523,4,2,8,86,"-1,0,-176",0,1,3,-1,0,-1,64,67,81,80,100,-7.03,9,2.0,-6.0,-998.0,15:58:01.712414,192.168.0.114
528,4,3,9,86,"1,0,-177",0,1,3,-1,0,-1,64,67,79,70,100,-6.97,10,-2.0,-10.0,-997.0,15:58:01.938094,192.168.0.114
533,4,3,9,86,"1,0,-177",0,1,3,-1,0,-1,64,67,78,70,100,-6.91,10,1.0,-16.0,-1007.0,15:58:01.938325,192.168.0.114
538,4,3,9,86,"1,0,-177",0,1,3,-1,0,-1,64,67,77,70,100,-6.9,10,-1.0,-5.0,-1002.0,15:58:02.059423,192.168.0.114
543,4,3,9,86,"1,0,-177",0,2,3,-1,0,-1,64,67,76,70,100,-6.92,10,-3.0,1.0,-1010.0,15:58:02.176382,192.168.0.114
548,4,3,9,86,"1,0,-177",0,1,3,-1,0,0,64,67,75,70,100,-7.0,10,-6.0,-6.0,-1021.0,15:58:02.296345,192.168.0.114
553,4,3,9,86,"1,0,-177",0,1,3,-1,0,0,64,67,74,70,100,-6.9,10,0.0,-15.0,-1006.0,15:58:02.416164,192.168.0.114
556,4,3,9,86,"1,0,-177",1,1,3,-1,0,0,64,67,73,70,100,-6.98,10,-1.0,-10.0,-1012.0,15:58:02.416352,192.168.0.114
563,4,16,14,77,"2,0,180",2,1,3,0,0,0,65,68,73,70,100,-6.98,10,4.0,-11.0,-1005.0,15:58:02.655819,192.168.0.114
568,4,16,14,77,"2,0,180",2,1,3,0,0,0,65,68,72,70,100,-7.05,10,15.0,-6.0,-1013.0,15:58:02.656197,192.168.0.114
571,4,16,14,77,"2,0,180",1,1,3,0,0,0,65,68,71,70,100,-7.04,10,3.0,-8.0,-997.0,15:58:02.776688,192.168.0.114
576,4,16,14,77,"2,0,180",1,1,3,0,0,0,65,68,71,70,100,-7.05,11,4.0,-3.0,-1007.0,15:58:02.784175,192.168.0.114
581,4,16,14,77,"2,0,180",1,1,3,0,0,0,65,68,71,70,100,-7.04,11,8.0,-9.0,-1010.0,15:58:02.896461,192.168.0.114
586,4,16,14,77,"2,0,180",1,0,3,0,0,0,65,68,71,70,100,-7.06,11,3.0,-6.0,-1018.0,15:58:03.016421,192.168.0.114
591,4,16,14,77,"2,0,180",1,-1,3,0,0,0,65,68,70,70,100,-7.04,11,0.0,-4.0,-1005.0,15:58:03.136305,192.168.0.114
596,4,25,8,73,"1,-1,-178",1,0,3,0,0,0,65,68,70,70,100,-7.06,11,13.0,-5.0,-1007.0,15:58:03.375673,192.168.0.114
601,4,25,8,73,"1,-1,-178",0,0,3,0,0,0,65,68,70,70,100,-7.1,11,-2.0,4.0,-1003.0,15:58:03.375935,192.168.0.114
607,4,25,8,73,"1,-1,-178",0,0,3,0,0,0,65,68,70,70,100,-7.02,11,13.0,-4.0,-1001.0,15:58:03.395248,192.168.0.114
612,4,25,8,73,"1,-1,-178",-1,0,3,0,0,0,65,68,70,70,100,-7.09,11,0.0,2.0,-998.0,15:58:03.616377,192.168.0.114
617,4,25,8,73,"1,-1,-178",-1,0,3,0,0,0,65,68,70,70,100,-7.12,11,-10.0,3.0,-1005.0,15:58:03.616682,192.168.0.114
622,4,25,8,73,"1,-1,-178",-1,0,3,-1,0,0,65,68,70,70,100,-7.01,11,4.0,-11.0,-992.0,15:58:03.736434,192.168.0.114
627,4,27,8,71,"1,-1,180",-1,0,3,-1,0,0,65,68,70,70,100,-6.95,12,-15.0,7.0,-1011.0,15:58:03.856611,192.168.0.114
632,4,27,8,71,"1,-1,180",-1,0,3,-1,0,0,65,68,70,70,100,-7.04,12,-4.0,2.0,-1004.0,15:58:04.097614,192.168.0.114
637,4,27,8,71,"1,-1,180",-1,0,3,-2,0,0,65,68,70,70,100,-7.08,12,-11.0,0.0,-995.0,15:58:04.097796,192.168.0.114
642,4,27,8,71,"1,-1,180",-1,0,3,-2,0,0,65,68,70,70,100,-7.0,12,-3.0,7.0,-996.0,15:58:04.109216,192.168.0.114
648,4,27,8,71,"1,-1,180",0,0,3,-2,0,0,65,68,70,70,100,-7.07,12,-12.0,-3.0,-991.0,15:58:04.219754,192.168.0.114
653,4,27,8,71,"1,-1,180",0,0,3,-2,0,0,65,68,71,70,100,-7.0,12,1.0,-1.0,-1007.0,15:58:04.338653,192.168.0.114
658,4,27,8,71,"1,-1,180",0,0,3,-2,0,0,65,68,71,70,100,-7.1,12,-13.0,0.0,-998.0,15:58:04.458652,192.168.0.114
663,4,40,15,70,"4,0,178",0,0,3,-2,0,0,65,68,71,70,100,-7.11,12,-13.0,-2.0,-995.0,15:58:04.578734,192.168.0.114
668,4,40,15,70,"4,0,178",0,0,3,-2,0,0,65,68,71,70,100,-7.08,12,-24.0,-5.0,-995.0,15:58:04.619126,192.168.0.114
673,4,40,15,70,"4,0,178",0,0,3,-2,0,0,65,68,72,70,100,-7.1,12,-16.0,-5.0,-997.0,15:58:04.834651,192.168.0.114
678,4,40,15,70,"4,0,178",0,0,3,-2,0,0,65,68,71,70,100,-7.07,13,-16.0,-7.0,-987.0,15:58:04.834905,192.168.0.114
683,4,40,15,70,"4,0,178",0,1,3,-2,0,0,65,68,71,70,100,-7.07,13,-23.0,-2.0,-1002.0,15:58:04.925226,192.168.0.114
688,4,40,15,70,"4,0,178",0,1,3,-2,0,0,65,68,71,70,100,-7.04,13,-6.0,-10.0,-986.0,15:58:05.027195,192.168.0.114
693,4,40,15,70,"4,0,178",0,1,3,-2,0,0,65,68,71,70,100,-7.1,13,-14.0,-8.0,-996.0,15:58:05.129185,192.168.0.114
698,4,40,15,70,"4,0,178",0,1,3,-3,0,0,65,68,71,70,100,-7.05,13,-13.0,-10.0,-991.0,15:58:05.231100,192.168.0.114
703,4,40,15,70,"4,0,178",0,1,3,-3,0,0,65,68,70,70,100,-6.96,13,-12.0,-2.0,-998.0,15:58:05.333044,192.168.0.114
708,4,40,15,70,"4,0,178",0,1,3,-3,0,0,65,68,70,70,100,-7.04,13,-7.0,-5.0,-997.0,15:58:05.497674,192.168.0.114
713,4,40,15,70,"4,0,178",0,1,3,-3,0,0,66,68,70,70,100,-7.04,13,-7.0,-14.0,-993.0,15:58:05.736696,192.168.0.114
718,4,40,15,70,"4,0,178",0,1,3,-3,0,0,66,68,70,70,100,-7.02,13,-10.0,-14.0,-995.0,15:58:05.736978,192.168.0.114
723,4,40,15,70,"4,0,178",0,1,3,-3,0,0,66,68,70,70,100,-7.04,13,-19.0,-10.0,-1013.0,15:58:05.741245,192.168.0.114
728,4,40,15,70,"4,0,178",0,1,3,-3,0,0,66,68,70,70,100,-7.01,14,-21.0,-10.0,-997.0,15:58:05.858399,192.168.0.114
733,4,40,15,70,"4,0,178",0,1,3,-3,0,0,66,68,70,70,100,-7.02,14,-18.0,-11.0,-993.0,15:58:05.977823,192.168.0.114
738,4,40,15,70,"4,0,178",0,1,3,-3,0,0,66,68,69,70,100,-7.07,14,-16.0,-18.0,-999.0,15:58:06.097627,192.168.0.114
743,4,40,15,70,"4,0,178",0,1,3,-3,0,0,66,68,69,70,100,-7.08,14,-9.0,-3.0,-986.0,15:58:06.336888,192.168.0.114
746,4,40,15,70,"4,0,178",0,1,3,-3,0,0,66,68,69,70,100,-7.06,14,-9.0,-12.0,-1018.0,15:58:06.337084,192.168.0.114
751,4,40,15,70,"4,0,178",0,1,3,-3,0,0,66,68,69,70,100,-7.01,14,-13.0,-11.0,-995.0,15:58:06.337339,192.168.0.114
756,4,40,15,70,"4,0,178",0,1,3,-3,0,0,66,68,69,70,100,-6.98,14,-9.0,-4.0,-997.0,15:58:06.457815,192.168.0.114
761,4,40,15,70,"4,0,178",0,1,3,-3,0,0,66,69,68,70,100,-7.11,14,-8.0,1.0,-1008.0,15:58:06.577746,192.168.0.114
766,4,40,15,70,"4,0,178",0,1,3,-3,0,0,66,69,68,70,100,-7.06,14,-11.0,-5.0,-993.0,15:58:06.697630,192.168.0.114
771,4,40,15,70,"4,0,178",0,1,3,-3,0,0,66,69,68,70,100,-7.03,14,-12.0,0.0,-1016.0,15:58:06.709997,192.168.0.114
776,4,40,15,70,"4,0,178",0,1,3,-3,0,0,66,69,68,70,100,-7.08,15,-14.0,-3.0,-991.0,15:58:06.819034,192.168.0.114
781,4,40,15,70,"4,0,178",0,1,3,-3,0,0,66,69,68,70,100,-7.04,15,-15.0,-2.0,-1005.0,15:58:06.937904,192.168.0.114
786,4,40,15,70,"4,0,178",0,1,3,-3,0,0,66,69,67,70,100,-7.12,15,-6.0,-8.0,-988.0,15:58:07.176958,192.168.0.114
791,4,40,15,70,"4,0,178",0,1,3,-3,0,0,66,69,67,70,100,-7.09,15,-5.0,-6.0,-994.0,15:58:07.177211,192.168.0.114
796,4,40,15,70,"4,0,178",0,1,3,-3,0,0,66,69,66,70,100,-7.06,15,-18.0,-11.0,-996.0,15:58:07.297560,192.168.0.114
801,4,40,15,70,"4,0,178",0,0,3,-3,0,0,66,69,66,70,100,-7.03,15,-17.0,-9.0,-989.0,15:58:07.322462,192.168.0.114
806,4,40,15,70,"4,0,178",0,1,3,-3,0,0,66,69,66,70,100,-7.1,15,-18.0,-4.0,-1013.0,15:58:07.424265,192.168.0.114
812,4,40,15,70,"4,0,178",0,1,3,-3,0,0,66,68,66,70,100,-7.13,15,-20.0,-7.0,-1006.0,15:58:07.537820,192.168.0.114
817,4,40,15,70,"4,0,178",0,1,3,-3,0,0,66,68,66,70,100,-7.13,15,-13.0,-11.0,-1012.0,15:58:07.657872,192.168.0.114
822,4,40,15,70,"4,0,178",0,1,3,-3,0,0,66,68,66,70,100,-7.11,16,-17.0,-5.0,-1007.0,15:58:07.898401,192.168.0.114
827,4,40,15,70,"4,0,178",0,1,3,-2,0,0,66,68,66,70,100,-7.06,16,-15.0,1.0,-998.0,15:58:07.898652,192.168.0.114
833,4,40,15,70,"4,0,178",0,0,3,-2,0,0,66,68,66,70,100,-7.05,16,-14.0,-10.0,-991.0,15:58:08.017678,192.168.0.114
838,4,40,15,70,"4,0,178",0,1,3,-2,0,0,66,68,66,70,100,-7.11,16,-18.0,-6.0,-1002.0,15:58:08.037622,192.168.0.114
843,4,40,15,70,"4,0,178",0,0,3,-2,0,0,66,68,66,70,100,-7.06,16,-12.0,-5.0,-1006.0,15:58:08.138036,192.168.0.114
848,4,40,15,70,"4,0,178",0,0,3,-2,0,0,66,68,66,70,100,-7.09,16,-22.0,-13.0,-1001.0,15:58:08.258182,192.168.0.114
852,4,40,15,70,"4,0,178",0,1,3,-2,0,0,66,68,66,70,100,-7.18,16,-22.0,-5.0,-986.0,15:58:08.377775,192.168.0.114
858,4,40,15,70,"4,0,178",0,1,3,-2,0,0,66,68,65,60,100,-7.1,16,-22.0,2.0,-1001.0,15:58:08.504143,192.168.0.114
863,4,40,15,70,"4,0,178",0,1,3,-2,0,0,66,69,66,60,100,-7.19,16,-13.0,0.0,-1000.0,15:58:08.617691,192.168.0.114
868,4,40,15,70,"4,0,178",0,1,3,-2,0,0,66,69,66,60,100,-7.08,16,-9.0,-4.0,-986.0,15:58:08.737680,192.168.0.114
873,4,40,15,70,"4,0,178",0,1,3,-2,0,0,66,69,66,60,100,-7.13,17,-7.0,7.0,-986.0,15:58:08.750232,192.168.0.114
878,4,40,15,70,"4,0,178",0,1,3,-3,0,0,66,69,66,60,100,-6.98,17,-5.0,13.0,-1013.0,15:58:08.858073,192.168.0.114
883,4,40,15,70,"4,0,178",0,0,3,-3,-1,0,66,69,66,60,100,-7.1,17,-2.0,9.0,-1012.0,15:58:08.977965,192.168.0.114
888,4,40,15,70,"4,0,178",0,0,3,-3,-1,0,66,69,65,60,100,-7.09,17,-2.0,17.0,-997.0,15:58:09.099317,192.168.0.114
893,4,40,15,70,"4,0,178",0,0,3,-3,-1,0,66,69,65,60,100,-7.06,17,-3.0,14.0,-990.0,15:58:09.339424,192.168.0.114
898,4,40,15,70,"4,0,178",0,0,3,-3,-1,0,66,69,65,60,100,-7.14,17,2.0,0.0,-987.0,15:58:09.339814,192.168.0.114
903,4,40,15,70,"4,0,178",0,0,3,-3,0,0,66,69,64,60,100,-7.1,17,-14.0,5.0,-1003.0,15:58:09.362501,192.168.0.114
908,4,40,15,70,"4,0,178",0,0,3,-3,0,0,66,69,65,60,100,-7.08,17,-16.0,2.0,-1013.0,15:58:09.463984,192.168.0.114
913,4,40,15,70,"4,0,178",0,0,3,-3,0,0,67,69,65,60,100,-7.08,17,-17.0,0.0,-987.0,15:58:09.578135,192.168.0.114
918,-1,-100,-100,-100,"0,0,0",0,1,3,-3,0,0,67,69,66,60,100,-7.03,17,-4.0,-9.0,-994.0,15:58:09.698072,192.168.0.114
923,-1,-100,-100,-100,"0,0,0",0,0,3,-3,0,0,67,69,66,60,100,-7.14,18,-14.0,-3.0,-997.0,15:58:09.817886,192.168.0.114
928,-1,-100,-100,-100,"0,0,0",0,0,3,-3,0,0,67,69,66,60,100,-7.07,18,-18.0,2.0,-1003.0,15:58:09.954280,192.168.0.114
933,-1,-100,-100,-100,"0,0,0",0,0,3,-2,0,0,67,69,66,60,100,-7.04,18,-14.0,2.0,-996.0,15:58:10.057897,192.168.0.114
938,-1,-100,-100,-100,"0,0,0",0,1,3,-2,0,0,67,69,66,60,100,-6.95,18,-9.0,-1.0,-993.0,15:58:10.076169,192.168.0.114
943,-1,-100,-100,-100,"0,0,0",0,1,3,-2,0,0,67,69,66,60,100,-7.03,18,-3.0,-9.0,-994.0,15:58:10.178546,192.168.0.114
946,-1,-100,-100,-100,"0,0,0",0,1,3,-2,0,0,67,69,66,60,100,-7.05,18,-7.0,-15.0,-992.0,15:58:10.297808,192.168.0.114
951,-1,-100,-100,-100,"0,0,0",0,1,3,-2,0,0,67,69,66,60,100,-7.09,18,-6.0,-7.0,-1001.0,15:58:10.417851,192.168.0.114
956,-1,-100,-100,-100,"0,0,0",0,1,3,-2,0,0,67,69,65,60,100,-7.01,18,-10.0,-4.0,-996.0,15:58:10.432943,192.168.0.114
963,-1,-100,-100,-100,"0,0,0",0,1,3,-2,0,0,67,70,66,60,100,-7.08,18,-4.0,-5.0,-1007.0,15:58:10.657273,192.168.0.114
966,-1,-100,-100,-100,"0,0,0",0,1,3,-2,0,0,67,70,66,60,100,-7.16,18,-6.0,-4.0,-999.0,15:58:10.657481,192.168.0.114
971,-1,-100,-100,-100,"0,0,0",0,1,3,-2,0,0,67,70,66,60,100,-6.95,19,-1.0,-5.0,-1001.0,15:58:10.777906,192.168.0.114
976,-1,-100,-100,-100,"0,0,0",0,0,3,-2,0,0,67,70,66,60,100,-7.05,19,0.0,-2.0,-989.0,15:58:10.898334,192.168.0.114
981,-1,-100,-100,-100,"0,0,0",0,0,3,-2,0,0,67,70,66,60,100,-7.06,19,-8.0,-2.0,-1005.0,15:58:11.017826,192.168.0.114
986,-1,-100,-100,-100,"0,0,0",0,0,3,-2,0,0,67,70,67,70,100,-7.08,19,-1.0,-5.0,-997.0,15:58:11.138315,192.168.0.114
991,-1,-100,-100,-100,"0,0,0",0,0,3,-2,0,0,67,70,66,70,100,-7.08,19,-8.0,-12.0,-998.0,15:58:11.147137,192.168.0.114
997,-1,-100,-100,-100,"0,0,0",0,1,3,-2,0,0,67,70,67,70,100,-7.07,19,-6.0,-15.0,-996.0,15:58:11.255063,192.168.0.114
1002,7,-34,-15,69,"-1,-3,176",0,1,3,-2,0,0,67,70,68,70,100,-7.07,19,-10.0,-10.0,-1005.0,15:58:11.382067,192.168.0.114
1007,7,-34,-15,69,"-1,-3,176",0,1,3,-2,0,0,67,70,68,70,100,-7.06,19,0.0,-10.0,-1000.0,15:58:11.497691,192.168.0.114
1012,7,-34,-15,69,"-1,-3,176",0,1,3,-2,0,0,66,69,68,70,100,-7.02,19,-1.0,-11.0,-1001.0,15:58:11.615146,192.168.0.114
1017,7,-34,-15,69,"-1,-3,176",0,1,3,-2,-1,0,66,69,68,70,100,-7.05,19,-12.0,-9.0,-988.0,15:58:11.734871,192.168.0.114
1022,7,-34,-15,69,"-1,-3,176",1,1,3,-2,-1,0,66,69,68,70,100,-7.09,20,-2.0,-7.0,-1005.0,15:58:11.854996,192.168.0.114
1028,7,-34,-15,69,"-1,-3,176",0,1,3,-2,-1,0,66,69,68,70,100,-7.07,20,-6.0,1.0,-1004.0,15:58:11.860987,192.168.0.114
1033,7,-34,-15,69,"-1,-3,176",0,1,3,-2,-1,0,66,69,68,70,100,-7.07,20,-8.0,-9.0,-996.0,15:58:11.975221,192.168.0.114
1037,7,-14,-18,71,"-2,-2,177",0,1,3,-2,-1,0,66,69,68,70,100,-7.08,20,-9.0,0.0,-1001.0,15:58:12.105085,192.168.0.114
1042,7,-14,-18,71,"-2,-2,177",0,1,3,-2,-1,0,66,69,67,70,100,-7.05,20,-12.0,-7.0,-1004.0,15:58:12.214958,192.168.0.114
1048,7,-14,-18,71,"-2,-2,177",0,1,3,-2,-1,0,66,69,67,70,100,-7.1,20,3.0,-16.0,-987.0,15:58:12.334735,192.168.0.114
1053,7,-14,-18,71,"-2,-2,177",0,1,3,-2,-1,0,66,69,67,70,100,-7.09,20,-17.0,-8.0,-990.0,15:58:12.454905,192.168.0.114
1058,7,-14,-18,71,"-2,-2,177",0,1,3,-2,-1,0,66,69,68,70,100,-7.09,20,-1.0,-17.0,-973.0,15:58:12.472886,192.168.0.114
1063,7,-14,-18,71,"-2,-2,177",0,1,3,-2,-1,0,67,70,68,70,100,-7.14,20,0.0,-16.0,-995.0,15:58:12.576248,192.168.0.114
1068,7,-14,-18,71,"-2,-2,177",0,1,3,-1,-1,0,67,70,68,70,100,-7.12,20,-10.0,-10.0,-1002.0,15:58:12.695480,192.168.0.114
1073,8,14,19,70,"2,0,-175",0,1,3,-1,-1,0,67,70,68,70,100,-7.12,21,-9.0,-4.0,-1003.0,15:58:12.934478,192.168.0.114
1078,8,14,19,70,"2,0,-175",0,1,3,-1,-1,0,67,70,68,70,100,-7.12,21,-8.0,-11.0,-989.0,15:58:12.935099,192.168.0.114
1083,8,14,19,70,"2,0,-175",0,1,3,-1,-1,0,67,70,68,70,100,-7.16,21,-13.0,-10.0,-1007.0,15:58:13.055068,192.168.0.114
1088,8,14,19,70,"2,0,-175",0,1,3,-1,-1,0,67,70,67,70,100,-7.09,21,-5.0,-17.0,-996.0,15:58:13.177452,192.168.0.114
1093,8,14,19,70,"2,0,-175",0,1,3,-1,-1,0,67,70,67,70,100,-7.14,21,-19.0,-17.0,-993.0,15:58:13.186876,192.168.0.114
1098,8,14,19,70,"2,0,-175",0,2,3,-1,-1,0,67,70,67,70,100,-7.12,21,-19.0,-12.0,-993.0,15:58:13.297712,192.168.0.114
1103,8,30,11,68,"3,-1,-175",2,0,3,-1,-1,0,67,70,67,70,100,-7.12,21,-16.0,-4.0,-999.0,15:58:13.417500,192.168.0.114
1108,8,30,11,68,"3,-1,-175",3,-2,3,0,-1,0,67,70,68,70,100,-7.12,21,-1.0,-24.0,-1032.0,15:58:13.540555,192.168.0.114
1113,8,30,11,68,"3,-1,-175",1,-1,3,0,0,0,66,70,68,70,100,-7.09,21,8.0,-7.0,-1003.0,15:58:13.657521,192.168.0.114
1118,8,30,11,68,"3,-1,-175",1,0,3,0,0,0,66,70,68,70,100,-7.06,21,5.0,-10.0,-993.0,15:58:13.777559,192.168.0.114
1123,8,30,11,68,"3,-1,-175",0,0,3,0,0,0,66,70,68,70,100,-7.06,22,20.0,-12.0,-1003.0,15:58:13.800163,192.168.0.114
1128,8,30,11,68,"3,-1,-175",0,0,3,0,0,0,66,70,68,70,100,-7.05,22,9.0,-10.0,-993.0,15:58:13.900904,192.168.0.114
1133,8,30,11,68,"3,-1,-175",0,0,3,0,0,0,66,70,68,70,100,-7.05,22,-2.0,6.0,-1006.0,15:58:14.017826,192.168.0.114
1138,8,37,2,69,"0,-2,-177",0,0,3,0,0,0,66,70,68,70,100,-7.11,22,12.0,-7.0,-1006.0,15:58:14.137615,192.168.0.114
1143,8,37,2,69,"0,-2,-177",0,0,3,0,0,0,66,70,68,70,100,-7.1,22,15.0,-11.0,-1007.0,15:58:14.259982,192.168.0.114
1146,8,37,2,69,"0,-2,-177",0,0,3,0,0,0,66,70,68,70,100,-7.05,22,24.0,-13.0,-1005.0,15:58:14.260317,192.168.0.114
1151,8,37,2,69,"0,-2,-177",0,0,3,0,0,0,66,70,68,70,100,-7.15,22,10.0,-3.0,-1019.0,15:58:14.378034,192.168.0.114
1156,8,37,2,69,"0,-2,-177",0,1,3,0,0,0,66,70,68,70,100,-7.08,22,15.0,-2.0,-998.0,15:58:14.497634,192.168.0.114
1163,8,37,2,69,"0,-2,-177",0,0,3,0,0,0,67,69,69,70,100,-7.03,22,24.0,-15.0,-989.0,15:58:14.618005,192.168.0.114
1166,8,36,6,70,"0,-1,-177",3,0,3,0,0,0,67,69,68,70,100,-7.04,22,13.0,-11.0,-992.0,15:58:14.737580,192.168.0.114
1171,8,36,6,70,"0,-1,-177",4,0,3,0,0,0,67,69,69,70,100,-7.06,23,29.0,-10.0,-996.0,15:58:14.857367,192.168.0.114
1176,8,36,6,70,"0,-1,-177",2,0,3,1,0,0,67,69,68,70,100,-7.02,23,21.0,2.0,-1006.0,15:58:14.869725,192.168.0.114
1181,8,36,6,70,"0,-1,-177",1,1,3,1,0,0,67,69,68,70,100,-7.06,23,27.0,-11.0,-996.0,15:58:14.979378,192.168.0.114
1187,8,36,6,70,"0,-1,-177",1,2,3,1,0,0,67,69,69,70,100,-7.01,23,18.0,-15.0,-994.0,15:58:15.098110,192.168.0.114
1192,8,36,6,70,"0,-1,-177",1,2,3,1,0,0,67,69,69,70,100,-6.99,23,21.0,-10.0,-1007.0,15:58:15.218061,192.168.0.114
1197,8,36,6,70,"0,-1,-177",1,2,3,1,0,0,67,69,68,70,100,-7.08,23,28.0,-14.0,-1007.0,15:58:15.338015,192.168.0.114
1202,8,36,7,69,"0,-1,-175",0,1,3,1,0,0,67,69,69,70,100,-7.04,23,29.0,-2.0,-985.0,15:58:15.457821,192.168.0.114
1207,8,36,7,69,"0,-1,-175",0,1,3,1,0,0,67,69,69,70,100,-7.04,23,19.0,-12.0,-1001.0,15:58:15.482575,192.168.0.114
1212,8,36,7,69,"0,-1,-175",0,1,3,1,0,0,67,69,68,60,100,-6.96,23,14.0,-11.0,-998.0,15:58:15.584664,192.168.0.114
1217,8,36,7,69,"0,-1,-175",0,0,3,1,0,0,67,69,68,60,100,-7.02,23,13.0,-6.0,-1014.0,15:58:15.686966,192.168.0.114
1222,8,36,7,69,"0,-1,-175",-1,0,3,0,0,0,67,69,69,60,100,-7.06,24,41.0,-5.0,-1001.0,15:58:15.789098,192.168.0.114
1228,8,36,7,69,"0,-1,-175",0,0,3,0,0,0,67,69,68,60,100,-7.13,24,43.0,0.0,-1003.0,15:58:15.891602,192.168.0.114
1233,8,26,10,69,"2,0,-177",1,0,3,0,0,0,67,69,68,60,100,-7.08,24,13.0,0.0,-1007.0,15:58:15.993846,192.168.0.114
1238,8,26,10,69,"2,0,-177",1,0,3,0,0,0,67,69,68,60,100,-7.02,24,35.0,-2.0,-995.0,15:58:16.096332,192.168.0.114
1243,8,26,10,69,"2,0,-177",1,0,3,0,0,0,67,69,69,70,100,-7.04,24,17.0,8.0,-999.0,15:58:16.198660,192.168.0.114
1248,8,26,10,69,"2,0,-177",0,0,3,0,0,0,67,69,69,70,100,-7.01,24,17.0,2.0,-991.0,15:58:16.317717,192.168.0.114
1253,8,26,10,69,"2,0,-177",0,0,3,0,0,0,67,69,68,70,100,-6.96,24,20.0,-8.0,-984.0,15:58:16.400747,192.168.0.114
1258,8,26,10,69,"2,0,-177",0,0,2,0,0,0,67,69,68,70,100,-7.02,24,14.0,5.0,-994.0,15:58:16.502687,192.168.0.114
1263,8,23,9,70,"1,0,-177",1,0,3,0,0,0,67,70,69,70,100,-7.05,24,31.0,10.0,-1005.0,15:58:16.623811,192.168.0.114
1268,8,23,9,70,"1,0,-177",0,0,3,0,0,0,67,70,68,70,100,-7.01,24,23.0,-8.0,-988.0,15:58:16.739252,192.168.0.114
1273,8,23,9,70,"1,0,-177",0,0,3,0,0,0,67,70,69,70,100,-6.95,25,24.0,-12.0,-993.0,15:58:16.859809,192.168.0.114
1278,8,23,9,70,"1,0,-177",1,0,3,0,0,0,67,70,69,60,100,-7.19,25,10.0,-9.0,-1017.0,15:58:16.976436,192.168.0.114
1283,8,23,9,70,"1,0,-177",1,1,3,0,0,0,67,70,69,60,100,-7.1,25,9.0,-10.0,-1000.0,15:58:17.098669,192.168.0.114
1288,8,23,9,70,"1,0,-177",0,1,3,0,0,0,67,70,69,60,100,-7.07,25,14.0,-15.0,-1006.0,15:58:17.114693,192.168.0.114
1293,8,23,9,70,"1,0,-177",0,1,3,0,0,0,67,70,68,60,100,-7.07,25,13.0,-21.0,-1001.0,15:58:17.217015,192.168.0.114
1298,8,22,11,70,"1,0,-178",0,1,3,0,0,0,67,70,68,60,100,-7.14,25,14.0,-14.0,-1000.0,15:58:17.455989,192.168.0.114
1303,8,22,11,70,"1,0,-178",0,1,3,0,0,0,67,70,69,60,100,-7.11,25,6.0,-20.0,-1001.0,15:58:17.456333,192.168.0.114
1308,8,22,11,70,"1,0,-178",0,1,3,0,0,0,67,70,68,60,100,-7.07,25,-1.0,-14.0,-990.0,15:58:17.694841,192.168.0.114
1313,8,22,11,70,"1,0,-178",0,1,3,0,0,0,67,70,69,60,100,-7.06,25,11.0,-20.0,-1004.0,15:58:17.816928,192.168.0.114
1318,8,22,11,70,"1,0,-178",0,1,3,0,0,0,67,70,68,60,100,-7.07,25,3.0,-23.0,-1000.0,15:58:17.817376,192.168.0.114
1323,8,22,11,70,"1,0,-178",0,1,3,0,0,0,67,70,68,60,100,-7.07,26,9.0,-18.0,-994.0,15:58:17.828739,192.168.0.114
1328,8,22,14,70,"2,0,-177",0,2,3,0,0,0,67,70,67,60,100,-7.12,26,9.0,-28.0,-996.0,15:58:17.936851,192.168.0.114
1333,8,22,14,70,"2,0,-177",0,2,3,0,0,0,67,70,67,60,100,-7.09,26,6.0,-26.0,-1000.0,15:58:18.175917,192.168.0.114
1338,8,22,14,70,"2,0,-177",0,2,3,0,0,0,67,70,68,60,100,-7.15,26,4.0,-22.0,-1010.0,15:58:18.176276,192.168.0.114
1343,8,22,14,70,"2,0,-177",0,2,3,0,0,0,67,70,68,60,100,-7.18,26,2.0,-28.0,-999.0,15:58:18.296530,192.168.0.114
1348,8,22,14,70,"2,0,-177",0,1,3,0,0,0,67,70,68,60,100,-7.17,26,3.0,-37.0,-1003.0,15:58:18.416483,192.168.0.114
1353,8,22,14,70,"2,0,-177",0,1,3,0,0,0,67,70,68,60,100,-7.16,26,4.0,-26.0,-1008.0,15:58:18.440786,192.168.0.114
1358,8,22,14,70,"2,0,-177",0,2,3,0,0,0,67,70,68,60,100,-7.1,26,-5.0,-25.0,-1008.0,15:58:18.542623,192.168.0.114
1363,8,18,17,69,"1,0,-177",0,2,3,0,0,0,66,70,68,60,100,-7.05,26,4.0,-35.0,-996.0,15:58:18.658395,192.168.0.114
1368,8,18,17,69,"1,0,-177",0,2,3,0,0,0,66,70,68,60,100,-7.09,26,-3.0,-36.0,-998.0,15:58:18.898177,192.168.0.114
1373,8,18,17,69,"1,0,-177",0,2,3,0,0,0,66,70,68,60,100,-7.16,27,-3.0,-27.0,-997.0,15:58:18.898558,192.168.0.114
1376,8,18,17,69,"1,0,-177",0,3,3,0,0,0,66,70,68,60,100,-7.07,27,-10.0,-28.0,-1006.0,15:58:18.899838,192.168.0.114
1381,8,18,17,69,"1,0,-177",0,4,3,0,0,0,66,70,68,60,100,-7.07,27,4.0,-33.0,-1000.0,15:58:19.019046,192.168.0.114
1386,8,18,17,69,"1,0,-177",0,4,3,0,0,0,66,70,68,60,100,-6.98,27,3.0,-41.0,-996.0,15:58:19.138978,192.168.0.114
1391,8,18,17,69,"1,0,-177",0,3,3,0,0,0,66,70,68,60,100,-7.09,27,4.0,-34.0,-987.0,15:58:19.259258,192.168.0.114
1397,8,17,19,70,"1,0,-176",0,3,3,0,0,0,66,70,68,60,100,-7.09,27,-5.0,-33.0,-1004.0,15:58:19.498187,192.168.0.114
1402,8,17,19,70,"1,0,-176",0,2,3,0,-1,0,66,70,68,60,100,-7.12,27,0.0,-34.0,-1003.0,15:58:19.498543,192.168.0.114
1407,8,17,19,70,"1,0,-176",0,2,3,0,-1,0,66,70,68,60,100,-7.08,27,-4.0,-33.0,-1006.0,15:58:19.511850,192.168.0.114
1413,8,17,19,70,"1,0,-176",0,2,3,0,-1,0,68,69,69,60,100,-7.1,27,-10.0,-35.0,-1008.0,15:58:19.619471,192.168.0.114
1418,8,17,19,70,"1,0,-176",0,2,3,0,-1,0,68,69,69,60,100,-7.12,27,-8.0,-35.0,-998.0,15:58:19.739379,192.168.0.114
1423,8,17,19,70,"1,0,-176",0,1,3,0,-1,0,68,69,69,60,100,-7.1,28,-4.0,-30.0,-998.0,15:58:19.860203,192.168.0.114
1428,8,20,14,69,"4,0,-175",0,1,3,0,-1,0,68,69,69,70,100,-7.15,28,-3.0,-30.0,-994.0,15:58:19.976964,192.168.0.114
1433,8,20,14,69,"4,0,-175",0,1,3,0,-1,0,68,69,69,70,100,-7.1,28,-10.0,-19.0,-982.0,15:58:20.096842,192.168.0.114
1438,8,20,14,69,"4,0,-175",0,1,3,0,-1,0,68,69,69,70,100,-7.09,28,1.0,-31.0,-985.0,15:58:20.220627,192.168.0.114
1443,8,20,14,69,"4,0,-175",0,1,3,0,-1,0,68,69,68,60,100,-7.16,28,-7.0,-12.0,-994.0,15:58:20.225737,192.168.0.114
1448,8,20,14,69,"4,0,-175",0,1,3,0,-1,0,68,69,68,60,100,-7.11,28,-7.0,-24.0,-1005.0,15:58:20.337148,192.168.0.114
1453,8,20,14,69,"4,0,-175",0,1,3,0,-1,0,68,69,68,60,100,-7.07,28,5.0,-29.0,-1003.0,15:58:20.457189,192.168.0.114
1458,8,20,14,69,"4,0,-175",0,1,3,0,-1,0,68,69,68,60,100,-7.21,28,1.0,-15.0,-1008.0,15:58:20.577161,192.168.0.114
1463,8,15,7,70,"2,0,-175",0,1,3,0,0,0,67,70,69,60,100,-7.11,28,-7.0,-20.0,-1007.0,15:58:20.697414,192.168.0.114
1468,8,15,7,70,"2,0,-175",0,1,3,0,0,0,67,70,69,60,100,-7.13,28,-1.0,-9.0,-1009.0,15:58:20.817822,192.168.0.114
1473,8,15,7,70,"2,0,-175",0,1,3,0,0,0,67,70,68,60,100,-7.13,29,-3.0,-13.0,-994.0,15:58:20.838237,192.168.0.114
1478,8,15,7,70,"2,0,-175",0,0,3,0,0,0,67,70,68,60,100,-7.06,29,-1.0,-21.0,-1007.0,15:58:21.056845,192.168.0.114
1483,8,15,7,70,"2,0,-175",-1,0,3,0,0,0,67,70,68,60,100,-7.14,29,10.0,-20.0,-995.0,15:58:21.057187,192.168.0.114
1488,8,15,7,70,"2,0,-175",-1,0,3,0,0,0,67,70,68,60,100,-7.15,29,-5.0,-8.0,-1005.0,15:58:21.177714,192.168.0.114
1493,8,9,1,70,"0,0,-175",-1,0,3,0,0,0,67,70,68,60,100,-7.1,29,3.0,-16.0,-995.0,15:58:21.297127,192.168.0.114
1498,8,9,1,70,"0,0,-175",0,0,3,0,0,0,67,70,68,60,100,-7.14,29,-1.0,-8.0,-994.0,15:58:21.416888,192.168.0.114
1503,8,9,1,70,"0,0,-175",0,0,3,0,0,0,67,70,68,60,100,-7.14,29,-11.0,-6.0,-1007.0,15:58:21.536899,192.168.0.114
1508,8,9,1,70,"0,0,-175",0,0,3,0,0,0,67,70,68,60,100,-7.12,29,-6.0,-17.0,-999.0,15:58:21.551800,192.168.0.114
1513,8,9,1,70,"0,0,-175",0,0,3,0,0,0,67,71,68,60,100,-7.17,29,-7.0,-10.0,-1006.0,15:58:21.659900,192.168.0.114
1516,8,9,1,70,"0,0,-175",0,1,3,0,0,0,67,71,67,60,100,-7.19,29,-2.0,-11.0,-996.0,15:58:21.776947,192.168.0.114
1521,8,9,1,70,"0,0,-175",0,1,3,0,0,0,67,71,67,60,100,-7.1,30,-13.0,-6.0,-972.0,15:58:21.898873,192.168.0.114
1526,8,10,0,70,"0,0,-176",0,1,3,0,0,0,67,71,67,60,100,-7.14,30,0.0,-18.0,-952.0,15:58:21.908528,192.168.0.114
1531,8,10,0,70,"0,0,-176",0,1,3,0,0,-1,67,71,65,60,100,-7.11,30,-4.0,-11.0,-918.0,15:58:22.019043,192.168.0.114
1536,8,10,0,70,"0,0,-176",0,1,3,0,0,-1,67,71,63,60,100,-7.26,30,4.0,-22.0,-913.0,15:58:22.139847,192.168.0.114
1541,8,10,0,70,"0,0,-176",0,1,3,0,0,-2,67,71,61,60,100,-7.18,30,12.0,-13.0,-911.0,15:58:22.259044,192.168.0.114
1546,8,10,0,70,"0,0,-176",0,0,3,0,0,-3,67,71,57,60,100,-7.24,30,-4.0,-9.0,-950.0,15:58:22.379049,192.168.0.114
1551,8,10,0,70,"0,0,-176",0,0,3,0,0,-3,67,71,52,50,100,-7.29,30,6.0,1.0,-964.0,15:58:22.498880,192.168.0.114
1556,8,9,1,67,"0,0,-176",0,0,3,0,0,-4,67,71,48,50,100,-7.29,30,20.0,-9.0,-973.0,15:58:22.520581,192.168.0.114
1561,8,9,1,67,"0,0,-176",0,1,3,0,0,-4,67,70,44,40,100,-7.33,30,-2.0,0.0,-989.0,15:58:22.622474,192.168.0.114
1566,8,9,1,67,"0,0,-176",0,0,3,0,0,-4,67,70,40,40,100,-7.34,30,3.0,5.0,-997.0,15:58:22.739077,192.168.0.114
1571,8,9,1,67,"0,0,-176",0,0,3,0,0,-4,67,70,34,40,100,-7.54,31,22.0,-16.0,-999.0,15:58:22.978258,192.168.0.114
1576,8,9,1,67,"0,0,-176",0,1,3,0,0,-4,67,70,29,30,100,-7.35,31,-12.0,4.0,-999.0,15:58:22.978592,192.168.0.114
1582,8,9,1,67,"0,0,-176",0,0,3,0,0,-4,67,70,23,30,100,-7.35,31,-1.0,-1.0,-996.0,15:58:23.099101,192.168.0.114
1588,8,9,1,67,"0,0,-176",0,0,3,0,0,-4,67,70,20,20,100,-7.51,31,17.0,14.0,-1031.0,15:58:23.218775,192.168.0.114
1593,8,9,4,41,"0,0,-178",0,1,3,0,0,-4,67,70,13,20,100,-7.56,31,-13.0,28.0,-971.0,15:58:23.234425,192.168.0.114
1598,8,9,4,41,"0,0,-178",0,0,3,0,0,-4,67,70,12,10,100,-8.09,31,53.0,-7.0,-981.0,15:58:23.339965,192.168.0.114
1603,8,9,4,41,"0,0,-178",0,0,3,0,0,-4,67,70,10,10,100,-8.55,31,16.0,-27.0,-1040.0,15:58:23.456093,192.168.0.114
1608,8,9,4,41,"0,0,-178",0,0,3,0,0,-4,67,70,10,0,100,-9.21,31,9.0,15.0,-1065.0,15:58:23.576016,192.168.0.114
1613,8,9,4,41,"0,0,-178",4,0,5,0,0,1,67,70,10,0,100,-10.85,31,28.0,-3.0,-1038.0,15:58:23.697136,192.168.0.114
1618,8,9,4,41,"0,0,-178",5,0,7,0,0,0,67,70,10,0,100,-9.04,31,7.0,-32.0,-1113.0,15:58:23.935113,192.168.0.114
1623,8,9,4,41,"0,0,-178",-3,-1,8,0,0,0,67,70,6553,0,100,-8.66,31,28.0,-3.0,-1038.0,15:58:23.935708,192.168.0.114
1628,8,9,4,41,"0,0,-178",-2,0,8,0,0,0,67,70,6553,0,100,-8.27,31,238.0,11.0,-767.0,15:58:23.948360,192.168.0.114
1633,8,9,4,41,"0,0,-178",-1,0,8,0,0,0,67,70,6553,0,100,-8.14,31,-312.0,369.0,-1308.0,15:58:24.175160,192.168.0.114
1638,8,9,4,41,"0,0,-178",-1,0,8,0,0,0,67,70,6553,0,100,-8.11,31,-76.0,43.0,-985.0,15:58:24.175519,192.168.0.114
1643,8,9,4,41,"0,0,-178",-1,0,8,0,0,0,67,70,6553,0,100,-8.09,31,-10.0,-6.0,-997.0,15:58:24.295975,192.168.0.114
1648,8,9,4,41,"0,0,-178",-1,0,8,0,0,0,67,70,6553,0,100,-8.03,31,-28.0,4.0,-998.0,15:58:24.415839,192.168.0.114
1653,8,9,4,41,"0,0,-178",-1,0,7,0,0,0,67,70,6553,0,100,-8.02,31,-26.0,6.0,-998.0,15:58:24.537484,192.168.0.114
1658,8,9,4,41,"0,0,-178",-1,0,7,0,0,0,67,70,6553,0,100,-7.97,31,-23.0,0.0,-997.0,15:58:24.655670,192.168.0.114
1663,8,9,4,41,"0,0,-178",-1,0,7,0,0,0,68,71,6553,0,100,-7.93,31,-26.0,6.0,-998.0,15:58:24.662405,192.168.0.114
1668,8,9,4,41,"0,0,-178",-1,0,7,0,0,0,68,71,6553,0,100,-7.99,31,-25.0,5.0,-998.0,15:58:24.775930,192.168.0.114
1673,-2,-200,-200,-200,"0,0,0",-1,0,7,0,0,0,68,71,6553,0,100,-7.93,31,-25.0,4.0,-998.0,15:58:24.897438,192.168.0.114
