,mid,x,y,z,mpry,pitch,roll,yaw,vgx,vgy,vgz,templ,temph,tof,h,bat,baro,time,agx,agy,agz,timestamp,address
0,-1,-100,-100,-100,"-1,-1,-1",0,0,-151,0,0,0,88,91,6553,0,86,-103.05,0,3.0,0.0,-1000.0,14:07:43.952610,192.168.0.114
1,-1,-100,-100,-100,"-1,-1,-1",0,0,-151,0,0,0,88,91,6553,0,86,-103.09,0,3.0,-1.0,-1001.0,14:07:44.054596,192.168.0.114
2,-1,-100,-100,-100,"-1,-1,-1",0,0,-151,0,0,0,88,91,6553,0,86,-103.11,0,4.0,0.0,-996.0,14:07:44.156585,192.168.0.114
3,-1,-100,-100,-100,"-1,-1,-1",0,0,-151,0,0,0,88,91,6553,0,86,-103.09,0,6.0,0.0,-999.0,14:07:44.258713,192.168.0.114
4,-1,-100,-100,-100,"-1,-1,-1",0,0,-151,0,0,0,88,91,6553,0,86,-103.1,0,-2.0,2.0,-1002.0,14:07:44.360689,192.168.0.114
5,-1,-100,-100,-100,"-1,-1,-1",0,0,-151,0,0,0,88,91,6553,0,86,-103.1,0,-1.0,0.0,-1003.0,14:07:44.463179,192.168.0.114
6,-1,-100,-100,-100,"-1,-1,-1",0,0,-151,0,0,0,88,91,6553,0,86,-103.1,0,9.0,-15.0,-1002.0,14:07:44.514913,192.168.0.114
7,-1,-100,-100,-100,"-1,-1,-1",0,0,-151,0,0,0,88,91,6553,0,86,-103.1,0,-17.0,20.0,-1008.0,14:07:44.616885,192.168.0.114
8,-1,-100,-100,-100,"-1,-1,-1",0,0,-151,0,0,0,88,91,10,0,86,-103.1,0,19.0,12.0,-1152.0,14:07:44.824524,192.168.0.114
9,-1,-100,-100,-100,"-1,-1,-1",0,0,-150,0,0,-1,88,91,10,0,86,-103.1,0,-1.0,12.0,-1374.0,14:07:44.824739,192.168.0.114
10,-1,-100,-100,-100,"-1,-1,-1",0,0,-150,0,0,-5,88,91,10,0,86,-103.1,0,-4.0,3.0,-1281.0,14:07:44.921605,192.168.0.114
11,-1,-100,-100,-100,"-1,-1,-1",0,0,-150,0,0,-7,88,91,14,10,86,-102.84,0,2.0,3.0,-1105.0,14:07:45.132159,192.168.0.114
12,-1,-100,-100,-100,"-1,-1,-1",0,0,-150,0,0,-8,88,91,25,10,86,-102.72,0,-15.0,3.0,-1029.0,14:07:45.132370,192.168.0.114
13,-1,-100,-100,-100,"-1,-1,-1",0,0,-150,0,0,-8,88,91,34,20,86,-102.6,0,9.0,-5.0,-963.0,14:07:45.227551,192.168.0.114
14,-1,-100,-100,-100,"-1,-1,-1",0,0,-150,0,0,-8,88,91,42,30,86,-102.54,1,-8.0,9.0,-908.0,14:07:45.438928,192.168.0.114
15,4,0,-2,45,"0,-1,178",0,0,-150,0,0,-7,88,91,50,40,86,-102.51,1,6.0,0.0,-896.0,14:07:45.439165,192.168.0.114
16,4,0,-2,49,"0,-1,178",0,0,-150,0,0,-6,88,91,55,50,86,-102.38,1,-14.0,11.0,-861.0,14:07:45.533500,192.168.0.114
17,4,0,-3,56,"1,0,179",0,0,-150,0,0,-5,88,91,61,50,86,-102.27,1,10.0,8.0,-883.0,14:07:45.747305,192.168.0.114
18,4,0,-3,63,"1,0,178",0,0,-151,0,0,-4,88,91,65,60,86,-102.27,1,-1.0,-3.0,-900.0,14:07:45.747652,192.168.0.114
19,4,0,-4,65,"0,0,178",0,0,-151,0,0,-3,88,91,68,60,86,-102.21,1,17.0,0.0,-901.0,14:07:45.840032,192.168.0.114
20,4,-1,-3,69,"1,0,177",0,-1,-150,0,0,-2,88,91,70,60,86,-102.15,1,-3.0,6.0,-915.0,14:07:46.052969,192.168.0.114
21,4,0,-4,70,"2,0,177",0,0,-151,0,0,-1,88,91,71,70,86,-102.17,1,8.0,9.0,-963.0,14:07:46.053207,192.168.0.114
22,4,0,-3,71,"2,0,177",0,0,-151,0,0,-1,88,91,72,70,86,-102.14,1,0.0,-12.0,-973.0,14:07:46.145424,192.168.0.114
23,4,-1,-4,72,"2,0,177",0,0,-151,0,0,0,88,91,72,70,86,-102.09,1,18.0,-2.0,-989.0,14:07:46.249809,192.168.0.114
24,4,-1,-3,73,"2,0,177",0,0,-151,0,0,0,88,91,72,70,85,-102.12,2,-5.0,-1.0,-1000.0,14:07:46.352369,192.168.0.114
25,4,-1,-4,73,"2,0,178",0,0,-151,0,0,0,88,91,72,70,85,-102.12,2,13.0,7.0,-1005.0,14:07:46.451609,192.168.0.114
26,4,-2,-3,73,"2,0,178",0,0,-151,0,0,0,88,91,72,70,85,-102.17,2,3.0,-5.0,-985.0,14:07:46.555080,192.168.0.114
27,4,-1,-4,73,"2,0,178",0,0,-151,0,0,0,88,91,72,70,85,-102.15,2,-3.0,-2.0,-1010.0,14:07:46.655478,192.168.0.114
28,4,-2,-3,73,"2,0,178",0,0,-151,0,0,0,88,91,73,70,85,-102.07,2,-8.0,4.0,-1014.0,14:07:46.757417,192.168.0.114
29,4,-2,-3,74,"2,0,178",0,0,-151,0,0,0,88,91,73,70,85,-102.1,2,-7.0,7.0,-993.0,14:07:46.859370,192.168.0.114
30,4,-3,-3,74,"1,0,177",0,0,-151,0,0,0,88,91,73,70,85,-102.08,2,-11.0,5.0,-1010.0,14:07:46.961376,192.168.0.114
31,4,-2,-3,74,"2,0,177",0,0,-151,0,0,0,88,91,74,70,85,-102.12,2,-2.0,15.0,-1009.0,14:07:47.063438,192.168.0.114
32,4,-1,-3,75,"3,0,177",0,0,-151,0,0,0,88,91,74,70,85,-102.12,2,-17.0,2.0,-1001.0,14:07:47.165324,192.168.0.114
33,4,-2,-3,75,"2,0,177",0,0,-151,0,0,0,88,91,75,70,85,-102.05,2,-2.0,4.0,-1012.0,14:07:47.267459,192.168.0.114
34,4,-2,-3,76,"2,0,177",0,0,-151,0,0,0,88,91,75,70,85,-102.14,3,4.0,4.0,-1011.0,14:07:47.369453,192.168.0.114
35,4,-2,-4,76,"1,0,178",0,0,-151,0,0,0,88,91,75,70,85,-102.11,3,-4.0,10.0,-977.0,14:07:47.420533,192.168.0.114
36,4,-2,-4,76,"2,0,178",0,0,-151,0,0,0,88,91,76,70,85,-102.04,3,0.0,-1.0,-988.0,14:07:47.522658,192.168.0.114
37,4,-2,-3,77,"1,0,178",0,0,-151,0,0,0,89,91,76,70,85,-102.05,3,6.0,-3.0,-1020.0,14:07:47.795799,192.168.0.114
38,4,-2,-4,77,"1,0,178",0,0,-151,0,0,0,89,91,77,70,85,-102.02,3,9.0,4.0,-1016.0,14:07:47.795982,192.168.0.114
39,4,-2,-3,78,"1,0,178",0,0,-151,0,0,0,89,91,77,70,85,-102.06,3,-14.0,10.0,-996.0,14:07:47.879313,192.168.0.114
40,4,-1,-2,78,"2,0,177",0,0,-151,0,0,0,89,91,78,70,85,-102.06,3,18.0,0.0,-1012.0,14:07:47.981620,192.168.0.114
41,4,-1,-4,79,"2,0,178",0,0,-151,0,0,0,89,91,78,70,85,-102.04,3,-4.0,6.0,-993.0,14:07:48.203943,192.168.0.114
42,4,-1,-3,80,"2,0,177",0,0,-151,0,0,0,89,91,79,70,85,-102.05,3,-8.0,13.0,-979.0,14:07:48.204127,192.168.0.114
43,4,-1,-4,80,"2,0,178",0,0,-151,0,0,0,89,91,80,80,85,-102.04,3,-12.0,-11.0,-1000.0,14:07:48.236705,192.168.0.114
44,4,-1,-2,81,"2,0,177",0,0,-151,0,0,0,89,91,80,80,85,-102.07,4,-18.0,-1.0,-974.0,14:07:48.338528,192.168.0.114
45,4,-1,-3,81,"2,0,177",0,0,-151,0,0,0,89,91,80,80,85,-102.08,4,-2.0,0.0,-997.0,14:07:48.510916,192.168.0.114
46,4,-1,-4,81,"2,0,178",0,0,-151,0,0,0,89,91,80,80,85,-102.06,4,1.0,1.0,-990.0,14:07:48.544280,192.168.0.114
47,4,0,-4,82,"2,0,179",0,0,-151,0,0,0,88,91,81,80,85,-102.07,4,2.0,12.0,-1012.0,14:07:48.644762,192.168.0.114
48,4,-1,-4,82,"1,0,178",0,0,-151,0,0,0,88,91,81,80,85,-102.02,4,5.0,-3.0,-1002.0,14:07:48.746548,192.168.0.114
49,4,-5,-3,82,"0,0,178",0,0,-151,0,0,0,88,91,81,80,85,-102.04,4,-4.0,-4.0,-997.0,14:07:48.848606,192.168.0.114
50,4,-5,-2,82,"-1,0,177",0,0,-151,0,0,0,88,91,81,80,85,-102.02,4,11.0,4.0,-1008.0,14:07:48.950562,192.168.0.114
51,4,-1,-3,82,"1,0,178",0,0,-151,0,0,0,88,91,81,80,85,-102.08,4,3.0,1.0,-1007.0,14:07:49.052523,192.168.0.114
52,4,-1,-3,82,"2,0,178",0,0,-151,0,0,0,88,91,81,80,85,-102.03,4,-8.0,1.0,-984.0,14:07:49.154950,192.168.0.114
53,4,-1,-3,82,"2,0,178",0,0,-151,0,0,0,88,91,81,80,85,-102.01,4,18.0,5.0,-1014.0,14:07:49.329682,192.168.0.114
54,4,-1,-4,82,"2,0,178",0,0,-151,0,0,0,88,91,80,80,85,-101.96,5,-8.0,6.0,-1005.0,14:07:49.358661,192.168.0.114
55,4,-1,-3,82,"1,0,178",0,0,-151,0,0,0,88,91,80,80,85,-101.99,5,6.0,2.0,-996.0,14:07:49.461304,192.168.0.114
56,4,-1,-3,82,"2,0,177",0,0,-151,0,0,0,88,91,80,80,85,-101.98,5,-1.0,7.0,-1021.0,14:07:49.563343,192.168.0.114
57,4,-1,-2,82,"2,0,177",0,0,-151,0,0,0,88,90,81,80,85,-102.02,5,9.0,0.0,-1000.0,14:07:49.665142,192.168.0.114
58,4,-1,-2,82,"2,0,177",0,0,-151,0,0,0,88,90,80,80,85,-102.03,5,2.0,3.0,-1000.0,14:07:49.767387,192.168.0.114
59,4,-1,-3,82,"2,0,178",0,0,-151,0,0,0,88,90,81,80,85,-102.09,5,4.0,2.0,-1004.0,14:07:49.869217,192.168.0.114
60,4,-1,-3,82,"2,0,178",-1,0,-151,0,0,0,88,90,81,80,85,-102.06,5,0.0,6.0,-940.0,14:07:49.971245,192.168.0.114
61,4,0,-2,81,"4,0,178",-1,0,-151,0,0,0,88,90,80,80,85,-102.06,5,9.0,2.0,-986.0,14:07:50.073330,192.168.0.114
62,4,0,-2,81,"4,0,178",0,0,-151,0,0,0,88,90,79,70,85,-102.05,5,-6.0,7.0,-975.0,14:07:50.175273,192.168.0.114
63,4,0,-2,81,"4,0,178",0,0,-151,0,0,1,88,90,78,70,85,-102.06,6,-10.0,13.0,-992.0,14:07:50.277318,192.168.0.114
64,4,0,-5,79,"3,0,179",0,0,-151,0,0,1,88,90,77,70,85,-102.18,6,-13.0,8.0,-1013.0,14:07:50.379775,192.168.0.114
65,4,0,-5,79,"3,0,179",0,0,-151,0,0,1,88,90,77,70,85,-102.09,6,-6.0,7.0,-995.0,14:07:50.481280,192.168.0.114
66,4,0,-4,77,"2,0,178",0,0,-151,0,0,1,88,90,75,70,85,-102.1,6,4.0,11.0,-1009.0,14:07:50.583317,192.168.0.114
67,4,0,-4,77,"2,0,178",0,0,-151,0,0,0,88,91,74,70,85,-102.13,6,-12.0,9.0,-1001.0,14:07:50.685731,192.168.0.114
68,4,1,-4,75,"1,0,178",0,0,-151,0,0,0,88,91,73,70,85,-102.07,6,6.0,9.0,-1030.0,14:07:50.787589,192.168.0.114
69,4,1,-4,75,"1,0,178",0,0,-151,0,0,0,88,91,73,70,85,-102.12,6,3.0,14.0,-1013.0,14:07:51.071964,192.168.0.114
70,4,1,-4,74,"0,0,178",0,-1,-151,0,0,0,88,91,72,70,85,-102.14,6,-19.0,-3.0,-995.0,14:07:51.072170,192.168.0.114
71,4,1,-4,74,"0,0,178",0,0,-151,0,0,0,88,91,72,70,85,-102.13,6,11.0,0.0,-1014.0,14:07:51.093172,192.168.0.114
72,4,2,-3,73,"0,0,177",0,0,-151,0,0,0,88,91,72,70,85,-102.16,6,-4.0,6.0,-988.0,14:07:51.195133,192.168.0.114
73,4,2,-3,73,"0,0,177",0,0,-151,0,0,0,88,91,72,70,85,-102.15,7,14.0,0.0,-1007.0,14:07:51.297180,192.168.0.114
74,4,4,-4,72,"0,0,179",0,0,-151,0,0,0,88,91,72,70,85,-102.19,7,2.0,-1.0,-1006.0,14:07:51.399193,192.168.0.114
75,4,4,-4,72,"0,0,179",0,0,-151,0,0,0,88,91,71,60,85,-102.2,7,-5.0,9.0,-990.0,14:07:51.501127,192.168.0.114
76,4,3,-4,72,"-1,0,179",0,0,-151,0,0,0,88,91,71,60,85,-102.16,7,11.0,6.0,-1023.0,14:07:51.603163,192.168.0.114
77,4,3,-4,72,"-1,0,179",0,0,-151,0,0,0,88,90,71,60,85,-102.17,7,-4.0,0.0,-998.0,14:07:51.705200,192.168.0.114
78,4,6,-4,71,"0,-1,-179",0,0,-151,0,0,0,88,90,71,60,85,-102.19,7,-2.0,-4.0,-1011.0,14:07:52.093131,192.168.0.114
79,4,6,-4,71,"0,-1,-179",0,0,-151,0,0,0,88,90,71,60,85,-102.21,7,9.0,12.0,-1011.0,14:07:52.093356,192.168.0.114
80,4,6,-4,71,"0,-1,-179",0,0,-151,0,0,0,88,90,70,60,85,-102.18,7,0.0,7.0,-995.0,14:07:52.093517,192.168.0.114
81,4,9,-7,70,"2,-1,-176",0,0,-151,0,0,0,88,90,70,60,85,-102.19,7,2.0,18.0,-986.0,14:07:52.113188,192.168.0.114
82,4,9,-7,70,"2,-1,-176",0,0,-151,0,0,0,88,90,70,60,85,-102.21,7,-11.0,20.0,-998.0,14:07:52.215177,192.168.0.114
83,4,8,-3,70,"0,-1,179",0,0,-151,0,0,0,88,90,70,60,85,-102.17,8,-26.0,2.0,-981.0,14:07:52.317271,192.168.0.114
84,4,8,-3,70,"0,-1,179",0,0,-151,0,0,0,88,90,70,60,85,-102.21,8,-1.0,-2.0,-982.0,14:07:52.419192,192.168.0.114
85,4,9,-4,70,"0,-1,-178",0,0,-151,0,0,0,88,90,69,60,85,-102.22,8,-13.0,8.0,-994.0,14:07:52.521107,192.168.0.114
86,4,9,-4,70,"0,-1,-178",0,0,-151,0,0,0,88,90,69,60,85,-102.19,8,0.0,27.0,-1003.0,14:07:52.623167,192.168.0.114
87,4,10,-4,69,"0,-1,-178",0,0,-151,0,0,0,88,90,70,60,85,-102.18,8,-8.0,10.0,-1009.0,14:07:52.725287,192.168.0.114
88,4,10,-4,69,"0,-1,-178",0,0,-151,0,0,0,88,90,69,60,85,-102.2,8,-11.0,6.0,-1006.0,14:07:52.827085,192.168.0.114
89,4,12,-3,69,"0,-1,-177",0,0,-151,0,0,0,88,90,69,60,85,-102.22,8,5.0,10.0,-999.0,14:07:52.878455,192.168.0.114
90,4,12,-3,69,"0,-1,-177",0,0,-151,0,0,0,88,90,69,60,85,-102.22,8,-13.0,18.0,-997.0,14:07:52.980496,192.168.0.114
91,4,13,-1,68,"0,-1,-179",0,0,-151,0,0,0,88,90,68,60,85,-102.17,8,-7.0,4.0,-990.0,14:07:53.082551,192.168.0.114
92,4,13,-1,68,"0,-1,-179",1,0,-151,0,0,0,88,90,68,60,85,-102.19,8,-2.0,11.0,-1012.0,14:07:53.184437,192.168.0.114
93,4,16,0,67,"-1,-1,-178",0,0,-151,0,0,0,88,90,68,60,85,-102.19,9,1.0,4.0,-1003.0,14:07:53.286369,192.168.0.114
94,4,16,0,67,"-1,-1,-178",0,0,-151,0,0,0,88,90,67,60,85,-102.27,9,4.0,7.0,-996.0,14:07:53.388395,192.168.0.114
95,4,16,0,67,"-1,-1,-178",0,0,-151,0,0,0,88,90,67,60,85,-102.15,9,-10.0,12.0,-1016.0,14:07:53.490463,192.168.0.114
96,4,15,0,67,"0,-1,-178",0,0,-151,0,0,0,88,90,67,60,85,-102.14,9,2.0,2.0,-1011.0,14:07:53.592436,192.168.0.114
97,4,15,0,67,"0,-1,-178",0,0,-151,0,0,0,87,90,67,60,85,-102.18,9,-9.0,12.0,-1007.0,14:07:53.694440,192.168.0.114
98,4,15,-1,67,"0,-1,-178",0,0,-151,0,0,0,87,90,67,60,85,-102.19,9,-12.0,9.0,-1005.0,14:07:53.796353,192.168.0.114
99,4,15,-1,67,"0,-1,-178",0,0,-151,0,0,0,87,90,66,60,85,-102.21,9,-8.0,13.0,-1004.0,14:07:53.941868,192.168.0.114
100,4,17,-2,67,"1,-1,-178",0,0,-151,0,0,0,87,90,67,60,85,-102.18,9,-18.0,-2.0,-992.0,14:07:54.000346,192.168.0.114
101,4,17,-2,67,"1,-1,-178",0,0,-151,0,0,0,87,90,67,60,85,-102.24,9,0.0,6.0,-993.0,14:07:54.102496,192.168.0.114
102,4,19,-1,67,"1,-1,-178",0,0,-151,0,0,0,87,90,67,60,85,-102.2,9,-20.0,-1.0,-990.0,14:07:54.204239,192.168.0.114
103,4,19,-1,67,"1,-1,-178",0,0,-151,0,0,0,87,90,67,60,85,-102.22,10,-13.0,8.0,-992.0,14:07:54.306636,192.168.0.114
104,4,19,-1,67,"1,-1,-178",0,0,-151,0,0,0,87,90,67,60,85,-102.23,10,-7.0,7.0,-1005.0,14:07:54.408249,192.168.0.114
105,4,22,-4,66,"2,-2,-176",0,0,-151,0,0,0,87,90,67,60,85,-102.17,10,11.0,3.0,-1003.0,14:07:54.510358,192.168.0.114
106,4,22,-4,66,"2,-2,-176",0,0,-151,0,0,0,87,90,67,60,85,-102.18,10,-14.0,-8.0,-1003.0,14:07:54.612102,192.168.0.114
107,4,24,-2,67,"2,-1,-178",0,0,-151,0,0,0,87,90,68,60,85,-102.18,10,-4.0,8.0,-987.0,14:07:54.763939,192.168.0.114
108,4,24,-2,67,"2,-1,-178",0,0,-151,0,0,0,87,90,68,60,85,-102.19,10,-4.0,17.0,-1009.0,14:07:54.817056,192.168.0.114
109,4,27,-2,66,"2,-2,-178",0,0,-151,0,0,0,87,90,68,60,85,-102.19,10,-10.0,1.0,-1011.0,14:07:54.919013,192.168.0.114
110,4,27,-2,66,"2,-2,-178",0,0,-151,0,0,0,87,90,68,60,85,-102.25,10,-10.0,1.0,-1000.0,14:07:55.021009,192.168.0.114
111,4,30,-2,66,"3,-1,-178",0,0,-151,0,0,0,87,90,68,60,85,-102.22,10,-2.0,19.0,-1003.0,14:07:55.123064,192.168.0.114
112,4,30,-2,66,"3,-1,-178",0,0,-150,0,0,0,87,90,68,60,85,-102.18,10,0.0,12.0,-994.0,14:07:55.225323,192.168.0.114
113,4,31,-4,66,"2,-2,-177",0,0,-150,0,0,0,87,90,68,60,85,-102.24,11,-13.0,10.0,-998.0,14:07:55.326848,192.168.0.114
114,4,31,-4,66,"2,-2,-177",0,0,-150,0,0,0,87,90,68,60,85,-102.31,11,-2.0,5.0,-994.0,14:07:55.429109,192.168.0.114
115,4,31,-4,66,"2,-2,-177",0,0,-150,0,0,0,87,90,69,60,85,-102.22,11,-5.0,2.0,-1022.0,14:07:55.530965,192.168.0.114
116,4,32,-4,67,"2,-2,-177",0,0,-150,0,0,0,87,90,68,60,85,-102.27,11,-13.0,10.0,-977.0,14:07:55.632961,192.168.0.114
117,4,32,-4,67,"2,-2,-177",0,0,-150,0,0,0,88,89,68,60,85,-102.22,11,3.0,17.0,-1014.0,14:07:55.791154,192.168.0.114
118,4,32,-4,67,"2,-2,-177",0,0,-151,0,0,0,88,89,68,60,85,-102.22,11,-17.0,7.0,-1001.0,14:07:55.836992,192.168.0.114
119,4,32,-4,67,"2,-2,-177",0,0,-151,0,0,0,88,89,68,60,85,-102.16,11,-28.0,7.0,-993.0,14:07:55.938979,192.168.0.114
120,4,37,-6,67,"2,-3,-176",0,0,-151,0,0,0,88,89,68,60,85,-102.21,11,-20.0,8.0,-993.0,14:07:56.040990,192.168.0.114
121,4,37,-6,67,"2,-3,-176",0,0,-151,0,0,0,88,89,68,60,85,-102.19,11,-32.0,3.0,-1007.0,14:07:56.143290,192.168.0.114
122,4,40,3,66,"2,0,176",0,0,-151,0,0,0,88,89,68,60,85,-102.2,11,-24.0,13.0,-995.0,14:07:56.244974,192.168.0.114
123,4,40,3,66,"2,0,176",0,0,-151,0,0,0,88,89,68,60,85,-102.26,12,-26.0,5.0,-1005.0,14:07:56.347024,192.168.0.114
124,4,40,3,66,"2,0,176",0,0,-151,0,0,0,88,89,68,60,85,-102.24,12,-24.0,15.0,-1006.0,14:07:56.510461,192.168.0.114
125,4,40,3,66,"2,0,176",0,0,-151,0,0,0,88,89,68,60,85,-102.23,12,-10.0,18.0,-997.0,14:07:56.510673,192.168.0.114
126,4,40,3,66,"2,0,176",0,0,-151,0,0,0,88,89,69,60,85,-102.3,12,0.0,18.0,-999.0,14:07:56.602312,192.168.0.114
127,4,40,3,66,"2,0,176",0,0,-151,0,0,0,87,89,68,60,85,-102.27,12,-28.0,8.0,-993.0,14:07:56.704994,192.168.0.114
128,4,40,3,66,"2,0,176",0,0,-151,0,0,0,87,89,69,60,85,-102.22,12,-10.0,16.0,-995.0,14:07:56.806830,192.168.0.114
129,4,40,3,66,"2,0,176",0,0,-151,0,0,0,87,89,68,60,85,-102.24,12,-19.0,11.0,-985.0,14:07:56.908196,192.168.0.114
130,4,40,3,66,"2,0,176",0,0,-151,0,0,0,87,89,68,60,85,-102.24,12,-8.0,16.0,-996.0,14:07:57.010145,192.168.0.114
131,4,40,3,66,"2,0,176",0,0,-151,0,0,0,87,89,68,60,85,-102.29,12,-11.0,16.0,-993.0,14:07:57.112179,192.168.0.114
132,4,40,3,66,"2,0,176",0,0,-151,0,0,0,87,89,68,60,85,-102.25,12,-11.0,5.0,-993.0,14:07:57.214235,192.168.0.114
133,4,40,3,66,"2,0,176",0,0,-151,0,0,0,87,89,67,60,85,-102.21,13,-5.0,12.0,-1012.0,14:07:57.316170,192.168.0.114
134,4,40,3,66,"2,0,176",0,0,-151,0,0,0,87,89,67,60,85,-102.25,13,-24.0,17.0,-1016.0,14:07:57.521732,192.168.0.114
135,4,40,3,66,"2,0,176",0,0,-151,0,0,0,87,89,67,60,85,-102.26,13,-12.0,6.0,-1008.0,14:07:57.522004,192.168.0.114
136,4,40,3,66,"2,0,176",0,0,-151,0,0,0,87,89,66,60,85,-102.23,13,-3.0,19.0,-1019.0,14:07:57.624663,192.168.0.114
137,4,40,3,66,"2,0,176",0,0,-151,0,0,0,86,90,66,60,85,-102.24,13,-19.0,11.0,-1006.0,14:07:57.724124,192.168.0.114
138,4,40,3,66,"2,0,176",0,0,-151,0,0,0,86,90,66,60,85,-102.31,13,-15.0,20.0,-1002.0,14:07:57.826452,192.168.0.114
139,4,40,3,66,"2,0,176",0,0,-151,0,0,0,86,90,66,60,85,-102.26,13,-12.0,18.0,-999.0,14:07:58.033745,192.168.0.114
140,4,40,3,66,"2,0,176",0,0,-151,0,0,0,86,90,66,60,85,-102.29,13,-7.0,15.0,-1003.0,14:07:58.033963,192.168.0.114
141,4,40,3,66,"2,0,176",0,0,-151,0,0,0,86,90,66,60,85,-102.29,13,-10.0,9.0,-989.0,14:07:58.133473,192.168.0.114
142,4,40,3,66,"2,0,176",0,0,-151,0,0,0,86,90,66,60,85,-102.26,13,-8.0,0.0,-1007.0,14:07:58.236083,192.168.0.114
143,4,40,3,66,"2,0,176",0,0,-151,0,0,0,86,90,66,60,85,-102.29,14,-26.0,15.0,-992.0,14:07:58.338761,192.168.0.114
144,4,40,3,66,"2,0,176",0,0,-151,0,0,0,86,90,66,60,85,-102.31,14,-11.0,16.0,-990.0,14:07:58.440900,192.168.0.114
145,4,40,3,66,"2,0,176",0,0,-151,0,0,0,86,90,66,60,85,-102.28,14,-8.0,20.0,-999.0,14:07:58.648344,192.168.0.114
146,4,40,3,66,"2,0,176",0,0,-151,0,0,0,86,90,66,60,85,-102.34,14,-23.0,14.0,-984.0,14:07:58.648589,192.168.0.114
147,4,40,3,66,"2,0,176",0,0,-151,0,0,0,86,89,66,60,85,-102.3,14,-17.0,12.0,-999.0,14:07:58.744078,192.168.0.114
148,4,40,3,66,"2,0,176",0,0,-151,0,0,0,86,89,66,60,85,-102.26,14,-12.0,16.0,-992.0,14:07:58.846429,192.168.0.114
149,4,40,3,66,"2,0,176",0,0,-151,0,0,0,86,89,66,60,85,-102.24,14,5.0,17.0,-1008.0,14:07:58.948265,192.168.0.114
150,4,40,3,66,"2,0,176",0,0,-151,0,0,0,86,89,66,60,85,-102.24,14,-6.0,8.0,-994.0,14:07:59.050093,192.168.0.114
151,4,40,3,66,"2,0,176",0,0,-151,0,0,0,86,89,65,60,85,-102.23,14,9.0,10.0,-989.0,14:07:59.152107,192.168.0.114
152,4,40,3,66,"2,0,176",0,0,-151,0,0,0,86,89,65,60,85,-102.24,14,-14.0,20.0,-1004.0,14:07:59.254322,192.168.0.114
153,4,40,3,66,"2,0,176",0,0,-151,0,0,0,86,89,65,60,85,-102.29,15,-18.0,14.0,-986.0,14:07:59.362691,192.168.0.114
154,4,40,3,66,"2,0,176",0,0,-151,0,0,0,86,89,65,60,85,-102.29,15,-9.0,2.0,-1006.0,14:07:59.460021,192.168.0.114
155,4,40,3,66,"2,0,176",0,0,-151,0,0,0,86,89,65,60,85,-102.27,15,-25.0,15.0,-994.0,14:07:59.562432,192.168.0.114
156,4,40,3,66,"2,0,176",0,0,-151,0,0,0,86,89,65,60,85,-102.26,15,-9.0,13.0,-997.0,14:07:59.662237,192.168.0.114
157,4,40,3,66,"2,0,176",0,0,-151,0,0,0,86,89,65,60,85,-102.19,15,-5.0,12.0,-1004.0,14:07:59.877159,192.168.0.114
158,4,40,3,66,"2,0,176",0,0,-151,0,0,0,86,89,65,60,85,-102.26,15,-6.0,8.0,-987.0,14:07:59.877339,192.168.0.114
159,4,40,3,66,"2,0,176",0,0,-151,0,0,0,86,89,66,60,85,-102.21,15,-8.0,13.0,-1013.0,14:07:59.967809,192.168.0.114
160,4,40,3,66,"2,0,176",0,0,-151,0,0,0,86,89,66,60,85,-102.23,15,-22.0,1.0,-993.0,14:08:00.018801,192.168.0.114
161,4,40,3,66,"2,0,176",0,0,-151,0,0,0,86,89,66,60,85,-102.23,15,-12.0,6.0,-997.0,14:08:00.120837,192.168.0.114
162,4,40,3,66,"2,0,176",0,0,-151,0,0,0,86,89,66,60,85,-102.23,15,-11.0,7.0,-1000.0,14:08:00.223136,192.168.0.114
163,4,40,3,66,"2,0,176",0,0,-151,0,0,0,86,89,66,60,85,-102.25,16,-21.0,15.0,-1020.0,14:08:00.324860,192.168.0.114
164,4,40,3,66,"2,0,176",0,0,-151,0,0,0,86,89,66,60,85,-102.31,16,-15.0,10.0,-1007.0,14:08:00.426833,192.168.0.114
165,4,40,3,66,"2,0,176",0,0,-151,0,0,0,86,89,67,60,85,-102.3,16,-37.0,2.0,-978.0,14:08:00.528784,192.168.0.114
166,4,40,3,66,"2,0,176",0,0,-151,0,0,0,86,89,67,60,85,-102.24,16,-17.0,4.0,-990.0,14:08:00.631096,192.168.0.114
167,4,40,3,66,"2,0,176",0,0,-151,0,0,0,86,89,67,60,85,-102.29,16,-25.0,8.0,-1009.0,14:08:00.732688,192.168.0.114
168,4,40,3,66,"2,0,176",0,0,-151,0,0,0,86,89,67,60,85,-102.3,16,-20.0,18.0,-1005.0,14:08:00.835093,192.168.0.114
169,4,40,3,66,"2,0,176",0,0,-151,0,0,0,86,89,68,60,85,-102.29,16,-13.0,2.0,-987.0,14:08:00.936801,192.168.0.114
170,4,40,3,66,"2,0,176",0,0,-151,0,0,0,86,89,68,60,85,-102.24,16,-13.0,1.0,-1006.0,14:08:01.038748,192.168.0.114
171,4,40,3,66,"2,0,176",-1,0,-151,0,0,0,86,89,67,60,85,-102.3,16,-19.0,2.0,-1002.0,14:08:01.141008,192.168.0.114
172,4,40,3,66,"2,0,176",0,0,-151,0,0,0,86,89,67,60,85,-102.26,16,-4.0,0.0,-1007.0,14:08:01.242717,192.168.0.114
173,-1,-100,-100,-100,"-1,-1,-1",0,0,-151,0,0,0,86,89,67,60,85,-102.34,17,-13.0,8.0,-1012.0,14:08:01.515349,192.168.0.114
174,-1,-100,-100,-100,"-1,-1,-1",0,0,-151,0,0,0,86,89,68,60,85,-102.33,17,-35.0,3.0,-992.0,14:08:01.515620,192.168.0.114
175,-1,-100,-100,-100,"-1,-1,-1",0,0,-151,0,0,0,86,89,68,60,85,-102.3,17,-16.0,0.0,-987.0,14:08:01.548748,192.168.0.114
176,-1,-100,-100,-100,"-1,-1,-1",0,0,-151,0,0,0,86,89,67,60,85,-102.3,17,-19.0,10.0,-991.0,14:08:01.650766,192.168.0.114
177,-1,-100,-100,-100,"-1,-1,-1",-1,0,-151,0,0,0,86,89,67,60,85,-102.29,17,-8.0,-2.0,-988.0,14:08:01.752790,192.168.0.114
178,-1,-100,-100,-100,"-1,-1,-1",0,0,-151,0,0,0,86,89,67,60,85,-102.27,17,-17.0,16.0,-998.0,14:08:01.956539,192.168.0.114
179,-1,-100,-100,-100,"-1,-1,-1",0,0,-151,0,0,0,86,89,67,60,85,-102.26,17,-23.0,17.0,-1008.0,14:08:01.956771,192.168.0.114
180,-1,-100,-100,-100,"-1,-1,-1",0,0,-151,0,0,0,86,89,67,60,85,-102.26,17,-9.0,14.0,-998.0,14:08:02.058791,192.168.0.114
181,-1,-100,-100,-100,"-1,-1,-1",0,0,-151,0,0,0,86,89,67,60,85,-102.27,17,-16.0,8.0,-1005.0,14:08:02.161094,192.168.0.114
182,-1,-100,-100,-100,"-1,-1,-1",0,0,-151,0,0,0,86,89,67,60,85,-102.25,17,-24.0,14.0,-1001.0,14:08:02.262780,192.168.0.114
183,-1,-100,-100,-100,"-1,-1,-1",0,0,-151,0,0,0,86,89,67,60,85,-102.27,18,-7.0,8.0,-1005.0,14:08:02.364729,192.168.0.114
184,-1,-100,-100,-100,"-1,-1,-1",0,0,-151,0,0,0,86,89,66,60,85,-102.27,18,-30.0,11.0,-999.0,14:08:02.466683,192.168.0.114
185,-1,-100,-100,-100,"-1,-1,-1",0,0,-151,0,0,0,86,89,66,60,85,-102.29,18,-6.0,5.0,-1008.0,14:08:02.568673,192.168.0.114
186,-1,-100,-100,-100,"-1,-1,-1",0,0,-151,0,0,0,86,89,66,60,85,-102.24,18,-12.0,4.0,-992.0,14:08:02.670661,192.168.0.114
187,-1,-100,-100,-100,"-1,-1,-1",0,0,-151,0,0,0,86,90,67,60,85,-102.25,18,-13.0,12.0,-995.0,14:08:02.772665,192.168.0.114
188,-1,-100,-100,-100,"-1,-1,-1",0,0,-151,0,0,0,86,90,66,60,85,-102.19,18,-18.0,2.0,-990.0,14:08:02.874624,192.168.0.114
189,-1,-100,-100,-100,"-1,-1,-1",0,0,-151,-1,0,0,86,90,66,60,85,-102.25,18,-21.0,7.0,-983.0,14:08:02.976642,192.168.0.114
190,-1,-100,-100,-100,"-1,-1,-1",0,0,-151,-1,0,0,86,90,66,60,85,-102.23,18,-12.0,-7.0,-997.0,14:08:03.078771,192.168.0.114
191,-1,-100,-100,-100,"-1,-1,-1",0,0,-151,-1,0,0,86,90,66,60,85,-102.22,18,-20.0,9.0,-986.0,14:08:03.180666,192.168.0.114
192,-1,-100,-100,-100,"-1,-1,-1",0,0,-151,-1,0,0,86,90,66,60,85,-102.29,19,-26.0,10.0,-1012.0,14:08:03.282739,192.168.0.114
193,-1,-100,-100,-100,"-1,-1,-1",0,0,-151,-1,0,0,86,90,66,60,85,-102.22,19,-1.0,8.0,-1003.0,14:08:03.384681,192.168.0.114
194,-1,-100,-100,-100,"-1,-1,-1",0,0,-151,0,0,0,86,90,66,60,85,-102.22,19,6.0,4.0,-998.0,14:08:03.486642,192.168.0.114
195,-1,-100,-100,-100,"-1,-1,-1",0,0,-151,-1,0,0,86,90,66,60,85,-102.21,19,-15.0,14.0,-1008.0,14:08:03.588616,192.168.0.114
196,-1,-100,-100,-100,"-1,-1,-1",0,0,-151,0,0,0,86,90,66,60,85,-102.27,19,-6.0,15.0,-996.0,14:08:03.690652,192.168.0.114
197,-1,-100,-100,-100,"-1,-1,-1",0,0,-151,-1,0,0,86,88,66,60,85,-102.24,19,-5.0,2.0,-991.0,14:08:03.792586,192.168.0.114
198,-1,-100,-100,-100,"-1,-1,-1",0,0,-151,-1,0,0,86,88,66,60,85,-102.27,19,-10.0,1.0,-993.0,14:08:03.894603,192.168.0.114
199,-1,-100,-100,-100,"-1,-1,-1",0,0,-151,-1,0,0,86,88,66,60,85,-102.32,19,-2.0,12.0,-988.0,14:08:03.996601,192.168.0.114
200,-1,-100,-100,-100,"-1,-1,-1",0,0,-151,-1,0,0,86,88,66,60,85,-102.25,19,-15.0,10.0,-981.0,14:08:04.098768,192.168.0.114
201,-1,-100,-100,-100,"-1,-1,-1",0,0,-151,-1,0,0,86,88,66,60,85,-102.21,19,3.0,4.0,-994.0,14:08:04.200551,192.168.0.114
202,-1,-100,-100,-100,"-1,-1,-1",0,0,-151,-1,0,0,86,88,66,60,85,-102.18,20,-7.0,3.0,-1016.0,14:08:04.302639,192.168.0.114
203,-1,-100,-100,-100,"-1,-1,-1",0,0,-151,0,0,0,86,88,66,60,85,-102.21,20,-8.0,21.0,-994.0,14:08:04.354192,192.168.0.114
204,-1,-100,-100,-100,"-1,-1,-1",0,0,-151,0,0,0,86,88,66,60,85,-102.17,20,-3.0,-4.0,-993.0,14:08:04.455843,192.168.0.114
205,-1,-100,-100,-100,"-1,-1,-1",0,0,-151,0,0,0,86,88,66,60,85,-102.2,20,-3.0,0.0,-1006.0,14:08:04.557917,192.168.0.114
206,-1,-100,-100,-100,"-1,-1,-1",0,0,-151,0,0,0,86,88,67,60,85,-102.22,20,-11.0,7.0,-993.0,14:08:04.659891,192.168.0.114
207,-1,-100,-100,-100,"-1,-1,-1",0,0,-151,0,0,0,86,89,66,60,85,-102.18,20,-2.0,4.0,-1005.0,14:08:04.762006,192.168.0.114
208,-1,-100,-100,-100,"-1,-1,-1",0,0,-151,0,0,0,86,89,66,60,85,-102.25,20,-23.0,8.0,-995.0,14:08:04.998302,192.168.0.114
209,-1,-100,-100,-100,"-1,-1,-1",0,0,-151,0,0,0,86,89,67,60,85,-102.19,20,-15.0,8.0,-1003.0,14:08:04.998511,192.168.0.114
210,-1,-100,-100,-100,"-1,-1,-1",0,0,-151,0,0,0,86,89,67,60,85,-102.28,20,-11.0,2.0,-999.0,14:08:05.075607,192.168.0.114
211,-1,-100,-100,-100,"-1,-1,-1",0,0,-151,-1,0,0,86,89,67,60,85,-102.23,20,0.0,-2.0,-995.0,14:08:05.170392,192.168.0.114
212,-1,-100,-100,-100,"-1,-1,-1",0,0,-151,-1,0,0,86,89,67,60,85,-102.22,21,-26.0,16.0,-1008.0,14:08:05.271652,192.168.0.114
213,-1,-100,-100,-100,"-1,-1,-1",0,0,-151,-1,0,0,86,89,67,60,85,-102.23,21,-17.0,9.0,-987.0,14:08:05.373550,192.168.0.114
214,-1,-100,-100,-100,"-1,-1,-1",0,0,-151,-1,0,0,86,89,67,60,85,-102.18,21,-9.0,2.0,-1007.0,14:08:05.475618,192.168.0.114
215,-1,-100,-100,-100,"-1,-1,-1",0,0,-151,-1,0,0,86,89,67,60,85,-102.25,21,-4.0,15.0,-997.0,14:08:05.577878,192.168.0.114
216,-1,-100,-100,-100,"-1,-1,-1",0,0,-151,-1,0,0,86,89,67,60,85,-102.15,21,5.0,0.0,-996.0,14:08:05.679584,192.168.0.114
217,-1,-100,-100,-100,"-1,-1,-1",0,0,-151,-1,0,0,85,89,67,60,85,-102.18,21,-14.0,-2.0,-1010.0,14:08:05.919478,192.168.0.114
218,-1,-100,-100,-100,"-1,-1,-1",0,0,-151,-1,0,0,85,89,67,60,85,-102.2,21,-16.0,8.0,-990.0,14:08:05.919680,192.168.0.114
219,-1,-100,-100,-100,"-1,-1,-1",0,0,-151,-1,0,0,85,89,67,60,85,-102.19,21,-13.0,-1.0,-1001.0,14:08:05.985968,192.168.0.114
220,-1,-100,-100,-100,"-1,-1,-1",0,0,-151,-1,0,0,85,89,67,60,85,-102.21,21,7.0,-6.0,-1004.0,14:08:06.087571,192.168.0.114
221,-1,-100,-100,-100,"-1,-1,-1",0,0,-151,-1,0,0,85,89,67,60,85,-102.23,21,-16.0,-9.0,-1003.0,14:08:06.270665,192.168.0.114
222,-1,-100,-100,-100,"-1,-1,-1",0,0,-151,-1,0,0,85,89,67,60,85,-102.19,22,7.0,-15.0,-1003.0,14:08:06.291795,192.168.0.114
223,-1,-100,-100,-100,"-1,-1,-1",0,0,-151,-1,0,0,85,89,67,60,85,-102.23,22,-5.0,0.0,-1007.0,14:08:06.393540,192.168.0.114
224,-1,-100,-100,-100,"-1,-1,-1",0,0,-151,-1,0,0,85,89,67,60,85,-102.21,22,-32.0,0.0,-996.0,14:08:06.495559,192.168.0.114
225,-1,-100,-100,-100,"-1,-1,-1",0,0,-151,-1,0,0,85,89,67,60,85,-102.2,22,-31.0,7.0,-1006.0,14:08:06.597552,192.168.0.114
226,-1,-100,-100,-100,"-1,-1,-1",0,0,-151,-1,0,0,85,89,68,60,85,-102.27,22,-9.0,-9.0,-995.0,14:08:06.699625,192.168.0.114
227,-1,-100,-100,-100,"-1,-1,-1",0,0,-151,-1,0,0,86,88,68,60,85,-102.22,22,-12.0,-1.0,-993.0,14:08:06.802183,192.168.0.114
228,-1,-100,-100,-100,"-1,-1,-1",0,0,-151,-1,0,0,86,88,67,60,85,-102.28,22,-3.0,-15.0,-1006.0,14:08:06.903666,192.168.0.114
229,-1,-100,-100,-100,"-1,-1,-1",0,0,-151,-1,0,0,86,88,67,60,85,-102.27,22,-5.0,-13.0,-974.0,14:08:07.005517,192.168.0.114
230,-1,-100,-100,-100,"-1,-1,-1",0,0,-151,-1,0,0,86,88,68,60,85,-102.27,22,-2.0,2.0,-1010.0,14:08:07.107429,192.168.0.114
231,-1,-100,-100,-100,"-1,-1,-1",0,0,-151,-1,0,0,86,88,67,60,85,-102.25,22,-16.0,11.0,-1013.0,14:08:07.209819,192.168.0.114
232,-1,-100,-100,-100,"-1,-1,-1",0,0,-151,-1,0,0,86,88,68,60,85,-102.25,23,-3.0,-5.0,-1009.0,14:08:07.311821,192.168.0.114
233,-1,-100,-100,-100,"-1,-1,-1",0,0,-150,-1,0,0,86,88,67,60,85,-102.23,23,-19.0,-2.0,-1006.0,14:08:07.413876,192.168.0.114
234,-1,-100,-100,-100,"-1,-1,-1",0,0,-150,-1,0,0,86,88,67,60,85,-102.24,23,3.0,-9.0,-992.0,14:08:07.516082,192.168.0.114
235,-1,-100,-100,-100,"-1,-1,-1",0,0,-150,-1,0,0,86,88,68,60,85,-102.3,23,-9.0,-14.0,-999.0,14:08:07.709206,192.168.0.114
236,-1,-100,-100,-100,"-1,-1,-1",0,0,-150,-1,0,0,86,88,67,60,85,-102.25,23,-5.0,-1.0,-990.0,14:08:07.719716,192.168.0.114
237,-1,-100,-100,-100,"-1,-1,-1",0,0,-150,0,0,0,85,88,68,60,85,-102.32,23,-11.0,-6.0,-995.0,14:08:07.822052,192.168.0.114
238,-1,-100,-100,-100,"-1,-1,-1",0,0,-150,0,0,0,85,88,68,60,85,-102.28,23,-6.0,-7.0,-990.0,14:08:07.923804,192.168.0.114
239,-1,-100,-100,-100,"-1,-1,-1",0,0,-150,0,0,0,85,88,68,60,85,-102.28,23,1.0,-3.0,-1000.0,14:08:07.974362,192.168.0.114
240,-1,-100,-100,-100,"-1,-1,-1",0,0,-150,0,0,0,85,88,68,60,85,-102.28,23,-17.0,-7.0,-996.0,14:08:08.076327,192.168.0.114
241,-1,-100,-100,-100,"-1,-1,-1",0,0,-150,0,0,0,85,88,68,60,85,-102.19,23,-15.0,1.0,-992.0,14:08:08.178435,192.168.0.114
242,-1,-100,-100,-100,"-1,-1,-1",0,0,-150,0,0,0,85,88,68,60,85,-102.31,24,-20.0,-1.0,-999.0,14:08:08.280470,192.168.0.114
243,-1,-100,-100,-100,"-1,-1,-1",0,0,-150,0,0,0,85,88,68,60,85,-102.23,24,-1.0,14.0,-1016.0,14:08:08.382482,192.168.0.114
244,-1,-100,-100,-100,"-1,-1,-1",0,0,-150,0,0,0,85,88,68,60,85,-102.27,24,-5.0,3.0,-994.0,14:08:08.484485,192.168.0.114
245,-1,-100,-100,-100,"-1,-1,-1",0,0,-150,0,0,0,85,88,67,60,85,-102.3,24,-5.0,6.0,-992.0,14:08:08.586438,192.168.0.114
246,-1,-100,-100,-100,"-1,-1,-1",0,0,-150,0,0,0,85,88,67,60,85,-102.29,24,-10.0,3.0,-997.0,14:08:08.688461,192.168.0.114
247,-1,-100,-100,-100,"-1,-1,-1",0,0,-150,0,0,0,85,89,67,60,85,-102.28,24,-12.0,0.0,-1004.0,14:08:08.790571,192.168.0.114
248,-1,-100,-100,-100,"-1,-1,-1",0,0,-150,0,0,0,85,89,67,60,85,-102.33,24,6.0,-7.0,-1000.0,14:08:08.892382,192.168.0.114
249,-1,-100,-100,-100,"-1,-1,-1",0,0,-150,0,0,0,85,89,67,60,85,-102.24,24,-16.0,1.0,-985.0,14:08:08.994392,192.168.0.114
250,-1,-100,-100,-100,"-1,-1,-1",0,0,-150,0,0,0,85,89,67,60,85,-102.33,24,-5.0,22.0,-997.0,14:08:09.195615,192.168.0.114
251,-1,-100,-100,-100,"-1,-1,-1",0,0,-150,0,0,0,85,89,67,60,85,-102.26,24,-14.0,15.0,-1008.0,14:08:09.201624,192.168.0.114
252,-1,-100,-100,-100,"-1,-1,-1",0,0,-150,0,0,0,85,89,67,60,85,-102.34,25,-1.0,9.0,-994.0,14:08:09.300716,192.168.0.114
253,-1,-100,-100,-100,"-1,-1,-1",0,0,-150,0,0,0,85,89,66,60,85,-102.31,25,-10.0,7.0,-1001.0,14:08:09.402389,192.168.0.114
254,-1,-100,-100,-100,"-1,-1,-1",0,0,-150,0,0,0,85,89,66,60,85,-102.23,25,-9.0,5.0,-1004.0,14:08:09.505018,192.168.0.114
255,-1,-100,-100,-100,"-1,-1,-1",0,0,-150,0,0,0,85,89,66,60,85,-102.23,25,-11.0,5.0,-1019.0,14:08:09.708004,192.168.0.114
256,-1,-100,-100,-100,"-1,-1,-1",0,0,-150,0,0,0,85,89,66,60,85,-102.31,25,-9.0,-6.0,-1004.0,14:08:09.708385,192.168.0.114
257,-1,-100,-100,-100,"-1,-1,-1",0,0,-150,0,0,0,85,89,66,60,85,-102.32,25,-5.0,6.0,-1009.0,14:08:09.810443,192.168.0.114
258,-1,-100,-100,-100,"-1,-1,-1",0,0,-151,0,0,0,85,89,66,60,85,-102.29,25,1.0,-2.0,-1003.0,14:08:09.912235,192.168.0.114
259,-1,-100,-100,-100,"-1,-1,-1",0,0,-151,0,0,0,85,89,66,60,85,-102.3,25,-13.0,6.0,-1015.0,14:08:10.014401,192.168.0.114
260,-1,-100,-100,-100,"-1,-1,-1",0,0,-151,0,0,0,85,89,66,60,85,-102.33,25,-15.0,-1.0,-988.0,14:08:10.116242,192.168.0.114
261,-1,-100,-100,-100,"-1,-1,-1",0,0,-151,0,0,0,85,89,65,60,85,-102.31,25,3.0,13.0,-1009.0,14:08:10.320932,192.168.0.114
262,-1,-100,-100,-100,"-1,-1,-1",0,0,-151,0,0,0,85,89,66,60,85,-102.33,26,-12.0,4.0,-991.0,14:08:10.321119,192.168.0.114
263,-1,-100,-100,-100,"-1,-1,-1",0,0,-151,0,0,0,85,89,66,60,85,-102.29,26,5.0,10.0,-994.0,14:08:10.526795,192.168.0.114
264,-1,-100,-100,-100,"-1,-1,-1",0,0,-151,0,0,0,85,89,65,60,85,-102.34,26,-27.0,-5.0,-1017.0,14:08:10.527013,192.168.0.114
265,-1,-100,-100,-100,"-1,-1,-1",0,0,-151,0,0,0,85,89,66,60,85,-102.23,26,5.0,3.0,-992.0,14:08:10.626653,192.168.0.114
266,-1,-100,-100,-100,"-1,-1,-1",0,0,-151,0,0,0,85,89,65,60,85,-102.26,26,-14.0,7.0,-993.0,14:08:10.734657,192.168.0.114
267,-1,-100,-100,-100,"-1,-1,-1",0,0,-151,0,0,0,85,88,65,60,85,-102.25,26,-14.0,4.0,-982.0,14:08:10.831321,192.168.0.114
268,-1,-100,-100,-100,"-1,-1,-1",0,0,-151,0,0,0,85,88,65,60,85,-102.31,26,-11.0,-3.0,-982.0,14:08:10.933717,192.168.0.114
269,-1,-100,-100,-100,"-1,-1,-1",0,0,-150,0,0,0,85,88,65,60,85,-102.31,26,-12.0,10.0,-1001.0,14:08:11.036153,192.168.0.114
270,-1,-100,-100,-100,"-1,-1,-1",0,0,-150,0,0,0,85,88,65,60,85,-102.33,26,-9.0,3.0,-998.0,14:08:11.243948,192.168.0.114
271,-1,-100,-100,-100,"-1,-1,-1",0,0,-150,0,0,0,85,88,65,60,85,-102.32,26,-3.0,-3.0,-997.0,14:08:11.244137,192.168.0.114
272,-1,-100,-100,-100,"-1,-1,-1",0,0,-150,0,0,0,85,88,65,60,85,-102.34,27,-12.0,13.0,-1011.0,14:08:11.340681,192.168.0.114
273,-1,-100,-100,-100,"-1,-1,-1",0,0,-150,0,0,0,85,88,65,60,85,-102.31,27,-21.0,5.0,-986.0,14:08:11.442310,192.168.0.114
274,-1,-100,-100,-100,"-1,-1,-1",0,0,-150,0,0,0,85,88,65,60,85,-102.3,27,-3.0,0.0,-1006.0,14:08:11.544321,192.168.0.114
275,-1,-100,-100,-100,"-1,-1,-1",0,0,-150,0,0,0,85,88,66,60,85,-102.26,27,1.0,2.0,-1005.0,14:08:11.595377,192.168.0.114
276,-1,-100,-100,-100,"-1,-1,-1",0,0,-150,0,0,0,85,88,65,60,85,-102.31,27,-7.0,17.0,-1014.0,14:08:11.697253,192.168.0.114
277,-1,-100,-100,-100,"-1,-1,-1",0,0,-150,0,0,0,85,87,65,60,85,-102.25,27,-2.0,12.0,-1006.0,14:08:11.963024,192.168.0.114
278,-1,-100,-100,-100,"-1,-1,-1",0,0,-150,0,0,0,85,87,65,60,85,-102.3,27,-13.0,13.0,-994.0,14:08:11.963265,192.168.0.114
279,-1,-100,-100,-100,"-1,-1,-1",0,0,-150,0,0,0,85,87,65,60,85,-102.27,27,-20.0,6.0,-981.0,14:08:12.003260,192.168.0.114
280,-1,-100,-100,-100,"-1,-1,-1",0,0,-150,0,0,0,85,87,65,60,85,-102.24,27,-7.0,0.0,-995.0,14:08:12.165088,192.168.0.114
281,-1,-100,-100,-100,"-1,-1,-1",0,0,-150,0,0,0,85,87,64,60,85,-102.27,27,-11.0,12.0,-1008.0,14:08:12.207233,192.168.0.114
282,-1,-100,-100,-100,"-1,-1,-1",0,0,-150,0,0,0,85,87,64,60,85,-102.32,28,-17.0,15.0,-1008.0,14:08:12.309290,192.168.0.114
283,-1,-100,-100,-100,"-1,-1,-1",0,0,-150,0,0,0,85,87,64,60,85,-102.33,28,-12.0,15.0,-1015.0,14:08:12.411681,192.168.0.114
284,-1,-100,-100,-100,"-1,-1,-1",0,0,-151,0,0,0,85,87,64,60,85,-102.21,28,-1.0,11.0,-1005.0,14:08:12.513697,192.168.0.114
285,-1,-100,-100,-100,"-1,-1,-1",0,0,-151,0,0,0,85,87,64,60,85,-102.25,28,-16.0,18.0,-1006.0,14:08:12.615339,192.168.0.114
286,-1,-100,-100,-100,"-1,-1,-1",0,0,-151,0,0,0,85,87,64,60,85,-102.32,28,-14.0,7.0,-984.0,14:08:12.717765,192.168.0.114
287,-1,-100,-100,-100,"-1,-1,-1",0,0,-151,0,0,0,85,88,64,60,85,-102.3,28,-6.0,17.0,-1011.0,14:08:12.819502,192.168.0.114
288,-1,-100,-100,-100,"-1,-1,-1",0,0,-151,0,0,0,85,88,64,60,85,-102.28,28,-7.0,24.0,-1012.0,14:08:12.921621,192.168.0.114
289,-1,-100,-100,-100,"-1,-1,-1",0,0,-151,0,0,0,85,88,64,60,85,-102.28,28,-14.0,4.0,-992.0,14:08:13.023257,192.168.0.114
290,-1,-100,-100,-100,"-1,-1,-1",0,0,-151,0,0,0,85,88,64,60,85,-102.36,28,-5.0,16.0,-999.0,14:08:13.125223,192.168.0.114
291,-1,-100,-100,-100,"-1,-1,-1",0,0,-151,0,0,0,85,88,64,60,85,-102.32,28,-13.0,13.0,-1006.0,14:08:13.227294,192.168.0.114
292,-1,-100,-100,-100,"-1,-1,-1",0,0,-151,0,0,0,85,88,64,60,85,-102.33,29,-13.0,11.0,-991.0,14:08:13.329305,192.168.0.114
293,-1,-100,-100,-100,"-1,-1,-1",0,0,-151,0,0,0,85,88,64,60,85,-102.32,29,-23.0,12.0,-1015.0,14:08:13.431243,192.168.0.114
294,-1,-100,-100,-100,"-1,-1,-1",0,0,-151,0,0,0,85,88,65,60,85,-102.28,29,-22.0,20.0,-986.0,14:08:13.533350,192.168.0.114
295,-1,-100,-100,-100,"-1,-1,-1",0,0,-151,0,0,0,85,88,65,60,85,-102.35,29,-23.0,14.0,-1011.0,14:08:13.635196,192.168.0.114
296,-1,-100,-100,-100,"-1,-1,-1",0,0,-151,0,0,0,85,88,66,60,85,-102.3,29,-31.0,9.0,-1032.0,14:08:13.737204,192.168.0.114
297,-1,-100,-100,-100,"-1,-1,-1",0,0,-151,0,0,0,84,87,66,60,85,-102.35,29,-7.0,7.0,-988.0,14:08:13.839219,192.168.0.114
298,-1,-100,-100,-100,"-1,-1,-1",0,0,-151,0,0,0,84,87,66,60,85,-102.31,29,-19.0,10.0,-997.0,14:08:14.008224,192.168.0.114
299,-1,-100,-100,-100,"-1,-1,-1",0,0,-151,0,0,0,84,87,67,60,85,-102.25,29,-8.0,1.0,-1004.0,14:08:14.043174,192.168.0.114
300,-1,-100,-100,-100,"-1,-1,-1",0,0,-151,0,0,0,84,87,67,60,85,-102.26,29,-13.0,20.0,-996.0,14:08:14.145520,192.168.0.114
301,-1,-100,-100,-100,"-1,-1,-1",0,0,-151,0,0,0,84,87,67,60,85,-102.21,29,-17.0,10.0,-988.0,14:08:14.247183,192.168.0.114
302,-1,-100,-100,-100,"-1,-1,-1",0,0,-151,0,0,0,84,87,67,60,85,-102.28,30,2.0,-5.0,-989.0,14:08:14.418268,192.168.0.114
303,-1,-100,-100,-100,"-1,-1,-1",0,0,-151,0,0,0,84,87,68,60,85,-102.24,30,-15.0,0.0,-1007.0,14:08:14.451322,192.168.0.114
304,-1,-100,-100,-100,"-1,-1,-1",0,0,-151,0,0,0,84,87,68,60,85,-102.23,30,8.0,-6.0,-973.0,14:08:14.553275,192.168.0.114
305,-1,-100,-100,-100,"-1,-1,-1",0,0,-151,0,0,0,84,87,68,60,85,-102.18,30,-34.0,11.0,-993.0,14:08:14.655243,192.168.0.114
306,-1,-100,-100,-100,"-1,-1,-1",-1,0,-151,0,0,0,84,87,68,60,85,-102.18,30,-26.0,14.0,-997.0,14:08:14.757543,192.168.0.114
307,-1,-100,-100,-100,"-1,-1,-1",-1,0,-151,0,0,0,85,87,68,60,85,-102.2,30,12.0,3.0,-985.0,14:08:14.859675,192.168.0.114
308,-1,-100,-100,-100,"-1,-1,-1",-1,0,-151,0,0,0,85,87,68,60,85,-102.17,30,-10.0,6.0,-993.0,14:08:14.961556,192.168.0.114
309,-1,-100,-100,-100,"-1,-1,-1",0,0,-151,0,0,0,85,87,68,60,85,-102.24,30,-22.0,-1.0,-977.0,14:08:15.063914,192.168.0.114
310,-1,-100,-100,-100,"-1,-1,-1",0,0,-151,0,0,0,85,87,68,60,85,-102.26,30,-28.0,-1.0,-987.0,14:08:15.165242,192.168.0.114
311,-1,-100,-100,-100,"-1,-1,-1",0,0,-151,0,0,0,85,87,67,60,85,-102.29,30,-15.0,4.0,-995.0,14:08:15.267132,192.168.0.114
312,-1,-100,-100,-100,"-1,-1,-1",0,0,-151,0,0,0,85,87,67,60,85,-102.26,31,-1.0,0.0,-1001.0,14:08:15.369103,192.168.0.114
313,-1,-100,-100,-100,"-1,-1,-1",0,0,-151,0,0,0,85,87,68,60,85,-102.22,31,-9.0,-3.0,-1001.0,14:08:15.471485,192.168.0.114
314,-1,-100,-100,-100,"-1,-1,-1",0,0,-151,0,0,0,85,87,67,60,85,-102.27,31,3.0,-2.0,-994.0,14:08:15.573146,192.168.0.114
315,-1,-100,-100,-100,"-1,-1,-1",0,0,-151,0,0,0,85,87,68,60,85,-102.22,31,-29.0,9.0,-993.0,14:08:15.675088,192.168.0.114
316,-1,-100,-100,-100,"-1,-1,-1",0,0,-151,0,0,0,85,87,68,60,85,-102.22,31,-18.0,3.0,-983.0,14:08:15.777428,192.168.0.114
317,-1,-100,-100,-100,"-1,-1,-1",0,0,-151,0,0,0,84,87,68,60,85,-102.26,31,-17.0,3.0,-1001.0,14:08:15.879383,192.168.0.114
318,-1,-100,-100,-100,"-1,-1,-1",0,0,-151,0,0,0,84,87,67,60,85,-102.23,31,-18.0,-1.0,-1005.0,14:08:15.981784,192.168.0.114
319,-1,-100,-100,-100,"-1,-1,-1",0,0,-151,0,0,0,84,87,67,60,85,-102.25,31,-15.0,10.0,-992.0,14:08:16.083173,192.168.0.114
320,-1,-100,-100,-100,"-1,-1,-1",0,0,-151,0,0,0,84,87,68,60,85,-102.2,31,-11.0,-4.0,-991.0,14:08:16.261155,192.168.0.114
321,-1,-100,-100,-100,"-1,-1,-1",0,0,-151,0,0,0,84,87,68,60,85,-102.22,31,-16.0,0.0,-993.0,14:08:16.287120,192.168.0.114
322,-1,-100,-100,-100,"-1,-1,-1",0,0,-151,0,0,0,84,87,67,60,85,-102.23,32,-21.0,8.0,-987.0,14:08:16.338142,192.168.0.114
323,-1,-100,-100,-100,"-1,-1,-1",0,0,-151,0,0,0,84,87,68,60,85,-102.27,32,-25.0,-1.0,-981.0,14:08:16.440196,192.168.0.114
324,-1,-100,-100,-100,"-1,-1,-1",0,0,-151,0,0,0,84,87,67,60,85,-102.27,32,-8.0,-13.0,-1007.0,14:08:16.542121,192.168.0.114
325,-1,-100,-100,-100,"-1,-1,-1",0,0,-151,0,0,0,84,87,67,60,85,-102.27,32,-15.0,0.0,-997.0,14:08:16.644088,192.168.0.114
326,-1,-100,-100,-100,"-1,-1,-1",-1,0,-151,0,0,0,84,87,67,60,85,-102.26,32,-21.0,3.0,-992.0,14:08:16.746464,192.168.0.114
327,-1,-100,-100,-100,"-1,-1,-1",-1,0,-151,0,0,0,84,88,67,60,85,-102.16,32,-36.0,-2.0,-1002.0,14:08:16.875465,192.168.0.114
328,-1,-100,-100,-100,"-1,-1,-1",-1,0,-151,0,0,0,84,88,68,60,85,-102.21,32,-20.0,-1.0,-1001.0,14:08:16.950077,192.168.0.114
329,-1,-100,-100,-100,"-1,-1,-1",-1,0,-151,0,0,0,84,88,67,60,85,-102.26,32,-25.0,1.0,-1005.0,14:08:17.052022,192.168.0.114
330,-1,-100,-100,-100,"-1,-1,-1",-1,0,-151,0,0,0,84,88,68,60,85,-102.21,32,-18.0,5.0,-995.0,14:08:17.153962,192.168.0.114
331,-1,-100,-100,-100,"-1,-1,-1",-1,0,-151,0,0,0,84,88,67,60,85,-102.24,32,-22.0,11.0,-986.0,14:08:17.256076,192.168.0.114
332,-1,-100,-100,-100,"-1,-1,-1",-1,0,-151,0,0,0,84,88,67,60,85,-102.23,33,-14.0,2.0,-993.0,14:08:17.358194,192.168.0.114
333,-1,-100,-100,-100,"-1,-1,-1",-1,0,-151,0,0,0,84,88,67,60,85,-102.25,33,-21.0,17.0,-995.0,14:08:17.594529,192.168.0.114
334,-1,-100,-100,-100,"-1,-1,-1",-1,0,-151,0,0,0,84,88,67,60,85,-102.29,33,-2.0,1.0,-1003.0,14:08:17.594716,192.168.0.114
335,-1,-100,-100,-100,"-1,-1,-1",0,0,-151,0,0,0,84,88,67,60,85,-102.22,33,-29.0,20.0,-993.0,14:08:17.664067,192.168.0.114
336,-1,-100,-100,-100,"-1,-1,-1",0,0,-151,0,0,0,84,88,67,60,85,-102.23,33,-25.0,0.0,-989.0,14:08:17.766010,192.168.0.114
337,-1,-100,-100,-100,"-1,-1,-1",-1,0,-151,0,0,0,84,87,67,60,85,-102.23,33,-10.0,19.0,-1003.0,14:08:17.868090,192.168.0.114
338,-1,-100,-100,-100,"-1,-1,-1",0,0,-151,0,0,0,84,87,67,60,85,-102.29,33,-17.0,5.0,-998.0,14:08:17.975119,192.168.0.114
339,-1,-100,-100,-100,"-1,-1,-1",0,0,-151,0,0,0,84,87,67,60,85,-102.27,33,-9.0,7.0,-999.0,14:08:18.072545,192.168.0.114
340,-1,-100,-100,-100,"-1,-1,-1",0,0,-151,0,0,0,84,87,67,60,85,-102.23,33,-27.0,13.0,-1004.0,14:08:18.174034,192.168.0.114
341,-1,-100,-100,-100,"-1,-1,-1",0,0,-151,0,0,0,84,87,67,60,85,-102.24,34,-12.0,3.0,-1004.0,14:08:18.276313,192.168.0.114
342,-1,-100,-100,-100,"-1,-1,-1",0,0,-151,0,0,0,84,87,67,60,85,-102.26,34,-14.0,15.0,-1016.0,14:08:18.411469,192.168.0.114
343,-1,-100,-100,-100,"-1,-1,-1",0,0,-151,0,0,0,84,87,67,60,85,-102.21,34,-4.0,1.0,-1004.0,14:08:18.480035,192.168.0.114
344,-1,-100,-100,-100,"-1,-1,-1",0,0,-151,0,0,0,84,87,67,60,85,-102.21,34,-23.0,5.0,-1006.0,14:08:18.582034,192.168.0.114
345,-1,-100,-100,-100,"-1,-1,-1",0,0,-151,0,0,0,84,87,67,60,85,-102.19,34,-7.0,4.0,-1003.0,14:08:18.684078,192.168.0.114
346,-1,-100,-100,-100,"-1,-1,-1",0,0,-151,0,0,0,84,87,67,60,85,-102.18,34,-33.0,3.0,-1002.0,14:08:18.785976,192.168.0.114
347,-1,-100,-100,-100,"-1,-1,-1",0,0,-151,0,0,0,85,88,67,60,85,-102.18,34,6.0,-5.0,-996.0,14:08:18.888045,192.168.0.114
348,-1,-100,-100,-100,"-1,-1,-1",0,0,-151,0,0,0,85,88,67,60,85,-102.16,34,-32.0,11.0,-1005.0,14:08:18.990038,192.168.0.114
349,-1,-100,-100,-100,"-1,-1,-1",0,0,-151,0,0,0,85,88,67,60,85,-102.21,34,-14.0,-4.0,-984.0,14:08:19.092035,192.168.0.114
350,-1,-100,-100,-100,"-1,-1,-1",0,0,-151,0,0,0,85,88,67,60,85,-102.19,34,-12.0,14.0,-1008.0,14:08:19.194126,192.168.0.114
351,-1,-100,-100,-100,"-1,-1,-1",0,0,-151,0,0,0,85,88,67,60,85,-102.21,35,-21.0,-6.0,-1010.0,14:08:19.296151,192.168.0.114
352,-1,-100,-100,-100,"-1,-1,-1",0,0,-151,0,0,0,85,88,67,60,85,-102.19,35,-7.0,0.0,-983.0,14:08:19.398012,192.168.0.114
353,-1,-100,-100,-100,"-1,-1,-1",0,0,-151,-1,0,0,85,88,67,60,85,-102.18,35,-20.0,-5.0,-1009.0,14:08:19.500305,192.168.0.114
354,-1,-100,-100,-100,"-1,-1,-1",0,0,-151,0,0,0,85,88,67,60,85,-102.22,35,-31.0,0.0,-1000.0,14:08:19.602709,192.168.0.114
355,-1,-100,-100,-100,"-1,-1,-1",0,0,-151,0,0,0,85,88,67,60,85,-102.22,35,1.0,-1.0,-1011.0,14:08:19.704724,192.168.0.114
356,-1,-100,-100,-100,"-1,-1,-1",0,0,-151,0,0,0,85,88,67,60,85,-102.23,35,-1.0,9.0,-999.0,14:08:19.805989,192.168.0.114
357,-1,-100,-100,-100,"-1,-1,-1",0,0,-151,0,0,0,85,87,67,60,85,-102.12,35,-25.0,8.0,-1003.0,14:08:19.908053,192.168.0.114
358,-1,-100,-100,-100,"-1,-1,-1",0,0,-151,0,0,0,85,87,67,60,85,-102.21,35,-42.0,10.0,-993.0,14:08:20.009988,192.168.0.114
359,-1,-100,-100,-100,"-1,-1,-1",0,0,-151,0,0,0,85,87,67,60,85,-102.21,35,-24.0,-2.0,-989.0,14:08:20.112053,192.168.0.114
360,-1,-100,-100,-100,"-1,-1,-1",0,0,-151,0,0,0,85,87,67,60,85,-102.22,35,-35.0,4.0,-985.0,14:08:20.214130,192.168.0.114
361,-1,-100,-100,-100,"-1,-1,-1",0,0,-151,0,0,0,85,87,67,60,85,-102.22,36,-17.0,10.0,-1001.0,14:08:20.316040,192.168.0.114
362,-1,-100,-100,-100,"-1,-1,-1",0,0,-151,0,0,0,85,87,67,60,85,-102.21,36,6.0,0.0,-996.0,14:08:20.417984,192.168.0.114
363,-1,-100,-100,-100,"-1,-1,-1",0,0,-151,0,0,0,85,87,67,60,85,-102.25,36,-16.0,7.0,-999.0,14:08:20.520166,192.168.0.114
364,-1,-100,-100,-100,"-1,-1,-1",0,0,-151,0,0,0,85,87,67,60,85,-102.28,36,-9.0,15.0,-1004.0,14:08:20.622946,192.168.0.114
365,-1,-100,-100,-100,"-1,-1,-1",0,0,-151,0,0,0,85,87,68,60,85,-102.2,36,-22.0,10.0,-1009.0,14:08:20.724348,192.168.0.114
366,-1,-100,-100,-100,"-1,-1,-1",0,0,-151,0,0,0,85,87,67,60,85,-102.21,36,-41.0,23.0,-1000.0,14:08:20.826006,192.168.0.114
367,-1,-100,-100,-100,"-1,-1,-1",0,0,-151,0,0,0,84,87,68,60,85,-102.23,36,-33.0,10.0,-1001.0,14:08:20.927865,192.168.0.114
368,-1,-100,-100,-100,"-1,-1,-1",-1,0,-151,0,0,0,84,87,67,60,85,-102.19,36,-13.0,11.0,-998.0,14:08:21.029918,192.168.0.114
369,-1,-100,-100,-100,"-1,-1,-1",-1,0,-151,0,0,0,84,87,67,60,85,-102.17,36,-35.0,15.0,-1000.0,14:08:21.131916,192.168.0.114
370,-1,-100,-100,-100,"-1,-1,-1",0,0,-151,0,0,0,84,87,67,60,85,-102.16,36,-12.0,9.0,-991.0,14:08:21.233977,192.168.0.114
371,-1,-100,-100,-100,"-1,-1,-1",0,0,-151,0,0,0,84,87,68,60,85,-102.15,37,-11.0,18.0,-1012.0,14:08:21.335876,192.168.0.114
372,-1,-100,-100,-100,"-1,-1,-1",0,0,-151,0,0,0,84,87,68,60,85,-102.17,37,-28.0,9.0,-988.0,14:08:21.688561,192.168.0.114
373,-1,-100,-100,-100,"-1,-1,-1",0,0,-151,0,0,0,84,87,68,60,85,-102.23,37,-13.0,7.0,-998.0,14:08:21.688739,192.168.0.114
374,-1,-100,-100,-100,"-1,-1,-1",0,0,-151,0,0,0,84,87,68,60,85,-102.21,37,3.0,-20.0,-994.0,14:08:21.688884,192.168.0.114
375,-1,-100,-100,-100,"-1,-1,-1",0,0,-151,0,0,0,84,87,68,60,85,-102.24,37,-19.0,10.0,-994.0,14:08:21.744042,192.168.0.114
376,-1,-100,-100,-100,"-1,-1,-1",0,0,-151,0,0,0,84,87,68,60,85,-102.25,37,-37.0,16.0,-1006.0,14:08:21.846306,192.168.0.114
377,-1,-100,-100,-100,"-1,-1,-1",0,0,-151,0,0,0,83,87,68,60,85,-102.27,37,-18.0,10.0,-1002.0,14:08:21.947894,192.168.0.114
378,-1,-100,-100,-100,"-1,-1,-1",0,0,-151,0,0,0,83,87,69,60,85,-102.24,37,-11.0,6.0,-1007.0,14:08:22.049880,192.168.0.114
379,-1,-100,-100,-100,"-1,-1,-1",0,0,-150,0,0,0,83,87,69,60,85,-102.19,37,-16.0,9.0,-1005.0,14:08:22.305349,192.168.0.114
380,-1,-100,-100,-100,"-1,-1,-1",0,0,-150,0,0,0,83,87,69,60,85,-102.25,37,-19.0,10.0,-1002.0,14:08:22.305559,192.168.0.114
381,-1,-100,-100,-100,"-1,-1,-1",0,0,-151,0,0,0,83,87,69,60,85,-102.26,38,-8.0,0.0,-1001.0,14:08:22.359579,192.168.0.114
382,-1,-100,-100,-100,"-1,-1,-1",0,0,-151,0,0,0,83,87,69,60,85,-102.34,38,-26.0,13.0,-1000.0,14:08:22.458517,192.168.0.114
383,-1,-100,-100,-100,"-1,-1,-1",0,0,-151,0,0,0,83,87,69,60,85,-102.31,38,-16.0,10.0,-996.0,14:08:22.559855,192.168.0.114
384,-1,-100,-100,-100,"-1,-1,-1",0,0,-151,0,0,0,83,87,69,60,85,-102.31,38,-6.0,9.0,-999.0,14:08:22.661820,192.168.0.114
385,-1,-100,-100,-100,"-1,-1,-1",0,0,-151,0,0,0,83,87,69,60,85,-102.29,38,17.0,-5.0,-996.0,14:08:22.763843,192.168.0.114
386,-1,-100,-100,-100,"-1,-1,-1",0,0,-151,0,0,0,83,87,68,60,85,-102.22,38,1.0,5.0,-991.0,14:08:22.865847,192.168.0.114
387,-1,-100,-100,-100,"-1,-1,-1",0,0,-151,0,0,0,84,87,69,60,85,-102.18,38,-27.0,16.0,-1003.0,14:08:23.019561,192.168.0.114
388,-1,-100,-100,-100,"-1,-1,-1",0,0,-151,0,0,0,84,87,68,60,85,-102.15,38,-29.0,7.0,-1009.0,14:08:23.019759,192.168.0.114
389,-1,-100,-100,-100,"-1,-1,-1",0,0,-151,0,0,0,84,87,68,60,85,-102.24,38,-25.0,13.0,-1010.0,14:08:23.121212,192.168.0.114
390,-1,-100,-100,-100,"-1,-1,-1",0,0,-151,0,0,0,84,87,68,60,85,-102.27,38,-20.0,11.0,-990.0,14:08:23.326877,192.168.0.114
391,-1,-100,-100,-100,"-1,-1,-1",0,0,-151,0,0,0,84,87,68,60,85,-102.15,39,-21.0,-2.0,-1004.0,14:08:23.327058,192.168.0.114
392,-1,-100,-100,-100,"-1,-1,-1",0,0,-151,0,0,0,84,87,67,60,85,-102.26,39,-5.0,3.0,-974.0,14:08:23.426705,192.168.0.114
393,-1,-100,-100,-100,"-1,-1,-1",0,0,-151,0,0,0,84,87,67,60,85,-102.26,39,-46.0,23.0,-995.0,14:08:23.529056,192.168.0.114
394,-1,-100,-100,-100,"-1,-1,-1",0,0,-151,0,0,0,84,87,67,60,85,-102.15,39,-3.0,7.0,-986.0,14:08:23.631833,192.168.0.114
395,-1,-100,-100,-100,"-1,-1,-1",0,0,-151,0,0,0,84,87,67,60,85,-102.2,39,-7.0,16.0,-990.0,14:08:23.838875,192.168.0.114
396,-1,-100,-100,-100,"-1,-1,-1",0,0,-151,0,0,0,84,87,67,60,85,-102.13,39,-12.0,9.0,-1033.0,14:08:23.839059,192.168.0.114
397,-1,-100,-100,-100,"-1,-1,-1",0,0,-151,0,0,0,84,86,67,60,85,-102.04,39,3.0,-6.0,-1003.0,14:08:23.940749,192.168.0.114
398,-1,-100,-100,-100,"-1,-1,-1",0,0,-151,0,0,0,84,86,67,60,85,-102.01,39,-22.0,20.0,-1007.0,14:08:24.041108,192.168.0.114
399,-1,-100,-100,-100,"-1,-1,-1",-1,0,-151,0,0,0,84,86,67,60,85,-102.04,39,-8.0,-6.0,-998.0,14:08:24.248994,192.168.0.114
400,-1,-100,-100,-100,"-1,-1,-1",-3,0,-151,-1,0,0,84,86,67,60,85,-102.09,39,-3.0,-9.0,-997.0,14:08:24.249222,192.168.0.114
401,-1,-100,-100,-100,"-1,-1,-1",-2,0,-151,-1,0,0,84,86,68,60,85,-102.07,40,-29.0,26.0,-1011.0,14:08:24.344881,192.168.0.114
402,-1,-100,-100,-100,"-1,-1,-1",-2,0,-151,-1,0,0,84,86,68,60,85,-102.17,40,-13.0,-2.0,-992.0,14:08:24.446809,192.168.0.114
403,-1,-100,-100,-100,"-1,-1,-1",-1,0,-151,-2,0,0,84,86,67,60,85,-102.17,40,1.0,0.0,-1000.0,14:08:24.548740,192.168.0.114
404,-1,-100,-100,-100,"-1,-1,-1",-1,0,-151,-2,-1,0,84,86,68,60,85,-102.19,40,-14.0,-4.0,-1008.0,14:08:24.650797,192.168.0.114
405,-1,-100,-100,-100,"-1,-1,-1",-1,0,-151,-2,-1,0,84,86,68,60,85,-102.24,40,-20.0,-6.0,-1002.0,14:08:24.752725,192.168.0.114
406,-1,-100,-100,-100,"-1,-1,-1",-1,0,-151,-2,-1,0,84,86,68,60,85,-102.2,40,-10.0,-12.0,-990.0,14:08:24.854806,192.168.0.114
407,-1,-100,-100,-100,"-1,-1,-1",0,0,-151,-2,-1,0,84,87,68,60,85,-102.24,40,-22.0,-24.0,-1007.0,14:08:24.956837,192.168.0.114
408,-1,-100,-100,-100,"-1,-1,-1",-1,0,-151,-2,-1,0,84,87,68,60,85,-102.26,40,-18.0,0.0,-997.0,14:08:25.058925,192.168.0.114
409,-1,-100,-100,-100,"-1,-1,-1",0,0,-151,-2,-1,0,84,87,68,60,85,-102.27,40,-21.0,5.0,-1010.0,14:08:25.161248,192.168.0.114
410,-1,-100,-100,-100,"-1,-1,-1",0,0,-150,-2,-1,0,84,87,68,60,85,-102.21,40,-16.0,-9.0,-1005.0,14:08:25.262944,192.168.0.114
411,-1,-100,-100,-100,"-1,-1,-1",0,1,-150,-2,-1,0,84,87,68,60,85,-102.16,41,-5.0,-12.0,-986.0,14:08:25.364798,192.168.0.114
412,-1,-100,-100,-100,"-1,-1,-1",0,1,-150,-2,-1,0,84,87,69,60,85,-102.21,41,-22.0,-16.0,-997.0,14:08:25.466785,192.168.0.114
413,-1,-100,-100,-100,"-1,-1,-1",0,1,-150,-2,-1,0,84,87,69,60,85,-102.3,41,-21.0,-9.0,-993.0,14:08:25.568716,192.168.0.114
414,-1,-100,-100,-100,"-1,-1,-1",0,1,-150,-2,-1,0,84,87,68,60,85,-102.32,41,-29.0,-8.0,-1005.0,14:08:25.670719,192.168.0.114
415,-1,-100,-100,-100,"-1,-1,-1",0,1,-150,-2,-1,0,84,87,68,60,85,-102.19,41,-21.0,-7.0,-1016.0,14:08:25.772656,192.168.0.114
416,-1,-100,-100,-100,"-1,-1,-1",0,1,-150,-1,-1,0,84,87,68,60,85,-102.19,41,6.0,-22.0,-987.0,14:08:25.874693,192.168.0.114
417,-1,-100,-100,-100,"-1,-1,-1",0,2,-150,-1,-1,0,84,87,68,60,85,-102.19,41,-11.0,5.0,-974.0,14:08:26.196884,192.168.0.114
418,-1,-100,-100,-100,"-1,-1,-1",4,0,-150,-1,-2,0,84,87,67,60,85,-102.13,41,1.0,-38.0,-1044.0,14:08:26.197087,192.168.0.114
419,8,-39,-18,65,"-5,0,-175",4,-2,-150,-1,-1,0,84,87,67,60,85,-102.17,41,21.0,-6.0,-1009.0,14:08:26.197251,192.168.0.114
420,8,-39,-18,65,"-5,0,-175",2,0,-150,0,0,0,84,87,66,60,85,-102.2,41,1.0,-18.0,-1006.0,14:08:26.282947,192.168.0.114
421,8,-34,-20,64,"-1,1,-173",1,0,-150,0,0,0,84,87,66,60,85,-102.15,42,24.0,-12.0,-996.0,14:08:26.384688,192.168.0.114
422,8,-34,-20,64,"-1,1,-173",1,0,-151,0,0,0,84,87,66,60,85,-102.13,42,2.0,-15.0,-993.0,14:08:26.486739,192.168.0.114
423,8,-32,-21,63,"-1,1,-172",1,0,-151,0,0,0,84,87,65,60,85,-102.07,42,22.0,4.0,-1023.0,14:08:26.589861,192.168.0.114
424,8,-32,-21,63,"-1,1,-172",0,0,-151,0,0,0,84,87,66,60,85,-102.09,42,5.0,-8.0,-1007.0,14:08:26.647352,192.168.0.114
425,8,-31,-19,63,"0,1,-173",0,0,-151,-1,0,0,84,87,66,60,85,-102.09,42,-13.0,7.0,-1009.0,14:08:26.796063,192.168.0.114
426,8,-31,-19,63,"0,1,-173",0,0,-151,-1,0,0,84,87,66,60,85,-102.12,42,15.0,-5.0,-1006.0,14:08:26.894791,192.168.0.114
427,8,-31,-19,63,"0,1,-173",0,0,-151,-1,0,0,83,87,66,60,85,-102.08,42,2.0,0.0,-1001.0,14:08:26.996758,192.168.0.114
428,8,-28,-15,65,"0,0,-176",0,0,-151,-1,0,0,83,87,66,60,85,-102.1,42,16.0,-13.0,-993.0,14:08:27.098821,192.168.0.114
429,8,-28,-15,65,"0,0,-176",0,0,-151,-1,0,0,83,87,66,60,85,-102.04,42,12.0,0.0,-991.0,14:08:27.201256,192.168.0.114
430,8,-25,-13,66,"1,0,-176",0,0,-151,-1,0,0,83,87,66,60,85,-102.11,43,10.0,-4.0,-996.0,14:08:27.302325,192.168.0.114
431,8,-25,-13,66,"1,0,-176",0,0,-151,-1,0,0,83,87,66,60,85,-102.17,43,25.0,-2.0,-1001.0,14:08:27.404623,192.168.0.114
432,8,-23,-12,66,"0,0,-177",0,0,-151,-1,0,0,83,87,66,60,85,-102.07,43,-3.0,8.0,-1020.0,14:08:27.630015,192.168.0.114
433,8,-23,-12,66,"0,0,-177",0,0,-151,-1,0,0,83,87,66,60,85,-102.09,43,32.0,-1.0,-997.0,14:08:27.630232,192.168.0.114
434,8,-19,-13,65,"0,0,-176",0,0,-151,-1,0,0,83,87,66,60,85,-102.07,43,-3.0,8.0,-998.0,14:08:27.659746,192.168.0.114
435,8,-19,-13,65,"0,0,-176",0,0,-151,-1,0,0,83,87,66,60,85,-102.12,43,18.0,-11.0,-1005.0,14:08:27.761684,192.168.0.114
436,8,-19,-13,65,"0,0,-176",0,0,-151,-1,0,0,83,87,67,60,85,-102.11,43,22.0,-9.0,-1013.0,14:08:27.863674,192.168.0.114
437,8,-15,-12,66,"1,0,-176",0,0,-151,-1,0,0,84,88,66,60,85,-102.09,43,16.0,5.0,-1009.0,14:08:27.965660,192.168.0.114
438,8,-15,-12,66,"1,0,-176",0,0,-151,-1,0,0,84,88,66,60,85,-102.1,43,0.0,11.0,-993.0,14:08:28.154799,192.168.0.114
439,8,-12,-9,66,"1,0,-177",0,0,-151,-1,0,0,84,88,67,60,85,-102.14,43,-3.0,16.0,-988.0,14:08:28.169661,192.168.0.114
440,8,-12,-9,66,"1,0,-177",0,0,-151,-1,0,0,84,88,68,60,85,-102.16,44,19.0,-15.0,-992.0,14:08:28.271627,192.168.0.114
441,8,-9,-7,67,"1,0,-177",0,0,-151,-1,0,0,84,88,68,60,85,-102.15,44,4.0,-4.0,-976.0,14:08:28.462964,192.168.0.114
442,8,-9,-7,67,"1,0,-177",0,0,-151,-1,0,0,84,88,68,60,85,-102.21,44,9.0,-19.0,-1001.0,14:08:28.526667,192.168.0.114
443,8,-9,-7,67,"1,0,-177",0,0,-151,-1,0,0,84,88,68,60,85,-102.08,44,-28.0,-14.0,-1011.0,14:08:28.577983,192.168.0.114
444,8,-5,-8,68,"1,0,-174",0,0,-151,-1,0,0,84,88,68,60,85,-102.13,44,38.0,-15.0,-1015.0,14:08:28.856792,192.168.0.114
445,8,-5,-8,68,"1,0,-174",0,0,-151,-1,0,0,84,88,68,60,85,-102.18,44,13.0,-11.0,-992.0,14:08:28.857031,192.168.0.114
446,8,-4,-3,69,"1,0,-177",0,0,-151,-1,0,0,84,88,69,60,85,-102.17,44,-2.0,-19.0,-990.0,14:08:28.885503,192.168.0.114
447,8,-4,-3,69,"1,0,-177",0,1,-151,-1,0,0,84,87,69,60,85,-102.14,44,0.0,-17.0,-998.0,14:08:28.985719,192.168.0.114
448,8,-1,-4,69,"2,0,-174",0,1,-151,-1,0,0,84,87,68,60,85,-102.15,44,20.0,-22.0,-987.0,14:08:29.087635,192.168.0.114
449,8,-1,-4,69,"2,0,-174",0,0,-151,-1,0,0,84,87,69,70,85,-102.13,44,21.0,-23.0,-985.0,14:08:29.189564,192.168.0.114
450,8,-1,-4,69,"2,0,-174",0,0,-151,-1,0,0,84,87,69,70,85,-102.13,45,7.0,-16.0,-993.0,14:08:29.291628,192.168.0.114
451,8,0,-3,70,"1,-1,-174",0,0,-151,-1,0,0,84,87,69,70,85,-102.18,45,-1.0,-11.0,-983.0,14:08:29.393530,192.168.0.114
452,8,0,-3,70,"1,-1,-174",0,1,-151,-1,0,0,84,87,70,70,85,-102.21,45,3.0,-13.0,-1000.0,14:08:29.594104,192.168.0.114
453,8,2,-2,70,"1,-1,-174",0,1,-151,-1,0,0,84,87,69,70,85,-102.18,45,-13.0,-8.0,-995.0,14:08:29.597545,192.168.0.114
454,8,2,-2,70,"1,-1,-174",0,1,-150,-1,0,0,84,87,69,70,85,-102.2,45,-5.0,-21.0,-996.0,14:08:29.798717,192.168.0.114
455,8,4,0,70,"1,-1,-175",0,1,-150,-1,0,0,84,87,71,70,85,-102.2,45,-9.0,-13.0,-1004.0,14:08:29.801555,192.168.0.114
456,8,4,0,70,"1,-1,-175",0,1,-150,-1,0,0,84,87,70,70,85,-102.2,45,7.0,-25.0,-989.0,14:08:29.903535,192.168.0.114
457,8,6,0,71,"1,-1,-174",0,1,-150,-1,0,0,84,87,71,70,85,-102.13,45,-10.0,-11.0,-1000.0,14:08:30.005485,192.168.0.114
458,8,6,0,71,"1,-1,-174",0,1,-150,0,0,0,84,87,71,70,85,-102.2,45,-14.0,-14.0,-1011.0,14:08:30.107816,192.168.0.114
459,8,9,1,71,"1,-2,-174",0,1,-150,0,0,0,84,87,71,70,85,-102.26,45,-22.0,-12.0,-989.0,14:08:30.210300,192.168.0.114
460,8,9,1,71,"1,-2,-174",0,1,-150,0,0,0,84,87,72,70,85,-102.16,46,-13.0,-6.0,-985.0,14:08:30.415148,192.168.0.114
461,8,9,1,71,"1,-2,-174",0,1,-150,0,0,0,84,87,72,70,85,-102.16,46,-11.0,-16.0,-985.0,14:08:30.415384,192.168.0.114
462,8,11,2,71,"1,-2,-174",0,1,-150,0,0,0,84,87,71,70,85,-102.18,46,-13.0,-21.0,-965.0,14:08:30.515521,192.168.0.114
463,8,11,2,71,"1,-2,-174",0,0,-150,0,0,0,84,87,71,70,85,-102.2,46,-11.0,-11.0,-1004.0,14:08:30.617793,192.168.0.114
464,8,14,2,71,"0,-2,-176",0,0,-150,0,0,0,84,87,71,70,85,-102.2,46,-13.0,-6.0,-981.0,14:08:30.719527,192.168.0.114
465,8,14,2,71,"0,-2,-176",1,1,-150,0,0,0,84,87,72,70,85,-102.18,46,-18.0,0.0,-1015.0,14:08:30.904313,192.168.0.114
466,8,17,4,70,"0,-2,-176",1,1,-150,0,0,0,84,87,72,70,85,-102.1,46,-10.0,-4.0,-1028.0,14:08:30.923501,192.168.0.114
467,8,17,4,70,"0,-2,-176",0,0,-150,0,0,0,84,87,71,70,85,-102.17,46,-4.0,-10.0,-1009.0,14:08:31.025565,192.168.0.114
468,8,18,3,71,"1,-2,-176",0,0,-150,0,0,0,84,87,72,70,85,-102.23,46,-2.0,-10.0,-983.0,14:08:31.127555,192.168.0.114
469,8,18,3,71,"1,-2,-176",0,0,-150,0,0,0,84,87,71,70,85,-102.2,46,5.0,-11.0,-958.0,14:08:31.229490,192.168.0.114
470,8,18,3,71,"1,-2,-176",0,0,-150,0,0,0,84,87,71,70,85,-102.19,47,-8.0,2.0,-929.0,14:08:31.331563,192.168.0.114
471,8,20,4,70,"2,-2,-177",0,0,-150,0,0,1,84,87,69,70,85,-102.3,47,2.0,-8.0,-929.0,14:08:31.433818,192.168.0.114
472,8,20,4,70,"2,-2,-177",0,0,-150,0,0,1,84,87,68,60,85,-102.26,47,5.0,-11.0,-902.0,14:08:31.535656,192.168.0.114
473,8,18,4,67,"1,-1,-177",0,0,-150,0,0,2,84,87,65,60,85,-102.28,47,-9.0,-1.0,-926.0,14:08:31.637500,192.168.0.114
474,8,18,4,67,"1,-1,-177",0,0,-151,0,0,3,84,87,61,60,85,-102.32,47,-2.0,6.0,-940.0,14:08:31.739433,192.168.0.114
475,8,19,5,61,"2,-1,-177",0,0,-151,0,0,4,84,87,57,60,85,-102.29,47,2.0,-1.0,-957.0,14:08:31.841575,192.168.0.114
476,8,19,5,61,"2,-1,-177",0,0,-151,0,0,4,84,87,52,50,85,-102.26,47,4.0,0.0,-981.0,14:08:31.943360,192.168.0.114
477,8,19,5,61,"2,-1,-177",0,0,-151,0,0,4,83,86,48,50,85,-102.26,47,1.0,-2.0,-995.0,14:08:32.045565,192.168.0.114
478,8,19,5,50,"2,-1,-178",0,0,-151,0,0,4,83,86,43,40,85,-102.38,47,9.0,4.0,-998.0,14:08:32.147489,192.168.0.114
479,8,19,5,50,"2,-1,-178",0,0,-151,0,0,4,83,86,38,40,85,-102.41,47,8.0,-3.0,-1008.0,14:08:32.198385,192.168.0.114
480,8,18,5,41,"1,-1,-178",0,0,-151,0,0,4,83,86,33,30,85,-102.52,48,1.0,10.0,-1015.0,14:08:32.300654,192.168.0.114
481,8,18,5,41,"1,-1,-178",0,0,-151,0,0,4,83,86,29,30,85,-102.48,48,3.0,5.0,-1001.0,14:08:32.402515,192.168.0.114
482,8,18,5,41,"1,-1,-178",0,0,-151,0,0,4,83,86,24,20,85,-102.5,48,-6.0,0.0,-1007.0,14:08:32.504418,192.168.0.114
483,8,18,5,41,"1,-1,-178",0,0,-151,0,0,4,83,86,23,20,85,-102.64,48,21.0,-3.0,-1006.0,14:08:32.752780,192.168.0.114
484,8,18,5,41,"1,-1,-178",0,0,-151,0,0,4,83,86,17,20,85,-102.82,48,14.0,8.0,-1016.0,14:08:32.752978,192.168.0.114
485,8,18,5,41,"1,-1,-178",0,0,-151,0,0,4,83,86,11,10,85,-103.1,48,21.0,0.0,-1013.0,14:08:32.810410,192.168.0.114
486,8,18,5,41,"1,-1,-178",0,0,-151,0,0,3,83,86,10,10,85,-103.64,48,-11.0,9.0,-1035.0,14:08:32.912569,192.168.0.114
487,8,18,5,41,"1,-1,-178",0,0,-150,0,0,3,84,87,10,0,85,-105.01,48,-4.0,-4.0,-1037.0,14:08:33.014500,192.168.0.114
488,8,18,5,41,"1,-1,-178",0,0,-150,0,0,3,84,87,10,0,85,-105.96,48,307.0,-263.0,-4396.0,14:08:33.116836,192.168.0.114
489,8,18,5,41,"1,-1,-178",-2,3,-150,0,0,0,84,87,10,0,85,-104.4,48,9.0,10.0,-508.0,14:08:33.218370,192.168.0.114
