,mid,x,y,z,mpry,pitch,roll,yaw,vgx,vgy,vgz,templ,temph,tof,h,bat,baro,time,agx,agy,agz,timestamp,address
3,-1,-100,-100,-100,"0,0,0",0,0,4,0,0,0,65,68,10,0,100,-8.08,0,2.0,-3.0,-1000.0,15:57:51.287486,192.168.0.112
9,-1,-100,-100,-100,"0,0,0",0,0,4,0,0,0,65,68,10,0,100,-8.06,0,4.0,-4.0,-998.0,15:57:51.526424,192.168.0.112
14,-1,-100,-100,-100,"0,0,0",0,0,4,0,0,0,65,67,10,0,100,-8.11,0,5.0,-5.0,-999.0,15:57:51.526715,192.168.0.112
19,-1,-100,-100,-100,"0,0,0",0,0,4,0,0,0,65,67,10,0,100,-8.09,0,3.0,-3.0,-998.0,15:57:51.649531,192.168.0.112
24,-1,-100,-100,-100,"0,0,0",0,0,4,0,0,0,65,67,10,0,100,-8.09,0,4.0,-4.0,-1000.0,15:57:51.686935,192.168.0.112
29,-1,-100,-100,-100,"0,0,0",0,0,4,0,0,0,65,67,10,0,100,-8.1,0,-2.0,-9.0,-1012.0,15:57:51.788949,192.168.0.112
34,-1,-100,-100,-100,"0,0,0",0,0,4,0,0,0,65,67,10,0,100,-8.1,0,20.0,2.0,-1010.0,15:57:51.890826,192.168.0.112
39,-1,-100,-100,-100,"0,0,0",0,0,4,0,0,0,65,67,10,0,100,-8.1,0,0.0,-11.0,-1001.0,15:57:52.007047,192.168.0.112
44,-1,-100,-100,-100,"0,0,0",0,0,4,0,0,0,65,67,10,0,100,-8.1,0,0.0,-9.0,-993.0,15:57:52.246103,192.168.0.112
49,-1,-100,-100,-100,"0,0,0",0,0,4,0,0,0,65,67,10,0,100,-8.1,0,7.0,0.0,-1098.0,15:57:52.246315,192.168.0.112
54,-1,-100,-100,-100,"0,0,0",-1,0,4,0,0,1,65,67,10,0,100,-8.1,0,26.0,6.0,-1207.0,15:57:52.299006,192.168.0.112
59,-1,-100,-100,-100,"0,0,0",0,0,5,0,0,5,65,67,10,0,100,-8.1,0,25.0,0.0,-1302.0,15:57:52.400794,192.168.0.112
64,-1,-100,-100,-100,"0,0,0",2,0,5,0,0,7,65,68,16,10,100,-7.82,0,-11.0,18.0,-1135.0,15:57:52.502795,192.168.0.112
69,-1,-100,-100,-100,"0,0,0",1,0,4,0,0,8,65,68,22,10,100,-7.62,0,0.0,2.0,-1018.0,15:57:52.608568,192.168.0.112
74,-1,-100,-100,-100,"0,0,0",1,0,4,0,0,8,65,68,31,20,100,-7.55,0,6.0,5.0,-983.0,15:57:52.724356,192.168.0.112
79,-1,-100,-100,-100,"0,0,0",0,0,4,0,0,7,65,68,39,30,100,-7.54,1,9.0,1.0,-1003.0,15:57:52.963472,192.168.0.112
84,-1,-100,-100,-100,"0,0,0",0,0,4,0,0,7,65,68,47,40,100,-7.43,1,-4.0,7.0,-965.0,15:57:52.963753,192.168.0.112
89,-1,-100,-100,-100,"0,0,0",0,0,4,0,0,6,65,68,54,40,100,-7.37,1,5.0,-1.0,-922.0,15:57:53.012868,192.168.0.112
94,-1,-100,-100,-100,"0,0,0",0,0,4,0,0,4,65,68,60,50,100,-7.35,1,1.0,14.0,-888.0,15:57:53.114784,192.168.0.112
99,-1,-100,-100,-100,"0,0,0",0,0,4,0,0,3,65,68,64,50,100,-7.26,1,12.0,8.0,-883.0,15:57:53.216814,192.168.0.112
104,2,1,0,48,"0,-2,178",0,0,4,0,0,2,65,68,68,50,100,-7.22,1,8.0,-1.0,-897.0,15:57:53.327104,192.168.0.112
108,2,1,0,48,"0,-2,178",0,0,4,0,0,2,65,68,70,60,100,-7.19,1,8.0,5.0,-894.0,15:57:53.369774,192.168.0.112
114,2,1,0,48,"0,-2,178",0,0,4,0,0,1,65,68,72,60,100,-7.18,1,21.0,-2.0,-960.0,15:57:53.658150,192.168.0.112
118,2,1,0,48,"0,-2,178",0,0,4,0,0,1,65,68,74,60,100,-7.11,1,-3.0,5.0,-976.0,15:57:53.658363,192.168.0.112
123,2,1,2,65,"0,-2,178",0,0,4,0,0,0,65,68,75,60,100,-7.12,1,17.0,2.0,-977.0,15:57:53.675728,192.168.0.112
128,2,1,2,65,"0,-2,178",0,0,4,0,0,0,65,68,76,60,100,-7.13,2,13.0,-3.0,-995.0,15:57:53.878093,192.168.0.112
134,2,1,2,65,"0,-2,178",0,0,4,0,0,0,65,68,77,60,100,-7.04,2,15.0,-7.0,-991.0,15:57:53.879714,192.168.0.112
139,2,1,2,65,"0,-2,178",0,0,4,0,0,0,65,68,78,60,100,-7.09,2,-1.0,0.0,-981.0,15:57:53.981668,192.168.0.112
144,2,0,2,73,"-1,-2,-179",0,0,4,0,0,0,65,68,79,70,100,-7.08,2,6.0,-6.0,-1000.0,15:57:54.083764,192.168.0.112
149,2,0,2,73,"-1,-2,-179",0,0,4,0,0,0,65,68,79,70,100,-7.03,2,0.0,8.0,-987.0,15:57:54.185835,192.168.0.112
154,2,0,2,73,"-1,-2,-179",0,0,4,0,0,0,65,68,80,70,100,-7.04,2,-2.0,5.0,-992.0,15:57:54.321150,192.168.0.112
159,2,1,3,76,"0,-2,-179",0,0,4,0,0,0,65,68,81,70,100,-7.0,2,-6.0,6.0,-984.0,15:57:54.389856,192.168.0.112
164,2,1,3,76,"0,-2,-179",0,0,4,0,0,0,65,68,82,70,100,-7.03,2,1.0,-1.0,-993.0,15:57:54.495985,192.168.0.112
169,2,1,3,76,"0,-2,-179",0,0,4,0,0,0,65,68,82,70,100,-6.99,2,6.0,-2.0,-985.0,15:57:54.615964,192.168.0.112
174,2,1,3,76,"0,-2,-179",0,0,4,0,0,0,65,68,83,70,100,-7.01,2,-1.0,0.0,-988.0,15:57:54.736014,192.168.0.112
179,2,0,4,79,"0,-2,-179",0,0,4,0,0,0,65,68,83,70,100,-7.02,3,12.0,1.0,-994.0,15:57:54.855725,192.168.0.112
184,2,0,4,79,"0,-2,-179",0,0,4,0,0,0,65,68,83,70,100,-6.98,3,-5.0,0.0,-984.0,15:57:54.975697,192.168.0.112
189,2,0,4,79,"0,-2,-179",0,0,4,0,0,0,65,68,83,70,100,-6.96,3,7.0,-7.0,-993.0,15:57:55.001815,192.168.0.112
194,2,0,4,79,"0,-2,-179",0,0,4,0,0,0,65,68,83,70,100,-6.98,3,4.0,-2.0,-987.0,15:57:55.104195,192.168.0.112
199,2,0,4,80,"0,-1,-178",0,0,4,0,0,0,65,68,83,70,100,-6.94,3,9.0,-9.0,-992.0,15:57:55.218789,192.168.0.112
204,2,0,4,80,"0,-1,-178",0,0,4,0,0,0,65,68,83,70,100,-6.9,3,0.0,6.0,-993.0,15:57:55.338288,192.168.0.112
209,2,0,4,80,"0,-1,-178",0,0,4,0,0,0,65,68,84,70,100,-6.93,3,20.0,-20.0,-989.0,15:57:55.458292,192.168.0.112
214,2,1,4,81,"0,-1,180",0,0,4,0,0,0,65,68,83,70,100,-6.9,3,8.0,0.0,-994.0,15:57:55.578437,192.168.0.112
219,2,1,4,81,"0,-1,180",0,0,4,0,0,0,65,68,83,70,100,-6.92,3,-3.0,10.0,-1004.0,15:57:55.697996,192.168.0.112
224,2,1,4,81,"0,-1,180",0,0,4,0,0,0,65,68,83,70,100,-6.84,3,8.0,0.0,-998.0,15:57:55.715774,192.168.0.112
229,2,1,4,81,"0,-1,180",0,0,4,0,0,0,65,68,84,70,100,-6.89,4,0.0,2.0,-996.0,15:57:55.820886,192.168.0.112
234,2,1,4,81,"0,-1,179",0,0,4,0,0,0,65,68,83,70,100,-6.89,4,-2.0,6.0,-996.0,15:57:55.938183,192.168.0.112
239,2,1,4,81,"0,-1,179",0,0,4,0,0,0,65,68,83,70,100,-6.9,4,2.0,1.0,-1007.0,15:57:56.058156,192.168.0.112
244,2,1,4,81,"0,-1,179",0,0,4,0,0,0,65,68,83,70,100,-6.9,4,9.0,-3.0,-999.0,15:57:56.177933,192.168.0.112
249,2,1,4,81,"0,-1,179",0,0,4,0,0,0,65,68,83,70,100,-6.9,4,3.0,0.0,-995.0,15:57:56.298073,192.168.0.112
254,2,2,5,81,"1,-2,177",0,0,4,0,0,0,65,68,83,70,100,-6.9,4,1.0,4.0,-1000.0,15:57:56.417996,192.168.0.112
259,2,2,5,81,"1,-2,177",0,0,4,0,0,0,65,68,83,70,100,-6.92,4,2.0,0.0,-996.0,15:57:56.429765,192.168.0.112
264,2,2,5,81,"1,-2,177",0,0,4,0,0,0,65,68,82,70,100,-6.88,4,5.0,0.0,-1001.0,15:57:56.539500,192.168.0.112
269,2,2,3,81,"1,-2,179",0,0,4,0,0,0,65,68,83,70,100,-6.89,4,-7.0,3.0,-1003.0,15:57:56.658265,192.168.0.112
275,2,2,3,81,"1,-2,179",0,0,4,0,0,0,65,68,83,70,100,-6.85,4,-16.0,9.0,-999.0,15:57:56.778129,192.168.0.112
280,2,2,3,81,"1,-2,179",0,0,4,0,0,0,65,68,83,70,100,-6.87,5,-7.0,14.0,-1009.0,15:57:56.898232,192.168.0.112
285,2,2,3,81,"1,-2,179",0,0,4,0,0,0,65,68,83,70,100,-6.85,5,4.0,-3.0,-997.0,15:57:57.018604,192.168.0.112
289,2,2,3,80,"1,-1,179",0,0,4,0,0,0,65,68,83,70,100,-6.85,5,3.0,-10.0,-999.0,15:57:57.018790,192.168.0.112
294,2,2,3,80,"1,-1,179",0,0,4,0,0,0,65,68,82,70,100,-6.88,5,-6.0,2.0,-1002.0,15:57:57.138638,192.168.0.112
299,2,2,3,80,"1,-1,179",0,0,4,0,0,0,65,68,83,70,100,-6.87,5,-3.0,1.0,-1007.0,15:57:57.258567,192.168.0.112
304,2,1,3,80,"0,-2,178",0,0,4,0,0,0,65,68,82,70,100,-6.85,5,8.0,4.0,-999.0,15:57:57.377494,192.168.0.112
309,2,1,3,80,"0,-2,178",0,0,4,0,0,0,65,68,83,70,100,-6.8,5,3.0,-2.0,-992.0,15:57:57.399490,192.168.0.112
314,2,1,3,80,"0,-2,178",0,0,4,0,0,0,65,67,83,70,100,-6.78,5,-5.0,5.0,-996.0,15:57:57.618233,192.168.0.112
319,2,1,3,80,"0,-2,178",0,0,4,0,0,0,65,67,83,70,100,-6.81,5,-6.0,10.0,-998.0,15:57:57.618633,192.168.0.112
324,2,2,3,81,"1,-2,179",0,0,4,0,0,0,65,67,83,70,100,-6.76,5,-4.0,-2.0,-996.0,15:57:57.738731,192.168.0.112
329,2,2,3,81,"1,-2,179",0,0,4,0,0,0,65,67,83,70,100,-6.77,6,-13.0,5.0,-990.0,15:57:57.858574,192.168.0.112
334,2,2,3,81,"1,-2,179",0,0,4,0,0,0,65,67,83,70,100,-6.79,6,-2.0,10.0,-998.0,15:57:57.978714,192.168.0.112
339,2,2,3,81,"1,-2,179",0,0,4,0,0,0,65,67,83,70,100,-6.8,6,-6.0,10.0,-997.0,15:57:58.098406,192.168.0.112
344,2,0,3,81,"0,-2,179",0,0,4,0,0,0,65,67,83,70,100,-6.78,6,14.0,-3.0,-993.0,15:57:58.115895,192.168.0.112
349,2,0,3,81,"0,-2,179",0,0,4,0,0,0,65,67,83,70,100,-6.81,6,13.0,2.0,-1002.0,15:57:58.337877,192.168.0.112
354,2,0,3,81,"0,-2,179",0,0,4,0,0,0,65,67,83,70,100,-6.83,6,1.0,8.0,-998.0,15:57:58.338128,192.168.0.112
359,2,2,1,81,"0,-2,-178",0,0,4,0,0,0,65,67,83,70,100,-6.78,6,-6.0,15.0,-1001.0,15:57:58.458828,192.168.0.112
364,2,2,1,81,"0,-2,-178",0,0,4,0,0,0,64,67,83,70,100,-6.8,6,1.0,5.0,-994.0,15:57:58.578514,192.168.0.112
369,2,2,1,81,"0,-2,-178",0,0,4,0,0,0,64,67,83,70,100,-6.78,6,7.0,8.0,-1001.0,15:57:58.698971,192.168.0.112
374,2,2,1,81,"0,-2,-178",0,0,4,0,0,0,64,67,83,70,100,-6.81,6,-3.0,1.0,-1000.0,15:57:58.818542,192.168.0.112
379,2,1,3,81,"-1,-2,180",0,0,4,0,0,0,64,67,83,70,100,-6.75,7,4.0,0.0,-1007.0,15:57:58.827816,192.168.0.112
384,2,1,3,81,"-1,-2,180",0,0,4,0,0,0,64,67,83,70,100,-6.81,7,-1.0,7.0,-994.0,15:57:59.057840,192.168.0.112
389,2,1,3,81,"-1,-2,180",0,0,4,0,0,0,64,67,83,70,100,-6.83,7,0.0,12.0,-1000.0,15:57:59.058085,192.168.0.112
394,2,1,3,81,"-1,-2,180",0,0,4,0,0,0,64,67,83,70,100,-6.81,7,4.0,14.0,-1001.0,15:57:59.178642,192.168.0.112
399,2,0,4,81,"-2,-2,179",0,0,4,0,0,0,64,67,83,70,100,-6.77,7,12.0,5.0,-995.0,15:57:59.298517,192.168.0.112
404,2,0,4,81,"-2,-2,179",0,0,4,0,0,0,64,67,83,70,100,-6.77,7,0.0,15.0,-1016.0,15:57:59.418480,192.168.0.112
409,2,0,4,81,"-2,-2,179",0,0,4,0,0,0,64,67,83,70,100,-6.77,7,8.0,4.0,-1006.0,15:57:59.438549,192.168.0.112
414,2,2,2,81,"0,-2,-179",0,0,4,0,0,0,65,67,84,70,100,-6.77,7,6.0,-4.0,-1003.0,15:57:59.540482,192.168.0.112
419,2,2,2,81,"0,-2,-179",0,0,4,0,0,0,65,67,83,70,100,-6.72,7,6.0,4.0,-1003.0,15:57:59.777957,192.168.0.112
424,2,2,2,81,"0,-2,-179",0,0,4,0,0,0,65,67,83,70,100,-6.77,7,14.0,2.0,-1005.0,15:57:59.778213,192.168.0.112
430,2,2,2,81,"0,-2,-179",0,0,4,0,0,0,65,67,83,70,100,-6.72,8,14.0,-8.0,-1000.0,15:57:59.898506,192.168.0.112
435,2,2,2,81,"-1,-2,180",0,0,4,0,0,0,65,67,83,70,100,-6.72,8,1.0,4.0,-1001.0,15:58:00.020957,192.168.0.112
439,2,2,2,81,"-1,-2,180",0,0,4,0,0,0,65,67,83,70,100,-6.79,8,1.0,-6.0,-999.0,15:58:00.138808,192.168.0.112
445,2,2,2,81,"-1,-2,180",0,0,4,0,0,0,65,67,83,70,100,-6.77,8,5.0,11.0,-1016.0,15:58:00.152460,192.168.0.112
449,2,2,2,81,"-1,-2,180",0,0,4,0,0,0,65,67,83,70,100,-6.77,8,0.0,11.0,-1011.0,15:58:00.258533,192.168.0.112
454,2,2,3,81,"-1,-2,179",0,0,4,0,0,0,65,67,83,70,100,-6.77,8,11.0,2.0,-1007.0,15:58:00.497753,192.168.0.112
459,2,2,3,81,"-1,-2,179",0,0,4,0,0,0,65,67,83,70,100,-6.72,8,5.0,2.0,-1013.0,15:58:00.497988,192.168.0.112
464,2,2,3,81,"-1,-2,179",0,0,4,0,0,0,64,67,83,70,100,-6.72,8,6.0,0.0,-1010.0,15:58:00.509556,192.168.0.112
469,2,3,1,81,"0,-2,-178",0,0,4,0,0,0,64,67,83,70,100,-6.73,8,6.0,-9.0,-1004.0,15:58:00.618956,192.168.0.112
474,2,3,1,81,"0,-2,-178",0,0,4,0,0,0,64,67,82,70,100,-6.71,8,10.0,-5.0,-999.0,15:58:00.738871,192.168.0.112
479,2,3,1,81,"0,-2,-178",0,0,4,0,0,0,64,67,83,70,100,-6.75,9,7.0,-7.0,-1006.0,15:58:00.858773,192.168.0.112
484,2,3,1,81,"0,-2,-178",0,0,4,0,0,0,64,67,83,70,100,-6.76,9,8.0,1.0,-1002.0,15:58:00.978805,192.168.0.112
489,2,3,3,81,"-1,-2,180",0,0,4,0,0,0,64,67,83,70,100,-6.7,9,9.0,-3.0,-997.0,15:58:01.104093,192.168.0.112
494,2,3,3,81,"-1,-2,180",0,0,4,0,0,0,64,67,82,70,100,-6.69,9,-3.0,4.0,-989.0,15:58:01.121600,192.168.0.112
499,2,3,3,81,"-1,-2,180",0,0,4,0,0,0,64,67,83,70,100,-6.73,9,2.0,5.0,-995.0,15:58:01.223515,192.168.0.112
504,2,3,3,81,"-1,-2,180",0,0,4,0,0,0,64,67,82,70,100,-6.72,9,3.0,-1.0,-986.0,15:58:01.338721,192.168.0.112
509,2,3,3,81,"-1,-2,180",-2,0,4,0,0,0,64,67,83,70,100,-6.74,9,23.0,-4.0,-934.0,15:58:01.458683,192.168.0.112
514,2,3,4,81,"-1,-2,179",-3,0,4,0,0,0,66,69,82,70,100,-6.7,9,9.0,-7.0,-974.0,15:58:01.578653,192.168.0.112
519,2,3,4,81,"-1,-2,179",-1,0,4,-1,0,0,66,69,80,70,100,-6.67,9,-12.0,2.0,-975.0,15:58:01.698636,192.168.0.112
524,2,3,4,81,"-1,-2,179",0,0,4,-1,0,-1,66,69,80,70,100,-6.66,9,-14.0,3.0,-999.0,15:58:01.937854,192.168.0.112
529,2,3,4,81,"-1,-2,179",0,1,4,-1,0,-1,66,69,79,70,100,-6.8,10,-14.0,6.0,-991.0,15:58:01.938138,192.168.0.112
534,2,3,4,81,"-1,-2,179",0,1,4,-1,0,-1,66,69,78,70,100,-6.78,10,-10.0,0.0,-999.0,15:58:01.938376,192.168.0.112
539,2,3,4,81,"-1,-2,179",0,1,4,-1,0,-1,66,69,77,70,100,-6.73,10,-11.0,11.0,-976.0,15:58:02.059469,192.168.0.112
544,2,6,4,78,"0,-2,-178",0,0,4,-1,0,-1,66,69,76,60,100,-6.8,10,-13.0,-7.0,-1017.0,15:58:02.176436,192.168.0.112
549,2,6,4,78,"0,-2,-178",1,-1,4,-1,0,-1,66,69,75,60,100,-6.84,10,2.0,-10.0,-1004.0,15:58:02.296442,192.168.0.112
554,2,6,4,78,"0,-2,-178",1,0,4,-1,0,0,66,69,76,60,100,-6.7,10,-10.0,-3.0,-1017.0,15:58:02.416234,192.168.0.112
559,2,6,4,78,"0,-2,-178",2,0,4,0,0,0,66,69,75,60,100,-6.73,10,-16.0,8.0,-1032.0,15:58:02.655552,192.168.0.112
564,2,6,4,78,"0,-2,-178",1,0,4,0,0,0,67,70,74,60,100,-6.74,10,2.0,-1.0,-1018.0,15:58:02.655870,192.168.0.112
569,2,6,4,78,"0,-2,-178",0,0,4,0,0,0,67,70,74,60,100,-6.82,10,0.0,2.0,-1011.0,15:58:02.656253,192.168.0.112
574,2,22,4,69,"0,-2,180",0,0,4,0,0,0,67,70,73,60,100,-6.73,11,5.0,-8.0,-1003.0,15:58:02.776893,192.168.0.112
579,2,22,4,69,"0,-2,180",0,0,4,0,0,0,67,70,74,60,100,-6.77,11,6.0,-3.0,-1002.0,15:58:02.896335,192.168.0.112
584,2,22,4,69,"0,-2,180",0,0,4,0,0,0,67,70,74,60,100,-6.8,11,-24.0,14.0,-993.0,15:58:03.016270,192.168.0.112
589,2,22,4,69,"0,-2,180",0,0,4,0,0,0,67,70,74,60,100,-6.81,11,-3.0,2.0,-998.0,15:58:03.136154,192.168.0.112
594,2,22,4,69,"0,-2,180",0,0,4,0,0,0,67,70,74,60,100,-6.81,11,-20.0,15.0,-1012.0,15:58:03.375517,192.168.0.112
599,2,22,4,69,"0,-2,180",-1,0,4,0,0,0,67,70,74,60,100,-6.8,11,-11.0,15.0,-1010.0,15:58:03.375836,192.168.0.112
605,2,22,4,69,"0,-2,180",-2,0,4,0,0,0,67,70,74,60,100,-6.74,11,-7.0,5.0,-997.0,15:58:03.376127,192.168.0.112
610,2,24,5,69,"1,-2,179",-2,0,4,0,0,0,67,70,74,60,100,-6.81,11,1.0,2.0,-999.0,15:58:03.502159,192.168.0.112
615,2,24,5,69,"1,-2,179",-2,0,4,-1,0,0,67,71,74,60,100,-6.8,11,-14.0,10.0,-991.0,15:58:03.616577,192.168.0.112
620,2,24,5,69,"1,-2,179",-2,0,4,-1,0,0,67,71,74,60,100,-6.77,11,-18.0,0.0,-993.0,15:58:03.736324,192.168.0.112
625,2,24,5,69,"1,-2,179",-1,0,4,-1,0,0,67,71,74,60,100,-6.73,12,-22.0,10.0,-999.0,15:58:03.856408,192.168.0.112
630,2,24,5,69,"1,-2,179",-1,0,4,-2,0,0,67,71,75,60,100,-6.74,12,-24.0,9.0,-1009.0,15:58:03.875360,192.168.0.112
635,2,24,5,69,"1,-2,179",-1,0,4,-2,0,0,67,71,75,60,100,-6.74,12,-13.0,-4.0,-991.0,15:58:04.097724,192.168.0.112
640,2,30,4,69,"4,-2,180",-1,0,4,-2,0,0,67,71,75,60,100,-6.76,12,-22.0,0.0,-995.0,15:58:04.097896,192.168.0.112
647,2,30,4,69,"4,-2,180",-1,0,4,-2,0,0,67,71,75,60,100,-6.81,12,-26.0,-1.0,-995.0,15:58:04.219721,192.168.0.112
652,2,30,4,69,"4,-2,180",-1,0,4,-2,0,0,67,71,75,60,100,-6.68,12,-16.0,1.0,-995.0,15:58:04.338566,192.168.0.112
657,2,30,4,69,"4,-2,180",-1,0,4,-2,0,0,67,71,75,60,100,-6.77,12,-31.0,0.0,-996.0,15:58:04.458610,192.168.0.112
662,2,30,4,69,"4,-2,180",-1,0,4,-2,0,0,67,71,75,60,100,-6.71,12,-44.0,15.0,-995.0,15:58:04.578657,192.168.0.112
667,2,30,4,69,"4,-2,180",0,0,4,-3,0,0,67,70,74,60,100,-6.79,12,-22.0,4.0,-999.0,15:58:04.589604,192.168.0.112
672,2,30,4,69,"4,-2,180",0,0,4,-3,0,0,67,70,74,60,100,-6.84,12,-22.0,2.0,-1013.0,15:58:04.701326,192.168.0.112
677,2,43,-3,72,"0,-5,-174",0,0,4,-3,0,0,67,70,74,60,100,-6.8,13,-16.0,9.0,-992.0,15:58:04.834864,192.168.0.112
682,2,43,-3,72,"0,-5,-174",0,0,4,-3,0,0,67,70,74,60,100,-6.83,13,-18.0,3.0,-1000.0,15:58:04.896437,192.168.0.112
684,2,43,-3,72,"0,-5,-174",0,0,4,-3,0,0,67,70,73,60,100,-6.79,13,-11.0,0.0,-1001.0,15:58:04.947403,192.168.0.112
689,2,43,-3,72,"0,-5,-174",0,0,4,-3,0,0,67,70,73,60,100,-6.7,13,-17.0,-2.0,-995.0,15:58:05.049452,192.168.0.112
694,2,43,-3,72,"0,-5,-174",0,0,4,-3,0,0,67,70,73,60,100,-6.71,13,-14.0,5.0,-998.0,15:58:05.150383,192.168.0.112
699,2,43,-3,72,"0,-5,-174",0,0,4,-3,0,0,67,70,74,60,100,-6.8,13,-20.0,4.0,-1001.0,15:58:05.252444,192.168.0.112
704,2,43,-3,72,"0,-5,-174",0,0,4,-3,0,0,67,70,73,60,100,-6.79,13,-26.0,7.0,-995.0,15:58:05.354363,192.168.0.112
709,2,43,-3,72,"0,-5,-174",0,0,4,-3,0,0,67,70,73,60,100,-6.72,13,-32.0,0.0,-999.0,15:58:05.497718,192.168.0.112
714,2,43,-3,72,"0,-5,-174",0,0,4,-3,0,0,68,70,73,60,100,-6.76,13,-20.0,1.0,-1003.0,15:58:05.736775,192.168.0.112
719,2,43,-3,72,"0,-5,-174",0,0,4,-3,0,0,68,70,73,60,100,-6.81,13,-21.0,0.0,-995.0,15:58:05.737027,192.168.0.112
724,2,43,-3,72,"0,-5,-174",0,0,4,-3,0,0,68,70,73,60,100,-6.81,14,-12.0,-4.0,-1000.0,15:58:05.858174,192.168.0.112
729,2,43,-3,72,"0,-5,-174",0,0,4,-3,0,0,68,70,73,60,100,-6.81,14,-11.0,-3.0,-994.0,15:58:05.864394,192.168.0.112
734,2,43,-3,72,"0,-5,-174",0,0,4,-3,0,0,68,70,72,60,100,-6.69,14,-15.0,-3.0,-988.0,15:58:05.977869,192.168.0.112
739,2,43,-3,72,"0,-5,-174",0,0,4,-3,0,0,68,70,73,60,100,-6.78,14,-13.0,-4.0,-996.0,15:58:06.097680,192.168.0.112
744,2,43,-3,72,"0,-5,-174",0,0,4,-3,0,0,68,70,72,60,100,-6.77,14,-13.0,-1.0,-1004.0,15:58:06.336977,192.168.0.112
749,2,43,-3,72,"0,-5,-174",0,0,4,-3,0,0,68,70,72,60,100,-6.82,14,-15.0,0.0,-1010.0,15:58:06.337237,192.168.0.112
754,2,43,-3,72,"0,-5,-174",0,0,4,-3,0,0,68,70,72,60,100,-6.79,14,-38.0,7.0,-1006.0,15:58:06.457679,192.168.0.112
759,2,43,-3,72,"0,-5,-174",0,0,4,-3,0,0,68,70,72,60,100,-6.76,14,-18.0,2.0,-999.0,15:58:06.477897,192.168.0.112
764,2,43,-3,72,"0,-5,-174",0,0,4,-3,0,0,68,70,72,60,100,-6.78,14,-8.0,-4.0,-997.0,15:58:06.578268,192.168.0.112
769,2,43,-3,72,"0,-5,-174",0,0,4,-3,0,0,68,70,72,60,100,-6.89,14,-14.0,0.0,-999.0,15:58:06.697833,192.168.0.112
774,2,43,-3,72,"0,-5,-174",0,0,4,-3,0,0,68,70,71,60,100,-6.82,15,-20.0,2.0,-1010.0,15:58:06.818901,192.168.0.112
779,2,43,-3,72,"0,-5,-174",0,0,4,-3,0,0,68,70,72,60,100,-6.88,15,-18.0,-5.0,-997.0,15:58:06.937785,192.168.0.112
784,2,43,-3,72,"0,-5,-174",0,0,4,-3,0,0,68,70,72,60,100,-6.86,15,-24.0,1.0,-1012.0,15:58:07.176812,192.168.0.112
789,2,43,-3,72,"0,-5,-174",0,0,4,-3,0,0,68,70,72,60,100,-6.95,15,-26.0,-6.0,-992.0,15:58:07.177111,192.168.0.112
794,2,43,-3,72,"0,-5,-174",0,0,4,-3,0,0,68,70,71,60,100,-6.81,15,-1.0,-20.0,-996.0,15:58:07.190417,192.168.0.112
799,2,43,-3,72,"0,-5,-174",0,0,4,-3,0,0,68,70,72,60,100,-6.74,15,-8.0,-9.0,-1006.0,15:58:07.297759,192.168.0.112
804,2,43,-3,72,"0,-5,-174",0,0,4,-3,0,0,68,70,72,60,100,-6.8,15,-4.0,-23.0,-1009.0,15:58:07.418112,192.168.0.112
810,2,43,-3,72,"0,-5,-174",0,0,4,-3,0,0,68,70,72,60,100,-6.76,15,-7.0,-29.0,-997.0,15:58:07.537707,192.168.0.112
815,2,43,-3,72,"0,-5,-174",0,1,5,-3,0,0,69,71,72,60,100,-6.79,15,-3.0,-29.0,-998.0,15:58:07.657750,192.168.0.112
820,2,43,-3,72,"0,-5,-174",0,2,5,-3,0,0,69,71,72,60,100,-6.85,15,-11.0,-10.0,-998.0,15:58:07.898313,192.168.0.112
825,2,43,-3,72,"0,-5,-174",0,2,5,-3,0,0,69,71,73,60,100,-6.77,16,13.0,-27.0,-967.0,15:58:07.898564,192.168.0.112
831,2,43,-3,72,"0,-5,-174",0,1,5,-3,0,0,69,71,72,60,100,-6.78,16,-24.0,-10.0,-1000.0,15:58:07.904606,192.168.0.112
835,2,43,-3,72,"0,-5,-174",0,1,5,-3,0,0,69,71,71,60,100,-6.64,16,-9.0,-13.0,-1001.0,15:58:08.017786,192.168.0.112
839,2,43,-3,72,"0,-5,-174",0,0,5,-3,0,0,69,71,71,60,100,-6.76,16,-26.0,-16.0,-982.0,15:58:08.137557,192.168.0.112
844,2,43,-3,72,"0,-5,-174",0,0,5,-3,0,0,69,71,71,60,100,-6.63,16,-61.0,-7.0,-1017.0,15:58:08.159243,192.168.0.112
849,2,43,-3,72,"0,-5,-174",-1,0,5,-3,0,0,69,71,71,60,100,-6.71,16,-17.0,-24.0,-1037.0,15:58:08.261252,192.168.0.112
854,2,43,-3,72,"0,-5,-174",0,1,5,-3,0,0,69,71,72,60,100,-6.75,16,-11.0,-31.0,-1018.0,15:58:08.377858,192.168.0.112
859,2,43,-3,72,"0,-5,-174",0,1,5,-3,0,0,69,71,72,60,100,-6.71,16,-21.0,-31.0,-1010.0,15:58:08.504197,192.168.0.112
864,2,43,-3,72,"0,-5,-174",0,2,5,-2,0,0,68,70,72,60,100,-6.86,16,-20.0,-30.0,-1020.0,15:58:08.617809,192.168.0.112
869,2,43,-3,72,"0,-5,-174",-1,2,4,-3,0,0,68,70,73,60,100,-6.81,16,-16.0,-30.0,-979.0,15:58:08.737769,192.168.0.112
874,2,43,-3,72,"0,-5,-174",0,2,4,-2,0,0,68,70,73,60,100,-6.62,17,-28.0,-1.0,-975.0,15:58:08.857754,192.168.0.112
879,2,43,-3,72,"0,-5,-174",0,2,4,-2,0,0,68,70,73,60,100,-6.74,17,-36.0,1.0,-989.0,15:58:08.873269,192.168.0.112
884,2,43,-3,72,"0,-5,-174",-1,1,4,-2,0,0,68,70,73,60,100,-6.7,17,-7.0,-28.0,-1000.0,15:58:08.978055,192.168.0.112
889,2,43,-3,72,"0,-5,-174",-1,0,4,-3,0,0,68,70,73,60,100,-6.72,17,-9.0,-17.0,-1033.0,15:58:09.099390,192.168.0.112
894,2,43,-3,72,"0,-5,-174",0,1,4,-3,0,0,68,70,73,60,100,-6.76,17,-10.0,-23.0,-977.0,15:58:09.339505,192.168.0.112
899,2,43,-3,72,"0,-5,-174",0,1,4,-3,0,0,68,70,73,60,100,-6.71,17,-19.0,-8.0,-989.0,15:58:09.339900,192.168.0.112
904,2,43,-3,72,"0,-5,-174",0,0,4,-3,0,0,68,70,73,60,100,-6.73,17,-34.0,-16.0,-1010.0,15:58:09.457730,192.168.0.112
909,2,43,-3,72,"0,-5,-174",0,0,4,-3,0,0,68,70,74,60,100,-6.96,17,17.0,-47.0,-1001.0,15:58:09.577785,192.168.0.112
914,2,43,-3,72,"0,-5,-174",0,1,4,-3,0,0,69,71,74,60,100,-6.69,17,-11.0,-20.0,-970.0,15:58:09.587228,192.168.0.112
919,2,43,-3,72,"0,-5,-174",0,1,4,-3,0,0,69,71,74,60,100,-6.76,17,25.0,-30.0,-1001.0,15:58:09.698141,192.168.0.112
924,2,43,-3,72,"0,-5,-174",0,2,4,-3,0,0,69,71,74,60,100,-6.69,18,40.0,-16.0,-949.0,15:58:09.817971,192.168.0.112
929,-1,-100,-100,-100,"0,0,0",1,1,4,-3,0,0,69,71,74,60,100,-6.58,18,31.0,-11.0,-981.0,15:58:09.954385,192.168.0.112
934,-1,-100,-100,-100,"0,0,0",1,1,4,-3,0,0,69,71,73,60,100,-6.78,18,12.0,-3.0,-996.0,15:58:10.057981,192.168.0.112
939,-1,-100,-100,-100,"0,0,0",1,2,5,-3,0,0,69,71,73,60,100,-6.88,18,-5.0,-20.0,-1031.0,15:58:10.177811,192.168.0.112
944,-1,-100,-100,-100,"0,0,0",1,1,5,-3,0,0,69,71,73,60,100,-6.72,18,-8.0,-23.0,-995.0,15:58:10.199223,192.168.0.112
949,-1,-100,-100,-100,"0,0,0",1,1,4,-3,0,0,69,71,73,60,100,-6.78,18,-14.0,-10.0,-993.0,15:58:10.301304,192.168.0.112
954,-1,-100,-100,-100,"0,0,0",0,1,5,-3,0,0,69,71,73,60,100,-6.75,18,-10.0,-21.0,-1010.0,15:58:10.418107,192.168.0.112
959,-1,-100,-100,-100,"0,0,0",0,1,4,-3,0,0,69,71,73,60,100,-6.55,18,-3.0,-28.0,-992.0,15:58:10.656975,192.168.0.112
964,-1,-100,-100,-100,"0,0,0",0,1,4,-3,0,0,67,72,73,60,100,-6.72,18,-3.0,-40.0,-995.0,15:58:10.657345,192.168.0.112
969,-1,-100,-100,-100,"0,0,0",0,1,4,-3,0,0,67,72,73,60,100,-6.68,18,-17.0,-29.0,-982.0,15:58:10.777731,192.168.0.112
974,-1,-100,-100,-100,"0,0,0",0,1,4,-3,0,0,67,72,73,60,100,-6.68,19,-7.0,-44.0,-969.0,15:58:10.897789,192.168.0.112
979,-1,-100,-100,-100,"0,0,0",0,2,4,-3,0,0,67,72,73,60,100,-6.85,19,-5.0,-47.0,-1019.0,15:58:10.913177,192.168.0.112
984,6,-45,1,65,"-4,0,-174",1,2,4,-2,0,0,67,72,73,60,100,-6.85,19,4.0,-57.0,-986.0,15:58:11.018082,192.168.0.112
989,6,-45,1,65,"-4,0,-174",0,2,4,-2,0,0,67,72,73,60,100,-6.81,19,6.0,-50.0,-1041.0,15:58:11.138570,192.168.0.112
995,6,-45,1,65,"-4,0,-174",0,3,4,-2,0,0,67,72,74,60,100,-6.63,19,36.0,-52.0,-930.0,15:58:11.254912,192.168.0.112
1000,6,-45,1,65,"-4,0,-174",0,4,3,-2,0,0,67,72,74,60,100,-6.6,19,25.0,-52.0,-1027.0,15:58:11.381929,192.168.0.112
1005,6,-45,1,65,"-4,0,-174",1,3,4,-2,0,0,67,72,73,60,100,-6.74,19,36.0,-47.0,-926.0,15:58:11.497528,192.168.0.112
1009,6,-45,1,65,"-4,0,-174",1,3,4,-3,0,0,67,72,73,60,100,-6.89,19,45.0,-38.0,-992.0,15:58:11.497826,192.168.0.112
1015,6,-18,5,70,"0,-2,-175",2,3,4,-3,0,0,68,71,73,60,100,-6.86,19,13.0,-52.0,-1006.0,15:58:11.627070,192.168.0.112
1020,6,-18,5,70,"0,-2,-175",2,3,4,-2,0,0,68,71,73,60,100,-6.89,19,17.0,-48.0,-986.0,15:58:11.735139,192.168.0.112
1027,6,-18,5,70,"0,-2,-175",2,3,4,-2,-1,0,68,71,73,60,100,-6.88,20,19.0,-28.0,-1007.0,15:58:11.855385,192.168.0.112
1032,6,-18,5,70,"0,-2,-175",1,3,4,-2,-1,0,68,71,73,60,100,-6.69,20,40.0,-46.0,-962.0,15:58:11.975139,192.168.0.112
1036,6,-18,5,70,"0,-2,-175",1,3,4,-2,-1,0,68,71,73,60,100,-6.7,20,28.0,-40.0,-992.0,15:58:12.105000,192.168.0.112
1041,6,-18,5,70,"0,-2,-175",3,3,4,-2,-1,0,68,71,72,60,100,-6.87,20,23.0,-11.0,-1017.0,15:58:12.214883,192.168.0.112
1047,6,-18,5,70,"0,-2,-175",3,3,5,-2,-1,0,68,71,73,60,100,-6.77,20,51.0,-28.0,-1002.0,15:58:12.239562,192.168.0.112
1052,6,-2,0,71,"-5,-2,-173",5,1,4,-1,-2,0,68,71,73,60,100,-6.81,20,6.0,-27.0,-997.0,15:58:12.340984,192.168.0.112
1057,6,-2,0,71,"-5,-2,-173",4,-3,4,-1,-1,0,68,71,73,60,100,-6.67,20,-9.0,-12.0,-985.0,15:58:12.455223,192.168.0.112
1062,6,-2,0,71,"-5,-2,-173",3,-1,5,0,-1,0,68,71,73,60,100,-6.78,20,18.0,-12.0,-1044.0,15:58:12.575468,192.168.0.112
1067,6,-2,0,71,"-5,-2,-173",2,0,5,0,0,0,69,71,72,60,100,-6.89,20,24.0,-32.0,-989.0,15:58:12.695355,192.168.0.112
1072,6,-2,0,71,"-5,-2,-173",2,0,5,0,0,0,69,71,73,60,100,-6.85,20,29.0,-18.0,-980.0,15:58:12.934320,192.168.0.112
1077,6,-2,0,71,"-5,-2,-173",2,0,5,0,0,0,69,71,73,60,100,-6.83,21,15.0,1.0,-966.0,15:58:12.934978,192.168.0.112
1082,6,15,-7,70,"-3,-2,178",1,0,5,0,0,0,69,71,73,60,100,-6.68,21,4.0,-7.0,-977.0,15:58:12.953045,192.168.0.112
1087,6,15,-7,70,"-3,-2,178",1,0,4,0,0,0,69,71,72,60,100,-6.79,21,10.0,3.0,-1018.0,15:58:13.055420,192.168.0.112
1092,6,15,-7,70,"-3,-2,178",2,0,4,0,0,0,69,71,72,60,100,-6.88,21,19.0,-6.0,-1005.0,15:58:13.177794,192.168.0.112
1094,6,15,-7,70,"-3,-2,178",2,0,4,0,0,0,69,71,73,60,100,-6.83,21,43.0,-9.0,-990.0,15:58:13.297378,192.168.0.112
1099,6,15,-7,70,"-3,-2,178",2,0,4,0,0,0,69,71,73,60,100,-6.8,21,41.0,-17.0,-1014.0,15:58:13.310070,192.168.0.112
1104,6,15,-7,70,"-3,-2,178",2,0,4,0,0,0,69,71,73,60,100,-6.83,21,47.0,-7.0,-988.0,15:58:13.417761,192.168.0.112
1109,6,15,-7,70,"-3,-2,178",2,0,4,0,0,0,69,71,73,60,100,-6.89,21,51.0,-3.0,-996.0,15:58:13.540622,192.168.0.112
1114,6,21,-6,69,"0,-1,178",2,0,4,0,0,0,69,71,73,60,100,-6.82,21,25.0,10.0,-995.0,15:58:13.657601,192.168.0.112
1119,6,21,-6,69,"0,-1,178",2,0,4,0,0,0,69,71,73,60,100,-6.9,21,53.0,-22.0,-1018.0,15:58:13.777648,192.168.0.112
1124,6,21,-6,69,"0,-1,178",2,0,4,0,0,0,69,71,73,60,100,-6.84,22,35.0,-9.0,-996.0,15:58:13.897412,192.168.0.112
1129,6,21,-6,69,"0,-1,178",2,0,4,0,0,0,69,71,72,60,100,-6.79,22,37.0,-12.0,-999.0,15:58:14.017499,192.168.0.112
1134,6,21,-6,69,"0,-1,178",2,0,4,0,0,0,69,71,72,60,100,-6.85,22,33.0,-15.0,-996.0,15:58:14.024178,192.168.0.112
1139,6,21,-6,69,"0,-1,178",2,0,4,0,0,0,69,71,72,60,100,-6.88,22,13.0,-3.0,-1020.0,15:58:14.137687,192.168.0.112
1144,6,24,-7,69,"0,-2,178",2,0,4,0,0,0,69,71,72,60,100,-6.79,22,11.0,-16.0,-991.0,15:58:14.260056,192.168.0.112
1149,6,24,-7,69,"0,-2,178",1,0,4,0,0,0,69,71,72,60,100,-6.74,22,22.0,-8.0,-992.0,15:58:14.377845,192.168.0.112
1154,6,24,-7,69,"0,-2,178",1,0,4,0,0,0,69,71,72,60,100,-6.83,22,34.0,-3.0,-1010.0,15:58:14.497457,192.168.0.112
1159,6,24,-7,69,"0,-2,178",1,0,4,0,0,0,69,71,72,60,100,-6.94,22,21.0,0.0,-1011.0,15:58:14.617436,192.168.0.112
1164,6,24,-7,69,"0,-2,178",1,0,4,0,0,0,68,71,72,60,100,-6.83,22,6.0,-1.0,-983.0,15:58:14.636255,192.168.0.112
1169,6,24,-7,69,"0,-2,178",1,-1,4,0,0,0,68,71,72,60,100,-6.85,22,31.0,-23.0,-1003.0,15:58:14.738293,192.168.0.112
1174,6,24,-7,69,"0,-2,178",1,-1,4,0,0,0,68,71,72,60,100,-6.83,23,14.0,-13.0,-987.0,15:58:14.857666,192.168.0.112
1179,6,21,-7,69,"0,-2,179",1,0,4,0,0,0,68,71,71,60,100,-6.95,23,44.0,-13.0,-993.0,15:58:14.979217,192.168.0.112
1185,6,21,-7,69,"0,-2,179",1,0,4,0,0,0,68,71,71,60,100,-6.99,23,7.0,3.0,-986.0,15:58:15.097951,192.168.0.112
1190,6,21,-7,69,"0,-2,179",1,0,4,0,0,0,68,71,71,60,100,-6.73,23,23.0,8.0,-1003.0,15:58:15.217917,192.168.0.112
1195,6,21,-7,69,"0,-2,179",1,2,4,0,0,0,68,71,71,60,100,-6.79,23,44.0,-5.0,-1026.0,15:58:15.337857,192.168.0.112
1200,6,21,-7,69,"0,-2,179",1,1,4,0,0,0,68,71,71,60,100,-6.72,23,41.0,-8.0,-1006.0,15:58:15.349867,192.168.0.112
1205,6,21,-7,69,"0,-2,179",1,1,4,0,0,0,68,71,71,60,100,-6.81,23,40.0,3.0,-996.0,15:58:15.458074,192.168.0.112
1210,6,18,-6,69,"-2,-2,-176",2,0,4,0,0,0,68,71,70,60,100,-6.68,23,28.0,5.0,-996.0,15:58:15.554001,192.168.0.112
1216,6,18,-6,69,"-2,-2,-176",2,0,4,0,0,0,69,71,70,60,100,-6.79,23,52.0,-14.0,-1002.0,15:58:15.656122,192.168.0.112
1221,6,18,-6,69,"-2,-2,-176",2,0,4,0,0,0,69,71,69,60,100,-6.83,24,14.0,-3.0,-1008.0,15:58:15.758841,192.168.0.112
1227,6,18,-6,69,"-2,-2,-176",2,0,4,0,0,0,69,71,70,60,100,-6.81,24,44.0,-3.0,-1013.0,15:58:15.860892,192.168.0.112
1232,6,18,-6,69,"-2,-2,-176",2,0,4,0,0,0,69,71,70,60,100,-6.84,24,32.0,5.0,-1000.0,15:58:15.962918,192.168.0.112
1237,6,18,-6,69,"-2,-2,-176",2,0,4,0,0,0,69,71,70,60,100,-6.88,24,-2.0,8.0,-1004.0,15:58:16.064948,192.168.0.112
1242,6,18,-6,69,"-2,-2,-176",2,0,4,0,0,0,69,71,70,60,100,-6.88,24,38.0,-9.0,-1004.0,15:58:16.166885,192.168.0.112
1247,6,23,-4,67,"0,-2,180",1,0,4,0,0,0,69,71,70,60,100,-6.91,24,30.0,-7.0,-996.0,15:58:16.269002,192.168.0.112
1252,6,23,-4,67,"0,-2,180",1,0,4,0,0,0,69,71,70,60,100,-6.83,24,23.0,-3.0,-996.0,15:58:16.370870,192.168.0.112
1257,6,23,-4,67,"0,-2,180",1,0,4,0,0,0,69,71,71,60,100,-6.83,24,29.0,0.0,-998.0,15:58:16.499142,192.168.0.112
1262,6,23,-4,67,"0,-2,180",1,0,4,0,0,0,69,71,71,60,100,-6.77,24,47.0,4.0,-1011.0,15:58:16.623702,192.168.0.112
1267,6,23,-4,67,"0,-2,180",2,0,5,0,0,0,69,72,71,60,100,-6.84,24,20.0,5.0,-991.0,15:58:16.739162,192.168.0.112
1272,6,23,-4,67,"0,-2,180",2,0,5,0,0,0,69,72,71,60,100,-6.91,25,27.0,5.0,-1005.0,15:58:16.859739,192.168.0.112
1277,6,23,-4,68,"0,-1,178",1,0,5,0,0,0,69,72,72,60,100,-7.05,25,30.0,1.0,-1006.0,15:58:16.881280,192.168.0.112
1282,6,23,-4,68,"0,-1,178",1,0,5,0,0,0,69,72,73,60,100,-7.06,25,41.0,-18.0,-992.0,15:58:16.982841,192.168.0.112
1286,6,23,-4,68,"0,-1,178",1,0,5,0,0,0,69,72,73,60,100,-6.84,25,27.0,-1.0,-998.0,15:58:17.098907,192.168.0.112
1289,6,23,-4,68,"0,-1,178",1,1,5,0,0,0,69,72,73,60,100,-6.91,25,18.0,2.0,-980.0,15:58:17.216449,192.168.0.112
1294,6,23,-4,68,"0,-1,178",1,1,5,0,0,0,69,72,73,60,100,-6.8,25,38.0,-19.0,-995.0,15:58:17.239200,192.168.0.112
1299,6,23,-4,68,"0,-1,178",1,0,5,0,0,0,69,72,73,60,100,-6.74,25,0.0,-3.0,-1028.0,15:58:17.456055,192.168.0.112
1304,6,23,-4,68,"0,-1,178",1,0,5,0,0,0,69,72,73,60,100,-6.87,25,23.0,0.0,-1004.0,15:58:17.456397,192.168.0.112
1309,6,22,-7,69,"-1,-3,-178",0,0,5,0,0,0,69,72,72,60,100,-6.86,25,26.0,-8.0,-1004.0,15:58:17.694934,192.168.0.112
1314,6,22,-7,69,"-1,-3,-178",1,0,5,0,0,0,69,71,72,60,100,-6.84,25,12.0,13.0,-986.0,15:58:17.817073,192.168.0.112
1319,6,22,-7,69,"-1,-3,-178",1,0,5,0,0,0,69,71,72,60,100,-6.91,26,13.0,17.0,-998.0,15:58:17.817453,192.168.0.112
1324,6,22,-7,69,"-1,-3,-178",1,0,4,0,0,0,69,71,72,60,100,-6.88,26,18.0,11.0,-1003.0,15:58:17.936522,192.168.0.112
1329,6,22,-7,69,"-1,-3,-178",1,0,4,0,0,0,69,71,72,60,100,-6.86,26,24.0,-4.0,-1019.0,15:58:17.952032,192.168.0.112
1334,6,22,-7,69,"-1,-3,-178",1,0,4,0,0,0,69,71,71,60,100,-6.87,26,24.0,4.0,-989.0,15:58:18.176005,192.168.0.112
1339,6,22,-7,69,"-1,-3,-178",1,0,4,0,0,0,69,71,71,60,100,-6.89,26,37.0,-1.0,-1002.0,15:58:18.176339,192.168.0.112
1344,6,21,-4,69,"0,-2,180",1,0,4,0,0,0,69,71,72,60,100,-6.91,26,22.0,12.0,-992.0,15:58:18.296612,192.168.0.112
1349,6,21,-4,69,"0,-2,180",1,0,4,0,0,0,69,71,71,60,100,-6.87,26,24.0,-4.0,-997.0,15:58:18.416598,192.168.0.112
1354,6,21,-4,69,"0,-2,180",1,0,4,0,0,0,69,71,71,60,100,-6.83,26,22.0,7.0,-1005.0,15:58:18.536474,192.168.0.112
1359,6,21,-4,69,"0,-2,180",1,0,4,0,0,0,69,71,71,60,100,-6.92,26,23.0,7.0,-997.0,15:58:18.658001,192.168.0.112
1365,6,21,-4,69,"0,-2,180",1,0,4,0,0,0,70,72,71,60,100,-6.92,26,21.0,2.0,-983.0,15:58:18.665842,192.168.0.112
1369,6,21,-4,69,"0,-2,180",1,0,4,0,0,0,70,72,70,60,100,-6.81,27,17.0,8.0,-993.0,15:58:18.898266,192.168.0.112
1374,6,22,-4,68,"0,-1,177",1,0,4,0,0,0,70,72,70,60,100,-6.95,27,1.0,9.0,-1023.0,15:58:18.898628,192.168.0.112
1379,6,22,-4,68,"0,-1,177",1,0,4,0,0,0,70,72,70,60,100,-6.94,27,9.0,7.0,-986.0,15:58:19.018858,192.168.0.112
1384,6,22,-4,68,"0,-1,177",1,0,4,0,0,0,70,72,70,60,100,-6.89,27,25.0,-5.0,-990.0,15:58:19.138796,192.168.0.112
1389,6,22,-4,68,"0,-1,177",0,0,4,0,0,0,70,72,70,60,100,-6.93,27,9.0,0.0,-1017.0,15:58:19.259061,192.168.0.112
1395,6,22,-4,68,"0,-1,177",0,0,4,0,0,0,70,72,70,60,100,-6.85,27,19.0,-7.0,-1005.0,15:58:19.277838,192.168.0.112
1400,6,22,-4,68,"0,-1,177",0,0,4,0,0,0,70,72,71,60,100,-6.81,27,-15.0,2.0,-991.0,15:58:19.498412,192.168.0.112
1406,6,22,-4,68,"0,-1,177",0,0,4,0,0,0,70,72,70,60,100,-6.87,27,1.0,2.0,-1014.0,15:58:19.498821,192.168.0.112
1412,6,22,-6,67,"0,-2,178",0,0,4,0,0,0,70,72,71,60,100,-6.85,27,9.0,6.0,-1013.0,15:58:19.619400,192.168.0.112
1417,6,22,-6,67,"0,-2,178",0,0,4,0,0,0,70,72,71,60,100,-6.93,27,22.0,-2.0,-995.0,15:58:19.739250,192.168.0.112
1422,6,22,-6,67,"0,-2,178",0,0,4,0,0,0,70,72,71,60,100,-7.02,28,35.0,-10.0,-972.0,15:58:19.860105,192.168.0.112
1427,6,22,-6,67,"0,-2,178",0,0,4,0,0,0,70,72,71,60,100,-6.99,28,8.0,0.0,-982.0,15:58:19.976892,192.168.0.112
1432,6,22,-6,67,"0,-2,178",0,0,4,0,0,0,70,72,71,60,100,-6.86,28,14.0,-7.0,-990.0,15:58:19.991862,192.168.0.112
1437,6,22,-6,67,"0,-2,178",0,0,4,0,0,0,70,72,71,60,100,-6.84,28,-10.0,6.0,-992.0,15:58:20.097174,192.168.0.112
1442,6,5,-2,70,"-10,-2,177",0,0,4,0,0,0,70,72,71,60,100,-6.84,28,3.0,-5.0,-993.0,15:58:20.221197,192.168.0.112
1447,6,5,-2,70,"-10,-2,177",0,0,4,0,0,0,70,72,71,60,100,-6.85,28,14.0,-1.0,-1000.0,15:58:20.337074,192.168.0.112
1449,6,5,-2,70,"-10,-2,177",0,0,4,0,0,0,70,72,71,60,100,-6.82,28,-4.0,9.0,-1006.0,15:58:20.349052,192.168.0.112
1454,6,5,-2,70,"-10,-2,177",0,0,4,0,0,0,70,72,70,60,100,-6.82,28,20.0,0.0,-1009.0,15:58:20.457263,192.168.0.112
1459,6,5,-2,70,"-10,-2,177",0,0,4,0,0,0,70,72,70,60,100,-6.85,28,-2.0,0.0,-993.0,15:58:20.577228,192.168.0.112
1464,6,5,-2,70,"-10,-2,177",0,0,4,0,0,0,69,71,70,60,100,-6.83,28,-5.0,10.0,-1009.0,15:58:20.697501,192.168.0.112
1469,6,16,-5,68,"0,-2,180",0,0,4,0,0,0,69,71,70,60,100,-6.8,29,17.0,-8.0,-994.0,15:58:20.817915,192.168.0.112
1474,6,16,-5,68,"0,-2,180",0,0,4,0,0,0,69,71,70,60,100,-6.82,29,16.0,-3.0,-1002.0,15:58:21.056528,192.168.0.112
1479,6,16,-5,68,"0,-2,180",0,0,4,0,0,0,69,71,70,60,100,-6.88,29,7.0,2.0,-995.0,15:58:21.056922,192.168.0.112
1484,6,16,-5,68,"0,-2,180",0,0,4,0,0,0,69,71,70,60,100,-6.89,29,21.0,-7.0,-1006.0,15:58:21.062673,192.168.0.112
1489,6,16,-5,68,"0,-2,180",0,0,4,0,0,0,69,71,70,60,100,-6.89,29,36.0,-15.0,-1002.0,15:58:21.177852,192.168.0.112
1494,6,16,-5,68,"0,-2,180",0,0,4,0,0,0,69,71,70,60,100,-6.81,29,8.0,5.0,-1002.0,15:58:21.297255,192.168.0.112
1499,6,16,-5,68,"0,-2,180",0,0,4,0,0,0,69,71,70,60,100,-6.85,29,11.0,5.0,-1008.0,15:58:21.416977,192.168.0.112
1504,6,17,-6,68,"-1,-2,180",0,0,4,0,0,0,69,71,70,60,100,-6.85,29,12.0,-5.0,-999.0,15:58:21.537030,192.168.0.112
1509,6,17,-6,68,"-1,-2,180",0,0,4,0,0,0,69,71,70,60,100,-6.87,29,15.0,7.0,-1010.0,15:58:21.659564,192.168.0.112
1514,6,17,-6,68,"-1,-2,180",0,0,4,0,0,0,69,71,70,60,100,-6.89,29,0.0,6.0,-1000.0,15:58:21.674795,192.168.0.112
1519,6,17,-6,68,"-1,-2,180",0,0,4,0,0,0,69,71,70,60,100,-7.0,30,-1.0,9.0,-976.0,15:58:21.778174,192.168.0.112
1524,6,17,-6,68,"-1,-2,180",0,0,4,0,0,0,69,71,70,60,100,-6.93,30,3.0,3.0,-944.0,15:58:21.899126,192.168.0.112
1529,6,17,-6,68,"-1,-2,180",0,0,4,0,0,-1,69,71,69,60,100,-6.95,30,4.0,0.0,-935.0,15:58:22.018871,192.168.0.112
1534,6,17,-7,67,"-1,-2,-178",0,0,4,0,0,-1,69,71,67,60,100,-6.95,30,-10.0,18.0,-910.0,15:58:22.139670,192.168.0.112
1539,6,17,-7,67,"-1,-2,-178",0,0,4,0,0,-2,69,71,64,50,100,-7.04,30,18.0,13.0,-908.0,15:58:22.258868,192.168.0.112
1544,6,17,-7,67,"-1,-2,-178",0,0,4,0,0,-3,69,71,61,50,100,-6.95,30,15.0,6.0,-930.0,15:58:22.378866,192.168.0.112
1549,6,17,-7,67,"-1,-2,-178",0,0,4,0,0,-3,69,71,57,50,100,-7.03,30,2.0,5.0,-975.0,15:58:22.388873,192.168.0.112
1554,6,17,-7,67,"-1,-2,-178",1,0,4,0,0,-4,69,71,53,40,100,-7.1,30,-15.0,14.0,-983.0,15:58:22.499128,192.168.0.112
1559,6,17,-7,67,"-1,-2,-178",0,0,5,0,0,-4,69,71,48,40,100,-7.08,30,13.0,3.0,-973.0,15:58:22.619040,192.168.0.112
1564,6,17,-7,67,"-1,-2,-178",0,0,5,0,0,-4,69,71,44,30,100,-6.85,30,7.0,8.0,-982.0,15:58:22.738910,192.168.0.112
1569,6,21,-5,58,"1,-2,179",0,0,5,0,0,-4,69,71,39,30,100,-6.89,31,15.0,0.0,-984.0,15:58:22.978071,192.168.0.112
1574,6,21,-5,58,"1,-2,179",1,0,5,0,0,-4,69,71,34,20,100,-7.18,31,23.0,47.0,-1067.0,15:58:22.978463,192.168.0.112
1580,6,21,-5,58,"1,-2,179",2,0,5,0,0,-4,69,71,29,20,100,-7.11,31,8.0,59.0,-987.0,15:58:23.000693,192.168.0.112
1586,6,21,-5,58,"1,-2,179",0,-1,5,0,0,-4,69,71,25,20,100,-7.05,31,19.0,36.0,-918.0,15:58:23.102698,192.168.0.112
1591,6,21,-5,58,"1,-2,179",1,0,5,0,0,-4,69,71,21,10,100,-7.14,31,24.0,7.0,-1041.0,15:58:23.219044,192.168.0.112
1596,6,21,-5,58,"1,-2,179",2,-1,4,0,0,-4,69,71,15,10,100,-7.45,31,6.0,-3.0,-1025.0,15:58:23.339827,192.168.0.112
1601,6,21,-5,58,"1,-2,179",1,0,4,0,0,-4,69,71,12,0,100,-7.96,31,-27.0,48.0,-999.0,15:58:23.455941,192.168.0.112
1606,6,21,-5,58,"1,-2,179",0,-2,4,0,0,-4,69,71,10,0,100,-9.14,31,3.0,12.0,-1071.0,15:58:23.575861,192.168.0.112
1611,6,21,-5,58,"1,-2,179",0,-4,4,0,0,-3,69,71,10,0,100,-10.7,31,0.0,-1.0,-1111.0,15:58:23.696961,192.168.0.112
1616,6,21,-5,58,"1,-2,179",0,0,6,0,0,0,70,72,10,0,100,-10.69,31,-106.0,-140.0,-1499.0,15:58:23.716028,192.168.0.112
1621,6,21,-5,58,"1,-2,179",2,-4,10,0,0,0,70,72,10,0,100,-9.72,32,-3.0,6.0,-731.0,15:58:23.935471,192.168.0.112
1626,6,21,-5,58,"1,-2,179",0,0,12,0,0,-1,70,72,10,0,100,-10.42,32,-29.0,117.0,-1984.0,15:58:23.936031,192.168.0.112
1631,6,21,-5,58,"1,-2,179",0,0,13,0,0,0,70,72,10,0,100,-10.09,32,-37.0,38.0,-1117.0,15:58:24.175019,192.168.0.112
1634,6,21,-5,58,"1,-2,179",0,0,13,0,0,0,70,72,10,0,100,-9.25,32,1.0,13.0,-994.0,15:58:24.175244,192.168.0.112
1639,6,21,-5,58,"1,-2,179",0,0,13,0,0,0,70,72,10,0,100,-8.75,32,-11.0,0.0,-997.0,15:58:24.175605,192.168.0.112
1644,6,21,-5,58,"1,-2,179",0,0,13,0,0,0,70,72,10,0,100,-8.69,32,6.0,2.0,-1002.0,15:58:24.296041,192.168.0.112
1649,6,21,-5,58,"1,-2,179",0,0,13,0,0,0,70,72,10,0,100,-8.56,32,5.0,-3.0,-1000.0,15:58:24.415931,192.168.0.112
1656,6,21,-5,58,"1,-2,179",0,0,13,0,0,0,70,72,10,0,100,-8.39,32,3.0,3.0,-1000.0,15:58:24.537796,192.168.0.112
1662,6,21,-5,58,"1,-2,179",0,0,13,0,0,0,70,72,10,0,100,-8.23,32,4.0,1.0,-999.0,15:58:24.656045,192.168.0.112
1667,6,21,-5,58,"1,-2,179",0,0,13,0,0,0,69,72,10,0,100,-8.08,32,3.0,1.0,-997.0,15:58:24.775857,192.168.0.112
1669,6,21,-5,58,"1,-2,179",0,0,13,0,0,0,69,72,10,0,100,-7.98,32,5.0,-4.0,-999.0,15:58:24.786088,192.168.0.112
1674,6,21,-5,58,"1,-2,179",0,0,13,0,0,0,69,72,10,0,100,-7.92,32,2.0,3.0,-999.0,15:58:24.897516,192.168.0.112
