,mid,x,y,z,mpry,pitch,roll,yaw,vgx,vgy,vgz,templ,temph,tof,h,bat,baro,time,agx,agy,agz,timestamp,address
0,-2,-200,-200,-200,"0,0,0",0,0,0,0,0,0,67,70,10,0,87,-53.74,0,-12.0,-15.0,-1000.0,14:13:44.085710,192.168.0.111
5,-2,-200,-200,-200,"0,0,0",0,0,0,0,0,0,67,70,10,0,87,-53.8,0,-11.0,-16.0,-1000.0,14:13:44.187833,192.168.0.111
11,-2,-200,-200,-200,"0,0,0",0,0,0,0,0,0,67,70,10,0,87,-53.75,0,-11.0,-16.0,-999.0,14:13:44.289589,192.168.0.111
16,-2,-200,-200,-200,"0,0,0",0,0,0,0,0,0,67,70,10,0,87,-53.74,0,-12.0,-13.0,-1000.0,14:13:44.391852,192.168.0.111
21,-2,-200,-200,-200,"0,0,0",0,0,0,0,0,0,67,70,10,0,87,-53.74,0,-11.0,-15.0,-1000.0,14:13:44.493979,192.168.0.111
27,-2,-200,-200,-200,"0,0,0",0,0,0,0,0,0,67,70,10,0,87,-53.74,0,-14.0,-19.0,-998.0,14:13:44.596010,192.168.0.111
32,-2,-200,-200,-200,"0,0,0",0,0,0,0,0,0,68,71,10,0,87,-53.74,0,-24.0,-5.0,-1006.0,14:13:44.697904,192.168.0.111
37,-2,-200,-200,-200,"0,0,0",0,0,0,0,0,0,68,71,10,0,87,-53.74,0,5.0,5.0,-1077.0,14:13:44.799794,192.168.0.111
42,-2,-200,-200,-200,"0,0,0",-1,0,0,0,0,1,68,71,10,0,87,-53.74,0,13.0,3.0,-1228.0,14:13:44.901710,192.168.0.111
47,-2,-200,-200,-200,"0,0,0",0,0,0,0,0,4,68,71,10,0,87,-53.74,0,34.0,22.0,-1368.0,14:13:45.004083,192.168.0.111
52,-2,-200,-200,-200,"0,0,0",1,0,0,0,0,7,68,71,12,10,87,-53.74,0,4.0,3.0,-1167.0,14:13:45.105966,192.168.0.111
57,-2,-200,-200,-200,"0,0,0",1,0,0,0,0,8,68,71,21,20,87,-53.39,0,-3.0,-2.0,-1047.0,14:13:45.207689,192.168.0.111
62,-2,-200,-200,-200,"0,0,0",1,0,0,0,0,8,68,71,30,30,87,-53.41,0,-2.0,0.0,-979.0,14:13:45.309593,192.168.0.111
66,-2,-200,-200,-200,"0,0,0",0,0,0,0,0,8,68,71,39,30,87,-53.29,1,1.0,2.0,-925.0,14:13:45.411834,192.168.0.111
72,-2,-200,-200,-200,"0,0,0",0,0,0,0,0,7,68,71,46,40,87,-53.21,1,0.0,10.0,-885.0,14:13:45.515178,192.168.0.111
77,-2,-200,-200,-200,"0,0,0",0,0,0,0,0,6,68,71,50,50,87,-53.18,1,8.0,3.0,-861.0,14:13:45.615809,192.168.0.111
82,-2,-200,-200,-200,"0,0,0",0,0,0,0,0,5,67,70,55,50,87,-53.09,1,10.0,2.0,-875.0,14:13:45.717847,192.168.0.111
88,-2,-200,-200,-200,"0,0,0",0,0,0,0,0,3,67,70,59,60,87,-53.05,1,-4.0,20.0,-867.0,14:13:45.823091,192.168.0.111
92,-2,-200,-200,-200,"0,0,0",0,-1,0,0,0,2,67,70,61,60,87,-52.96,1,-3.0,8.0,-931.0,14:13:45.921845,192.168.0.111
98,-2,-200,-200,-200,"0,0,0",0,-1,0,0,0,2,67,70,63,60,87,-53.04,1,4.0,6.0,-942.0,14:13:46.024347,192.168.0.111
100,-2,-200,-200,-200,"0,0,0",0,-1,0,0,0,1,67,70,64,70,87,-53.03,1,5.0,7.0,-964.0,14:13:46.074959,192.168.0.111
105,-2,-200,-200,-200,"0,0,0",0,0,0,0,0,1,67,70,65,70,87,-53.02,1,5.0,9.0,-987.0,14:13:46.176858,192.168.0.111
110,1,21,-5,60,"0,0,-179",0,0,0,0,0,1,67,70,66,70,87,-52.97,1,1.0,8.0,-1005.0,14:13:46.279205,192.168.0.111
115,1,21,-5,60,"0,0,-179",0,0,0,0,0,1,67,70,67,70,87,-53.0,2,-6.0,13.0,-1010.0,14:13:46.380959,192.168.0.111
120,1,21,-5,60,"0,0,-179",0,0,0,0,0,1,67,70,68,70,87,-53.0,2,0.0,3.0,-1010.0,14:13:46.482882,192.168.0.111
125,1,21,-5,60,"0,0,-179",0,0,0,0,0,1,67,70,70,70,87,-53.02,2,-4.0,10.0,-1012.0,14:13:46.584857,192.168.0.111
130,1,22,-3,68,"0,2,177",0,0,0,0,0,1,68,70,71,70,87,-52.95,2,9.0,8.0,-1009.0,14:13:46.688744,192.168.0.111
136,1,22,-3,68,"0,2,177",0,0,0,0,0,1,68,70,72,70,86,-52.94,2,2.0,4.0,-998.0,14:13:46.789029,192.168.0.111
141,1,22,-3,68,"0,2,177",0,0,0,0,0,1,68,70,74,70,86,-52.98,2,5.0,3.0,-991.0,14:13:46.890970,192.168.0.111
146,1,22,-3,68,"0,2,177",0,0,0,0,0,1,68,70,75,70,86,-52.95,2,6.0,11.0,-992.0,14:13:46.998095,192.168.0.111
151,1,22,-3,68,"0,2,177",0,0,0,0,0,1,68,70,77,80,86,-52.93,2,-7.0,5.0,-982.0,14:13:47.098374,192.168.0.111
157,1,23,-2,73,"0,2,176",0,0,0,0,0,1,68,70,77,80,86,-52.92,2,1.0,12.0,-986.0,14:13:47.196874,192.168.0.111
162,1,23,-2,73,"0,2,176",0,0,0,0,0,0,68,70,78,80,86,-52.92,2,15.0,-2.0,-994.0,14:13:47.298991,192.168.0.111
167,1,23,-2,73,"0,2,176",0,0,0,0,0,0,68,70,78,80,86,-52.96,3,11.0,2.0,-987.0,14:13:47.402428,192.168.0.111
172,1,23,-2,73,"0,2,176",0,0,0,0,0,0,68,70,79,80,86,-52.84,3,6.0,9.0,-987.0,14:13:47.503344,192.168.0.111
177,1,23,-2,73,"0,2,176",0,0,0,0,0,0,68,70,80,80,86,-52.92,3,8.0,6.0,-990.0,14:13:47.604975,192.168.0.111
182,1,24,-7,78,"0,1,179",0,0,0,0,0,0,67,70,80,80,86,-52.92,3,7.0,3.0,-995.0,14:13:47.708534,192.168.0.111
187,1,24,-7,78,"0,1,179",0,0,0,0,0,0,67,70,81,80,86,-52.88,3,12.0,-1.0,-993.0,14:13:47.809091,192.168.0.111
192,1,24,-7,78,"0,1,179",0,0,0,0,0,0,67,70,82,80,86,-52.79,3,8.0,2.0,-998.0,14:13:47.910684,192.168.0.111
197,1,24,-7,78,"0,1,179",0,0,0,0,0,0,67,70,82,80,86,-52.86,3,20.0,0.0,-1000.0,14:13:48.012879,192.168.0.111
202,1,23,-3,83,"-1,1,177",0,0,0,0,0,0,67,70,82,80,86,-52.82,3,-5.0,13.0,-985.0,14:13:48.114724,192.168.0.111
207,1,23,-3,83,"-1,1,177",0,0,0,0,0,0,67,70,82,80,86,-52.88,3,5.0,3.0,-976.0,14:13:48.216835,192.168.0.111
212,1,23,-3,83,"-1,1,177",0,0,0,0,0,0,67,70,82,80,86,-52.85,3,13.0,10.0,-983.0,14:13:48.318595,192.168.0.111
217,1,23,-3,83,"-1,1,177",0,0,0,0,0,0,67,70,83,80,86,-52.87,4,3.0,0.0,-980.0,14:13:48.420668,192.168.0.111
222,1,23,-3,83,"-1,1,177",0,0,0,0,0,0,67,70,83,80,86,-52.84,4,3.0,2.0,-980.0,14:13:48.522963,192.168.0.111
227,1,22,-3,86,"-2,2,177",0,0,0,0,0,0,67,70,82,80,86,-52.84,4,16.0,4.0,-990.0,14:13:48.625065,192.168.0.111
232,1,22,-3,86,"-2,2,177",0,0,0,0,0,0,68,71,82,80,86,-52.85,4,12.0,10.0,-1002.0,14:13:48.726761,192.168.0.111
237,1,22,-3,86,"-2,2,177",0,0,0,0,0,0,68,71,82,80,86,-52.82,4,7.0,2.0,-982.0,14:13:48.828824,192.168.0.111
242,1,22,-3,86,"-2,2,177",1,0,0,0,0,0,68,71,82,80,86,-52.89,4,5.0,7.0,-993.0,14:13:48.931073,192.168.0.111
248,1,23,-4,86,"-2,1,178",1,0,0,0,0,0,68,71,82,80,86,-52.82,4,14.0,4.0,-991.0,14:13:49.043561,192.168.0.111
252,1,23,-4,86,"-2,1,178",0,0,0,0,0,0,68,71,82,80,86,-52.83,4,16.0,3.0,-983.0,14:13:49.135485,192.168.0.111
257,1,23,-4,86,"-2,1,178",0,0,0,0,0,0,68,71,82,80,86,-52.88,4,11.0,12.0,-996.0,14:13:49.236815,192.168.0.111
263,1,23,-4,86,"-2,1,178",0,0,0,0,0,0,68,71,83,80,86,-52.81,4,3.0,14.0,-989.0,14:13:49.340611,192.168.0.111
268,1,23,-4,86,"-2,1,178",0,0,0,0,0,0,68,71,83,80,86,-52.89,5,17.0,2.0,-990.0,14:13:49.440779,192.168.0.111
273,1,26,-8,84,"0,0,-179",0,0,0,0,0,0,68,71,82,80,86,-52.92,5,10.0,5.0,-992.0,14:13:49.542818,192.168.0.111
278,1,26,-8,84,"0,0,-179",0,0,0,0,0,0,68,71,83,80,86,-52.83,5,12.0,0.0,-981.0,14:13:49.644813,192.168.0.111
282,1,26,-8,84,"0,0,-179",0,0,0,0,0,0,68,71,82,80,86,-52.91,5,8.0,3.0,-999.0,14:13:49.746902,192.168.0.111
288,1,26,-8,84,"0,0,-179",0,0,0,0,0,0,68,71,83,80,86,-52.82,5,0.0,4.0,-993.0,14:13:49.848636,192.168.0.111
293,1,24,-3,85,"-1,1,177",0,0,0,0,0,0,68,71,82,80,86,-52.9,5,4.0,2.0,-999.0,14:13:49.950648,192.168.0.111
298,1,24,-3,85,"-1,1,177",0,0,0,0,0,0,68,71,82,80,86,-52.92,5,15.0,7.0,-1009.0,14:13:50.052735,192.168.0.111
301,1,24,-3,85,"-1,1,177",0,0,0,0,0,0,68,71,82,80,86,-52.84,5,0.0,7.0,-1001.0,14:13:50.103757,192.168.0.111
306,1,24,-3,85,"-1,1,177",0,0,0,0,0,0,68,71,82,80,86,-52.88,5,11.0,6.0,-999.0,14:13:50.208414,192.168.0.111
311,1,24,-3,85,"-1,1,177",0,0,0,0,0,0,68,71,82,80,86,-52.86,5,6.0,0.0,-1002.0,14:13:50.307755,192.168.0.111
316,1,24,-2,85,"0,2,177",0,0,0,0,0,0,68,71,82,80,86,-52.84,6,4.0,0.0,-1004.0,14:13:50.409547,192.168.0.111
321,1,24,-2,85,"0,2,177",0,0,0,0,0,0,68,71,82,80,86,-52.81,6,7.0,-2.0,-996.0,14:13:50.511522,192.168.0.111
326,1,24,-2,85,"0,2,177",0,0,0,0,0,0,68,71,82,80,86,-52.9,6,-1.0,14.0,-1005.0,14:13:50.613795,192.168.0.111
331,1,24,-2,85,"0,2,177",0,0,0,0,0,0,68,71,83,80,86,-52.9,6,6.0,1.0,-987.0,14:13:50.715668,192.168.0.111
337,1,21,-1,85,"-1,2,176",0,0,0,0,0,0,68,71,83,80,86,-52.93,6,4.0,-5.0,-984.0,14:13:50.817630,192.168.0.111
342,1,21,-1,85,"-1,2,176",0,0,0,0,0,0,68,71,83,80,86,-52.9,6,9.0,-5.0,-995.0,14:13:50.919657,192.168.0.111
347,1,21,-1,85,"-1,2,176",0,0,0,0,0,0,68,71,83,80,86,-52.87,6,7.0,4.0,-1001.0,14:13:51.021822,192.168.0.111
352,1,21,-1,85,"-1,2,176",0,0,0,0,0,0,68,71,83,80,86,-52.85,6,-5.0,9.0,-992.0,14:13:51.124486,192.168.0.111
357,1,21,-1,85,"-1,2,176",0,0,0,0,0,0,68,71,83,80,86,-52.86,6,7.0,0.0,-999.0,14:13:51.227469,192.168.0.111
362,1,20,-1,86,"-2,2,176",0,0,0,0,0,0,68,71,83,80,86,-52.86,6,11.0,3.0,-993.0,14:13:51.327889,192.168.0.111
367,1,20,-1,86,"-2,2,176",0,0,0,0,0,0,68,71,83,80,86,-52.85,7,11.0,-7.0,-986.0,14:13:51.429619,192.168.0.111
372,1,20,-1,86,"-2,2,176",0,0,0,0,0,0,68,71,83,80,86,-52.86,7,4.0,2.0,-989.0,14:13:51.531576,192.168.0.111
377,1,20,-1,86,"-2,2,176",0,0,0,0,0,0,68,71,83,80,86,-52.89,7,9.0,-3.0,-996.0,14:13:51.633527,192.168.0.111
382,1,20,-1,86,"-2,2,176",0,0,0,0,0,0,68,70,83,80,86,-52.84,7,5.0,8.0,-1001.0,14:13:51.735954,192.168.0.111
387,1,19,-4,86,"-2,1,178",0,0,0,0,0,0,68,70,84,80,86,-52.87,7,11.0,5.0,-1001.0,14:13:51.837567,192.168.0.111
392,1,19,-4,86,"-2,1,178",0,0,0,0,0,0,68,70,84,80,86,-52.83,7,2.0,0.0,-990.0,14:13:51.939503,192.168.0.111
397,1,19,-4,86,"-2,1,178",0,0,0,0,0,0,68,70,84,80,86,-52.9,7,8.0,7.0,-994.0,14:13:52.041544,192.168.0.111
402,1,19,-4,86,"-2,1,178",0,0,0,0,0,0,68,70,84,80,86,-52.85,7,-11.0,1.0,-1004.0,14:13:52.143577,192.168.0.111
407,1,21,-1,86,"-1,2,176",0,0,0,0,0,0,68,70,84,80,86,-52.83,7,4.0,5.0,-992.0,14:13:52.246217,192.168.0.111
412,1,21,-1,86,"-1,2,176",0,0,0,0,0,0,68,70,84,80,86,-52.84,7,6.0,9.0,-994.0,14:13:52.347509,192.168.0.111
417,1,21,-1,86,"-1,2,176",0,0,0,0,0,0,68,70,85,80,86,-52.84,8,10.0,10.0,-1001.0,14:13:52.451916,192.168.0.111
422,1,21,-1,86,"-1,2,176",0,0,0,0,0,0,68,70,85,80,86,-52.9,8,-7.0,4.0,-990.0,14:13:52.553753,192.168.0.111
427,1,21,-1,86,"-1,2,176",0,0,0,0,0,0,68,70,85,80,86,-52.8,8,0.0,5.0,-998.0,14:13:52.654029,192.168.0.111
432,1,18,-3,88,"-3,2,177",0,0,0,0,0,0,68,71,85,80,86,-52.79,8,4.0,3.0,-985.0,14:13:52.756832,192.168.0.111
437,1,18,-3,88,"-3,2,177",0,0,0,0,0,0,68,71,84,80,86,-52.79,8,7.0,2.0,-1001.0,14:13:52.857771,192.168.0.111
442,1,18,-3,88,"-3,2,177",0,0,0,0,0,0,68,71,84,80,86,-52.85,8,9.0,4.0,-932.0,14:13:52.959712,192.168.0.111
447,1,18,-3,88,"-3,2,177",0,0,0,0,0,0,68,71,83,80,86,-52.82,8,-1.0,9.0,-944.0,14:13:53.061794,192.168.0.111
452,1,22,-1,87,"-1,2,176",0,0,0,0,0,-1,68,71,83,80,86,-52.85,8,4.0,-2.0,-975.0,14:13:53.163456,192.168.0.111
457,1,22,-1,87,"-1,2,176",0,0,0,0,0,-1,68,71,81,80,86,-52.87,8,8.0,0.0,-994.0,14:13:53.265512,192.168.0.111
463,1,22,-1,87,"-1,2,176",0,0,0,0,0,-1,68,71,80,80,86,-52.91,8,3.0,6.0,-997.0,14:13:53.368820,192.168.0.111
468,1,22,-1,87,"-1,2,176",0,0,0,0,0,-1,68,71,79,80,86,-52.86,9,-1.0,7.0,-1000.0,14:13:53.469537,192.168.0.111
473,1,22,-1,87,"-1,2,176",0,0,0,0,0,-1,68,71,78,80,86,-52.83,9,3.0,0.0,-1011.0,14:13:53.571561,192.168.0.111
478,1,22,-1,87,"-1,2,176",0,0,0,0,0,-1,68,71,77,80,86,-52.92,9,14.0,5.0,-1022.0,14:13:53.673710,192.168.0.111
483,1,22,-1,87,"-1,2,176",0,0,0,0,0,-1,69,71,76,70,86,-52.94,9,7.0,0.0,-1001.0,14:13:53.775922,192.168.0.111
488,1,21,-2,83,"-1,2,177",0,0,0,0,0,-1,69,71,75,70,86,-52.93,9,0.0,2.0,-1008.0,14:13:53.880176,192.168.0.111
493,1,21,-2,83,"-1,2,177",0,0,0,0,0,0,69,71,74,70,86,-52.94,9,-2.0,7.0,-1026.0,14:13:53.979482,192.168.0.111
498,1,21,-2,83,"-1,2,177",0,0,0,0,0,0,69,71,73,70,86,-53.01,9,7.0,2.0,-1019.0,14:13:54.082478,192.168.0.111
503,1,21,-2,83,"-1,2,177",0,0,0,0,0,0,69,71,73,70,86,-52.94,9,6.0,-7.0,-1005.0,14:13:54.183288,192.168.0.111
506,1,21,-2,83,"-1,2,177",0,0,0,0,0,0,69,71,73,70,86,-52.92,9,-3.0,3.0,-1012.0,14:13:54.234592,192.168.0.111
511,1,21,-2,83,"-1,2,177",-1,0,0,0,0,0,69,71,71,70,86,-53.0,9,5.0,2.0,-1008.0,14:13:54.336731,192.168.0.111
516,1,21,-2,83,"-1,2,177",-6,0,0,0,0,0,69,71,74,70,86,-52.91,10,0.0,5.0,-1000.0,14:13:54.439943,192.168.0.111
521,1,23,-8,74,"0,0,-179",-8,0,0,-1,0,0,69,71,74,70,86,-52.96,10,-13.0,13.0,-1008.0,14:13:54.540766,192.168.0.111
526,1,23,-8,74,"0,0,-179",-8,0,0,-3,0,0,69,71,73,70,86,-52.84,10,-22.0,1.0,-1011.0,14:13:54.643878,192.168.0.111
531,1,23,-8,74,"0,0,-179",-8,0,0,-4,0,0,69,70,74,70,86,-52.9,10,-11.0,1.0,-1005.0,14:13:54.744769,192.168.0.111
536,1,23,-8,74,"0,0,-179",-7,0,0,-5,0,0,69,70,74,70,86,-52.93,10,-37.0,9.0,-1017.0,14:13:54.846526,192.168.0.111
541,1,23,-8,74,"0,0,-179",-7,0,0,-6,0,0,69,70,74,70,86,-52.94,10,-39.0,9.0,-1002.0,14:13:54.948722,192.168.0.111
547,1,23,-8,74,"0,0,-179",-6,0,0,-7,0,0,69,70,74,70,86,-53.07,10,-40.0,2.0,-998.0,14:13:55.052374,192.168.0.111
552,1,23,-8,74,"0,0,-179",-6,0,0,-7,0,0,69,70,74,70,86,-52.99,10,-50.0,17.0,-995.0,14:13:55.152502,192.168.0.111
557,1,33,-5,75,"7,1,178",-5,0,0,-8,0,0,69,70,74,70,86,-53.0,10,-64.0,19.0,-995.0,14:13:55.254324,192.168.0.111
562,1,33,-5,75,"7,1,178",-5,-1,0,-8,0,0,69,70,73,70,86,-53.06,10,-55.0,23.0,-994.0,14:13:55.356725,192.168.0.111
567,1,33,-5,75,"7,1,178",-5,-1,0,-8,0,0,69,70,73,70,86,-53.07,11,-63.0,19.0,-998.0,14:13:55.458597,192.168.0.111
572,1,33,-5,75,"7,1,178",-4,-1,0,-8,0,0,69,70,73,70,86,-53.06,11,-66.0,26.0,-993.0,14:13:55.560679,192.168.0.111
577,1,33,-5,75,"7,1,178",-4,-1,0,-9,0,0,69,70,73,70,86,-53.11,11,-65.0,18.0,-1001.0,14:13:55.662567,192.168.0.111
582,1,33,-5,75,"7,1,178",-4,-1,0,-9,0,0,68,71,72,70,86,-53.06,11,-63.0,20.0,-1000.0,14:13:55.764291,192.168.0.111
587,1,33,-5,75,"7,1,178",-4,-1,0,-9,0,0,68,71,72,70,86,-53.14,11,-81.0,30.0,-1000.0,14:13:55.866750,192.168.0.111
591,1,33,-5,75,"7,1,178",-4,-1,0,-9,0,0,68,71,73,70,86,-53.18,11,-74.0,18.0,-996.0,14:13:55.968889,192.168.0.111
596,1,33,-5,75,"7,1,178",-4,-2,0,-9,0,0,68,71,73,70,86,-53.03,11,-75.0,13.0,-987.0,14:13:56.070819,192.168.0.111
601,1,33,-5,75,"7,1,178",-3,-3,0,-9,0,0,68,71,73,70,86,-53.15,11,-82.0,23.0,-986.0,14:13:56.172725,192.168.0.111
607,1,33,-5,75,"7,1,178",-1,-4,0,-9,0,0,68,71,73,70,86,-53.15,11,-83.0,22.0,-1003.0,14:13:56.275781,192.168.0.111
611,1,33,-5,75,"7,1,178",1,-3,0,-8,0,0,68,71,73,70,86,-53.13,12,-74.0,22.0,-996.0,14:13:56.376747,192.168.0.111
616,1,33,-5,75,"7,1,178",3,-2,0,-7,0,0,68,71,74,70,86,-53.09,12,-88.0,28.0,-1010.0,14:13:56.479128,192.168.0.111
622,1,33,-5,75,"7,1,178",4,-1,0,-6,0,0,68,71,74,70,86,-53.11,12,-68.0,30.0,-1002.0,14:13:56.581497,192.168.0.111
627,1,33,-5,75,"7,1,178",4,-1,0,-5,0,0,68,71,73,70,86,-53.09,12,-56.0,35.0,-1017.0,14:13:56.683950,192.168.0.111
632,1,33,-5,75,"7,1,178",3,-1,0,-4,0,0,68,71,73,70,86,-53.03,12,-48.0,38.0,-1017.0,14:13:56.786320,192.168.0.111
637,1,33,-5,75,"7,1,178",2,-1,0,-3,0,0,68,71,73,70,86,-52.98,12,-36.0,9.0,-1024.0,14:13:56.888655,192.168.0.111
642,1,33,-5,75,"7,1,178",1,0,0,-3,0,0,68,71,73,70,86,-53.07,12,-32.0,20.0,-981.0,14:13:56.991018,192.168.0.111
647,1,33,-5,75,"7,1,178",2,0,0,-2,0,0,68,71,73,70,86,-52.98,12,-37.0,15.0,-1000.0,14:13:57.090704,192.168.0.111
652,1,33,-5,75,"7,1,178",3,0,0,-1,0,0,68,71,73,70,86,-52.96,12,-27.0,22.0,-994.0,14:13:57.192621,192.168.0.111
657,5,13,-13,74,"0,0,177",3,-1,0,-1,0,0,68,71,73,70,86,-52.88,12,-26.0,16.0,-997.0,14:13:57.294552,192.168.0.111
662,5,13,-13,74,"0,0,177",1,-1,0,0,0,0,68,71,73,70,86,-52.92,13,-12.0,13.0,-1002.0,14:13:57.396916,192.168.0.111
667,5,13,-13,74,"0,0,177",0,-1,0,0,0,0,68,71,73,70,86,-52.89,13,-14.0,16.0,-1000.0,14:13:57.498810,192.168.0.111
671,5,13,-13,74,"0,0,177",0,-1,0,0,0,0,68,71,73,70,86,-52.87,13,-3.0,14.0,-997.0,14:13:57.600544,192.168.0.111
677,5,13,-13,74,"0,0,177",0,-1,0,0,0,0,68,71,73,70,86,-52.94,13,-2.0,15.0,-996.0,14:13:57.709606,192.168.0.111
682,5,13,-13,74,"0,0,177",0,-1,0,0,0,0,69,71,73,70,86,-52.95,13,-6.0,24.0,-1008.0,14:13:57.804465,192.168.0.111
687,5,13,-13,74,"0,0,177",0,-1,0,0,0,0,69,71,73,70,86,-52.9,13,-2.0,11.0,-991.0,14:13:57.906595,192.168.0.111
693,5,38,-12,72,"3,0,177",0,-1,0,0,0,0,69,71,73,70,86,-52.86,13,-3.0,17.0,-1004.0,14:13:58.008535,192.168.0.111
698,5,38,-12,72,"3,0,177",1,-2,0,0,0,0,69,71,73,70,86,-52.82,13,-6.0,12.0,-983.0,14:13:58.110446,192.168.0.111
701,5,38,-12,72,"3,0,177",4,-4,0,0,0,0,69,71,74,70,86,-52.88,13,-7.0,4.0,-1007.0,14:13:58.161202,192.168.0.111
706,5,38,-12,72,"3,0,177",3,-3,0,1,0,0,69,71,73,70,86,-52.87,13,9.0,10.0,-989.0,14:13:58.263452,192.168.0.111
711,5,38,-12,72,"3,0,177",1,-2,0,1,1,0,69,71,73,70,86,-52.91,14,9.0,23.0,-1002.0,14:13:58.365371,192.168.0.111
716,5,38,-12,72,"3,0,177",0,-1,0,1,1,0,69,71,72,70,86,-52.86,14,10.0,31.0,-995.0,14:13:58.467706,192.168.0.111
721,5,38,-12,72,"3,0,177",0,-1,0,1,0,0,69,71,71,70,86,-52.89,14,10.0,34.0,-1005.0,14:13:58.571055,192.168.0.111
726,5,38,-12,72,"3,0,177",0,-1,0,1,0,0,69,71,71,70,86,-52.94,14,17.0,23.0,-998.0,14:13:58.671570,192.168.0.111
731,5,38,-12,72,"3,0,177",0,-1,0,1,0,0,69,71,71,70,86,-52.94,14,11.0,27.0,-995.0,14:13:58.773452,192.168.0.111
736,5,38,-12,72,"3,0,177",0,-1,0,1,0,0,69,71,70,70,86,-52.88,14,5.0,31.0,-1003.0,14:13:58.875539,192.168.0.111
741,5,38,-12,72,"3,0,177",0,-1,0,1,0,0,69,71,70,70,86,-52.89,14,13.0,27.0,-1005.0,14:13:58.977657,192.168.0.111
746,5,38,-12,72,"3,0,177",0,-1,0,1,0,0,69,71,70,70,86,-52.91,14,7.0,26.0,-1006.0,14:13:59.079352,192.168.0.111
751,5,38,-12,72,"3,0,177",1,-1,0,1,0,0,69,71,70,70,86,-52.94,14,14.0,27.0,-1008.0,14:13:59.181456,192.168.0.111
756,5,35,-15,68,"4,0,179",0,-1,0,1,0,0,69,71,69,70,86,-52.94,14,11.0,28.0,-1004.0,14:13:59.283225,192.168.0.111
761,5,35,-15,68,"4,0,179",0,-1,0,1,0,0,69,71,69,70,86,-52.92,15,12.0,30.0,-999.0,14:13:59.385324,192.168.0.111
766,5,35,-15,68,"4,0,179",0,-1,0,1,0,0,69,71,69,70,86,-52.92,15,13.0,27.0,-1004.0,14:13:59.491770,192.168.0.111
771,5,35,-15,68,"4,0,179",0,-1,0,0,0,0,69,71,69,70,86,-52.92,15,1.0,22.0,-993.0,14:13:59.599569,192.168.0.111
776,5,35,-15,68,"4,0,179",0,0,0,0,0,0,69,71,70,70,86,-52.97,15,3.0,23.0,-1003.0,14:13:59.691451,192.168.0.111
781,5,35,-15,68,"4,0,179",0,0,0,0,0,0,68,71,69,70,86,-52.92,15,11.0,18.0,-1003.0,14:13:59.794765,192.168.0.111
786,5,35,-15,68,"4,0,179",0,0,0,0,0,0,68,71,69,70,86,-52.91,15,4.0,18.0,-1007.0,14:13:59.895706,192.168.0.111
791,5,26,-6,69,"3,0,177",-1,0,0,0,0,0,68,71,69,70,86,-52.85,15,5.0,22.0,-995.0,14:13:59.997329,192.168.0.111
797,5,26,-6,69,"3,0,177",0,-1,0,0,0,0,68,71,69,70,86,-52.86,15,1.0,24.0,-1004.0,14:14:00.099250,192.168.0.111
802,5,26,-6,69,"3,0,177",0,-1,0,0,0,0,68,71,69,70,86,-52.86,15,0.0,18.0,-998.0,14:14:00.200773,192.168.0.111
807,5,26,-6,69,"3,0,177",0,-1,0,0,0,0,68,71,69,70,86,-52.95,15,3.0,13.0,-1005.0,14:14:00.303208,192.168.0.111
811,5,26,-6,69,"3,0,177",0,-1,0,0,0,0,68,71,69,70,86,-52.86,16,-12.0,24.0,-996.0,14:14:00.405400,192.168.0.111
817,5,26,-6,69,"3,0,177",0,-1,0,0,0,0,68,71,70,70,86,-52.81,16,7.0,4.0,-1006.0,14:14:00.510094,192.168.0.111
822,5,26,-6,69,"3,0,177",0,-1,0,0,0,0,68,71,70,70,86,-52.9,16,-1.0,11.0,-993.0,14:14:00.609340,192.168.0.111
827,5,22,-5,69,"3,0,178",0,-1,0,0,0,0,68,71,69,70,86,-52.84,16,0.0,16.0,-987.0,14:14:00.711258,192.168.0.111
832,5,22,-5,69,"3,0,178",0,-1,0,0,0,0,68,71,70,70,86,-52.82,16,1.0,13.0,-998.0,14:14:00.813356,192.168.0.111
837,5,22,-5,69,"3,0,178",0,-1,0,0,0,0,68,71,69,70,86,-52.83,16,-12.0,26.0,-996.0,14:14:00.915310,192.168.0.111
841,5,22,-5,69,"3,0,178",0,-1,0,0,0,0,68,71,70,70,86,-52.88,16,7.0,19.0,-991.0,14:14:01.017813,192.168.0.111
847,5,22,-5,69,"3,0,178",0,-1,0,0,0,0,68,71,71,70,86,-52.83,16,10.0,16.0,-994.0,14:14:01.119443,192.168.0.111
852,5,22,-5,69,"3,0,178",0,-1,0,0,0,0,68,71,70,70,86,-52.86,16,13.0,22.0,-1002.0,14:14:01.221236,192.168.0.111
857,5,26,-11,68,"4,-1,-178",0,-1,0,0,0,0,68,71,70,70,86,-52.9,16,17.0,2.0,-964.0,14:14:01.323260,192.168.0.111
863,5,26,-11,68,"4,-1,-178",0,-1,0,0,0,0,68,71,70,70,86,-52.86,17,8.0,18.0,-950.0,14:14:01.425334,192.168.0.111
868,5,26,-11,68,"4,-1,-178",0,-1,0,0,0,0,68,71,70,70,86,-52.94,17,1.0,25.0,-933.0,14:14:01.527353,192.168.0.111
873,5,26,-11,68,"4,-1,-178",0,-1,0,0,0,-1,68,71,68,70,86,-52.95,17,-2.0,26.0,-904.0,14:14:01.629195,192.168.0.111
878,5,26,-11,68,"4,-1,-178",0,-1,0,0,0,-2,68,71,66,70,86,-52.88,17,-4.0,35.0,-899.0,14:14:01.731429,192.168.0.111
883,5,26,-11,68,"4,-1,-178",0,-1,0,0,0,-3,69,71,63,60,86,-52.94,17,-3.0,24.0,-922.0,14:14:01.833376,192.168.0.111
888,5,26,-11,68,"4,-1,-178",0,-1,0,0,0,-3,69,71,59,60,86,-52.98,17,16.0,13.0,-967.0,14:14:01.935221,192.168.0.111
893,5,27,-10,69,"3,0,179",0,-1,0,0,0,-4,69,71,56,60,86,-53.03,17,9.0,12.0,-973.0,14:14:02.037257,192.168.0.111
898,5,27,-10,69,"3,0,179",1,-1,0,0,0,-4,69,71,51,50,86,-53.1,17,29.0,21.0,-991.0,14:14:02.139261,192.168.0.111
903,5,27,-10,69,"3,0,179",1,-1,0,0,0,-4,69,71,47,50,86,-53.12,17,5.0,21.0,-1010.0,14:14:02.241104,192.168.0.111
908,5,27,-10,69,"3,0,179",1,-1,0,0,0,-4,69,71,42,40,86,-53.19,17,18.0,15.0,-982.0,14:14:02.343236,192.168.0.111
913,5,27,-10,69,"3,0,179",0,-1,0,0,0,-4,69,71,37,40,86,-53.25,18,4.0,26.0,-1000.0,14:14:02.445334,192.168.0.111
914,5,27,-10,69,"3,0,179",0,-1,0,0,0,-4,69,71,33,30,86,-53.2,18,3.0,35.0,-987.0,14:14:02.496490,192.168.0.111
919,5,27,-10,69,"3,0,179",0,-1,0,0,0,-4,69,71,27,30,86,-53.32,18,20.0,20.0,-1005.0,14:14:02.598522,192.168.0.111
924,5,27,-10,69,"3,0,179",0,-1,0,0,0,-4,69,71,23,20,86,-53.41,18,18.0,19.0,-1000.0,14:14:02.702300,192.168.0.111
929,5,27,-10,69,"3,0,179",0,-1,0,0,0,-4,69,71,19,20,86,-53.51,18,22.0,17.0,-994.0,14:14:02.802632,192.168.0.111
934,5,27,-10,69,"3,0,179",1,-1,0,0,0,-4,69,71,13,20,86,-53.7,18,20.0,26.0,-1020.0,14:14:02.904406,192.168.0.111
939,5,27,-10,69,"3,0,179",1,-1,0,0,0,-4,69,71,10,10,86,-54.19,18,9.0,28.0,-1037.0,14:14:03.006536,192.168.0.111
945,5,27,-10,69,"3,0,179",1,-1,0,0,0,-3,69,71,10,10,86,-54.88,18,4.0,36.0,-1060.0,14:14:03.110460,192.168.0.111
950,5,27,-10,69,"3,0,179",0,-2,0,0,0,-3,69,71,10,0,86,-56.06,18,-1.0,17.0,-1047.0,14:14:03.210496,192.168.0.111
955,5,27,-10,69,"3,0,179",0,-1,0,0,0,-2,69,71,10,0,86,-57.23,18,59.0,-188.0,-1660.0,14:14:03.312437,192.168.0.111
960,5,27,-10,69,"3,0,179",0,-3,0,0,0,0,69,71,10,0,86,-55.82,19,-10.0,13.0,-675.0,14:14:03.419962,192.168.0.111
965,5,27,-10,69,"3,0,179",2,-2,0,0,0,-1,69,71,10,0,86,-56.02,19,5.0,-16.0,-734.0,14:14:03.516317,192.168.0.111
970,5,27,-10,69,"3,0,179",1,-2,0,0,0,0,69,71,10,0,86,-55.86,19,-10.0,13.0,-675.0,14:14:03.618527,192.168.0.111
976,5,27,-10,69,"3,0,179",0,-1,0,0,0,0,69,71,10,0,86,-55.23,19,5.0,-16.0,-734.0,14:14:03.720390,192.168.0.111
981,5,27,-10,69,"3,0,179",0,-1,0,0,0,0,68,71,10,0,86,-54.64,19,0.0,8.0,-1003.0,14:14:03.822540,192.168.0.111
986,5,27,-10,69,"3,0,179",0,-1,0,0,0,0,68,71,10,0,86,-54.5,19,9.0,10.0,-999.0,14:14:03.928397,192.168.0.111
992,5,27,-10,69,"3,0,179",0,-1,0,0,0,0,68,71,10,0,86,-54.41,19,2.0,14.0,-997.0,14:14:04.026433,192.168.0.111
997,5,27,-10,69,"3,0,179",0,-1,0,0,0,0,68,71,10,0,86,-54.38,19,3.0,15.0,-997.0,14:14:04.128343,192.168.0.111
1002,5,27,-10,69,"3,0,179",0,-1,0,0,0,0,68,71,10,0,86,-54.22,19,3.0,14.0,-1002.0,14:14:04.230463,192.168.0.111
1007,5,27,-10,69,"3,0,179",0,-1,0,0,0,0,68,71,10,0,86,-54.05,19,6.0,18.0,-991.0,14:14:04.332406,192.168.0.111
1012,-2,-200,-200,-200,"-1,-1,-1",0,-1,0,0,0,-1,68,71,10,0,86,-53.96,19,3.0,14.0,-995.0,14:14:04.434356,192.168.0.111
1017,-2,-200,-200,-200,"-1,-1,-1",0,-1,0,0,0,-1,68,71,10,0,86,-53.86,19,11.0,13.0,-996.0,14:14:04.536333,192.168.0.111
