,mid,x,y,z,mpry,pitch,roll,yaw,vgx,vgy,vgz,templ,temph,tof,h,bat,baro,time,agx,agy,agz,timestamp,address
1,-1,-100,-100,-100,"0,0,0",0,0,0,0,0,0,65,70,10,0,100,-8.98,0,1.0,-3.0,-999.0,15:57:51.287364,192.168.0.113
7,-1,-100,-100,-100,"0,0,0",0,0,0,0,0,0,65,70,10,0,100,-9.0,0,0.0,-3.0,-1000.0,15:57:51.526297,192.168.0.113
12,-1,-100,-100,-100,"0,0,0",0,0,0,0,0,0,65,70,10,0,100,-9.0,0,0.0,-3.0,-1001.0,15:57:51.526601,192.168.0.113
17,-1,-100,-100,-100,"0,0,0",0,0,0,0,0,0,65,70,10,0,100,-9.0,0,0.0,-1.0,-998.0,15:57:51.566352,192.168.0.113
23,-1,-100,-100,-100,"0,0,0",0,0,0,0,0,0,65,70,10,0,100,-8.97,0,0.0,-4.0,-997.0,15:57:51.668369,192.168.0.113
28,-1,-100,-100,-100,"0,0,0",0,0,0,0,0,0,65,70,10,0,100,-9.0,0,1.0,-4.0,-1000.0,15:57:51.770485,192.168.0.113
33,-1,-100,-100,-100,"0,0,0",0,0,0,0,0,0,65,70,10,0,100,-9.0,0,-3.0,1.0,-999.0,15:57:51.887196,192.168.0.113
38,-1,-100,-100,-100,"0,0,0",0,0,0,0,0,0,65,70,10,0,100,-9.0,0,10.0,-14.0,-1006.0,15:57:52.007002,192.168.0.113
43,-1,-100,-100,-100,"0,0,0",0,0,0,0,0,0,65,70,10,0,100,-9.0,0,-19.0,3.0,-982.0,15:57:52.246057,192.168.0.113
48,-1,-100,-100,-100,"0,0,0",0,0,0,0,0,0,65,70,10,0,100,-9.0,0,-7.0,18.0,-1077.0,15:57:52.246271,192.168.0.113
53,-1,-100,-100,-100,"0,0,0",0,0,0,0,0,1,65,69,10,0,100,-9.0,0,2.0,-6.0,-1230.0,15:57:52.280323,192.168.0.113
55,-1,-100,-100,-100,"0,0,0",0,0,0,0,0,4,65,69,10,0,100,-9.0,0,23.0,-20.0,-1335.0,15:57:52.368579,192.168.0.113
60,-1,-100,-100,-100,"0,0,0",0,0,0,0,0,7,65,69,10,0,100,-8.95,0,-4.0,28.0,-1165.0,15:57:52.486940,192.168.0.113
65,-1,-100,-100,-100,"0,0,0",0,0,0,0,0,7,65,69,16,10,100,-8.59,0,5.0,7.0,-1035.0,15:57:52.535485,192.168.0.113
70,-1,-100,-100,-100,"0,0,0",0,0,0,0,0,7,65,69,26,10,100,-8.53,0,13.0,12.0,-1001.0,15:57:52.637420,192.168.0.113
76,-1,-100,-100,-100,"0,0,0",0,0,0,0,0,7,65,69,34,20,100,-8.37,1,5.0,11.0,-963.0,15:57:52.739436,192.168.0.113
81,-1,-100,-100,-100,"0,0,0",0,0,0,0,0,7,65,69,43,30,100,-8.32,1,-7.0,16.0,-929.0,15:57:52.963613,192.168.0.113
86,-1,-100,-100,-100,"0,0,0",0,0,0,0,0,6,65,69,53,30,100,-8.24,1,24.0,9.0,-898.0,15:57:52.963838,192.168.0.113
91,-1,-100,-100,-100,"0,0,0",0,0,0,0,0,4,65,69,59,40,100,-8.25,1,8.0,24.0,-901.0,15:57:53.088024,192.168.0.113
96,-1,-100,-100,-100,"0,0,0",0,0,0,0,0,3,65,69,65,40,100,-8.13,1,-10.0,18.0,-914.0,15:57:53.204235,192.168.0.113
101,-1,-100,-100,-100,"0,0,0",0,0,0,0,0,2,66,69,70,50,100,-8.05,1,2.0,2.0,-924.0,15:57:53.249341,192.168.0.113
106,3,2,0,49,"-3,1,-178",0,0,0,0,0,2,66,69,74,50,100,-8.06,1,-11.0,19.0,-926.0,15:57:53.351429,192.168.0.113
111,3,2,0,49,"-3,1,-178",0,0,0,0,0,1,66,69,76,50,100,-8.06,1,5.0,-22.0,-946.0,15:57:53.453248,192.168.0.113
116,3,2,0,49,"-3,1,-178",0,0,0,0,0,1,66,69,79,50,100,-8.02,1,13.0,-5.0,-960.0,15:57:53.658277,192.168.0.113
121,3,2,0,71,"-3,1,-177",0,0,0,0,0,0,66,69,81,50,100,-8.0,1,-3.0,-5.0,-955.0,15:57:53.658610,192.168.0.113
126,3,2,0,71,"-3,1,-177",0,0,0,0,0,0,66,69,82,60,100,-7.98,2,2.0,-2.0,-987.0,15:57:53.877999,192.168.0.113
132,3,2,0,71,"-3,1,-177",0,0,0,0,0,0,66,69,84,60,100,-7.91,2,15.0,10.0,-976.0,15:57:53.878272,192.168.0.113
137,3,2,0,71,"-3,1,-177",0,0,0,0,0,0,66,69,85,60,100,-7.91,2,0.0,-15.0,-978.0,15:57:53.963212,192.168.0.113
142,3,3,-1,80,"-3,1,-176",0,0,0,0,0,0,66,69,85,60,100,-7.87,2,23.0,-22.0,-977.0,15:57:54.065316,192.168.0.113
148,3,3,-1,80,"-3,1,-176",0,0,0,0,0,0,66,69,86,60,100,-7.8,2,7.0,-14.0,-975.0,15:57:54.167336,192.168.0.113
153,3,3,-1,80,"-3,1,-176",0,0,0,0,0,0,66,69,87,60,100,-7.8,2,16.0,-7.0,-972.0,15:57:54.270111,192.168.0.113
158,3,3,-1,80,"-3,1,-176",0,0,0,0,0,0,66,69,88,60,100,-7.86,2,26.0,-12.0,-982.0,15:57:54.371331,192.168.0.113
163,3,2,-1,85,"-4,1,-175",0,0,0,0,0,0,66,69,87,60,100,-7.88,2,4.0,-1.0,-981.0,15:57:54.495804,192.168.0.113
168,3,2,-1,85,"-4,1,-175",0,0,0,0,0,0,66,69,87,60,100,-7.89,2,8.0,7.0,-981.0,15:57:54.615898,192.168.0.113
173,3,2,-1,85,"-4,1,-175",0,0,0,0,0,0,66,69,88,60,100,-7.85,2,9.0,-6.0,-988.0,15:57:54.735961,192.168.0.113
178,3,3,-1,87,"-3,1,-175",0,0,0,0,0,0,66,69,87,60,100,-7.87,3,2.0,-2.0,-989.0,15:57:54.855659,192.168.0.113
183,3,3,-1,87,"-3,1,-175",0,0,0,0,0,0,66,69,86,60,100,-7.84,3,8.0,-25.0,-984.0,15:57:54.975622,192.168.0.113
188,3,3,-1,87,"-3,1,-175",0,0,0,0,0,0,66,69,85,60,100,-7.85,3,27.0,-9.0,-987.0,15:57:54.983341,192.168.0.113
193,3,3,-1,87,"-3,1,-175",0,0,0,0,0,0,66,69,85,60,100,-7.93,3,6.0,-2.0,-997.0,15:57:55.098218,192.168.0.113
198,3,2,-2,87,"-3,1,-175",0,0,0,0,0,0,66,69,85,60,100,-7.93,3,9.0,7.0,-988.0,15:57:55.218707,192.168.0.113
203,3,2,-2,87,"-3,1,-175",0,0,0,0,0,0,65,69,84,60,100,-7.84,3,19.0,0.0,-997.0,15:57:55.338227,192.168.0.113
208,3,2,-2,87,"-3,1,-175",0,0,0,0,0,0,65,69,84,60,100,-7.79,3,4.0,-7.0,-1010.0,15:57:55.458239,192.168.0.113
213,3,2,-2,87,"-3,1,-175",0,0,0,0,0,0,65,69,83,60,100,-7.87,3,19.0,-15.0,-999.0,15:57:55.578382,192.168.0.113
215,3,2,-3,85,"-3,0,-174",0,0,0,0,0,0,65,69,84,60,100,-7.83,3,27.0,11.0,-998.0,15:57:55.578500,192.168.0.113
220,3,2,-3,85,"-3,0,-174",0,0,0,0,0,0,65,69,83,60,100,-7.86,3,-4.0,7.0,-1006.0,15:57:55.698067,192.168.0.113
226,3,2,-3,85,"-3,0,-174",0,0,0,0,0,0,65,69,83,60,100,-7.74,4,13.0,-14.0,-979.0,15:57:55.818093,192.168.0.113
231,3,2,-3,85,"-3,0,-174",0,0,0,0,0,0,65,69,81,60,100,-7.83,4,21.0,4.0,-1001.0,15:57:55.937999,192.168.0.113
236,3,2,-4,83,"-3,0,-173",0,0,0,0,0,0,65,69,82,60,100,-7.77,4,10.0,1.0,-995.0,15:57:55.961880,192.168.0.113
241,3,2,-4,83,"-3,0,-173",0,0,0,0,0,0,65,69,82,60,100,-7.84,4,26.0,-12.0,-1002.0,15:57:56.058249,192.168.0.113
246,3,2,-4,83,"-3,0,-173",0,0,0,0,0,0,65,69,81,60,100,-7.81,4,28.0,-8.0,-1011.0,15:57:56.178045,192.168.0.113
251,3,3,0,82,"-2,1,-176",0,0,0,0,0,0,66,69,81,60,100,-7.82,4,2.0,11.0,-1006.0,15:57:56.298202,192.168.0.113
255,3,3,0,82,"-2,1,-176",0,0,0,0,0,0,66,69,81,60,100,-7.81,4,6.0,1.0,-1016.0,15:57:56.418068,192.168.0.113
262,3,3,0,82,"-2,1,-176",0,0,0,0,0,0,66,69,81,60,100,-7.79,4,-3.0,1.0,-997.0,15:57:56.539418,192.168.0.113
267,3,3,0,82,"-2,1,-176",0,0,0,0,0,0,66,69,81,60,100,-7.81,4,9.0,0.0,-1018.0,15:57:56.658151,192.168.0.113
272,3,3,-1,81,"-3,1,-175",0,0,0,0,0,0,66,69,81,60,100,-7.76,4,8.0,8.0,-1005.0,15:57:56.666090,192.168.0.113
278,3,3,-1,81,"-3,1,-175",0,0,0,0,0,0,66,69,81,60,100,-7.88,5,8.0,-2.0,-1007.0,15:57:56.778246,192.168.0.113
283,3,3,-1,81,"-3,1,-175",0,0,0,0,0,0,66,69,80,60,100,-7.84,5,-3.0,6.0,-1004.0,15:57:56.898383,192.168.0.113
288,3,3,-1,81,"-3,1,-175",0,0,0,0,0,0,66,69,81,60,100,-7.76,5,29.0,-10.0,-1006.0,15:57:57.018748,192.168.0.113
293,3,3,-1,80,"-2,1,-175",0,0,0,0,0,0,66,69,80,60,100,-7.78,5,3.0,-5.0,-1003.0,15:57:57.138585,192.168.0.113
298,3,3,-1,80,"-2,1,-175",0,0,0,0,0,0,66,69,81,60,100,-7.75,5,5.0,-3.0,-1006.0,15:57:57.258521,192.168.0.113
303,3,3,-1,80,"-2,1,-175",0,0,0,0,0,0,66,69,81,60,100,-7.72,5,4.0,14.0,-1009.0,15:57:57.278168,192.168.0.113
308,3,2,-1,81,"-3,1,-175",0,0,0,0,0,0,66,69,81,60,100,-7.74,5,-3.0,12.0,-1000.0,15:57:57.380067,192.168.0.113
313,3,2,-1,81,"-3,1,-175",0,0,0,0,0,0,66,69,82,60,100,-7.71,5,16.0,2.0,-1000.0,15:57:57.618153,192.168.0.113
318,3,2,-1,81,"-3,1,-175",0,0,0,0,0,0,66,69,81,60,100,-7.71,5,3.0,-4.0,-1002.0,15:57:57.618580,192.168.0.113
323,3,2,-1,81,"-3,1,-175",0,0,0,0,0,0,66,69,81,60,100,-7.67,5,5.0,4.0,-1007.0,15:57:57.738676,192.168.0.113
328,3,3,0,81,"-2,1,-176",0,0,0,0,0,0,66,69,82,60,100,-7.7,6,-3.0,8.0,-1010.0,15:57:57.858519,192.168.0.113
333,3,3,0,81,"-2,1,-176",0,0,0,0,0,0,66,69,82,60,100,-7.69,6,3.0,23.0,-1003.0,15:57:57.978666,192.168.0.113
338,3,3,0,81,"-2,1,-176",0,0,0,0,0,0,66,69,82,60,100,-7.66,6,-7.0,13.0,-999.0,15:57:57.992141,192.168.0.113
340,3,3,0,81,"-2,1,-176",0,0,0,0,0,0,66,69,82,60,100,-7.74,6,23.0,19.0,-1001.0,15:57:58.098480,192.168.0.113
345,3,3,-1,81,"-2,1,-175",0,0,0,0,0,0,66,69,82,60,100,-7.69,6,15.0,-8.0,-997.0,15:57:58.337612,192.168.0.113
350,3,3,-1,81,"-2,1,-175",0,0,0,0,0,0,66,67,82,60,100,-7.72,6,0.0,16.0,-1000.0,15:57:58.337926,192.168.0.113
355,3,3,-1,81,"-2,1,-175",0,0,0,0,0,0,66,67,83,60,100,-7.67,6,-20.0,10.0,-1008.0,15:57:58.349236,192.168.0.113
360,3,3,0,82,"-2,1,-176",0,0,0,0,0,0,66,67,83,60,100,-7.6,6,-6.0,19.0,-1007.0,15:57:58.458875,192.168.0.113
365,3,3,0,82,"-2,1,-176",0,0,0,0,0,0,66,67,83,60,100,-7.69,6,5.0,7.0,-984.0,15:57:58.578591,192.168.0.113
370,3,3,0,82,"-2,1,-176",0,0,0,0,0,0,66,67,82,60,100,-7.67,6,-11.0,-6.0,-991.0,15:57:58.699039,192.168.0.113
375,3,3,0,82,"-2,1,-176",0,0,0,0,0,0,66,67,83,60,100,-7.72,7,-9.0,-3.0,-996.0,15:57:58.818612,192.168.0.113
380,3,4,0,83,"-2,1,-175",0,0,0,0,0,0,66,67,83,60,100,-7.66,7,4.0,1.0,-996.0,15:57:59.057599,192.168.0.113
387,3,4,0,83,"-2,1,-175",0,0,0,0,0,0,66,67,83,60,100,-7.63,7,-11.0,-4.0,-1005.0,15:57:59.057990,192.168.0.113
392,3,4,0,83,"-2,1,-175",0,0,0,0,0,0,66,67,83,60,100,-7.69,7,3.0,5.0,-1001.0,15:57:59.063058,192.168.0.113
397,3,4,0,83,"-2,1,-175",0,0,0,0,0,0,66,67,83,60,100,-7.66,7,22.0,-6.0,-1000.0,15:57:59.178844,192.168.0.113
402,3,3,0,83,"-3,0,-174",0,0,0,0,0,0,66,69,83,60,100,-7.63,7,-13.0,-4.0,-997.0,15:57:59.298705,192.168.0.113
407,3,3,0,83,"-3,0,-174",0,0,0,0,0,0,66,69,83,60,100,-7.61,7,-8.0,13.0,-1009.0,15:57:59.418683,192.168.0.113
412,3,3,0,83,"-3,0,-174",0,0,0,0,0,0,66,69,83,60,100,-7.67,7,2.0,3.0,-991.0,15:57:59.538632,192.168.0.113
417,3,4,0,83,"-2,0,-174",0,0,0,0,0,0,66,69,83,60,100,-7.65,7,0.0,-5.0,-1001.0,15:57:59.777817,192.168.0.113
422,3,4,0,83,"-2,0,-174",0,0,0,0,0,0,66,69,83,60,100,-7.63,7,0.0,-1.0,-1001.0,15:57:59.778111,192.168.0.113
427,3,4,0,83,"-2,0,-174",0,0,0,0,0,0,66,69,84,60,100,-7.67,8,-5.0,-1.0,-995.0,15:57:59.778842,192.168.0.113
433,3,4,0,83,"-2,0,-174",0,0,0,0,0,0,66,69,83,60,100,-7.63,8,2.0,-4.0,-999.0,15:57:59.898639,192.168.0.113
438,3,3,0,84,"-3,0,-175",0,0,0,0,0,0,66,69,83,60,100,-7.65,8,2.0,-13.0,-1000.0,15:58:00.021096,192.168.0.113
443,3,3,0,84,"-3,0,-175",0,0,0,0,0,0,66,69,84,60,100,-7.66,8,-1.0,-10.0,-995.0,15:58:00.139023,192.168.0.113
448,3,3,0,84,"-3,0,-175",0,0,0,0,0,0,66,69,84,60,100,-7.69,8,7.0,-17.0,-980.0,15:58:00.258482,192.168.0.113
453,3,3,0,84,"-3,0,-175",0,0,0,0,0,0,66,70,82,60,100,-7.7,8,8.0,-13.0,-1006.0,15:58:00.497709,192.168.0.113
458,3,5,0,84,"-3,0,-175",0,0,0,0,0,0,66,70,83,60,100,-7.59,8,-4.0,-11.0,-989.0,15:58:00.497946,192.168.0.113
463,3,5,0,84,"-3,0,-175",0,0,0,0,0,0,66,70,84,60,100,-7.66,8,11.0,-11.0,-994.0,15:58:00.498259,192.168.0.113
468,3,5,0,84,"-3,0,-175",0,0,0,0,0,0,66,70,83,60,100,-7.55,8,0.0,-14.0,-994.0,15:58:00.618906,192.168.0.113
470,3,5,-2,84,"-2,0,-173",0,0,0,0,0,0,66,70,83,60,100,-7.65,8,12.0,3.0,-995.0,15:58:00.738651,192.168.0.113
475,3,5,-2,84,"-2,0,-173",0,0,0,0,0,0,66,70,84,60,100,-7.6,9,0.0,-13.0,-993.0,15:58:00.747212,192.168.0.113
480,3,5,-2,84,"-2,0,-173",0,0,0,0,0,0,66,70,84,60,100,-7.63,9,16.0,-14.0,-1003.0,15:58:00.858836,192.168.0.113
485,3,5,-2,84,"-2,0,-173",0,0,0,0,0,0,66,70,84,60,100,-7.65,9,-2.0,10.0,-986.0,15:58:00.978859,192.168.0.113
490,3,5,-2,84,"-2,0,-173",0,0,0,0,0,0,66,70,84,60,100,-7.6,9,3.0,9.0,-1008.0,15:58:01.104165,192.168.0.113
495,3,5,-3,84,"-3,0,-172",0,0,0,0,0,0,66,70,85,60,100,-7.57,9,2.0,9.0,-984.0,15:58:01.218410,192.168.0.113
500,3,5,-3,84,"-3,0,-172",0,0,0,0,0,0,68,70,85,60,100,-7.59,9,1.0,7.0,-996.0,15:58:01.338498,192.168.0.113
505,3,5,-3,84,"-3,0,-172",-1,0,0,0,0,0,68,70,84,60,100,-7.62,9,1.0,-10.0,-939.0,15:58:01.359340,192.168.0.113
510,3,5,-3,84,"-3,0,-172",-3,0,0,0,0,0,68,70,84,60,100,-7.58,9,17.0,-14.0,-938.0,15:58:01.464346,192.168.0.113
516,3,5,-3,84,"-3,0,-172",-1,0,0,-1,0,-1,68,70,82,60,100,-7.62,9,-28.0,16.0,-976.0,15:58:01.578743,192.168.0.113
521,3,5,-3,84,"-3,0,-172",0,0,0,-1,0,-1,68,70,81,60,100,-7.62,9,-27.0,-8.0,-990.0,15:58:01.698743,192.168.0.113
526,3,8,0,84,"-3,0,-176",0,0,0,-1,0,-1,68,70,80,60,100,-7.59,10,-30.0,-20.0,-994.0,15:58:01.937984,192.168.0.113
531,3,8,0,84,"-3,0,-176",0,0,0,-1,0,-1,68,70,78,60,100,-7.62,10,0.0,8.0,-1014.0,15:58:01.938239,192.168.0.113
536,3,8,0,84,"-3,0,-176",0,0,0,-1,0,-1,68,70,77,50,100,-7.68,10,-11.0,-10.0,-1010.0,15:58:02.059293,192.168.0.113
541,3,8,0,84,"-3,0,-176",2,0,0,-1,0,-1,68,70,76,50,100,-7.63,10,4.0,11.0,-1030.0,15:58:02.075712,192.168.0.113
546,3,8,0,84,"-3,0,-176",2,0,0,0,0,-1,68,70,75,50,100,-7.62,10,-16.0,-26.0,-1009.0,15:58:02.176577,192.168.0.113
551,3,8,0,84,"-3,0,-176",1,0,0,0,0,0,68,71,74,50,100,-7.68,10,-2.0,11.0,-1027.0,15:58:02.296557,192.168.0.113
557,3,8,0,84,"-3,0,-176",1,0,0,0,0,0,68,71,73,50,100,-7.61,10,7.0,3.0,-1042.0,15:58:02.416401,192.168.0.113
561,3,21,2,77,"0,0,-177",0,0,0,0,0,0,68,71,73,50,100,-7.61,10,-3.0,8.0,-1024.0,15:58:02.655697,192.168.0.113
566,3,21,2,77,"0,0,-177",1,0,0,0,0,0,68,71,73,50,100,-7.6,10,-2.0,8.0,-1021.0,15:58:02.655975,192.168.0.113
572,3,21,2,77,"0,0,-177",1,0,0,0,0,0,68,71,72,50,100,-7.7,10,1.0,3.0,-1016.0,15:58:02.776774,192.168.0.113
577,3,21,2,77,"0,0,-177",1,0,0,0,0,0,68,71,72,50,100,-7.61,11,3.0,-7.0,-1003.0,15:58:02.787102,192.168.0.113
582,3,21,2,77,"0,0,-177",1,0,0,0,0,0,68,71,73,50,100,-7.61,11,3.0,0.0,-1004.0,15:58:02.896516,192.168.0.113
587,3,21,2,77,"0,0,-177",1,0,0,0,0,0,68,71,73,50,100,-7.7,11,9.0,-13.0,-990.0,15:58:03.016472,192.168.0.113
592,3,28,0,74,"-2,0,-175",1,0,0,0,0,0,68,71,74,50,100,-7.61,11,-7.0,10.0,-993.0,15:58:03.136371,192.168.0.113
597,3,28,0,74,"-2,0,-175",1,0,0,0,0,0,68,71,73,50,100,-7.66,11,19.0,-16.0,-1002.0,15:58:03.375727,192.168.0.113
602,3,28,0,74,"-2,0,-175",-1,0,0,0,0,0,70,72,73,50,100,-7.63,11,-5.0,16.0,-1003.0,15:58:03.375983,192.168.0.113
604,3,28,0,74,"-2,0,-175",-2,0,0,0,0,0,70,72,74,50,100,-7.65,11,12.0,-17.0,-985.0,15:58:03.376081,192.168.0.113
609,3,28,0,74,"-2,0,-175",-1,0,0,-1,0,0,70,72,74,50,100,-7.67,11,2.0,19.0,-1007.0,15:58:03.502092,192.168.0.113
614,3,28,0,74,"-2,0,-175",-1,0,0,-1,0,0,70,72,74,50,100,-7.61,11,-18.0,0.0,-1005.0,15:58:03.616517,192.168.0.113
619,3,28,0,74,"-2,0,-175",-1,0,0,-1,0,0,70,72,74,50,100,-7.62,11,22.0,11.0,-996.0,15:58:03.736260,192.168.0.113
624,3,33,0,76,"0,0,-175",-1,0,0,-2,0,0,70,72,74,50,100,-7.64,12,-20.0,-15.0,-998.0,15:58:03.756627,192.168.0.113
629,3,33,0,76,"0,0,-175",0,0,0,-2,0,0,70,72,74,50,100,-7.68,12,-28.0,15.0,-996.0,15:58:03.858048,192.168.0.113
634,3,33,0,76,"0,0,-175",0,0,0,-2,0,0,70,72,74,50,100,-7.64,12,-14.0,1.0,-986.0,15:58:04.097687,192.168.0.113
639,3,33,0,76,"0,0,-175",0,0,0,-2,0,0,70,72,75,50,100,-7.72,12,-20.0,-7.0,-995.0,15:58:04.097864,192.168.0.113
645,3,33,0,76,"0,0,-175",0,0,0,-2,0,0,70,72,74,50,100,-7.64,12,-12.0,16.0,-996.0,15:58:04.219640,192.168.0.113
650,3,33,0,76,"0,0,-175",0,0,0,-2,0,0,69,72,74,50,100,-7.68,12,-29.0,5.0,-1005.0,15:58:04.338387,192.168.0.113
655,3,33,0,76,"0,0,-175",0,0,0,-3,0,0,69,72,74,50,100,-7.68,12,-23.0,1.0,-993.0,15:58:04.458481,192.168.0.113
660,3,33,0,76,"0,0,-175",0,0,0,-3,0,0,69,72,75,50,100,-7.58,12,-17.0,-2.0,-1005.0,15:58:04.469896,192.168.0.113
665,3,33,0,76,"0,0,-175",0,0,0,-3,0,0,69,72,74,50,100,-7.64,12,-10.0,9.0,-987.0,15:58:04.578879,192.168.0.113
670,3,33,0,76,"0,0,-175",0,0,0,-3,0,0,69,72,74,50,100,-7.67,12,-26.0,0.0,-994.0,15:58:04.701231,192.168.0.113
675,3,33,0,76,"0,0,-175",0,0,0,-3,0,0,69,72,74,50,100,-7.76,13,-23.0,0.0,-994.0,15:58:04.834769,192.168.0.113
680,3,33,0,76,"0,0,-175",0,0,0,-3,0,0,69,72,74,50,100,-7.65,13,-16.0,-1.0,-987.0,15:58:04.877966,192.168.0.113
686,3,33,0,76,"0,0,-175",0,0,0,-3,0,0,69,72,73,50,100,-7.71,13,-20.0,-2.0,-991.0,15:58:04.979912,192.168.0.113
691,3,33,0,76,"0,0,-175",0,0,0,-3,0,0,69,72,73,50,100,-7.73,13,-29.0,-15.0,-997.0,15:58:05.081907,192.168.0.113
696,3,33,0,76,"0,0,-175",0,0,0,-3,0,0,69,72,73,50,100,-7.64,13,-16.0,8.0,-1007.0,15:58:05.183923,192.168.0.113
701,3,33,0,76,"0,0,-175",0,0,0,-3,0,0,69,73,73,50,100,-7.63,13,-18.0,0.0,-1003.0,15:58:05.317664,192.168.0.113
706,3,33,0,76,"0,0,-175",0,0,0,-3,0,0,69,73,72,50,100,-7.7,13,-16.0,1.0,-998.0,15:58:05.387840,192.168.0.113
711,3,33,0,76,"0,0,-175",0,0,0,-3,0,0,69,73,73,50,100,-7.72,13,-13.0,-8.0,-1010.0,15:58:05.497814,192.168.0.113
716,3,33,0,76,"0,0,-175",0,0,0,-3,0,0,69,73,72,50,100,-7.69,13,-22.0,-6.0,-1006.0,15:58:05.736878,192.168.0.113
721,3,33,0,76,"0,0,-175",0,0,0,-3,0,0,69,73,72,50,100,-7.65,13,-14.0,-5.0,-1004.0,15:58:05.737116,192.168.0.113
726,3,33,0,76,"0,0,-175",0,0,0,-3,0,0,69,73,72,50,100,-7.66,14,-9.0,-10.0,-996.0,15:58:05.858311,192.168.0.113
731,3,33,0,76,"0,0,-175",0,0,0,-3,0,0,69,73,71,50,100,-7.68,14,-33.0,-23.0,-997.0,15:58:05.977678,192.168.0.113
736,3,33,0,76,"0,0,-175",0,0,0,-3,0,0,69,73,71,50,100,-7.65,14,-16.0,-7.0,-1017.0,15:58:05.999821,192.168.0.113
741,3,33,0,76,"0,0,-175",0,0,0,-3,0,0,69,73,71,50,100,-7.69,14,3.0,-9.0,-1002.0,15:58:06.101926,192.168.0.113
747,3,33,0,76,"0,0,-175",0,1,0,-3,0,0,69,73,71,50,100,-7.69,14,-32.0,-14.0,-1004.0,15:58:06.337137,192.168.0.113
752,3,33,0,76,"0,0,-175",0,1,0,-3,0,0,71,73,70,50,100,-7.72,14,-13.0,-5.0,-998.0,15:58:06.337385,192.168.0.113
757,3,33,0,76,"0,0,-175",0,1,0,-3,0,0,71,73,70,50,100,-7.72,14,-14.0,-12.0,-993.0,15:58:06.457869,192.168.0.113
762,3,33,0,76,"0,0,-175",0,1,0,-3,0,0,71,73,70,50,100,-7.7,14,-23.0,6.0,-1006.0,15:58:06.577807,192.168.0.113
767,3,33,0,76,"0,0,-175",0,1,0,-3,0,0,71,73,70,50,100,-7.78,14,-4.0,0.0,-1006.0,15:58:06.697715,192.168.0.113
772,3,33,0,76,"0,0,-175",0,0,0,-3,0,0,71,73,69,50,100,-7.8,14,-10.0,0.0,-988.0,15:58:06.713751,192.168.0.113
777,3,33,0,76,"0,0,-175",0,0,0,-3,0,0,71,73,69,50,100,-7.8,15,-4.0,-7.0,-1006.0,15:58:06.819089,192.168.0.113
782,3,33,0,76,"0,0,-175",0,0,0,-3,0,0,71,73,69,50,100,-7.78,15,-8.0,-3.0,-1005.0,15:58:06.937958,192.168.0.113
787,3,33,0,76,"0,0,-175",0,0,0,-3,0,0,71,73,70,50,100,-7.72,15,-11.0,-10.0,-995.0,15:58:07.177008,192.168.0.113
792,3,33,0,76,"0,0,-175",0,0,0,-3,0,0,71,73,69,50,100,-7.73,15,4.0,-11.0,-999.0,15:58:07.177262,192.168.0.113
797,3,33,0,76,"0,0,-175",0,0,0,-3,0,0,71,73,69,50,100,-7.8,15,-18.0,11.0,-1009.0,15:58:07.297659,192.168.0.113
802,3,33,0,76,"0,0,-175",0,0,0,-3,0,0,70,73,69,50,100,-7.74,15,-13.0,8.0,-1007.0,15:58:07.417897,192.168.0.113
807,3,33,0,76,"0,0,-175",0,0,0,-3,0,0,70,73,69,50,100,-7.72,15,-19.0,0.0,-1002.0,15:58:07.427705,192.168.0.113
813,3,33,0,76,"0,0,-175",0,0,0,-3,0,0,70,73,69,50,100,-7.81,15,0.0,-10.0,-998.0,15:58:07.537873,192.168.0.113
818,3,33,0,76,"0,0,-175",0,0,0,-3,0,0,70,73,69,50,100,-7.71,15,-15.0,3.0,-995.0,15:58:07.657920,192.168.0.113
819,3,33,0,76,"0,0,-175",0,0,0,-3,0,0,70,73,68,50,100,-7.69,15,-13.0,1.0,-1020.0,15:58:07.898217,192.168.0.113
824,3,33,0,76,"0,0,-175",0,0,0,-3,0,0,70,73,68,50,100,-7.74,16,-23.0,-7.0,-1000.0,15:58:07.898525,192.168.0.113
829,3,33,0,76,"0,0,-175",0,0,0,-3,0,0,70,73,68,50,100,-7.79,16,5.0,-1.0,-989.0,15:58:07.898731,192.168.0.113
834,3,33,0,76,"0,0,-175",0,0,0,-3,0,0,70,73,68,50,100,-7.78,16,-13.0,-8.0,-986.0,15:58:08.017744,192.168.0.113
840,3,33,0,76,"0,0,-175",0,0,0,-3,0,0,70,73,68,50,100,-7.75,16,-18.0,4.0,-1001.0,15:58:08.137607,192.168.0.113
845,3,33,0,76,"0,0,-175",0,0,0,-3,0,0,70,73,68,50,100,-7.76,16,-5.0,5.0,-1000.0,15:58:08.258052,192.168.0.113
851,3,33,0,76,"0,0,-175",0,0,0,-3,0,0,70,74,69,50,100,-7.76,16,-16.0,-19.0,-984.0,15:58:08.377695,192.168.0.113
856,3,33,0,76,"0,0,-175",0,0,0,-3,0,0,70,74,68,50,100,-7.74,16,5.0,-26.0,-995.0,15:58:08.396885,192.168.0.113
861,3,33,0,76,"0,0,-175",0,0,0,-3,0,0,70,74,68,50,100,-7.74,16,-10.0,-12.0,-999.0,15:58:08.504280,192.168.0.113
866,3,33,0,76,"0,0,-175",0,0,0,-3,0,0,70,74,68,50,100,-7.74,16,-17.0,13.0,-1007.0,15:58:08.617952,192.168.0.113
871,3,33,0,76,"0,0,-175",0,0,0,-3,0,0,70,74,68,50,100,-7.77,16,-14.0,-10.0,-1008.0,15:58:08.737932,192.168.0.113
876,3,33,0,76,"0,0,-175",0,0,0,-3,0,0,70,74,68,50,100,-7.75,17,13.0,-16.0,-995.0,15:58:08.857936,192.168.0.113
881,-1,-100,-100,-100,"0,0,0",0,0,0,-3,0,0,70,74,68,50,100,-7.69,17,-1.0,-1.0,-996.0,15:58:08.977787,192.168.0.113
886,-1,-100,-100,-100,"0,0,0",1,0,0,-3,0,0,70,74,68,50,100,-7.64,17,-8.0,-2.0,-1006.0,15:58:09.099138,192.168.0.113
891,-1,-100,-100,-100,"0,0,0",0,0,0,-3,0,0,70,74,68,50,100,-7.65,17,-4.0,0.0,-1015.0,15:58:09.110836,192.168.0.113
896,-1,-100,-100,-100,"0,0,0",0,0,0,-3,0,0,70,74,68,50,100,-7.64,17,-8.0,0.0,-993.0,15:58:09.339682,192.168.0.113
901,-1,-100,-100,-100,"0,0,0",0,0,0,-3,0,0,71,73,69,50,100,-7.58,17,0.0,-5.0,-1001.0,15:58:09.340029,192.168.0.113
906,7,-35,14,67,"0,0,178",0,0,0,-3,0,0,71,73,69,50,100,-7.63,17,-2.0,5.0,-997.0,15:58:09.457919,192.168.0.113
911,7,-35,14,67,"0,0,178",0,0,0,-3,0,0,71,73,68,50,100,-7.59,17,-9.0,9.0,-995.0,15:58:09.577988,192.168.0.113
916,7,-35,14,67,"0,0,178",0,0,0,-3,0,0,71,73,69,50,100,-7.66,17,-28.0,5.0,-1007.0,15:58:09.697875,192.168.0.113
921,7,-35,14,67,"0,0,178",0,0,0,-3,0,0,71,73,69,50,100,-7.62,17,5.0,-9.0,-1002.0,15:58:09.817725,192.168.0.113
926,7,-35,14,67,"0,0,178",1,0,0,-3,0,0,71,73,69,50,100,-7.59,18,0.0,2.0,-993.0,15:58:09.824843,192.168.0.113
931,7,-35,14,67,"0,0,178",1,0,0,-3,0,0,71,73,69,50,100,-7.65,18,8.0,3.0,-986.0,15:58:09.954543,192.168.0.113
936,7,-35,14,67,"0,0,178",1,0,0,-3,0,0,71,73,69,50,100,-7.66,18,4.0,9.0,-1019.0,15:58:10.058129,192.168.0.113
941,7,-5,8,69,"1,0,-179",1,0,0,-3,0,0,71,73,69,50,100,-7.64,18,13.0,19.0,-1018.0,15:58:10.177996,192.168.0.113
947,7,-5,8,69,"1,0,-179",1,0,0,-3,0,0,71,73,70,50,100,-7.56,18,-20.0,-17.0,-972.0,15:58:10.297879,192.168.0.113
952,7,-5,8,69,"1,0,-179",1,0,0,-3,0,0,71,74,69,50,100,-7.66,18,-13.0,0.0,-1013.0,15:58:10.417955,192.168.0.113
957,7,-5,8,69,"1,0,-179",1,0,0,-3,0,0,71,74,70,50,100,-7.62,18,-25.0,7.0,-991.0,15:58:10.436815,192.168.0.113
961,7,-5,8,69,"1,0,-179",1,0,0,-2,0,0,71,74,69,50,100,-7.66,18,4.0,18.0,-1012.0,15:58:10.657129,192.168.0.113
967,7,-5,8,69,"1,0,-179",1,0,0,-3,0,0,71,74,70,50,100,-7.82,18,-2.0,17.0,-1012.0,15:58:10.657544,192.168.0.113
972,7,27,16,63,"5,1,173",0,0,0,-2,0,0,71,74,70,50,100,-7.67,18,4.0,-2.0,-989.0,15:58:10.777989,192.168.0.113
977,7,27,16,63,"5,1,173",1,0,0,-2,0,0,71,74,69,50,100,-7.64,19,-7.0,13.0,-1002.0,15:58:10.898418,192.168.0.113
982,7,27,16,63,"5,1,173",1,0,0,-2,0,0,71,74,69,50,100,-7.63,19,9.0,26.0,-987.0,15:58:11.017917,192.168.0.113
987,7,27,16,63,"5,1,173",5,0,0,-2,0,0,71,74,70,50,100,-7.69,19,-10.0,18.0,-1020.0,15:58:11.138426,192.168.0.113
992,7,27,16,63,"5,1,173",6,0,0,-1,0,0,71,74,69,50,100,-7.59,19,8.0,23.0,-1005.0,15:58:11.150734,192.168.0.113
998,7,27,16,63,"5,1,173",4,0,0,-1,0,0,71,74,69,50,100,-7.56,19,32.0,-2.0,-1005.0,15:58:11.255137,192.168.0.113
1003,7,27,16,63,"5,1,173",3,0,0,0,0,0,71,74,69,50,100,-7.67,19,24.0,-12.0,-969.0,15:58:11.382149,192.168.0.113
1008,7,27,16,63,"5,1,173",2,-1,0,0,0,0,71,74,69,50,100,-7.6,19,15.0,16.0,-988.0,15:58:11.497756,192.168.0.113
1013,7,27,16,63,"5,1,173",3,0,0,0,0,0,71,74,69,50,100,-7.73,19,34.0,15.0,-999.0,15:58:11.615218,192.168.0.113
1018,7,27,16,63,"5,1,173",3,0,0,0,0,0,71,74,68,50,100,-7.62,19,24.0,20.0,-1017.0,15:58:11.734993,192.168.0.113
1023,7,27,16,63,"5,1,173",3,-1,0,0,0,0,71,74,68,50,100,-7.63,19,25.0,6.0,-1016.0,15:58:11.855095,192.168.0.113
1025,7,27,16,63,"5,1,173",2,-1,0,0,0,0,71,74,68,50,100,-7.67,20,32.0,-8.0,-987.0,15:58:11.855237,192.168.0.113
1030,7,27,16,63,"5,1,173",3,0,0,0,0,0,71,74,68,50,100,-7.58,20,18.0,0.0,-1014.0,15:58:11.974971,192.168.0.113
1035,7,27,16,63,"5,1,173",3,0,0,0,0,0,71,74,68,50,100,-7.61,20,47.0,4.0,-987.0,15:58:12.104909,192.168.0.113
1040,7,27,16,63,"5,1,173",3,0,0,0,0,0,71,74,67,50,100,-7.79,20,5.0,10.0,-1013.0,15:58:12.214772,192.168.0.113
1045,7,27,16,63,"5,1,173",2,-1,0,0,0,0,71,74,67,50,100,-7.78,20,-7.0,0.0,-1031.0,15:58:12.224055,192.168.0.113
1050,7,27,16,63,"5,1,173",2,0,0,0,0,0,71,73,67,50,100,-7.69,20,0.0,-13.0,-983.0,15:58:12.334924,192.168.0.113
1055,7,27,16,63,"5,1,173",2,1,0,0,0,0,71,73,67,50,100,-7.72,20,-8.0,0.0,-1017.0,15:58:12.455083,192.168.0.113
1060,7,27,16,63,"5,1,173",2,1,0,0,0,0,71,73,67,50,100,-7.66,20,19.0,-16.0,-1012.0,15:58:12.575315,192.168.0.113
1065,7,27,16,63,"5,1,173",2,1,0,0,0,0,71,73,68,50,100,-7.69,20,26.0,-10.0,-1003.0,15:58:12.695062,192.168.0.113
1070,7,27,16,63,"5,1,173",3,1,0,0,0,0,71,73,68,50,100,-7.79,21,8.0,13.0,-985.0,15:58:12.934042,192.168.0.113
1075,7,27,16,63,"5,1,173",2,0,0,0,0,0,71,73,69,50,100,-7.73,21,2.0,23.0,-1009.0,15:58:12.934720,192.168.0.113
1080,7,27,16,63,"5,1,173",2,0,0,0,0,0,71,73,69,50,100,-7.73,21,33.0,-1.0,-1009.0,15:58:12.935423,192.168.0.113
1085,7,27,16,63,"5,1,173",1,0,0,0,0,0,71,73,70,50,100,-7.73,21,10.0,-1.0,-994.0,15:58:13.055277,192.168.0.113
1090,7,27,16,63,"5,1,173",2,0,0,0,0,0,71,73,70,50,100,-7.8,21,27.0,2.0,-1001.0,15:58:13.177639,192.168.0.113
1096,7,27,16,63,"5,1,173",2,0,0,0,0,0,71,73,70,50,100,-7.78,21,29.0,-22.0,-1010.0,15:58:13.297574,192.168.0.113
1101,7,27,16,63,"5,1,173",2,0,0,0,0,0,70,73,71,50,100,-7.72,21,16.0,-5.0,-1001.0,15:58:13.417317,192.168.0.113
1106,7,27,16,63,"5,1,173",1,0,0,0,0,0,70,73,71,50,100,-7.76,21,14.0,13.0,-996.0,15:58:13.540376,192.168.0.113
1111,7,27,16,63,"5,1,173",1,1,0,0,0,0,70,73,72,50,100,-7.77,21,6.0,-11.0,-994.0,15:58:13.547502,192.168.0.113
1116,7,27,16,63,"5,1,173",2,0,0,0,0,0,70,73,72,50,100,-7.74,21,20.0,-26.0,-1004.0,15:58:13.657733,192.168.0.113
1121,7,27,16,63,"5,1,173",1,0,0,0,0,0,70,73,72,50,100,-7.76,22,14.0,-6.0,-986.0,15:58:13.777821,192.168.0.113
1126,7,27,16,63,"5,1,173",2,0,0,0,0,0,70,73,73,50,100,-7.91,22,2.0,-13.0,-983.0,15:58:13.897569,192.168.0.113
1131,7,27,16,63,"5,1,173",2,0,0,0,0,0,70,73,73,50,100,-7.74,22,18.0,-22.0,-994.0,15:58:14.017685,192.168.0.113
1136,7,27,16,63,"5,1,173",2,1,0,0,0,0,70,73,73,50,100,-7.75,22,7.0,-6.0,-994.0,15:58:14.137421,192.168.0.113
1141,7,27,16,63,"5,1,173",1,1,0,0,0,0,70,73,73,50,100,-7.83,22,20.0,3.0,-1005.0,15:58:14.159551,192.168.0.113
1147,7,27,16,63,"5,1,173",2,1,0,0,0,0,70,73,74,50,100,-7.76,22,10.0,-18.0,-991.0,15:58:14.261414,192.168.0.113
1152,7,27,16,63,"5,1,173",2,0,0,0,0,0,71,74,74,50,100,-7.78,22,25.0,7.0,-1000.0,15:58:14.378117,192.168.0.113
1157,7,27,16,63,"5,1,173",2,0,0,0,0,0,71,74,74,50,100,-7.7,22,9.0,6.0,-985.0,15:58:14.497705,192.168.0.113
1161,7,27,16,63,"5,1,173",2,0,0,0,0,0,71,74,74,50,100,-7.8,22,12.0,0.0,-993.0,15:58:14.617745,192.168.0.113
1167,7,27,16,63,"5,1,173",2,0,0,0,0,0,71,74,74,50,100,-7.74,22,30.0,16.0,-982.0,15:58:14.737739,192.168.0.113
1172,7,27,16,63,"5,1,173",4,0,0,0,0,0,71,74,75,50,100,-7.76,23,11.0,3.0,-981.0,15:58:14.857466,192.168.0.113
1177,7,27,16,63,"5,1,173",3,0,0,1,0,0,71,74,74,50,100,-7.76,23,20.0,-7.0,-971.0,15:58:14.873375,192.168.0.113
1182,7,27,16,63,"5,1,173",3,0,0,1,0,0,71,74,73,50,100,-7.67,23,23.0,1.0,-982.0,15:58:14.979461,192.168.0.113
1188,7,27,16,63,"5,1,173",2,0,0,1,0,0,71,74,73,50,100,-7.65,23,-4.0,17.0,-1016.0,15:58:15.098197,192.168.0.113
1193,7,27,16,63,"5,1,173",2,0,0,1,0,0,71,74,72,50,100,-7.79,23,-1.0,11.0,-1028.0,15:58:15.218142,192.168.0.113
1198,7,27,16,63,"5,1,173",2,0,0,1,0,0,71,74,71,50,100,-7.64,23,10.0,-23.0,-987.0,15:58:15.338087,192.168.0.113
1203,7,27,16,63,"5,1,173",2,0,0,1,0,0,71,74,71,50,100,-7.75,23,15.0,-7.0,-979.0,15:58:15.457912,192.168.0.113
1208,7,27,16,63,"5,1,173",2,0,0,1,0,0,71,74,70,50,100,-7.88,23,30.0,-13.0,-1040.0,15:58:15.539507,192.168.0.113
1213,7,27,16,63,"5,1,173",2,0,0,1,0,0,71,74,69,50,100,-7.85,23,-8.0,1.0,-1022.0,15:58:15.587489,192.168.0.113
1218,7,27,16,63,"5,1,173",2,0,0,1,0,0,71,74,69,50,100,-7.78,23,19.0,-4.0,-1016.0,15:58:15.692586,192.168.0.113
1223,-1,-100,-100,-100,"0,0,0",2,0,0,1,0,0,71,74,69,50,100,-7.71,24,25.0,-29.0,-988.0,15:58:15.791395,192.168.0.113
1225,-1,-100,-100,-100,"0,0,0",2,0,0,2,0,0,71,74,69,50,100,-7.66,24,-3.0,-25.0,-1011.0,15:58:15.842607,192.168.0.113
1230,-1,-100,-100,-100,"0,0,0",2,0,0,2,0,0,71,74,69,50,100,-7.7,24,25.0,-17.0,-995.0,15:58:15.945864,192.168.0.113
1235,-1,-100,-100,-100,"0,0,0",1,0,0,2,0,0,71,74,69,50,100,-7.77,24,5.0,-19.0,-978.0,15:58:16.046578,192.168.0.113
1240,-1,-100,-100,-100,"0,0,0",0,0,0,2,0,0,71,74,68,50,100,-7.75,24,6.0,-33.0,-990.0,15:58:16.149380,192.168.0.113
1245,-1,-100,-100,-100,"0,0,0",1,1,0,2,0,0,71,74,68,50,100,-7.73,24,-8.0,-11.0,-1033.0,15:58:16.252950,192.168.0.113
1250,-1,-100,-100,-100,"0,0,0",0,1,0,2,0,0,71,74,67,50,100,-7.69,24,6.0,14.0,-992.0,15:58:16.354495,192.168.0.113
1255,-1,-100,-100,-100,"0,0,0",1,0,0,2,0,0,71,74,66,40,100,-7.79,24,3.0,14.0,-983.0,15:58:16.498997,192.168.0.113
1260,-1,-100,-100,-100,"0,0,0",1,0,0,2,0,0,71,74,66,40,100,-7.7,24,-20.0,-14.0,-1022.0,15:58:16.623433,192.168.0.113
1265,-1,-100,-100,-100,"0,0,0",1,-1,0,2,0,0,71,74,66,40,100,-7.84,24,34.0,-1.0,-1051.0,15:58:16.738977,192.168.0.113
1270,-1,-100,-100,-100,"0,0,0",1,0,0,1,0,0,71,74,66,40,100,-7.76,25,19.0,20.0,-1005.0,15:58:16.760825,192.168.0.113
1275,-1,-100,-100,-100,"0,0,0",1,0,0,1,0,0,71,74,67,40,100,-7.71,25,8.0,-10.0,-1005.0,15:58:16.863234,192.168.0.113
1280,-1,-100,-100,-100,"0,0,0",2,0,0,1,0,0,71,74,67,40,100,-7.8,25,20.0,24.0,-1007.0,15:58:16.976616,192.168.0.113
1285,-1,-100,-100,-100,"0,0,0",1,-1,0,1,0,0,71,74,67,40,100,-7.74,25,-2.0,27.0,-1010.0,15:58:17.098841,192.168.0.113
1291,-1,-100,-100,-100,"0,0,0",1,-1,0,1,0,0,71,74,68,40,100,-7.69,25,22.0,-15.0,-987.0,15:58:17.216641,192.168.0.113
1296,-1,-100,-100,-100,"0,0,0",1,-1,0,1,0,0,71,74,68,40,100,-7.64,25,35.0,-4.0,-992.0,15:58:17.455823,192.168.0.113
1301,-1,-100,-100,-100,"0,0,0",1,-1,0,1,0,0,71,74,68,40,100,-7.8,25,27.0,7.0,-991.0,15:58:17.456200,192.168.0.113
1306,-1,-100,-100,-100,"0,0,0",1,0,0,1,0,0,71,74,68,40,100,-7.77,25,22.0,-23.0,-981.0,15:58:17.475435,192.168.0.113
1311,-1,-100,-100,-100,"0,0,0",2,0,0,1,0,0,71,74,68,50,100,-7.74,25,11.0,-8.0,-1016.0,15:58:17.816724,192.168.0.113
1316,-1,-100,-100,-100,"0,0,0",2,0,0,1,0,0,71,74,68,50,100,-7.76,25,12.0,11.0,-999.0,15:58:17.817244,192.168.0.113
1321,-1,-100,-100,-100,"0,0,0",1,0,0,1,0,0,71,74,68,50,100,-7.81,26,6.0,-3.0,-1007.0,15:58:17.817582,192.168.0.113
1326,-1,-100,-100,-100,"0,0,0",1,0,0,1,0,0,71,74,68,50,100,-7.87,26,10.0,-14.0,-1015.0,15:58:17.936694,192.168.0.113
1331,-1,-100,-100,-100,"0,0,0",1,0,0,1,0,0,71,74,69,50,100,-7.74,26,13.0,14.0,-982.0,15:58:18.175757,192.168.0.113
1336,7,35,0,69,"-1,3,174",2,0,0,1,0,0,71,74,68,50,100,-7.76,26,16.0,-2.0,-1014.0,15:58:18.176136,192.168.0.113
1341,7,35,0,69,"-1,3,174",1,0,0,1,0,0,71,74,69,50,100,-7.72,26,1.0,12.0,-994.0,15:58:18.188593,192.168.0.113
1346,7,35,0,69,"-1,3,174",1,0,0,1,0,0,71,74,69,50,100,-7.81,26,11.0,21.0,-1022.0,15:58:18.296763,192.168.0.113
1351,7,35,0,69,"-1,3,174",0,0,0,1,0,0,71,74,68,50,100,-7.83,26,17.0,13.0,-987.0,15:58:18.416751,192.168.0.113
1356,7,35,0,69,"-1,3,174",0,0,0,1,0,0,71,74,68,40,100,-7.78,26,-5.0,11.0,-988.0,15:58:18.536684,192.168.0.113
1361,7,35,0,69,"-1,3,174",-1,0,0,1,0,0,71,74,68,40,100,-7.77,26,0.0,6.0,-977.0,15:58:18.658189,192.168.0.113
1367,7,30,0,68,"0,2,173",-1,0,0,0,0,0,71,74,67,40,100,-7.77,26,-1.0,7.0,-1008.0,15:58:18.898077,192.168.0.113
1371,7,30,0,68,"0,2,173",0,0,0,0,0,0,71,74,67,40,100,-7.73,27,-2.0,3.0,-1002.0,15:58:18.898422,192.168.0.113
1377,7,30,0,68,"0,2,173",1,0,0,0,0,0,71,74,67,40,100,-7.73,27,-9.0,15.0,-1010.0,15:58:18.906203,192.168.0.113
1382,7,30,0,68,"0,2,173",2,0,0,0,0,0,71,74,68,40,100,-7.81,27,18.0,-8.0,-1006.0,15:58:19.019137,192.168.0.113
1387,7,30,0,68,"0,2,173",2,0,0,1,0,0,71,74,66,40,100,-7.81,27,-34.0,11.0,-990.0,15:58:19.139044,192.168.0.113
1392,7,30,0,68,"0,2,173",1,0,0,1,0,0,71,74,66,40,100,-7.76,27,-12.0,13.0,-1020.0,15:58:19.259327,192.168.0.113
1398,7,30,0,68,"0,2,173",0,0,0,1,0,0,71,74,66,40,100,-7.83,27,1.0,1.0,-1007.0,15:58:19.498258,192.168.0.113
1403,7,24,-6,67,"1,1,175",0,0,0,1,0,0,72,73,66,40,100,-7.8,27,-9.0,-4.0,-1002.0,15:58:19.498616,192.168.0.113
1408,7,24,-6,67,"1,1,175",0,0,0,1,0,0,72,73,67,40,100,-7.84,27,0.0,-12.0,-995.0,15:58:19.514399,192.168.0.113
1410,7,24,-6,67,"1,1,175",0,0,0,1,0,0,72,73,67,40,100,-7.84,27,-5.0,23.0,-1011.0,15:58:19.619246,192.168.0.113
1415,7,24,-6,67,"1,1,175",0,0,0,1,0,0,72,73,67,40,100,-7.78,27,5.0,4.0,-1011.0,15:58:19.739077,192.168.0.113
1420,7,24,-6,67,"1,1,175",0,0,0,1,0,0,72,73,67,40,100,-7.78,28,9.0,7.0,-987.0,15:58:19.859866,192.168.0.113
1425,7,24,-6,67,"1,1,175",0,0,0,1,0,0,72,73,67,40,100,-7.73,28,2.0,-5.0,-1000.0,15:58:19.871262,192.168.0.113
1430,7,18,-9,66,"1,1,178",0,0,0,1,0,0,72,73,67,40,100,-7.8,28,12.0,-4.0,-999.0,15:58:19.977124,192.168.0.113
1435,7,18,-9,66,"1,1,178",0,0,0,1,0,0,72,73,67,40,100,-7.76,28,3.0,-6.0,-989.0,15:58:20.097013,192.168.0.113
1440,7,18,-9,66,"1,1,178",0,0,0,1,0,0,72,73,66,40,100,-7.82,28,-5.0,15.0,-1002.0,15:58:20.220971,192.168.0.113
1445,7,18,-9,66,"1,1,178",0,0,0,1,0,0,72,73,66,40,100,-7.77,28,2.0,10.0,-1009.0,15:58:20.336909,192.168.0.113
1451,7,18,-9,66,"1,1,178",0,0,0,0,0,0,72,75,67,40,100,-7.77,28,-9.0,15.0,-996.0,15:58:20.457012,192.168.0.113
1456,7,18,-9,66,"1,1,178",0,0,0,0,0,0,72,75,67,40,100,-7.76,28,-11.0,18.0,-998.0,15:58:20.576976,192.168.0.113
1461,7,18,-9,66,"1,1,178",0,-1,0,0,0,0,72,75,67,40,100,-7.77,28,-3.0,8.0,-987.0,15:58:20.585212,192.168.0.113
1466,7,11,-9,66,"2,1,179",0,-1,0,0,0,0,72,75,67,40,100,-7.74,28,-9.0,13.0,-1007.0,15:58:20.697634,192.168.0.113
1471,7,11,-9,66,"2,1,179",0,0,0,0,0,0,72,75,68,40,100,-7.78,29,26.0,-3.0,-985.0,15:58:20.818077,192.168.0.113
1476,7,11,-9,66,"2,1,179",0,0,0,0,0,0,72,75,67,40,100,-7.79,29,-17.0,9.0,-1005.0,15:58:21.056713,192.168.0.113
1481,7,11,-9,66,"2,1,179",0,0,0,0,0,0,72,75,68,40,100,-7.84,29,7.0,18.0,-1000.0,15:58:21.057048,192.168.0.113
1486,7,11,-9,66,"2,1,179",0,0,0,0,0,0,72,75,68,40,100,-7.83,29,8.0,10.0,-994.0,15:58:21.177543,192.168.0.113
1491,7,11,-9,66,"2,1,179",0,0,0,0,0,0,72,75,68,40,100,-7.75,29,-12.0,-2.0,-990.0,15:58:21.197458,192.168.0.113
1496,7,8,-9,68,"0,1,175",1,0,0,0,0,0,72,75,68,40,100,-7.74,29,16.0,12.0,-1009.0,15:58:21.299132,192.168.0.113
1501,7,8,-9,68,"0,1,175",1,0,0,0,0,0,71,74,68,40,100,-7.81,29,32.0,14.0,-1020.0,15:58:21.417136,192.168.0.113
1506,7,8,-9,68,"0,1,175",0,0,0,0,0,0,71,74,67,40,100,-7.86,29,14.0,0.0,-1017.0,15:58:21.537167,192.168.0.113
1511,7,8,-9,68,"0,1,175",1,0,0,0,0,0,71,74,67,40,100,-7.8,29,26.0,2.0,-989.0,15:58:21.659742,192.168.0.113
1517,7,8,-9,68,"0,1,175",1,0,0,0,0,0,71,74,68,40,100,-7.81,29,3.0,9.0,-994.0,15:58:21.777273,192.168.0.113
1522,7,8,-9,68,"0,1,175",1,0,0,0,0,0,71,74,68,40,100,-7.81,30,10.0,7.0,-956.0,15:58:21.898964,192.168.0.113
1527,7,8,-9,68,"0,1,175",1,0,0,0,0,0,71,74,68,40,100,-7.84,30,12.0,-17.0,-927.0,15:58:21.911047,192.168.0.113
1532,7,14,-12,67,"2,1,178",1,0,0,0,0,0,71,74,67,40,100,-7.84,30,-1.0,29.0,-926.0,15:58:22.019122,192.168.0.113
1537,7,14,-12,67,"2,1,178",1,0,0,0,0,-1,71,74,64,40,100,-7.9,30,22.0,-3.0,-908.0,15:58:22.139930,192.168.0.113
1542,7,14,-12,67,"2,1,178",0,0,0,0,0,-2,71,74,62,40,100,-7.9,30,17.0,20.0,-916.0,15:58:22.259117,192.168.0.113
1547,7,14,-12,67,"2,1,178",0,0,0,0,0,-3,71,74,59,40,100,-7.98,30,6.0,5.0,-945.0,15:58:22.379118,192.168.0.113
1552,7,14,-12,67,"2,1,178",1,0,0,0,0,-3,72,75,55,30,100,-8.0,30,0.0,-3.0,-981.0,15:58:22.498986,192.168.0.113
1557,7,14,-12,67,"2,1,178",1,0,0,0,0,-4,72,75,51,30,100,-7.9,30,-6.0,0.0,-1000.0,15:58:22.523051,192.168.0.113
1562,7,14,-12,67,"2,1,178",1,0,0,0,0,-4,72,75,46,30,100,-8.11,30,-6.0,1.0,-985.0,15:58:22.625109,192.168.0.113
1567,7,18,-10,61,"1,2,176",1,0,0,0,0,-4,72,75,42,20,100,-8.23,30,15.0,-19.0,-1009.0,15:58:22.739165,192.168.0.113
1572,7,18,-10,61,"1,2,176",0,0,0,0,0,-4,72,75,37,20,100,-8.27,31,4.0,-21.0,-988.0,15:58:22.978324,192.168.0.113
1577,7,18,-10,61,"1,2,176",1,0,0,0,0,-4,72,75,32,10,100,-8.15,31,5.0,-6.0,-1002.0,15:58:22.978654,192.168.0.113
1579,7,18,-10,61,"1,2,176",1,1,0,0,0,-4,72,75,27,10,100,-8.17,31,0.0,41.0,-971.0,15:58:22.982238,192.168.0.113
1584,7,18,-10,61,"1,2,176",1,0,0,0,0,-4,72,75,22,0,100,-8.16,31,-2.0,42.0,-1028.0,15:58:23.099262,192.168.0.113
1589,7,18,-10,61,"1,2,176",0,0,0,0,0,-4,72,75,19,0,100,-8.37,31,15.0,19.0,-1035.0,15:58:23.218905,192.168.0.113
1594,7,18,-10,61,"1,2,176",1,0,0,0,0,-4,72,75,13,0,100,-8.72,31,-1.0,58.0,-952.0,15:58:23.339629,192.168.0.113
1599,7,18,-10,61,"1,2,176",1,-1,0,0,0,-4,72,74,10,0,100,-9.89,31,-8.0,51.0,-1039.0,15:58:23.455764,192.168.0.113
1604,7,18,-10,61,"1,2,176",0,-2,0,0,0,-3,72,74,10,-10,100,-10.92,31,0.0,-13.0,-1079.0,15:58:23.575682,192.168.0.113
1609,7,18,-10,61,"1,2,176",0,-1,0,0,0,-3,72,74,10,-10,100,-12.28,31,-208.0,-189.0,-2320.0,15:58:23.594401,192.168.0.113
1614,7,18,-10,61,"1,2,176",-1,-3,0,1,0,0,72,74,10,-10,100,-10.65,31,14.0,-8.0,-718.0,15:58:23.697229,192.168.0.113
1619,7,18,-10,61,"1,2,176",0,0,0,0,0,-1,72,74,10,-10,100,-11.42,32,2.0,4.0,-967.0,15:58:23.935245,192.168.0.113
1624,7,18,-10,61,"1,2,176",0,-1,0,1,0,0,72,74,10,-10,100,-11.19,32,-126.0,162.0,-1605.0,15:58:23.935822,192.168.0.113
1629,7,18,-10,61,"1,2,176",1,0,0,1,0,0,72,74,10,-10,100,-10.65,32,11.0,11.0,-949.0,15:58:24.174809,192.168.0.113
1635,7,18,-10,61,"1,2,176",1,0,0,1,0,0,72,74,10,-10,100,-9.96,32,-9.0,16.0,-992.0,15:58:24.175311,192.168.0.113
1640,7,18,-10,61,"1,2,176",1,0,0,1,0,0,72,74,10,-10,100,-9.87,32,-4.0,4.0,-1005.0,15:58:24.295723,192.168.0.113
1645,7,18,-10,61,"1,2,176",1,0,0,1,0,0,72,74,10,-10,100,-9.92,32,-1.0,17.0,-1000.0,15:58:24.308221,192.168.0.113
1650,7,18,-10,61,"1,2,176",1,0,0,2,0,0,72,74,10,-10,100,-9.59,32,14.0,5.0,-996.0,15:58:24.415997,192.168.0.113
1654,7,18,-10,61,"1,2,176",1,0,0,2,0,0,72,74,10,-10,100,-9.54,32,0.0,11.0,-999.0,15:58:24.537582,192.168.0.113
1660,7,18,-10,61,"1,2,176",1,0,0,2,0,0,72,74,10,-10,100,-9.26,32,4.0,16.0,-998.0,15:58:24.655889,192.168.0.113
1665,7,18,-10,61,"1,2,176",1,0,0,2,0,-1,72,74,10,0,100,-9.11,32,4.0,10.0,-998.0,15:58:24.775701,192.168.0.113
1671,7,18,-10,61,"1,2,176",1,0,0,2,0,-1,72,74,10,0,100,-8.89,32,4.0,17.0,-1000.0,15:58:24.897298,192.168.0.113
