,mid,x,y,z,mpry,pitch,roll,yaw,vgx,vgy,vgz,templ,temph,tof,h,bat,baro,time,agx,agy,agz,timestamp,address
3,-1,-100,-100,-100,"-1,-1,-1",0,0,6,0,0,0,63,66,10,0,94,-22.03,0,4.0,0.0,-999.0,11:56:13.807202,192.168.0.113
8,-1,-100,-100,-100,"-1,-1,-1",0,0,6,0,0,0,63,66,10,0,94,-22.07,0,3.0,0.0,-998.0,11:56:14.014819,192.168.0.113
10,-1,-100,-100,-100,"-1,-1,-1",0,0,6,0,0,0,63,66,10,0,94,-22.11,0,6.0,0.0,-998.0,11:56:14.014953,192.168.0.113
15,-1,-100,-100,-100,"-1,-1,-1",0,0,6,0,0,0,63,66,10,0,94,-22.08,0,3.0,0.0,-1002.0,11:56:14.015337,192.168.0.113
20,-1,-100,-100,-100,"-1,-1,-1",0,0,6,0,0,0,63,66,10,0,94,-22.09,0,3.0,-1.0,-997.0,11:56:14.222867,192.168.0.113
25,-1,-100,-100,-100,"-1,-1,-1",0,0,6,0,0,0,63,66,10,0,94,-22.1,0,8.0,-3.0,-994.0,11:56:14.223795,192.168.0.113
30,-1,-100,-100,-100,"-1,-1,-1",0,0,6,0,0,0,63,66,10,0,94,-22.1,0,0.0,19.0,-1004.0,11:56:14.429384,192.168.0.113
36,-1,-100,-100,-100,"-1,-1,-1",0,0,6,0,0,0,63,66,10,0,94,-22.1,0,24.0,-1.0,-998.0,11:56:14.430380,192.168.0.113
41,-1,-100,-100,-100,"-1,-1,-1",0,0,6,0,0,0,63,66,10,0,94,-22.1,0,16.0,-1.0,-983.0,11:56:14.636656,192.168.0.113
46,-1,-100,-100,-100,"-1,-1,-1",0,0,5,0,0,0,63,66,10,0,94,-22.1,0,22.0,4.0,-1146.0,11:56:14.637474,192.168.0.113
51,-1,-100,-100,-100,"-1,-1,-1",0,0,5,0,0,-1,64,66,10,-10,94,-22.1,0,42.0,4.0,-1375.0,11:56:14.844004,192.168.0.113
56,-1,-100,-100,-100,"-1,-1,-1",1,0,5,0,0,-4,64,66,10,-10,94,-22.1,0,21.0,-6.0,-1243.0,11:56:14.844913,192.168.0.113
61,-1,-100,-100,-100,"-1,-1,-1",2,0,5,0,0,-5,64,66,12,-10,94,-21.69,0,10.0,17.0,-1130.0,11:56:15.050272,192.168.0.113
66,-1,-100,-100,-100,"-1,-1,-1",1,0,5,0,0,-5,64,66,20,-10,94,-21.6,0,0.0,5.0,-1058.0,11:56:15.051093,192.168.0.113
71,-1,-100,-100,-100,"-1,-1,-1",1,0,5,0,0,-6,64,66,30,0,94,-21.56,1,6.0,-11.0,-1045.0,11:56:15.257366,192.168.0.113
76,-1,-100,-100,-100,"-1,-1,-1",1,0,5,0,0,-6,64,66,39,0,94,-21.47,1,2.0,11.0,-1016.0,11:56:15.258174,192.168.0.113
81,3,20,-1,45,"-2,-2,-178",1,0,5,0,0,-5,64,66,50,0,94,-21.29,1,0.0,-3.0,-956.0,11:56:15.339630,192.168.0.113
87,3,20,-4,60,"-2,-2,-176",1,0,5,0,0,-4,64,66,60,0,94,-21.24,1,18.0,-10.0,-940.0,11:56:15.441988,192.168.0.113
92,3,20,-5,64,"-1,-2,-176",1,0,5,0,0,-3,64,66,71,0,94,-21.15,1,9.0,14.0,-905.0,11:56:15.544038,192.168.0.113
97,3,18,-8,78,"-1,-2,-174",0,-1,5,0,0,-3,64,66,83,0,94,-20.98,1,19.0,-2.0,-899.0,11:56:15.646032,192.168.0.113
102,3,15,-7,83,"-3,-2,-176",0,0,5,0,0,-2,64,65,91,10,94,-20.94,1,4.0,-15.0,-899.0,11:56:15.748156,192.168.0.113
107,3,13,-8,91,"-3,-2,-176",0,0,5,0,0,-1,64,65,99,10,94,-20.86,1,-8.0,-5.0,-904.0,11:56:15.850155,192.168.0.113
112,3,10,-10,101,"-4,-2,-174",0,0,5,0,0,0,64,65,104,10,94,-20.88,1,22.0,-22.0,-887.0,11:56:15.952062,192.168.0.113
117,3,7,-6,105,"-6,-2,-177",0,0,5,0,0,0,64,65,109,20,94,-20.87,1,33.0,-5.0,-895.0,11:56:16.054039,192.168.0.113
122,3,7,-12,109,"-5,-2,-174",0,0,5,0,0,0,64,65,114,20,94,-20.79,2,-4.0,3.0,-897.0,11:56:16.156013,192.168.0.113
127,3,4,-5,114,"-6,-2,-177",0,0,5,0,0,1,64,65,117,20,94,-20.76,2,25.0,-8.0,-909.0,11:56:16.258075,192.168.0.113
132,3,4,-5,114,"-6,-2,-177",0,0,5,0,0,1,64,65,119,20,94,-20.71,2,-7.0,-14.0,-930.0,11:56:16.359913,192.168.0.113
137,3,10,-12,115,"-3,-2,-173",0,0,5,0,0,1,64,65,120,30,94,-20.66,2,13.0,8.0,-937.0,11:56:16.461912,192.168.0.113
142,2,46,-74,68,"16,-5,-161",0,0,5,0,0,2,64,65,122,30,94,-20.68,2,5.0,4.0,-951.0,11:56:16.564520,192.168.0.113
147,3,5,-12,120,"-5,-2,-173",0,0,5,0,0,2,64,65,122,30,94,-20.74,2,38.0,-8.0,-941.0,11:56:16.666039,192.168.0.113
152,3,8,-12,120,"-3,-2,-173",0,0,5,0,0,2,64,67,123,30,94,-20.71,2,3.0,-2.0,-946.0,11:56:16.767888,192.168.0.113
157,3,8,-15,120,"-4,-2,-172",0,0,5,0,0,2,64,67,121,30,94,-20.63,2,4.0,7.0,-965.0,11:56:16.869696,192.168.0.113
162,3,8,-15,120,"-4,-2,-172",0,0,5,0,0,2,64,67,121,30,94,-20.72,2,23.0,-27.0,-957.0,11:56:16.972071,192.168.0.113
167,3,8,-12,120,"-4,-2,-173",0,0,5,0,0,2,64,67,119,30,94,-20.75,2,17.0,7.0,-965.0,11:56:17.074328,192.168.0.113
172,3,8,-10,119,"-4,-2,-174",0,0,5,0,0,2,64,67,117,30,94,-20.71,3,7.0,3.0,-968.0,11:56:17.176216,192.168.0.113
177,3,8,-12,117,"-4,-2,-172",0,0,5,0,0,2,64,67,114,30,94,-20.77,3,15.0,0.0,-990.0,11:56:17.278234,192.168.0.113
182,3,9,-10,115,"-4,-2,-174",0,0,5,0,0,2,64,67,112,30,94,-20.84,3,7.0,0.0,-987.0,11:56:17.380128,192.168.0.113
186,3,7,-9,113,"-5,-2,-174",0,0,5,0,0,2,64,67,109,30,94,-20.81,3,5.0,-20.0,-992.0,11:56:17.430915,192.168.0.113
191,3,9,-12,110,"-4,-2,-172",0,0,5,0,0,2,64,67,107,30,94,-20.82,3,16.0,24.0,-1006.0,11:56:17.532731,192.168.0.113
196,3,5,-10,108,"-6,-2,-173",0,0,5,0,0,2,64,67,104,30,94,-20.93,3,18.0,-4.0,-1003.0,11:56:17.634760,192.168.0.113
201,3,8,-11,105,"-4,-2,-173",0,0,5,0,0,2,64,67,101,20,94,-20.89,3,7.0,5.0,-987.0,11:56:17.736732,192.168.0.113
206,3,9,-9,101,"-4,-2,-175",0,0,5,0,0,2,64,67,99,20,94,-20.91,3,20.0,-7.0,-1008.0,11:56:17.838530,192.168.0.113
211,3,11,-10,99,"-3,-2,-174",0,0,5,0,0,2,64,67,96,20,94,-20.9,3,16.0,-5.0,-1011.0,11:56:17.941005,192.168.0.113
217,3,8,-9,97,"-5,-2,-175",0,0,5,0,0,2,64,67,93,20,94,-20.91,3,0.0,17.0,-992.0,11:56:18.043473,192.168.0.113
222,3,9,-9,96,"-4,-2,-175",0,0,5,0,0,1,64,67,91,20,94,-20.96,4,14.0,-4.0,-1015.0,11:56:18.145856,192.168.0.113
227,3,10,-9,91,"-3,-2,-175",0,0,5,0,0,1,64,67,89,20,94,-20.97,4,21.0,-7.0,-1021.0,11:56:18.246840,192.168.0.113
232,3,11,-8,90,"-3,-2,-176",0,0,5,0,0,1,64,67,86,10,94,-21.04,4,4.0,12.0,-1002.0,11:56:18.348827,192.168.0.113
237,3,11,-10,87,"-3,-2,-174",0,0,5,0,0,1,64,67,85,10,94,-21.04,4,9.0,-8.0,-1023.0,11:56:18.450780,192.168.0.113
242,3,11,-7,85,"-3,-2,-177",0,0,5,0,0,1,64,67,83,10,94,-21.05,4,15.0,11.0,-1019.0,11:56:18.552838,192.168.0.113
247,3,12,-8,84,"-3,-2,-176",0,0,5,0,0,1,64,67,82,10,94,-21.05,4,14.0,-6.0,-1022.0,11:56:18.654935,192.168.0.113
252,3,12,-7,82,"-3,-2,-177",0,0,5,0,0,1,65,67,80,10,94,-21.07,4,23.0,14.0,-1043.0,11:56:18.756683,192.168.0.113
257,3,14,-10,80,"-2,-2,-175",0,0,5,0,0,0,65,67,79,10,94,-21.06,4,6.0,6.0,-1005.0,11:56:18.860990,192.168.0.113
262,3,15,-5,80,"-2,-1,-178",1,0,5,0,0,0,65,67,78,10,94,-21.06,4,21.0,0.0,-1022.0,11:56:18.960919,192.168.0.113
267,3,15,-10,77,"-2,-2,-175",0,0,5,0,0,0,65,67,77,0,94,-21.12,4,24.0,-8.0,-1011.0,11:56:19.062765,192.168.0.113
272,3,16,-8,77,"-1,-2,-177",1,0,5,0,0,0,65,67,76,0,94,-21.14,5,10.0,-7.0,-1022.0,11:56:19.164625,192.168.0.113
277,3,16,-7,76,"-2,-2,-178",1,0,5,0,0,0,65,67,76,0,94,-21.17,5,1.0,4.0,-1009.0,11:56:19.266783,192.168.0.113
282,3,15,-10,76,"-2,-2,-176",0,0,5,0,0,0,65,67,76,0,94,-21.08,5,26.0,1.0,-1008.0,11:56:19.368710,192.168.0.113
287,3,15,-9,76,"-2,-2,-177",0,0,5,0,0,0,65,67,75,0,94,-21.1,5,8.0,23.0,-999.0,11:56:19.470657,192.168.0.113
292,3,13,-8,76,"-3,-2,-178",0,0,5,0,0,0,65,67,75,0,94,-21.08,5,4.0,-12.0,-1023.0,11:56:19.572667,192.168.0.113
297,3,15,-9,75,"-1,-2,-178",0,0,5,0,0,0,65,67,74,0,94,-21.1,5,40.0,11.0,-996.0,11:56:19.674877,192.168.0.113
302,3,14,-9,74,"-2,-2,-177",0,0,5,0,0,0,65,67,74,0,94,-21.11,5,0.0,-14.0,-1008.0,11:56:19.776987,192.168.0.113
307,3,15,-10,74,"-1,-2,-177",0,0,5,0,0,0,65,67,74,0,94,-21.06,5,31.0,-12.0,-1006.0,11:56:19.878986,192.168.0.113
312,3,14,-9,74,"-1,-2,-178",0,0,5,0,0,0,65,67,74,0,94,-21.09,5,10.0,10.0,-1000.0,11:56:19.980792,192.168.0.113
316,3,15,-9,74,"-1,-2,-178",0,0,5,0,0,0,65,67,74,0,94,-21.06,5,0.0,3.0,-1003.0,11:56:20.031912,192.168.0.113
321,3,15,-11,73,"-1,-2,-176",0,0,5,0,0,0,65,67,74,0,94,-21.08,6,12.0,-5.0,-1004.0,11:56:20.134016,192.168.0.113
326,3,10,-13,74,"-4,-1,-174",0,0,5,0,0,0,65,67,74,0,94,-21.15,6,13.0,12.0,-1008.0,11:56:20.236313,192.168.0.113
331,3,14,-9,74,"-1,-2,-178",0,0,5,0,0,0,65,67,73,0,94,-21.11,6,7.0,-13.0,-991.0,11:56:20.340388,192.168.0.113
336,3,14,-9,74,"-1,-2,-178",0,0,5,0,0,0,65,67,74,0,94,-21.12,6,16.0,22.0,-1011.0,11:56:20.441180,192.168.0.113
341,3,15,-11,73,"-1,-2,-176",0,0,5,0,0,0,65,67,73,0,94,-21.08,6,10.0,3.0,-1002.0,11:56:20.543455,192.168.0.113
347,3,15,-12,73,"-1,-2,-175",0,0,5,0,0,0,65,67,74,0,94,-21.08,6,19.0,3.0,-1001.0,11:56:20.645642,192.168.0.113
352,3,15,-9,74,"-2,-2,-177",1,0,5,0,0,0,64,67,73,0,94,-21.08,6,19.0,15.0,-995.0,11:56:20.747863,192.168.0.113
357,3,16,-12,73,"-2,-3,-175",1,0,5,0,0,0,64,67,74,0,94,-21.06,6,29.0,20.0,-1005.0,11:56:20.847880,192.168.0.113
362,3,17,-9,73,"-1,-2,-177",1,0,5,0,0,0,64,67,73,0,94,-21.09,6,36.0,2.0,-991.0,11:56:20.949899,192.168.0.113
367,3,17,-11,73,"-2,-2,-176",1,0,5,0,0,0,64,67,73,0,94,-21.08,6,10.0,9.0,-1022.0,11:56:21.055280,192.168.0.113
372,3,17,-9,73,"-2,-2,-177",1,0,5,0,0,0,64,67,73,0,94,-21.08,7,0.0,6.0,-995.0,11:56:21.153800,192.168.0.113
377,3,17,-9,73,"-1,-2,-177",0,0,5,0,0,0,64,67,73,0,94,-21.04,7,17.0,18.0,-1005.0,11:56:21.255560,192.168.0.113
382,3,16,-9,73,"-1,-2,-177",0,0,5,0,0,0,64,67,73,0,94,-21.04,7,24.0,13.0,-1011.0,11:56:21.358335,192.168.0.113
387,3,15,-10,73,"-1,-2,-176",0,0,5,0,0,0,64,67,73,0,94,-21.1,7,11.0,-13.0,-994.0,11:56:21.459728,192.168.0.113
392,3,17,-12,72,"0,-3,-175",0,0,5,0,0,0,64,67,72,0,94,-21.1,7,11.0,9.0,-995.0,11:56:21.561802,192.168.0.113
397,3,14,-8,74,"-3,-2,-177",0,0,5,0,0,0,64,67,73,0,94,-21.09,7,-11.0,8.0,-1010.0,11:56:21.663631,192.168.0.113
402,3,15,-10,74,"-2,-2,-175",0,0,5,0,0,0,65,67,73,0,94,-21.09,7,2.0,9.0,-1008.0,11:56:21.765849,192.168.0.113
407,3,16,-6,74,"-1,-2,-178",0,0,5,0,0,0,65,67,73,0,94,-21.18,7,23.0,-7.0,-978.0,11:56:21.867867,192.168.0.113
412,3,16,-8,74,"-2,-2,-176",0,0,5,0,0,0,65,67,73,0,94,-21.13,7,-2.0,-5.0,-1013.0,11:56:21.969718,192.168.0.113
417,3,18,-7,74,"-1,-2,-177",0,0,5,0,0,0,65,67,73,0,94,-21.1,7,-7.0,-19.0,-997.0,11:56:22.071585,192.168.0.113
422,3,18,-10,74,"-1,-3,-175",0,0,5,0,0,0,65,67,74,0,94,-21.1,8,22.0,-3.0,-1000.0,11:56:22.173671,192.168.0.113
427,3,18,-7,74,"-1,-2,-177",1,0,5,0,0,0,65,67,74,0,94,-21.13,8,2.0,6.0,-998.0,11:56:22.275796,192.168.0.113
432,3,19,-9,74,"-1,-2,-176",1,0,5,0,0,0,65,67,73,0,94,-21.12,8,17.0,-19.0,-999.0,11:56:22.380400,192.168.0.113
437,3,22,-10,73,"0,-3,-175",1,0,5,0,0,0,65,67,74,0,94,-21.11,8,-2.0,-17.0,-992.0,11:56:22.479816,192.168.0.113
442,3,20,-10,74,"-1,-3,-175",1,0,5,0,0,0,65,67,73,0,94,-21.13,8,10.0,5.0,-1014.0,11:56:22.582358,192.168.0.113
447,3,21,-11,74,"0,-3,-175",1,0,5,0,0,0,65,67,74,0,94,-21.04,8,-6.0,13.0,-1008.0,11:56:22.683855,192.168.0.113
452,3,20,-10,74,"-1,-2,-176",1,0,5,0,0,0,65,67,74,0,94,-21.13,8,6.0,0.0,-995.0,11:56:22.785341,192.168.0.113
457,3,21,-11,74,"-1,-3,-176",1,0,5,0,0,0,65,67,74,0,94,-21.15,8,11.0,-2.0,-999.0,11:56:22.887904,192.168.0.113
462,3,21,-11,74,"-1,-3,-176",1,0,5,0,0,0,65,67,74,0,94,-21.07,8,25.0,-7.0,-1006.0,11:56:22.989835,192.168.0.113
467,3,21,-10,75,"-1,-2,-176",1,0,5,0,0,0,65,67,74,0,94,-21.11,8,2.0,-5.0,-1005.0,11:56:23.091788,192.168.0.113
472,3,21,-10,75,"-1,-2,-176",1,0,5,0,0,0,65,67,74,0,94,-21.12,9,2.0,-22.0,-995.0,11:56:23.193574,192.168.0.113
477,3,22,-11,74,"-1,-3,-176",1,0,5,0,0,0,65,67,74,0,94,-21.13,9,-5.0,-20.0,-995.0,11:56:23.295725,192.168.0.113
482,3,22,-11,74,"-1,-3,-176",0,0,5,0,0,0,65,67,74,0,94,-21.13,9,2.0,-10.0,-991.0,11:56:23.397868,192.168.0.113
487,3,22,-13,74,"0,-3,-175",0,0,5,0,0,0,65,67,75,0,94,-21.09,9,8.0,-8.0,-975.0,11:56:23.499704,192.168.0.113
492,3,22,-13,74,"0,-3,-175",0,-1,5,0,0,0,65,67,75,0,94,-21.08,9,16.0,4.0,-991.0,11:56:23.602287,192.168.0.113
497,3,22,-13,75,"0,-3,-178",0,-3,5,0,0,0,65,67,75,0,94,-21.1,9,-2.0,-15.0,-1001.0,11:56:23.652387,192.168.0.113
502,3,22,-13,75,"0,-3,-178",0,-2,5,0,-1,0,65,67,75,0,94,-21.15,9,-2.0,-2.0,-987.0,11:56:23.806723,192.168.0.113
507,3,21,-10,75,"-1,-3,-177",0,-1,5,0,-1,0,65,67,74,0,94,-21.11,9,38.0,3.0,-989.0,11:56:23.907512,192.168.0.113
512,3,21,-10,75,"-1,-3,-177",0,0,5,0,-1,0,65,67,74,0,94,-21.1,9,0.0,28.0,-1005.0,11:56:24.009765,192.168.0.113
517,3,21,-10,75,"-1,-3,-177",0,0,5,0,-1,0,65,67,73,0,94,-21.13,9,-9.0,17.0,-1002.0,11:56:24.111757,192.168.0.113
522,3,22,-9,74,"0,-2,-176",0,0,5,0,-1,0,65,67,73,0,94,-21.08,10,6.0,-18.0,-998.0,11:56:24.162539,192.168.0.113
527,3,22,-9,74,"0,-2,-176",0,0,5,0,-1,0,65,67,73,0,94,-21.19,10,-9.0,28.0,-1009.0,11:56:24.266016,192.168.0.113
532,3,22,-7,73,"0,-3,-176",0,0,5,0,-1,0,65,67,72,0,94,-21.14,10,16.0,-6.0,-995.0,11:56:24.367769,192.168.0.113
537,3,22,-7,73,"0,-3,-176",0,0,5,0,0,0,65,67,72,0,94,-21.13,10,6.0,-5.0,-1009.0,11:56:24.470680,192.168.0.113
542,3,24,-1,73,"0,-2,-179",0,0,5,0,0,0,65,67,71,0,94,-21.13,10,18.0,0.0,-1028.0,11:56:24.572354,192.168.0.113
547,3,24,-1,73,"0,-2,-179",0,1,5,0,0,0,65,67,71,0,94,-21.14,10,14.0,0.0,-987.0,11:56:24.675098,192.168.0.113
552,3,25,-4,72,"0,-3,-173",0,1,5,0,0,0,65,67,71,0,94,-21.13,10,6.0,4.0,-1018.0,11:56:24.774509,192.168.0.113
557,3,25,-4,72,"0,-3,-173",0,0,5,0,0,0,65,67,71,0,94,-21.11,10,9.0,-7.0,-1012.0,11:56:24.876438,192.168.0.113
562,3,26,-3,72,"0,-3,-175",0,0,5,0,0,0,65,67,71,0,94,-21.15,10,-5.0,9.0,-997.0,11:56:24.978509,192.168.0.113
567,3,26,-3,72,"0,-3,-175",0,0,5,0,0,0,65,67,71,0,94,-21.1,10,0.0,5.0,-1012.0,11:56:25.080026,192.168.0.113
572,3,26,-3,72,"0,-3,-175",0,0,5,0,0,0,65,67,71,0,94,-21.11,11,13.0,6.0,-1008.0,11:56:25.182444,192.168.0.113
577,3,27,-8,71,"0,-4,-172",0,0,5,0,0,0,65,67,71,0,94,-21.1,11,17.0,-6.0,-990.0,11:56:25.284475,192.168.0.113
582,3,27,-8,71,"0,-4,-172",0,0,5,0,0,0,65,67,72,0,94,-21.1,11,14.0,0.0,-998.0,11:56:25.386448,192.168.0.113
587,3,28,-7,72,"1,-3,-174",0,0,5,0,0,0,65,67,72,0,94,-21.13,11,-20.0,9.0,-1007.0,11:56:25.488478,192.168.0.113
592,3,28,-7,72,"1,-3,-174",0,0,5,1,0,0,65,67,72,0,94,-21.09,11,-5.0,-14.0,-1001.0,11:56:25.591564,192.168.0.113
597,3,30,-4,73,"0,-3,-177",0,0,5,1,0,0,65,67,72,0,94,-21.21,11,1.0,-12.0,-990.0,11:56:25.692538,192.168.0.113
602,3,30,-4,73,"0,-3,-177",0,0,5,1,0,0,65,68,72,0,94,-21.2,11,3.0,1.0,-1010.0,11:56:25.794598,192.168.0.113
607,3,34,-11,73,"0,-4,-173",0,0,5,1,0,0,65,68,72,0,94,-21.12,11,19.0,-4.0,-985.0,11:56:25.896499,192.168.0.113
612,3,34,-11,73,"0,-4,-173",0,0,5,1,0,0,65,68,72,0,94,-21.1,11,0.0,1.0,-999.0,11:56:25.999782,192.168.0.113
617,3,34,-11,73,"0,-4,-173",0,0,5,1,0,0,65,68,73,0,94,-21.14,11,-3.0,11.0,-999.0,11:56:26.100719,192.168.0.113
622,3,39,-7,74,"0,-3,-177",0,0,5,1,0,0,65,68,72,0,94,-21.18,12,-20.0,-13.0,-1002.0,11:56:26.202210,192.168.0.113
627,3,39,-7,74,"0,-3,-177",0,0,5,2,0,0,65,68,73,0,94,-21.15,12,8.0,4.0,-995.0,11:56:26.304827,192.168.0.113
632,3,39,-7,74,"0,-3,-177",0,0,5,2,0,0,65,68,72,0,94,-21.11,12,-15.0,-9.0,-998.0,11:56:26.406258,192.168.0.113
637,3,39,-7,74,"0,-3,-177",0,0,5,2,0,0,65,68,72,0,94,-21.13,12,-17.0,-5.0,-1006.0,11:56:26.508204,192.168.0.113
642,3,39,-7,74,"0,-3,-177",0,0,5,2,0,0,65,68,73,0,94,-21.23,12,-2.0,-2.0,-1009.0,11:56:26.610306,192.168.0.113
647,3,39,-7,74,"0,-3,-177",0,0,5,2,0,0,65,68,72,0,94,-21.17,12,-7.0,1.0,-981.0,11:56:26.715262,192.168.0.113
652,3,39,-7,74,"0,-3,-177",0,0,5,2,0,0,66,68,73,0,94,-21.13,12,-10.0,1.0,-1010.0,11:56:26.814531,192.168.0.113
657,3,39,-7,74,"0,-3,-177",0,0,5,2,0,0,66,68,73,0,94,-21.11,12,-11.0,-4.0,-1004.0,11:56:26.916537,192.168.0.113
662,3,39,-7,74,"0,-3,-177",0,0,5,2,0,0,66,68,73,0,94,-21.12,12,7.0,-17.0,-994.0,11:56:27.018252,192.168.0.113
667,3,39,-7,74,"0,-3,-177",0,0,5,2,0,0,66,68,72,0,94,-21.07,12,-22.0,12.0,-991.0,11:56:27.120280,192.168.0.113
672,3,39,-7,74,"0,-3,-177",0,0,5,2,0,0,66,68,72,0,94,-21.14,13,-15.0,9.0,-1008.0,11:56:27.222269,192.168.0.113
677,3,39,-7,74,"0,-3,-177",0,0,5,2,0,0,66,68,73,0,94,-21.15,13,11.0,-16.0,-986.0,11:56:27.329534,192.168.0.113
683,3,39,-7,74,"0,-3,-177",0,0,5,2,0,0,66,68,72,0,94,-21.18,13,-10.0,-1.0,-1001.0,11:56:27.426235,192.168.0.113
687,3,39,-7,74,"0,-3,-177",0,0,5,2,0,0,66,68,72,0,94,-21.15,13,-2.0,-17.0,-983.0,11:56:27.528412,192.168.0.113
692,3,39,-7,74,"0,-3,-177",0,0,5,2,0,0,66,68,72,0,94,-21.15,13,-7.0,-2.0,-1012.0,11:56:27.630226,192.168.0.113
696,3,39,-7,74,"0,-3,-177",0,0,5,2,0,0,66,68,72,0,94,-21.16,13,9.0,-10.0,-986.0,11:56:27.681571,192.168.0.113
703,3,39,-7,74,"0,-3,-177",0,0,5,2,0,0,65,67,72,0,94,-21.09,13,-22.0,9.0,-1002.0,11:56:27.834490,192.168.0.113
708,3,39,-7,74,"0,-3,-177",0,0,5,2,0,0,65,67,72,0,94,-21.13,13,-17.0,6.0,-981.0,11:56:27.936234,192.168.0.113
713,3,39,-7,74,"0,-3,-177",0,0,5,2,0,0,65,67,72,0,94,-21.14,13,-7.0,-14.0,-992.0,11:56:28.038195,192.168.0.113
718,3,39,-7,74,"0,-3,-177",0,0,5,2,0,0,65,67,72,0,94,-21.11,14,-13.0,9.0,-1011.0,11:56:28.140092,192.168.0.113
723,3,39,-7,74,"0,-3,-177",0,0,5,2,0,0,65,67,72,0,94,-21.08,14,-25.0,7.0,-1001.0,11:56:28.242181,192.168.0.113
728,3,39,-7,74,"0,-3,-177",0,0,5,2,0,0,65,67,72,0,94,-21.15,14,-1.0,0.0,-1014.0,11:56:28.344250,192.168.0.113
733,3,39,-7,74,"0,-3,-177",0,0,5,2,0,0,65,67,72,0,94,-21.16,14,-15.0,-7.0,-982.0,11:56:28.446310,192.168.0.113
738,3,39,-7,74,"0,-3,-177",0,0,5,2,0,0,65,67,72,0,94,-21.1,14,-7.0,9.0,-989.0,11:56:28.548229,192.168.0.113
743,3,39,-7,74,"0,-3,-177",0,0,5,2,0,0,65,67,71,0,94,-21.03,14,16.0,7.0,-1004.0,11:56:28.650279,192.168.0.113
748,3,39,-7,74,"0,-3,-177",0,0,6,2,0,0,65,67,72,0,94,-21.01,14,0.0,12.0,-1025.0,11:56:28.752255,192.168.0.113
753,3,39,-7,74,"0,-3,-177",0,0,6,2,0,0,65,67,71,0,94,-21.05,14,15.0,10.0,-978.0,11:56:28.854308,192.168.0.113
758,3,39,-7,74,"0,-3,-177",0,0,6,2,0,0,65,67,71,0,94,-21.13,14,17.0,13.0,-1044.0,11:56:28.957872,192.168.0.113
762,3,39,-7,74,"0,-3,-177",1,-1,6,2,0,0,65,67,71,0,94,-21.07,14,13.0,-9.0,-1000.0,11:56:29.011046,192.168.0.113
767,3,39,-7,74,"0,-3,-177",1,0,6,2,0,0,65,67,72,0,94,-21.12,15,17.0,-21.0,-984.0,11:56:29.110923,192.168.0.113
772,3,39,-7,74,"0,-3,-177",1,0,6,2,0,0,65,67,71,0,94,-21.16,15,6.0,-4.0,-994.0,11:56:29.211678,192.168.0.113
777,3,39,-7,74,"0,-3,-177",1,0,6,2,0,0,65,67,72,0,94,-21.09,15,3.0,5.0,-1020.0,11:56:29.313336,192.168.0.113
782,3,39,-7,74,"0,-3,-177",1,0,6,2,0,0,65,67,72,0,94,-21.14,15,9.0,34.0,-997.0,11:56:29.416240,192.168.0.113
787,3,39,-7,74,"0,-3,-177",1,0,5,2,0,0,65,67,72,0,94,-21.13,15,17.0,27.0,-997.0,11:56:29.517671,192.168.0.113
792,3,39,-7,74,"0,-3,-177",1,0,5,2,0,0,65,67,73,0,94,-21.11,15,14.0,12.0,-982.0,11:56:29.619783,192.168.0.113
797,3,39,-7,74,"0,-3,-177",2,-1,5,2,0,0,65,67,75,0,94,-20.93,15,-4.0,17.0,-983.0,11:56:29.721414,192.168.0.113
802,3,39,-7,74,"0,-3,-177",1,-2,5,2,0,0,66,68,74,0,94,-21.09,15,10.0,21.0,-998.0,11:56:29.823261,192.168.0.113
807,3,39,-7,74,"0,-3,-177",1,-2,5,2,0,0,66,68,73,0,94,-21.08,15,31.0,1.0,-992.0,11:56:29.925456,192.168.0.113
812,3,39,-7,74,"0,-3,-177",1,-1,5,2,0,0,66,68,73,0,94,-21.08,15,28.0,-10.0,-954.0,11:56:30.027426,192.168.0.113
817,3,39,-7,74,"0,-3,-177",2,-1,5,2,0,0,66,68,72,0,94,-20.92,16,9.0,4.0,-997.0,11:56:30.129418,192.168.0.113
822,3,39,-7,74,"0,-3,-177",1,0,5,2,0,0,66,68,72,0,94,-21.0,16,17.0,3.0,-1021.0,11:56:30.231327,192.168.0.113
827,3,39,-7,74,"0,-3,-177",1,0,5,2,0,0,66,68,71,0,94,-21.0,16,-9.0,10.0,-1000.0,11:56:30.333332,192.168.0.113
832,3,39,-7,74,"0,-3,-177",1,0,5,2,0,0,66,68,71,0,94,-21.11,16,15.0,13.0,-1013.0,11:56:30.435640,192.168.0.113
837,3,39,-7,74,"0,-3,-177",0,0,5,2,0,0,66,68,70,0,94,-21.16,16,11.0,9.0,-1019.0,11:56:30.537177,192.168.0.113
842,3,39,-7,74,"0,-3,-177",0,0,5,2,0,0,66,68,70,0,94,-21.2,16,-19.0,32.0,-1038.0,11:56:30.639392,192.168.0.113
847,3,39,-7,74,"0,-3,-177",0,-1,5,2,0,0,66,68,71,0,94,-21.18,16,-14.0,35.0,-1017.0,11:56:30.741793,192.168.0.113
852,3,39,-7,74,"0,-3,-177",1,-1,5,2,0,0,66,69,71,0,94,-21.14,16,5.0,9.0,-1015.0,11:56:30.843354,192.168.0.113
857,3,39,-7,74,"0,-3,-177",1,-1,5,2,0,0,66,69,71,0,94,-21.09,16,8.0,-3.0,-1007.0,11:56:30.945181,192.168.0.113
862,3,39,-7,74,"0,-3,-177",0,0,5,2,0,0,66,69,71,0,94,-21.16,16,-4.0,14.0,-983.0,11:56:31.047386,192.168.0.113
867,-1,-100,-100,-100,"-1,-1,-1",0,0,5,2,0,0,66,69,71,0,94,-21.04,17,-5.0,15.0,-991.0,11:56:31.149370,192.168.0.113
873,-1,-100,-100,-100,"-1,-1,-1",0,0,5,2,0,0,66,69,71,0,94,-21.09,17,-2.0,8.0,-1007.0,11:56:31.251396,192.168.0.113
878,-1,-100,-100,-100,"-1,-1,-1",0,-1,5,2,0,0,66,69,71,0,94,-21.08,17,2.0,15.0,-1016.0,11:56:31.353182,192.168.0.113
883,-1,-100,-100,-100,"-1,-1,-1",0,0,5,1,0,0,66,69,71,0,94,-21.14,17,0.0,15.0,-1012.0,11:56:31.455440,192.168.0.113
887,-1,-100,-100,-100,"-1,-1,-1",0,0,5,1,0,0,66,69,72,0,94,-21.13,17,5.0,-3.0,-993.0,11:56:31.506240,192.168.0.113
892,-1,-100,-100,-100,"-1,-1,-1",0,0,5,1,0,0,66,69,72,0,94,-21.17,17,3.0,-4.0,-982.0,11:56:31.607988,192.168.0.113
897,-1,-100,-100,-100,"-1,-1,-1",0,0,5,1,0,0,66,69,72,0,94,-21.05,17,-5.0,2.0,-996.0,11:56:31.710107,192.168.0.113
902,-1,-100,-100,-100,"-1,-1,-1",0,-1,5,2,0,0,66,69,72,0,94,-21.17,17,14.0,10.0,-1000.0,11:56:31.812305,192.168.0.113
907,-1,-100,-100,-100,"-1,-1,-1",0,-1,5,2,0,0,66,69,72,0,94,-21.14,17,-6.0,7.0,-1002.0,11:56:31.914251,192.168.0.113
912,-1,-100,-100,-100,"-1,-1,-1",0,-1,5,2,0,0,66,69,72,0,94,-21.22,17,7.0,6.0,-992.0,11:56:32.020047,192.168.0.113
917,-1,-100,-100,-100,"-1,-1,-1",0,-1,5,2,0,0,66,69,72,0,94,-21.08,18,7.0,0.0,-996.0,11:56:32.118208,192.168.0.113
922,-1,-100,-100,-100,"-1,-1,-1",0,-1,5,2,0,0,66,69,72,0,94,-21.13,18,0.0,-8.0,-1003.0,11:56:32.219911,192.168.0.113
927,-1,-100,-100,-100,"-1,-1,-1",0,-1,5,1,0,0,66,69,72,0,94,-21.17,18,-16.0,-17.0,-997.0,11:56:32.322105,192.168.0.113
932,-1,-100,-100,-100,"-1,-1,-1",0,0,5,1,0,0,66,69,71,0,94,-21.13,18,-11.0,4.0,-1020.0,11:56:32.424197,192.168.0.113
937,-1,-100,-100,-100,"-1,-1,-1",0,0,5,1,0,0,66,69,71,0,94,-21.18,18,54.0,-49.0,-995.0,11:56:32.526062,192.168.0.113
942,-1,-100,-100,-100,"-1,-1,-1",0,0,5,1,0,0,66,69,71,0,94,-21.16,18,3.0,11.0,-1009.0,11:56:32.627912,192.168.0.113
947,-1,-100,-100,-100,"-1,-1,-1",0,0,5,2,0,0,66,69,71,0,94,-21.22,18,-2.0,-15.0,-1008.0,11:56:32.730506,192.168.0.113
952,-1,-100,-100,-100,"-1,-1,-1",0,0,5,2,0,0,66,68,71,0,94,-21.2,18,12.0,-22.0,-1004.0,11:56:32.832030,192.168.0.113
957,-1,-100,-100,-100,"-1,-1,-1",0,0,5,2,0,0,66,68,71,0,94,-21.23,18,-19.0,-3.0,-1007.0,11:56:32.934315,192.168.0.113
962,-1,-100,-100,-100,"-1,-1,-1",0,0,5,1,0,0,66,68,71,0,94,-21.22,18,-4.0,-8.0,-975.0,11:56:33.036132,192.168.0.113
967,-1,-100,-100,-100,"-1,-1,-1",0,0,5,1,0,0,66,68,71,0,94,-21.22,19,-3.0,-11.0,-989.0,11:56:33.138514,192.168.0.113
972,-1,-100,-100,-100,"-1,-1,-1",0,0,5,1,0,0,66,68,71,0,94,-21.27,19,11.0,10.0,-992.0,11:56:33.241109,192.168.0.113
977,-1,-100,-100,-100,"-1,-1,-1",0,0,5,1,0,0,66,68,71,0,94,-21.23,19,-2.0,18.0,-1009.0,11:56:33.343360,192.168.0.113
982,-1,-100,-100,-100,"-1,-1,-1",0,0,5,1,0,0,66,68,71,0,94,-21.23,19,5.0,0.0,-987.0,11:56:33.445766,192.168.0.113
987,-1,-100,-100,-100,"-1,-1,-1",0,0,5,1,0,0,66,68,71,0,94,-21.21,19,5.0,7.0,-1008.0,11:56:33.548492,192.168.0.113
992,-1,-100,-100,-100,"-1,-1,-1",0,0,6,1,0,0,66,68,72,0,94,-21.29,19,8.0,7.0,-1004.0,11:56:33.648051,192.168.0.113
997,-1,-100,-100,-100,"-1,-1,-1",0,0,6,1,0,0,66,68,71,0,94,-21.19,19,-4.0,2.0,-999.0,11:56:33.750103,192.168.0.113
1002,-1,-100,-100,-100,"-1,-1,-1",0,0,6,1,0,0,66,68,71,0,94,-21.22,19,-3.0,3.0,-999.0,11:56:33.851971,192.168.0.113
1007,-1,-100,-100,-100,"-1,-1,-1",0,-1,6,2,0,0,66,68,72,0,94,-21.2,19,-6.0,8.0,-995.0,11:56:33.954402,192.168.0.113
1012,-1,-100,-100,-100,"-1,-1,-1",0,-1,6,2,0,0,66,68,72,0,94,-21.17,19,6.0,-10.0,-982.0,11:56:34.056125,192.168.0.113
1017,-1,-100,-100,-100,"-1,-1,-1",0,0,6,2,0,0,66,68,72,0,94,-21.21,20,-10.0,5.0,-1006.0,11:56:34.158026,192.168.0.113
1022,-1,-100,-100,-100,"-1,-1,-1",0,0,6,2,0,0,66,68,71,0,94,-21.18,20,15.0,-2.0,-994.0,11:56:34.260054,192.168.0.113
1027,-1,-100,-100,-100,"-1,-1,-1",0,0,6,2,0,0,66,68,71,0,94,-21.27,20,-11.0,-24.0,-993.0,11:56:34.367656,192.168.0.113
1032,-1,-100,-100,-100,"-1,-1,-1",1,0,6,2,0,0,66,68,70,0,94,-21.27,20,-8.0,-17.0,-973.0,11:56:34.464003,192.168.0.113
1037,-1,-100,-100,-100,"-1,-1,-1",0,0,6,2,0,0,66,68,71,0,94,-21.18,20,11.0,-22.0,-1007.0,11:56:34.566240,192.168.0.113
1042,-1,-100,-100,-100,"-1,-1,-1",0,0,6,2,0,0,66,68,71,0,94,-21.23,20,-14.0,-7.0,-996.0,11:56:34.667954,192.168.0.113
1047,-1,-100,-100,-100,"-1,-1,-1",0,0,5,2,0,0,66,68,70,0,94,-21.19,20,13.0,9.0,-1004.0,11:56:34.769788,192.168.0.113
1052,-1,-100,-100,-100,"-1,-1,-1",1,0,5,2,0,0,67,69,70,0,94,-21.21,20,11.0,-1.0,-1009.0,11:56:34.872052,192.168.0.113
1057,8,-35,7,75,"1,0,-174",1,0,6,2,0,0,67,69,71,0,94,-21.27,20,-1.0,-15.0,-996.0,11:56:34.974280,192.168.0.113
1062,8,-35,7,75,"1,0,-174",0,0,6,1,0,0,67,69,70,0,94,-21.28,20,-4.0,-7.0,-987.0,11:56:35.076119,192.168.0.113
1067,8,-31,3,75,"1,0,-172",0,0,6,1,0,0,67,69,71,0,94,-21.19,21,35.0,10.0,-1023.0,11:56:35.177916,192.168.0.113
1072,8,-31,3,75,"1,0,-172",0,0,6,1,0,0,67,69,70,0,94,-21.25,21,22.0,11.0,-1040.0,11:56:35.280016,192.168.0.113
1076,8,-25,8,75,"2,-1,-175",0,0,6,2,0,0,67,69,70,0,94,-21.26,21,20.0,7.0,-995.0,11:56:35.330935,192.168.0.113
1081,8,-25,8,75,"2,-1,-175",0,-1,6,2,0,0,67,69,70,0,94,-21.17,21,36.0,30.0,-995.0,11:56:35.434672,192.168.0.113
1087,8,-22,10,73,"0,-2,-179",0,-1,6,2,0,0,67,69,70,0,94,-21.19,21,24.0,6.0,-979.0,11:56:35.585733,192.168.0.113
1092,8,-22,10,73,"0,-2,-179",1,-1,6,2,0,0,67,69,70,0,94,-21.13,21,33.0,19.0,-1003.0,11:56:35.688008,192.168.0.113
1097,8,-14,8,73,"1,-2,-176",1,-1,6,2,0,0,67,69,69,0,94,-21.16,21,24.0,-9.0,-1010.0,11:56:35.789895,192.168.0.113
1101,8,-14,8,73,"1,-2,-176",1,-1,6,2,0,0,67,68,70,0,94,-21.16,21,38.0,0.0,-979.0,11:56:35.841221,192.168.0.113
1107,8,-14,8,73,"1,-2,-176",1,-2,6,2,0,0,67,68,69,0,94,-21.11,21,22.0,0.0,-1028.0,11:56:35.943097,192.168.0.113
1112,8,-6,8,73,"2,-3,-178",1,-2,6,2,0,0,67,68,70,0,94,-21.12,21,36.0,-5.0,-995.0,11:56:36.045001,192.168.0.113
1117,8,-6,8,73,"2,-3,-178",1,-1,6,2,0,0,67,68,70,0,94,-21.14,22,20.0,29.0,-993.0,11:56:36.147128,192.168.0.113
1122,8,-2,8,73,"1,-3,-177",1,-1,6,2,0,0,67,68,71,0,94,-21.25,22,20.0,37.0,-1015.0,11:56:36.249247,192.168.0.113
1127,8,-2,8,73,"1,-3,-177",1,-1,6,2,0,0,67,68,72,0,94,-21.26,22,19.0,10.0,-1025.0,11:56:36.351118,192.168.0.113
1132,8,3,7,74,"0,-3,-176",1,-2,5,2,0,0,67,68,72,0,94,-21.27,22,15.0,-2.0,-987.0,11:56:36.453019,192.168.0.113
1137,8,3,7,74,"0,-3,-176",1,-2,5,2,0,0,67,68,73,0,94,-21.27,22,13.0,16.0,-1000.0,11:56:36.555262,192.168.0.113
1142,8,8,9,74,"0,-3,-178",1,-3,5,2,0,0,67,68,73,0,94,-21.25,22,4.0,11.0,-971.0,11:56:36.656969,192.168.0.113
1147,8,8,9,74,"0,-3,-178",1,-3,5,2,0,0,67,68,72,0,94,-21.17,22,3.0,17.0,-997.0,11:56:36.759326,192.168.0.113
1153,8,15,11,73,"1,-3,-179",0,-2,5,2,-1,0,67,69,72,0,94,-21.14,22,23.0,0.0,-979.0,11:56:36.911913,192.168.0.113
1158,8,15,11,73,"1,-3,-179",1,-2,5,2,-1,0,67,69,71,0,94,-21.25,22,7.0,19.0,-997.0,11:56:37.014256,192.168.0.113
1162,8,23,14,72,"2,-3,-179",1,-1,5,2,-1,0,67,69,71,0,94,-21.28,22,14.0,17.0,-1004.0,11:56:37.116131,192.168.0.113
1168,8,23,14,72,"2,-3,-179",1,-2,5,2,-1,0,67,69,70,0,94,-21.25,23,8.0,5.0,-999.0,11:56:37.217796,192.168.0.113
1173,8,23,14,72,"2,-3,-179",1,-2,5,2,-1,0,67,69,70,0,94,-21.22,23,-2.0,27.0,-994.0,11:56:37.319891,192.168.0.113
1178,8,29,14,71,"1,-4,-178",2,-2,5,2,-1,0,67,69,70,0,94,-21.05,23,-2.0,24.0,-999.0,11:56:37.421939,192.168.0.113
1183,8,29,14,71,"1,-4,-178",3,-1,5,1,-2,0,67,69,69,0,94,-21.14,23,15.0,21.0,-1063.0,11:56:37.523934,192.168.0.113
1188,8,29,14,71,"1,-4,-178",4,2,5,1,-1,0,67,69,69,0,94,-21.17,23,16.0,45.0,-996.0,11:56:37.625898,192.168.0.113
1193,8,29,14,71,"1,-4,-178",2,3,5,0,-1,0,67,69,69,0,94,-21.29,23,28.0,32.0,-999.0,11:56:37.728241,192.168.0.113
1197,8,29,14,71,"1,-4,-178",2,1,5,0,0,0,67,69,68,0,94,-21.2,23,45.0,19.0,-1005.0,11:56:37.778956,192.168.0.113
1202,8,29,14,71,"1,-4,-178",2,0,5,0,0,0,67,70,69,0,94,-21.14,23,50.0,-9.0,-972.0,11:56:37.881170,192.168.0.113
1207,8,29,14,71,"1,-4,-178",3,0,6,0,0,0,67,70,68,0,94,-21.21,23,23.0,1.0,-968.0,11:56:37.983168,192.168.0.113
1212,8,29,14,71,"1,-4,-178",3,-1,5,0,0,0,67,70,68,0,94,-21.17,23,41.0,-4.0,-1005.0,11:56:38.085128,192.168.0.113
1217,8,29,14,71,"1,-4,-178",3,0,5,0,0,0,67,70,68,0,94,-21.23,24,26.0,2.0,-998.0,11:56:38.187920,192.168.0.113
1222,8,29,14,71,"1,-4,-178",3,0,5,0,0,0,67,70,67,0,94,-21.27,24,35.0,21.0,-1006.0,11:56:38.366621,192.168.0.113
1227,8,29,14,71,"1,-4,-178",3,0,5,0,0,0,67,70,67,0,94,-21.16,24,50.0,-15.0,-1016.0,11:56:38.453209,192.168.0.113
1232,8,29,14,71,"1,-4,-178",3,-1,5,0,0,0,67,70,67,0,94,-21.12,24,34.0,-6.0,-998.0,11:56:38.492944,192.168.0.113
1237,8,29,14,71,"1,-4,-178",2,-1,5,0,0,0,67,70,67,0,94,-21.16,24,26.0,0.0,-1030.0,11:56:38.595807,192.168.0.113
1242,8,29,14,71,"1,-4,-178",2,0,5,0,0,0,67,70,67,0,94,-21.14,24,24.0,-3.0,-1007.0,11:56:38.697738,192.168.0.113
1247,8,29,14,71,"1,-4,-178",2,0,5,0,0,0,67,70,68,0,94,-21.22,24,33.0,0.0,-1012.0,11:56:38.799735,192.168.0.113
1252,8,29,14,71,"1,-4,-178",2,0,5,0,0,0,66,69,67,0,94,-21.15,24,33.0,-7.0,-1006.0,11:56:38.908061,192.168.0.113
1257,8,29,14,71,"1,-4,-178",2,0,5,0,0,0,66,69,68,0,94,-21.17,24,24.0,-1.0,-1009.0,11:56:39.003826,192.168.0.113
1263,8,29,14,71,"1,-4,-178",2,0,6,0,0,0,66,69,68,0,94,-21.22,24,22.0,-2.0,-978.0,11:56:39.105563,192.168.0.113
1268,8,29,14,71,"1,-4,-178",2,0,5,0,0,0,66,69,69,0,94,-21.22,25,14.0,6.0,-986.0,11:56:39.207682,192.168.0.113
1273,8,29,14,71,"1,-4,-178",2,0,5,0,0,0,66,69,68,0,94,-21.11,25,23.0,15.0,-1009.0,11:56:39.309680,192.168.0.113
1278,8,29,14,71,"1,-4,-178",1,0,6,0,0,0,66,69,69,0,94,-21.16,25,40.0,-13.0,-1008.0,11:56:39.411821,192.168.0.113
1283,8,29,14,71,"1,-4,-178",1,0,6,0,0,0,66,69,69,0,94,-21.23,25,17.0,8.0,-968.0,11:56:39.586461,192.168.0.113
1288,8,29,14,71,"1,-4,-178",1,0,6,0,0,0,66,69,69,0,94,-21.23,25,24.0,-4.0,-1001.0,11:56:39.615731,192.168.0.113
1293,8,29,14,71,"1,-4,-178",1,0,6,0,0,0,66,69,70,0,94,-21.21,25,9.0,-8.0,-998.0,11:56:39.795407,192.168.0.113
1298,8,29,14,71,"1,-4,-178",1,0,5,0,0,0,66,69,70,0,94,-21.11,25,5.0,-4.0,-993.0,11:56:39.819683,192.168.0.113
1303,8,29,14,71,"1,-4,-178",1,0,5,0,0,0,66,69,71,0,94,-21.2,25,15.0,-5.0,-1024.0,11:56:40.065656,192.168.0.113
1308,8,29,14,71,"1,-4,-178",1,0,5,0,0,0,66,69,71,0,94,-21.15,25,-8.0,-3.0,-1001.0,11:56:40.066521,192.168.0.113
1313,8,29,14,71,"1,-4,-178",1,0,5,0,0,0,66,69,72,0,94,-21.23,25,0.0,2.0,-967.0,11:56:40.272071,192.168.0.113
1318,8,29,14,71,"1,-4,-178",0,0,5,0,0,0,66,69,72,0,94,-21.2,26,-6.0,18.0,-980.0,11:56:40.272875,192.168.0.113
1323,8,29,14,71,"1,-4,-178",0,0,5,0,0,0,66,69,72,0,94,-21.11,26,0.0,6.0,-1011.0,11:56:40.478498,192.168.0.113
1328,8,29,14,71,"1,-4,-178",0,0,5,0,0,0,66,69,72,0,94,-21.14,26,-1.0,-18.0,-1012.0,11:56:40.479373,192.168.0.113
1333,8,29,14,71,"1,-4,-178",0,0,5,0,0,0,66,69,72,0,94,-21.13,26,17.0,-5.0,-989.0,11:56:40.685086,192.168.0.113
1338,8,29,14,71,"1,-4,-178",0,0,5,0,0,0,66,69,71,0,94,-21.13,26,25.0,-6.0,-986.0,11:56:40.686083,192.168.0.113
1343,8,29,14,71,"1,-4,-178",0,0,5,0,0,0,66,69,72,0,94,-21.08,26,3.0,20.0,-992.0,11:56:40.891466,192.168.0.113
1347,8,29,14,71,"1,-4,-178",0,0,5,0,0,0,66,69,72,0,94,-21.15,26,10.0,13.0,-1001.0,11:56:40.892209,192.168.0.113
1352,8,29,14,71,"1,-4,-178",0,-1,5,0,0,0,67,70,72,0,94,-21.13,26,13.0,-13.0,-994.0,11:56:40.892981,192.168.0.113
1357,8,29,14,71,"1,-4,-178",0,0,5,0,0,0,67,70,72,0,94,-21.11,26,13.0,-1.0,-983.0,11:56:41.098410,192.168.0.113
1362,8,29,14,71,"1,-4,-178",0,0,5,0,0,0,67,70,72,0,94,-21.08,26,12.0,2.0,-992.0,11:56:41.099423,192.168.0.113
1368,8,29,14,71,"1,-4,-178",1,0,5,0,0,0,67,70,72,0,94,-21.12,27,19.0,4.0,-1005.0,11:56:41.304851,192.168.0.113
1373,8,29,14,71,"1,-4,-178",1,0,5,0,0,0,67,70,72,0,94,-21.22,27,36.0,-25.0,-984.0,11:56:41.349793,192.168.0.113
1378,8,29,14,71,"1,-4,-178",1,0,5,0,0,0,67,70,72,0,94,-21.1,27,17.0,11.0,-1003.0,11:56:41.511318,192.168.0.113
1383,8,29,14,71,"1,-4,-178",1,0,5,0,0,0,67,70,72,0,94,-21.03,27,9.0,23.0,-990.0,11:56:41.555755,192.168.0.113
1387,8,29,14,71,"1,-4,-178",1,0,6,0,0,0,67,70,72,0,94,-21.11,27,21.0,-22.0,-1006.0,11:56:41.718537,192.168.0.113
1392,8,29,14,71,"1,-4,-178",0,0,6,0,0,0,67,70,72,0,94,-20.99,27,16.0,-23.0,-1024.0,11:56:41.719375,192.168.0.113
1397,8,29,14,71,"1,-4,-178",0,0,6,0,0,0,67,70,72,0,94,-20.98,27,15.0,-18.0,-1017.0,11:56:41.924719,192.168.0.113
1402,8,29,14,71,"1,-4,-178",1,0,6,0,0,0,67,69,72,0,94,-20.96,27,-7.0,0.0,-961.0,11:56:41.925484,192.168.0.113
1407,8,29,14,71,"1,-4,-178",0,0,6,0,0,0,67,69,72,0,94,-21.06,27,27.0,-56.0,-1011.0,11:56:42.131075,192.168.0.113
1412,8,29,14,71,"1,-4,-178",0,0,5,0,0,0,67,69,72,0,93,-21.13,28,26.0,-13.0,-1017.0,11:56:42.131944,192.168.0.113
1417,8,29,14,71,"1,-4,-178",0,0,5,0,0,0,67,69,72,0,93,-21.17,28,35.0,-33.0,-1011.0,11:56:42.337694,192.168.0.113
1422,8,29,14,71,"1,-4,-178",1,1,5,0,0,0,67,69,72,0,93,-20.96,28,42.0,-22.0,-955.0,11:56:42.338483,192.168.0.113
1427,7,42,-1,74,"1,2,168",1,1,5,0,0,0,67,69,72,0,93,-21.1,28,23.0,-19.0,-989.0,11:56:42.545857,192.168.0.113
1432,7,42,-1,74,"1,2,168",1,1,5,0,0,0,67,69,72,0,93,-21.04,28,38.0,-14.0,-991.0,11:56:42.546643,192.168.0.113
1437,7,42,-1,74,"1,2,168",2,1,5,0,0,0,67,69,72,0,93,-21.01,28,34.0,-31.0,-965.0,11:56:42.752295,192.168.0.113
1442,7,42,-1,74,"1,2,168",2,0,5,0,0,0,67,69,72,0,93,-21.06,28,30.0,-28.0,-1001.0,11:56:42.753073,192.168.0.113
1447,7,42,-1,74,"1,2,168",2,0,5,0,0,0,67,69,71,0,93,-21.02,28,11.0,-6.0,-1030.0,11:56:42.958624,192.168.0.113
1452,7,42,-1,74,"1,2,168",2,0,5,0,0,0,67,69,71,0,93,-21.11,28,24.0,-7.0,-998.0,11:56:42.959453,192.168.0.113
1458,7,42,-1,74,"1,2,168",1,0,5,0,0,0,67,69,71,0,93,-21.12,28,10.0,-5.0,-1008.0,11:56:43.164765,192.168.0.113
1463,7,42,-1,74,"1,2,168",1,0,5,0,0,0,67,69,71,0,93,-21.06,29,8.0,4.0,-996.0,11:56:43.165774,192.168.0.113
1468,7,42,-1,74,"1,2,168",1,0,5,0,0,0,67,69,71,0,93,-21.03,29,27.0,-6.0,-1010.0,11:56:43.371215,192.168.0.113
1473,7,42,-1,74,"1,2,168",1,0,5,0,0,0,67,69,72,0,93,-21.03,29,20.0,0.0,-1016.0,11:56:43.372051,192.168.0.113
1477,7,42,-1,74,"1,2,168",1,0,5,0,0,0,67,69,71,0,93,-21.06,29,15.0,-3.0,-990.0,11:56:43.577485,192.168.0.113
1482,7,42,-1,74,"1,2,168",1,0,5,0,0,0,67,69,71,0,93,-21.08,29,41.0,-15.0,-981.0,11:56:43.578302,192.168.0.113
1487,7,42,-1,74,"1,2,168",1,0,5,0,0,0,67,69,72,0,93,-21.05,29,22.0,-1.0,-992.0,11:56:43.783992,192.168.0.113
1492,7,42,-1,74,"1,2,168",1,0,6,0,0,0,67,69,71,0,93,-21.01,29,20.0,2.0,-986.0,11:56:43.784836,192.168.0.113
1497,7,42,-1,74,"1,2,168",0,0,5,0,0,0,67,69,71,0,93,-21.03,29,18.0,2.0,-1002.0,11:56:43.990064,192.168.0.113
1502,7,42,-1,74,"1,2,168",1,0,5,0,0,0,67,70,71,0,93,-21.07,29,16.0,-18.0,-1003.0,11:56:43.990954,192.168.0.113
1507,7,42,-1,74,"1,2,168",1,0,5,0,0,0,67,70,71,0,93,-21.01,29,37.0,-2.0,-1013.0,11:56:44.198495,192.168.0.113
1512,7,42,-1,74,"1,2,168",1,0,5,0,0,0,67,70,71,0,93,-21.13,30,23.0,-1.0,-995.0,11:56:44.199371,192.168.0.113
1517,7,42,-1,74,"1,2,168",1,0,5,0,0,0,67,70,71,0,93,-21.13,30,13.0,-2.0,-1003.0,11:56:44.404882,192.168.0.113
1522,7,42,-1,74,"1,2,168",1,0,5,0,0,0,67,70,71,0,93,-21.1,30,36.0,1.0,-999.0,11:56:44.405701,192.168.0.113
1527,7,42,-1,74,"1,2,168",1,0,5,0,0,0,67,70,71,0,93,-21.11,30,21.0,3.0,-998.0,11:56:44.610043,192.168.0.113
1530,7,42,-1,74,"1,2,168",1,0,6,0,0,0,67,70,71,0,93,-21.04,30,12.0,13.0,-1010.0,11:56:44.610538,192.168.0.113
1535,7,42,-1,74,"1,2,168",1,0,6,0,0,0,67,70,71,0,93,-21.04,30,13.0,-1.0,-1004.0,11:56:44.613268,192.168.0.113
1540,7,42,-1,74,"1,2,168",0,0,6,0,0,0,67,70,71,0,93,-21.05,30,8.0,-23.0,-996.0,11:56:44.815420,192.168.0.113
1545,7,42,-1,74,"1,2,168",0,0,5,0,0,0,67,70,71,0,93,-21.04,30,24.0,-2.0,-1002.0,11:56:44.817573,192.168.0.113
1551,7,42,-1,74,"1,2,168",0,0,5,0,0,0,68,71,71,0,93,-20.98,30,17.0,-9.0,-987.0,11:56:45.024180,192.168.0.113
1556,7,42,-1,74,"1,2,168",0,0,5,0,0,0,68,71,71,0,93,-21.13,30,12.0,-10.0,-1005.0,11:56:45.227775,192.168.0.113
1561,7,42,-1,74,"1,2,168",0,0,5,0,0,0,68,71,72,0,93,-21.02,31,18.0,-7.0,-995.0,11:56:45.228682,192.168.0.113
1567,7,42,-1,74,"1,2,168",0,0,5,0,0,0,68,71,72,0,93,-20.98,31,26.0,-5.0,-1010.0,11:56:45.276824,192.168.0.113
1572,7,42,-1,74,"1,2,168",0,0,5,0,0,0,68,71,72,0,93,-21.0,31,6.0,-9.0,-1000.0,11:56:45.378765,192.168.0.113
1577,7,42,-1,74,"1,2,168",0,0,5,0,0,0,68,71,72,0,93,-20.96,31,4.0,0.0,-1001.0,11:56:45.487559,192.168.0.113
1582,7,42,-1,74,"1,2,168",0,0,5,0,0,0,68,71,72,0,93,-20.93,31,20.0,-1.0,-1002.0,11:56:45.582869,192.168.0.113
1588,7,42,-1,74,"1,2,168",0,0,5,0,0,0,68,71,72,0,93,-20.92,31,8.0,-12.0,-983.0,11:56:45.684711,192.168.0.113
1593,7,42,-1,74,"1,2,168",1,0,5,0,0,0,68,71,72,0,93,-20.94,31,12.0,-26.0,-984.0,11:56:45.786673,192.168.0.113
1598,7,42,-1,74,"1,2,168",0,0,5,0,0,0,68,71,72,0,93,-20.97,31,18.0,-12.0,-1014.0,11:56:45.888642,192.168.0.113
1603,7,42,-1,74,"1,2,168",0,0,5,0,0,0,68,70,72,0,93,-21.01,31,7.0,0.0,-1001.0,11:56:45.990652,192.168.0.113
1605,7,42,-1,74,"1,2,168",0,0,5,0,0,0,68,70,72,0,92,-21.05,31,14.0,2.0,-1003.0,11:56:46.041627,192.168.0.113
1610,7,42,-1,74,"1,2,168",0,0,5,0,0,0,68,70,72,0,92,-20.95,32,10.0,-15.0,-1001.0,11:56:46.143811,192.168.0.113
1619,7,42,-1,74,"1,2,168",0,0,5,0,0,0,68,70,72,0,92,-21.02,32,22.0,0.0,-1002.0,11:56:46.296637,192.168.0.113
1623,7,42,-1,74,"1,2,168",1,0,5,0,0,0,68,70,72,0,92,-20.88,32,12.0,-16.0,-991.0,11:56:46.399316,192.168.0.113
1628,7,42,-1,74,"1,2,168",1,0,5,0,0,0,68,70,71,0,92,-21.05,32,19.0,-23.0,-996.0,11:56:46.500544,192.168.0.113
1631,7,42,-1,74,"1,2,168",0,0,5,0,0,0,68,70,71,0,92,-21.01,32,-12.0,-9.0,-1004.0,11:56:46.553767,192.168.0.113
1635,7,42,-1,74,"1,2,168",0,0,5,0,0,0,68,70,71,0,92,-21.04,32,-6.0,-4.0,-985.0,11:56:46.655365,192.168.0.113
1640,7,41,-18,70,"2,-2,178",0,0,5,0,0,0,68,70,71,0,92,-20.97,32,9.0,-38.0,-1032.0,11:56:46.757669,192.168.0.113
1645,7,41,-18,70,"2,-2,178",1,0,5,0,0,0,68,70,71,0,92,-20.86,32,18.0,2.0,-1018.0,11:56:46.857382,192.168.0.113
1650,7,41,-18,70,"2,-2,178",1,0,5,0,0,0,67,70,71,0,92,-20.94,32,0.0,0.0,-1005.0,11:56:46.959457,192.168.0.113
1655,7,41,-18,70,"2,-2,178",0,1,5,0,0,0,67,70,71,0,92,-20.99,32,3.0,-12.0,-998.0,11:56:47.061426,192.168.0.113
1661,7,41,-18,70,"2,-2,178",0,0,5,0,0,0,67,70,71,0,92,-20.97,33,15.0,-16.0,-982.0,11:56:47.163403,192.168.0.113
1666,7,41,-18,70,"2,-2,178",0,1,5,0,0,0,67,70,71,0,92,-20.96,33,18.0,-6.0,-1012.0,11:56:47.265285,192.168.0.113
1671,7,41,-18,70,"2,-2,178",0,1,5,0,0,0,67,70,70,0,92,-21.08,33,25.0,-15.0,-1005.0,11:56:47.367417,192.168.0.113
1676,7,41,-18,70,"2,-2,178",1,0,5,0,0,0,67,70,70,0,92,-21.05,33,18.0,-15.0,-1016.0,11:56:47.469362,192.168.0.113
1681,7,41,-18,70,"2,-2,178",1,0,5,0,0,0,67,70,70,0,92,-20.96,33,22.0,-23.0,-1023.0,11:56:47.572551,192.168.0.113
1686,7,41,-18,70,"2,-2,178",1,0,5,0,0,0,67,70,70,0,92,-21.0,33,10.0,-3.0,-1014.0,11:56:47.673420,192.168.0.113
1691,7,41,-18,70,"2,-2,178",1,0,5,0,0,0,67,70,70,0,92,-20.83,33,8.0,6.0,-998.0,11:56:47.775436,192.168.0.113
1696,7,41,-18,70,"2,-2,178",1,0,5,0,0,0,67,70,70,0,92,-20.85,33,32.0,-28.0,-959.0,11:56:47.877338,192.168.0.113
1701,7,41,-18,70,"2,-2,178",1,0,5,0,0,0,67,69,71,0,92,-20.91,33,26.0,-16.0,-979.0,11:56:47.979318,192.168.0.113
1707,7,41,-18,70,"2,-2,178",1,0,5,0,0,0,67,69,71,0,92,-20.93,33,18.0,-9.0,-1008.0,11:56:48.081270,192.168.0.113
1712,7,41,-18,70,"2,-2,178",0,0,5,0,0,0,67,69,70,0,92,-20.89,34,14.0,7.0,-967.0,11:56:48.183449,192.168.0.113
1717,7,41,-18,70,"2,-2,178",0,0,5,0,0,0,67,69,71,0,92,-20.97,34,7.0,-9.0,-1011.0,11:56:48.285301,192.168.0.113
1722,7,41,-18,70,"2,-2,178",1,0,5,0,0,0,67,69,70,0,92,-21.07,34,1.0,17.0,-980.0,11:56:48.387396,192.168.0.113
1727,7,41,-18,70,"2,-2,178",1,0,5,0,0,0,67,69,70,0,92,-20.92,34,11.0,-4.0,-996.0,11:56:48.489335,192.168.0.113
1732,7,41,-18,70,"2,-2,178",1,0,5,0,0,0,67,69,71,0,92,-20.91,34,16.0,1.0,-1003.0,11:56:48.591870,192.168.0.113
1737,7,41,-18,70,"2,-2,178",1,0,5,0,0,0,67,69,70,0,92,-21.0,34,43.0,-3.0,-984.0,11:56:48.693429,192.168.0.113
1742,7,41,-18,70,"2,-2,178",1,0,5,0,0,0,67,69,71,0,92,-20.96,34,22.0,-4.0,-982.0,11:56:48.795231,192.168.0.113
1747,7,41,-18,70,"2,-2,178",1,0,5,0,0,0,67,69,71,0,92,-20.94,34,-4.0,-9.0,-1023.0,11:56:48.897334,192.168.0.113
1752,7,41,-18,70,"2,-2,178",1,0,5,0,0,0,68,70,71,0,92,-20.98,34,-1.0,5.0,-992.0,11:56:48.999139,192.168.0.113
1757,7,41,-18,70,"2,-2,178",1,0,5,0,0,0,68,70,71,0,92,-20.97,34,21.0,-1.0,-982.0,11:56:49.101337,192.168.0.113
1762,7,41,-18,70,"2,-2,178",2,0,5,0,0,0,68,70,72,0,92,-21.0,35,29.0,-9.0,-979.0,11:56:49.203256,192.168.0.113
1767,7,41,-18,70,"2,-2,178",2,0,5,0,0,0,68,70,73,0,92,-20.94,35,17.0,2.0,-991.0,11:56:49.305204,192.168.0.113
1772,7,41,-18,70,"2,-2,178",1,0,5,0,0,0,68,70,72,0,92,-21.05,35,-17.0,2.0,-1010.0,11:56:49.407343,192.168.0.113
1777,7,41,-18,70,"2,-2,178",1,0,5,0,0,0,68,70,73,0,92,-20.92,35,39.0,9.0,-985.0,11:56:49.509209,192.168.0.113
1782,7,41,-18,70,"2,-2,178",1,0,5,0,0,0,68,70,73,0,92,-21.02,35,0.0,14.0,-985.0,11:56:49.611291,192.168.0.113
1787,7,41,-18,70,"2,-2,178",0,0,5,0,0,0,68,70,73,0,92,-20.95,35,11.0,46.0,-997.0,11:56:49.713197,192.168.0.113
1792,7,41,-18,70,"2,-2,178",0,0,5,0,0,0,68,70,73,0,92,-20.95,35,12.0,-12.0,-972.0,11:56:49.815240,192.168.0.113
1797,7,48,-21,68,"5,-2,178",1,-1,5,0,0,0,68,70,72,0,92,-20.93,35,26.0,3.0,-993.0,11:56:49.917278,192.168.0.113
1803,7,48,-21,68,"5,-2,178",1,-1,5,0,0,0,68,70,73,0,92,-20.97,35,33.0,43.0,-999.0,11:56:50.019298,192.168.0.113
1808,8,47,17,70,"3,-6,-177",1,0,5,0,0,0,68,70,72,0,92,-20.89,35,12.0,20.0,-1024.0,11:56:50.121429,192.168.0.113
1813,8,47,17,70,"3,-6,-177",1,-1,5,0,0,0,68,70,72,0,92,-20.91,36,17.0,56.0,-987.0,11:56:50.224339,192.168.0.113
1814,8,47,16,70,"3,-5,-177",1,-2,5,0,0,0,68,70,72,0,92,-20.89,36,19.0,42.0,-1016.0,11:56:50.274515,192.168.0.113
1819,8,47,16,70,"3,-5,-177",1,-2,5,0,0,0,68,70,72,0,92,-20.94,36,36.0,8.0,-988.0,11:56:50.376441,192.168.0.113
1824,8,47,16,70,"3,-5,-177",1,-1,5,0,0,0,68,70,71,0,92,-20.93,36,28.0,26.0,-1002.0,11:56:50.478337,192.168.0.113
1830,8,47,16,70,"3,-5,-177",1,-1,6,0,0,0,68,70,72,0,92,-20.98,36,39.0,42.0,-1012.0,11:56:50.581898,192.168.0.113
1834,8,47,16,70,"3,-5,-177",1,-1,6,0,0,0,68,70,72,0,92,-20.95,36,22.0,22.0,-996.0,11:56:50.682432,192.168.0.113
1839,8,47,16,70,"3,-5,-177",1,-1,6,0,0,0,68,70,71,0,92,-21.06,36,19.0,41.0,-1021.0,11:56:50.784481,192.168.0.113
1844,8,46,17,69,"2,-5,-179",1,-1,6,0,0,0,68,70,72,0,92,-21.07,36,20.0,39.0,-1007.0,11:56:50.886531,192.168.0.113
1850,8,46,17,69,"2,-5,-179",1,-1,6,0,0,0,69,71,72,0,92,-21.0,36,33.0,22.0,-1008.0,11:56:50.988340,192.168.0.113
1855,8,48,12,69,"3,-6,-176",1,-1,6,0,0,0,69,71,72,0,92,-20.93,36,24.0,23.0,-975.0,11:56:51.090357,192.168.0.113
1860,8,48,12,69,"3,-6,-176",1,-2,6,0,0,0,69,71,72,0,92,-20.96,37,-6.0,21.0,-969.0,11:56:51.192296,192.168.0.113
1865,8,48,12,69,"3,-6,-176",1,-1,5,0,0,0,69,71,72,0,92,-20.94,37,14.0,28.0,-984.0,11:56:51.294829,192.168.0.113
1870,8,48,12,69,"3,-6,-176",0,-1,5,0,0,0,69,71,71,0,92,-20.86,37,-12.0,37.0,-982.0,11:56:51.396410,192.168.0.113
1875,8,48,12,69,"3,-6,-176",0,-1,5,0,0,0,69,71,70,0,92,-20.85,37,27.0,34.0,-984.0,11:56:51.498427,192.168.0.113
1880,8,48,12,69,"3,-6,-176",0,-2,5,0,0,0,69,71,70,0,92,-20.98,37,27.0,19.0,-993.0,11:56:51.599949,192.168.0.113
1887,8,48,12,69,"3,-6,-176",1,-1,5,0,0,0,69,71,69,0,92,-21.01,37,-15.0,48.0,-1034.0,11:56:51.753411,192.168.0.113
1892,8,48,12,69,"3,-6,-176",1,-1,5,0,0,0,69,71,69,0,92,-20.91,37,14.0,39.0,-973.0,11:56:51.855179,192.168.0.113
1897,8,48,12,69,"3,-6,-176",0,-1,6,0,0,0,69,71,69,0,92,-21.03,37,16.0,21.0,-981.0,11:56:51.956945,192.168.0.113
1902,8,48,12,69,"3,-6,-176",0,-1,6,0,0,0,68,71,69,0,92,-20.99,37,28.0,39.0,-1004.0,11:56:52.059230,192.168.0.113
1907,8,48,12,69,"3,-6,-176",0,-1,6,0,0,0,68,71,69,0,91,-20.96,38,37.0,11.0,-967.0,11:56:52.161280,192.168.0.113
1912,8,48,12,69,"3,-6,-176",0,-1,6,0,0,0,68,71,69,0,91,-20.92,38,25.0,33.0,-993.0,11:56:52.263401,192.168.0.113
1917,8,43,17,68,"2,-6,-177",1,0,6,0,0,0,68,71,69,0,91,-20.99,38,35.0,5.0,-1018.0,11:56:52.365313,192.168.0.113
1922,8,43,17,68,"2,-6,-177",1,-1,6,0,0,0,68,71,69,0,91,-21.03,38,28.0,33.0,-996.0,11:56:52.468025,192.168.0.113
1927,8,45,13,67,"3,-7,-176",1,-1,6,0,0,0,68,71,68,0,91,-21.0,38,18.0,25.0,-1015.0,11:56:52.569610,192.168.0.113
1932,8,45,13,67,"3,-7,-176",1,-1,5,0,0,0,68,71,68,0,91,-21.09,38,28.0,10.0,-994.0,11:56:52.671088,192.168.0.113
1937,8,45,13,67,"3,-7,-176",1,-1,5,0,0,0,68,71,68,0,91,-21.1,38,34.0,23.0,-1011.0,11:56:52.773271,192.168.0.113
1942,8,45,13,67,"3,-7,-176",1,-1,5,0,0,0,68,71,68,0,91,-20.93,38,13.0,37.0,-996.0,11:56:52.875113,192.168.0.113
1947,8,45,13,67,"3,-7,-176",1,-1,5,0,0,0,68,71,68,0,91,-21.09,38,-18.0,-2.0,-1021.0,11:56:52.980280,192.168.0.113
1952,8,45,13,67,"3,-7,-176",1,-1,5,0,0,0,69,70,68,0,91,-21.13,38,-3.0,-10.0,-1008.0,11:56:53.079054,192.168.0.113
1957,8,45,13,67,"3,-7,-176",1,0,5,0,0,0,69,70,68,0,91,-21.02,39,5.0,17.0,-988.0,11:56:53.180908,192.168.0.113
1962,8,45,13,67,"3,-7,-176",0,0,5,0,0,0,69,70,68,0,91,-21.09,39,0.0,-7.0,-978.0,11:56:53.282993,192.168.0.113
1967,8,45,13,67,"3,-7,-176",0,0,5,0,0,0,69,70,68,0,91,-21.03,39,-15.0,3.0,-990.0,11:56:53.384963,192.168.0.113
1972,8,45,13,67,"3,-7,-176",0,0,5,0,0,0,69,70,67,0,91,-21.05,39,5.0,10.0,-1010.0,11:56:53.487165,192.168.0.113
1977,8,45,13,67,"3,-7,-176",0,0,5,0,0,0,69,70,67,0,91,-21.05,39,-2.0,8.0,-998.0,11:56:53.589224,192.168.0.113
1982,8,45,13,67,"3,-7,-176",0,0,5,0,0,0,69,70,67,0,91,-20.99,39,20.0,7.0,-1004.0,11:56:53.690631,192.168.0.113
1987,8,45,13,67,"3,-7,-176",0,0,5,0,0,0,69,70,67,0,91,-21.04,39,0.0,4.0,-1011.0,11:56:53.793172,192.168.0.113
1992,8,45,13,67,"3,-7,-176",0,0,5,0,0,0,69,70,67,0,91,-21.06,39,3.0,0.0,-1015.0,11:56:53.895198,192.168.0.113
1997,8,45,13,67,"3,-7,-176",0,0,5,0,0,0,69,70,67,0,91,-21.03,39,3.0,0.0,-1007.0,11:56:53.997093,192.168.0.113
2002,8,45,13,67,"3,-7,-176",0,0,5,0,0,0,68,70,67,0,91,-21.05,39,11.0,2.0,-996.0,11:56:54.099065,192.168.0.113
2007,8,45,13,67,"3,-7,-176",0,0,6,0,0,0,68,70,67,0,91,-21.0,40,0.0,2.0,-991.0,11:56:54.200850,192.168.0.113
2012,8,45,13,67,"3,-7,-176",0,0,6,0,0,0,68,70,67,0,91,-20.96,40,9.0,-13.0,-965.0,11:56:54.303101,192.168.0.113
2017,8,45,13,67,"3,-7,-176",0,0,6,0,0,0,68,70,67,0,91,-21.02,40,14.0,-6.0,-1019.0,11:56:54.405390,192.168.0.113
2022,8,45,13,67,"3,-7,-176",0,0,6,0,0,0,68,70,67,0,91,-21.0,40,12.0,-12.0,-1007.0,11:56:54.507020,192.168.0.113
2028,8,45,13,67,"3,-7,-176",0,0,5,0,0,0,68,70,68,0,91,-20.95,40,-4.0,-19.0,-992.0,11:56:54.608948,192.168.0.113
2032,8,45,13,67,"3,-7,-176",1,1,5,0,0,0,68,70,67,0,91,-21.09,40,-5.0,-26.0,-1010.0,11:56:54.711074,192.168.0.113
2038,8,45,13,67,"3,-7,-176",0,0,5,0,0,0,68,70,68,0,91,-21.06,40,2.0,2.0,-992.0,11:56:54.812794,192.168.0.113
2043,8,45,13,67,"3,-7,-176",0,0,5,0,0,0,68,70,68,0,91,-21.02,40,8.0,7.0,-1005.0,11:56:54.914946,192.168.0.113
2048,8,45,13,67,"3,-7,-176",0,0,5,0,0,0,68,70,68,0,91,-21.01,40,-14.0,5.0,-1004.0,11:56:55.017053,192.168.0.113
2053,8,45,13,67,"3,-7,-176",0,0,5,0,0,0,69,71,68,0,91,-21.05,40,-4.0,13.0,-997.0,11:56:55.119039,192.168.0.113
2058,8,45,13,67,"3,-7,-176",0,0,5,0,0,0,69,71,68,0,91,-21.04,41,11.0,-15.0,-988.0,11:56:55.221063,192.168.0.113
2059,8,45,13,67,"3,-7,-176",0,0,5,0,0,0,69,71,68,0,91,-21.06,41,4.0,23.0,-963.0,11:56:55.275305,192.168.0.113
2064,8,45,13,67,"3,-7,-176",0,0,5,0,0,0,69,71,68,0,91,-21.01,41,1.0,20.0,-935.0,11:56:55.374223,192.168.0.113
2069,8,45,13,67,"3,-7,-176",0,0,5,0,0,1,69,71,66,0,91,-21.14,41,19.0,6.0,-907.0,11:56:55.476155,192.168.0.113
2074,8,45,13,67,"3,-7,-176",0,0,5,0,0,1,69,71,64,0,91,-21.18,41,24.0,7.0,-924.0,11:56:55.578194,192.168.0.113
2080,8,45,13,67,"3,-7,-176",0,0,5,0,0,2,69,71,61,0,91,-21.07,41,23.0,-5.0,-914.0,11:56:55.680213,192.168.0.113
2085,8,45,13,67,"3,-7,-176",0,0,5,0,0,3,69,71,58,0,91,-21.18,41,10.0,10.0,-966.0,11:56:55.782210,192.168.0.113
2091,8,45,13,67,"3,-7,-176",0,-1,5,0,0,3,69,71,54,-10,91,-21.1,41,-19.0,-3.0,-988.0,11:56:55.884202,192.168.0.113
2096,8,45,13,67,"3,-7,-176",0,0,5,0,0,4,69,71,49,-10,91,-20.99,41,-8.0,9.0,-929.0,11:56:55.985876,192.168.0.113
2101,8,45,13,67,"3,-7,-176",0,0,5,0,0,4,68,71,45,-10,91,-21.1,41,-4.0,-5.0,-968.0,11:56:56.088210,192.168.0.113
2106,8,45,13,67,"3,-7,-176",0,0,5,0,0,4,68,71,40,-20,91,-21.33,42,-12.0,-2.0,-1026.0,11:56:56.190191,192.168.0.113
2111,8,45,13,67,"3,-7,-176",0,-1,5,0,0,4,68,71,36,-20,91,-21.29,42,27.0,-7.0,-986.0,11:56:56.292158,192.168.0.113
2116,8,45,13,67,"3,-7,-176",0,0,5,0,0,4,68,71,31,-30,91,-21.26,42,13.0,38.0,-1035.0,11:56:56.394227,192.168.0.113
2121,8,45,13,67,"3,-7,-176",0,0,5,0,0,4,68,71,26,-30,91,-21.24,42,30.0,6.0,-993.0,11:56:56.496180,192.168.0.113
2126,8,45,13,67,"3,-7,-176",0,0,5,0,0,4,68,71,23,-40,91,-21.38,42,7.0,19.0,-1004.0,11:56:56.598685,192.168.0.113
2131,8,45,13,67,"3,-7,-176",0,0,6,0,0,4,68,71,17,-40,91,-21.39,42,43.0,26.0,-1020.0,11:56:56.700194,192.168.0.113
2136,8,45,13,67,"3,-7,-176",0,-2,6,0,0,4,68,71,12,-50,91,-21.75,42,54.0,24.0,-1017.0,11:56:56.802117,192.168.0.113
2141,8,45,13,67,"3,-7,-176",1,-1,6,0,0,4,68,71,10,-50,91,-22.44,42,34.0,18.0,-1025.0,11:56:56.911360,192.168.0.113
2146,8,45,13,67,"3,-7,-176",3,-2,5,0,0,3,68,71,10,-60,91,-22.73,42,27.0,43.0,-1012.0,11:56:57.010568,192.168.0.113
2151,8,45,13,67,"3,-7,-176",1,-2,5,0,0,3,68,71,10,-60,91,-24.31,42,-16.0,19.0,-1072.0,11:56:57.108040,192.168.0.113
2156,8,45,13,67,"3,-7,-176",1,-2,5,0,0,2,68,71,10,-60,91,-24.46,43,-4.0,5.0,-1000.0,11:56:57.209605,192.168.0.113
2162,8,45,13,67,"3,-7,-176",-2,0,2,0,0,0,68,71,10,-60,91,-23.76,43,-3.0,-20.0,-712.0,11:56:57.312232,192.168.0.113
2167,8,45,13,67,"3,-7,-176",-1,1,1,0,0,0,68,71,10,-60,91,-23.85,43,-45.0,-40.0,-862.0,11:56:57.414157,192.168.0.113
2172,-1,-100,-100,-100,"-1,-1,-1",0,0,1,0,0,0,68,71,10,-60,91,-23.32,43,-4.0,-9.0,-985.0,11:56:57.516252,192.168.0.113
2177,-1,-100,-100,-100,"-1,-1,-1",0,0,2,0,0,0,68,71,10,-60,91,-22.94,43,-4.0,-3.0,-995.0,11:56:57.618076,192.168.0.113
2182,-1,-100,-100,-100,"-1,-1,-1",0,0,2,0,0,0,68,71,10,-60,91,-22.65,43,12.0,18.0,-1017.0,11:56:57.720218,192.168.0.113
2184,-1,-100,-100,-100,"-1,-1,-1",0,0,2,0,0,0,68,71,10,-60,91,-22.64,43,-4.0,-3.0,-1000.0,11:56:57.770847,192.168.0.113
2189,-1,-100,-100,-100,"-1,-1,-1",0,0,2,0,0,0,68,71,10,-60,91,-22.62,43,2.0,-7.0,-1002.0,11:56:57.872888,192.168.0.113
2194,-1,-100,-100,-100,"-1,-1,-1",0,0,2,0,0,0,68,71,10,-60,91,-22.55,43,4.0,1.0,-997.0,11:56:57.974895,192.168.0.113
2199,-1,-100,-100,-100,"-1,-1,-1",0,0,2,0,0,0,69,71,10,-60,90,-22.52,43,0.0,-9.0,-995.0,11:56:58.076657,192.168.0.113
2204,-1,-100,-100,-100,"-1,-1,-1",0,0,2,0,0,0,69,71,10,0,90,-22.32,43,5.0,0.0,-1002.0,11:56:58.179012,192.168.0.113
2209,-2,-200,-200,-200,"-1,-1,-1",0,0,2,0,0,1,69,71,10,0,90,-22.15,43,0.0,6.0,-992.0,11:56:58.283480,192.168.0.113
