,mid,x,y,z,mpry,pitch,roll,yaw,vgx,vgy,vgz,templ,temph,tof,h,bat,baro,time,agx,agy,agz,timestamp,address
0,-2,-200,-200,-200,"0,0,0",0,0,0,0,0,0,73,75,10,0,61,-40.53,0,6.0,-1.0,-1002.0,13:05:37.240470,192.168.0.101
1,-1,-100,-100,-100,"-1,-1,-1",0,0,-2,0,0,0,75,79,10,0,33,-40.81,0,-6.0,2.0,-1000.0,13:05:37.289666,192.168.0.103
2,-1,-100,-100,-100,"-1,-1,-1",0,0,-2,0,0,0,75,79,10,0,33,-40.79,0,-6.0,1.0,-997.0,13:05:37.340791,192.168.0.103
3,-2,-200,-200,-200,"0,0,0",0,0,0,0,0,0,73,75,10,0,61,-40.51,0,4.0,-1.0,-1000.0,13:05:37.342338,192.168.0.101
4,-1,-100,-100,-100,"-1,-1,-1",0,0,-2,0,0,0,75,79,10,0,33,-40.79,0,-4.0,2.0,-999.0,13:05:37.442580,192.168.0.103
5,-2,-200,-200,-200,"0,0,0",0,0,0,0,0,0,73,75,10,0,61,-40.54,0,5.0,0.0,-998.0,13:05:37.444066,192.168.0.101
6,-1,-100,-100,-100,"-1,-1,-1",0,0,-2,0,0,0,75,79,10,0,33,-40.79,0,-3.0,7.0,-1000.0,13:05:37.544226,192.168.0.103
7,-2,-200,-200,-200,"0,0,0",0,0,0,0,0,0,73,75,10,0,61,-40.54,0,10.0,-5.0,-998.0,13:05:37.547217,192.168.0.101
8,-1,-100,-100,-100,"-1,-1,-1",0,0,-2,0,0,0,75,79,10,0,33,-40.79,0,-5.0,-1.0,-1001.0,13:05:37.646595,192.168.0.103
9,-2,-200,-200,-200,"0,0,0",0,0,0,0,0,0,73,75,10,0,61,-40.54,0,7.0,0.0,-997.0,13:05:37.648043,192.168.0.101
10,-1,-100,-100,-100,"-1,-1,-1",0,0,-2,0,0,0,75,79,10,0,33,-40.79,0,-10.0,10.0,-1005.0,13:05:37.748742,192.168.0.103
11,-2,-200,-200,-200,"0,0,0",0,0,0,0,0,0,73,75,10,0,61,-40.54,0,2.0,0.0,-995.0,13:05:37.749739,192.168.0.101
12,-1,-100,-100,-100,"-1,-1,-1",0,0,-2,0,0,0,75,79,10,0,33,-40.79,0,13.0,2.0,-984.0,13:05:37.850531,192.168.0.103
13,-2,-200,-200,-200,"0,0,0",0,0,0,0,0,0,73,75,10,0,61,-40.54,0,7.0,0.0,-1017.0,13:05:37.852503,192.168.0.101
14,-1,-100,-100,-100,"-1,-1,-1",0,0,-3,0,0,0,75,79,10,0,33,-40.79,0,-15.0,2.0,-1045.0,13:05:37.959519,192.168.0.103
15,-2,-200,-200,-200,"0,0,0",0,0,0,0,0,0,73,75,10,0,61,-40.54,0,6.0,-4.0,-1086.0,13:05:37.959519,192.168.0.101
16,-1,-100,-100,-100,"-1,-1,-1",0,0,-4,0,0,0,75,79,10,0,33,-40.79,0,-2.0,6.0,-1167.0,13:05:38.054375,192.168.0.103
17,-2,-200,-200,-200,"0,0,0",-1,0,0,0,0,1,73,75,10,0,61,-40.54,0,8.0,-1.0,-1196.0,13:05:38.056016,192.168.0.101
18,-1,-100,-100,-100,"-1,-1,-1",0,0,-4,0,0,-2,75,79,10,0,33,-40.79,0,3.0,-12.0,-1328.0,13:05:38.156574,192.168.0.103
19,-2,-200,-200,-200,"0,0,0",0,0,0,-1,0,3,73,75,10,0,61,-40.54,0,1.0,1.0,-1336.0,13:05:38.158155,192.168.0.101
20,-1,-100,-100,-100,"-1,-1,-1",0,0,-4,0,0,-5,75,79,10,0,33,-40.79,0,-1.0,2.0,-1253.0,13:05:38.258619,192.168.0.103
21,-2,-200,-200,-200,"0,0,0",2,0,0,0,0,6,73,75,15,0,61,-40.47,0,-5.0,-8.0,-1200.0,13:05:38.259131,192.168.0.101
22,-1,-100,-100,-100,"-1,-1,-1",0,-1,-4,0,0,-6,75,80,12,0,33,-40.64,0,3.0,-3.0,-1123.0,13:05:38.360117,192.168.0.103
23,-2,-200,-200,-200,"0,0,0",1,0,0,0,0,7,73,75,22,0,61,-40.13,0,13.0,-13.0,-1072.0,13:05:38.362690,192.168.0.101
24,-2,-200,-200,-200,"0,0,0",1,0,0,0,0,7,73,75,28,10,61,-40.13,0,22.0,-3.0,-1010.0,13:05:38.464521,192.168.0.101
25,-1,-100,-100,-100,"-1,-1,-1",0,0,-4,0,0,-7,75,80,21,0,33,-40.36,1,-10.0,-2.0,-1036.0,13:05:38.464803,192.168.0.103
26,-1,-100,-100,-100,"-1,-1,-1",0,0,-4,0,0,-7,75,80,29,10,33,-40.25,1,-5.0,0.0,-1007.0,13:05:38.564603,192.168.0.103
27,-2,-200,-200,-200,"0,0,0",1,0,0,0,0,7,73,75,37,20,61,-39.97,1,12.0,-3.0,-952.0,13:05:38.565833,192.168.0.101
28,-1,-100,-100,-100,"-1,-1,-1",0,0,-4,0,0,-7,75,80,38,20,33,-40.23,1,0.0,-3.0,-955.0,13:05:38.666373,192.168.0.103
29,-2,-200,-200,-200,"0,0,0",1,0,0,0,0,6,73,75,46,20,61,-39.88,1,8.0,6.0,-931.0,13:05:38.669366,192.168.0.101
30,-1,-100,-100,-100,"-1,-1,-1",0,0,-4,0,0,-6,75,80,47,20,33,-40.2,1,-15.0,1.0,-941.0,13:05:38.768664,192.168.0.103
31,-2,-200,-200,-200,"0,0,0",1,0,0,0,0,6,73,75,53,30,61,-39.82,1,4.0,3.0,-901.0,13:05:38.770091,192.168.0.101
32,-1,-100,-100,-100,"-1,-1,-1",0,0,-4,0,0,-5,75,80,55,30,33,-40.13,1,7.0,0.0,-903.0,13:05:38.869853,192.168.0.103
33,-2,-200,-200,-200,"0,0,0",0,0,0,0,0,5,73,75,60,30,61,-39.83,1,9.0,3.0,-917.0,13:05:38.872616,192.168.0.101
34,-1,-100,-100,-100,"-1,-1,-1",0,0,-4,0,0,-4,75,80,63,30,33,-40.02,1,-17.0,22.0,-898.0,13:05:38.972013,192.168.0.103
35,-2,-200,-200,-200,"0,0,0",-1,0,0,0,0,3,73,75,66,40,61,-39.78,1,7.0,5.0,-898.0,13:05:38.974006,192.168.0.101
36,-1,-100,-100,-100,"-1,-1,-1",0,0,-4,0,0,-3,75,80,69,40,33,-39.95,1,-5.0,-2.0,-895.0,13:05:39.073739,192.168.0.103
37,-2,-200,-200,-200,"0,0,0",0,0,0,0,0,2,73,75,71,40,61,-39.69,1,6.0,-3.0,-895.0,13:05:39.075771,192.168.0.101
38,-1,-100,-100,-100,"-1,-1,-1",0,0,-4,0,0,-2,75,80,75,40,33,-39.92,1,-7.0,5.0,-894.0,13:05:39.176480,192.168.0.103
39,-2,-200,-200,-200,"0,0,0",0,0,0,0,0,2,73,75,74,40,61,-39.62,1,28.0,-3.0,-898.0,13:05:39.177478,192.168.0.101
40,-1,-100,-100,-100,"-1,-1,-1",0,0,-4,0,0,-1,75,80,80,40,33,-39.86,1,-14.0,10.0,-906.0,13:05:39.278530,192.168.0.103
41,-2,-200,-200,-200,"0,0,0",0,0,0,0,0,1,73,75,78,50,61,-39.68,1,15.0,-2.0,-908.0,13:05:39.279980,192.168.0.101
42,-2,-200,-200,-200,"0,0,0",0,0,0,0,0,0,73,75,80,50,61,-39.54,1,7.0,-6.0,-930.0,13:05:39.330941,192.168.0.101
43,-1,-100,-100,-100,"-1,-1,-1",0,0,-4,0,0,-1,76,81,84,50,33,-39.83,1,-8.0,8.0,-928.0,13:05:39.380417,192.168.0.103
44,-2,-200,-200,-200,"0,0,0",0,0,0,0,0,0,73,75,81,50,61,-39.64,1,9.0,6.0,-948.0,13:05:39.433327,192.168.0.101
45,-1,-100,-100,-100,"-1,-1,-1",0,0,-4,0,0,0,76,81,86,50,33,-39.83,2,-3.0,11.0,-938.0,13:05:39.482566,192.168.0.103
46,-2,-200,-200,-200,"0,0,0",0,0,0,0,0,0,73,75,83,50,61,-39.55,2,23.0,-5.0,-954.0,13:05:39.535633,192.168.0.101
47,-1,-100,-100,-100,"-1,-1,-1",0,0,-4,0,0,0,76,81,88,50,33,-39.78,2,-22.0,14.0,-957.0,13:05:39.584634,192.168.0.103
48,-2,-200,-200,-200,"0,0,0",0,0,0,0,0,0,73,75,85,50,61,-39.54,2,14.0,0.0,-974.0,13:05:39.638790,192.168.0.101
49,-1,-100,-100,-100,"-1,-1,-1",0,0,-4,0,0,0,76,81,90,50,33,-39.74,2,-12.0,15.0,-964.0,13:05:39.686309,192.168.0.103
50,-2,-200,-200,-200,"0,0,0",0,0,0,0,0,0,73,75,85,50,61,-39.52,2,18.0,1.0,-979.0,13:05:39.740452,192.168.0.101
51,-1,-100,-100,-100,"-1,-1,-1",0,0,-4,0,0,0,76,81,91,50,33,-39.72,2,5.0,2.0,-962.0,13:05:39.802688,192.168.0.103
52,-2,-200,-200,-200,"0,0,0",0,0,0,0,0,0,73,75,86,60,61,-39.52,2,12.0,5.0,-979.0,13:05:39.842855,192.168.0.101
53,-1,-100,-100,-100,"-1,-1,-1",0,0,-4,0,0,0,76,81,92,50,33,-39.7,2,-4.0,-3.0,-971.0,13:05:39.890569,192.168.0.103
54,-1,-100,-100,-100,"-1,-1,-1",0,0,-4,0,0,0,76,81,93,50,32,-39.74,2,-9.0,-1.0,-988.0,13:05:39.941351,192.168.0.103
55,-2,-200,-200,-200,"0,0,0",0,0,0,0,0,0,73,75,88,60,61,-39.49,2,17.0,1.0,-985.0,13:05:39.945659,192.168.0.101
56,-1,-100,-100,-100,"-1,-1,-1",0,0,-4,0,0,0,76,81,93,50,32,-39.75,2,4.0,-10.0,-971.0,13:05:40.043071,192.168.0.103
57,-2,-200,-200,-200,"0,0,0",0,0,0,0,0,0,73,75,89,60,61,-39.53,2,-5.0,15.0,-988.0,13:05:40.047764,192.168.0.101
58,-1,-100,-100,-100,"-1,-1,-1",0,0,-4,0,0,0,76,81,93,60,32,-39.73,2,-15.0,19.0,-985.0,13:05:40.145383,192.168.0.103
59,-2,-200,-200,-200,"0,0,0",0,0,0,0,0,0,73,75,89,60,61,-39.53,2,17.0,-5.0,-980.0,13:05:40.152010,192.168.0.101
60,-1,-100,-100,-100,"-1,-1,-1",0,0,-4,0,0,0,76,81,93,60,32,-39.75,2,-3.0,3.0,-989.0,13:05:40.246572,192.168.0.103
61,-2,-200,-200,-200,"0,0,0",0,0,0,0,0,0,73,75,89,60,61,-39.54,2,1.0,6.0,-982.0,13:05:40.248720,192.168.0.101
62,-1,-100,-100,-100,"-1,-1,-1",0,0,-4,0,0,0,76,80,93,60,32,-39.77,2,2.0,7.0,-980.0,13:05:40.348800,192.168.0.103
63,-2,-200,-200,-200,"0,0,0",0,0,0,0,0,0,72,76,90,60,61,-39.53,2,4.0,11.0,-988.0,13:05:40.351147,192.168.0.101
64,-1,-100,-100,-100,"-1,-1,-1",0,0,-4,0,0,0,76,80,93,60,32,-39.75,3,6.0,0.0,-985.0,13:05:40.450330,192.168.0.103
65,-2,-200,-200,-200,"0,0,0",0,0,0,0,0,0,72,76,89,60,61,-39.47,2,4.0,14.0,-986.0,13:05:40.456533,192.168.0.101
66,-1,-100,-100,-100,"-1,-1,-1",0,0,-4,0,0,0,76,80,92,60,32,-39.76,3,5.0,-2.0,-974.0,13:05:40.552875,192.168.0.103
67,-2,-200,-200,-200,"0,0,0",0,0,0,0,0,0,72,76,89,60,61,-39.5,3,16.0,-1.0,-981.0,13:05:40.555426,192.168.0.101
68,-1,-100,-100,-100,"-1,-1,-1",0,0,-4,0,0,0,76,80,91,60,32,-39.79,3,-3.0,-5.0,-986.0,13:05:40.655497,192.168.0.103
69,-2,-200,-200,-200,"0,0,0",0,0,0,0,0,0,72,76,89,60,61,-39.51,3,8.0,2.0,-985.0,13:05:40.657393,192.168.0.101
70,-1,-100,-100,-100,"-1,-1,-1",0,0,-4,0,0,1,76,80,90,60,32,-39.76,3,-6.0,4.0,-995.0,13:05:40.756657,192.168.0.103
71,-2,-200,-200,-200,"0,0,0",0,0,0,0,0,0,72,76,88,60,61,-39.47,3,0.0,16.0,-987.0,13:05:40.759247,192.168.0.101
72,-1,-100,-100,-100,"-1,-1,-1",0,0,-4,0,0,1,76,80,90,50,32,-39.77,3,-14.0,-6.0,-1000.0,13:05:40.859827,192.168.0.103
73,-2,-200,-200,-200,"0,0,0",0,0,0,0,0,0,72,76,88,60,61,-39.52,3,6.0,2.0,-989.0,13:05:40.860490,192.168.0.101
74,-1,-100,-100,-100,"-1,-1,-1",0,0,-4,0,0,1,76,80,88,50,32,-39.75,3,-12.0,-1.0,-996.0,13:05:40.960726,192.168.0.103
75,-2,-200,-200,-200,"0,0,0",0,0,0,0,0,0,72,76,88,60,61,-39.46,3,15.0,-4.0,-989.0,13:05:40.962815,192.168.0.101
76,-1,-100,-100,-100,"-1,-1,-1",0,0,-4,0,0,0,76,80,88,50,32,-39.75,3,-9.0,10.0,-1003.0,13:05:41.062836,192.168.0.103
77,-2,-200,-200,-200,"0,0,0",0,0,0,0,0,0,72,76,87,60,61,-39.51,3,18.0,9.0,-987.0,13:05:41.064831,192.168.0.101
78,-1,-100,-100,-100,"-1,-1,-1",0,0,-4,0,0,0,76,80,87,50,32,-39.81,3,-5.0,8.0,-1000.0,13:05:41.165055,192.168.0.103
79,-2,-200,-200,-200,"0,0,0",0,0,0,0,0,0,72,76,86,60,61,-39.47,3,3.0,14.0,-1012.0,13:05:41.168054,192.168.0.101
80,-1,-100,-100,-100,"-1,-1,-1",0,0,-4,0,0,0,76,80,86,50,32,-39.79,3,-12.0,-16.0,-1004.0,13:05:41.267792,192.168.0.103
81,-2,-200,-200,-200,"0,0,0",0,0,0,0,0,0,72,76,86,60,61,-39.52,3,6.0,1.0,-991.0,13:05:41.271464,192.168.0.101
82,-1,-100,-100,-100,"-1,-1,-1",0,0,-3,0,0,0,76,80,85,50,32,-39.75,3,1.0,-9.0,-998.0,13:05:41.369592,192.168.0.103
83,-2,-200,-200,-200,"0,0,0",0,0,0,0,0,0,73,76,85,60,61,-39.57,3,15.0,1.0,-1010.0,13:05:41.371407,192.168.0.101
84,-1,-100,-100,-100,"-1,-1,-1",0,0,-3,0,0,0,76,80,83,50,32,-39.76,4,-9.0,-14.0,-995.0,13:05:41.470764,192.168.0.103
85,-2,-200,-200,-200,"0,0,0",0,0,0,0,0,0,73,76,84,60,61,-39.52,3,20.0,0.0,-994.0,13:05:41.473729,192.168.0.101
86,-1,-100,-100,-100,"-1,-1,-1",0,0,-3,0,0,0,76,80,83,50,32,-39.85,4,-2.0,-16.0,-1009.0,13:05:41.573404,192.168.0.103
87,-2,-200,-200,-200,"0,0,0",0,0,0,0,0,0,73,76,83,60,61,-39.62,4,3.0,7.0,-1014.0,13:05:41.575037,192.168.0.101
88,-1,-100,-100,-100,"-1,-1,-1",0,0,-3,0,0,0,76,80,81,50,32,-39.88,4,-13.0,7.0,-1013.0,13:05:41.674724,192.168.0.103
89,-2,-200,-200,-200,"0,0,0",0,0,0,0,0,0,73,76,83,60,61,-39.59,4,7.0,-1.0,-991.0,13:05:41.676718,192.168.0.101
90,-1,-100,-100,-100,"-1,-1,-1",0,0,-3,0,0,0,76,80,81,50,32,-39.85,4,-2.0,5.0,-1005.0,13:05:41.776507,192.168.0.103
91,-2,-200,-200,-200,"0,0,0",0,0,0,0,0,0,73,76,82,60,61,-39.53,4,1.0,1.0,-1010.0,13:05:41.779076,192.168.0.101
92,-1,-100,-100,-100,"-1,-1,-1",0,0,-3,0,0,0,76,80,79,50,32,-39.85,4,-4.0,0.0,-1011.0,13:05:41.878426,192.168.0.103
93,-2,-200,-200,-200,"0,0,0",0,0,0,0,0,0,73,76,82,60,61,-39.57,4,10.0,2.0,-999.0,13:05:41.880486,192.168.0.101
94,-1,-100,-100,-100,"-1,-1,-1",0,0,-3,0,0,0,76,80,79,50,31,-39.88,4,1.0,-12.0,-1004.0,13:05:41.981012,192.168.0.103
95,-2,-200,-200,-200,"0,0,0",0,0,0,0,0,0,73,76,82,60,61,-39.54,4,11.0,-2.0,-1002.0,13:05:41.983006,192.168.0.101
96,-1,-100,-100,-100,"-1,-1,-1",0,0,-3,0,0,0,76,80,78,50,31,-39.85,4,-10.0,-1.0,-1019.0,13:05:42.082818,192.168.0.103
97,-2,-200,-200,-200,"0,0,0",0,0,0,0,0,0,73,76,81,50,61,-39.55,4,13.0,0.0,-1009.0,13:05:42.086422,192.168.0.101
98,-1,-100,-100,-100,"-1,-1,-1",0,0,-3,0,0,0,76,80,77,50,31,-39.82,4,-11.0,11.0,-1013.0,13:05:42.184855,192.168.0.103
99,-2,-200,-200,-200,"0,0,0",0,0,0,0,0,0,73,76,81,50,61,-39.51,4,17.0,-7.0,-1009.0,13:05:42.186919,192.168.0.101
100,-2,-200,-200,-200,"0,0,0",0,0,0,0,0,0,73,76,80,50,61,-39.55,4,33.0,-5.0,-1008.0,13:05:42.237555,192.168.0.101
101,-1,-100,-100,-100,"-1,-1,-1",0,0,-3,0,0,0,76,80,77,50,31,-39.82,4,-7.0,5.0,-1024.0,13:05:42.286476,192.168.0.103
102,-1,-100,-100,-100,"-1,-1,-1",0,0,-3,0,0,0,76,80,77,50,31,-39.78,4,-7.0,-9.0,-1023.0,13:05:42.389721,192.168.0.103
103,-2,-200,-200,-200,"0,0,0",0,0,0,0,0,0,72,75,80,50,61,-39.52,4,15.0,1.0,-996.0,13:05:42.391782,192.168.0.101
104,-1,-100,-100,-100,"-1,-1,-1",0,0,-3,0,0,0,76,80,76,40,31,-39.78,5,6.0,6.0,-1024.0,13:05:42.441406,192.168.0.103
105,-2,-200,-200,-200,"0,0,0",0,0,0,0,0,0,72,75,80,50,61,-39.53,4,15.0,-8.0,-1002.0,13:05:42.493507,192.168.0.101
106,-1,-100,-100,-100,"-1,-1,-1",0,0,-4,0,0,0,76,80,76,40,31,-39.86,5,9.0,-10.0,-995.0,13:05:42.541730,192.168.0.103
107,-2,-200,-200,-200,"0,0,0",0,0,0,0,0,0,72,75,79,50,61,-39.55,5,10.0,-6.0,-999.0,13:05:42.594560,192.168.0.101
108,-1,-100,-100,-100,"-1,-1,-1",0,0,-4,0,0,0,76,80,76,40,31,-39.82,5,-2.0,8.0,-1008.0,13:05:42.644353,192.168.0.103
109,-2,-200,-200,-200,"0,0,0",0,0,0,0,0,0,72,75,80,50,61,-39.5,5,4.0,3.0,-1007.0,13:05:42.697242,192.168.0.101
110,-1,-100,-100,-100,"-1,-1,-1",0,0,-4,0,0,0,76,80,76,40,31,-39.82,5,-9.0,-17.0,-1029.0,13:05:42.746393,192.168.0.103
111,-2,-200,-200,-200,"0,0,0",0,0,0,0,0,0,72,75,79,50,61,-39.54,5,8.0,-6.0,-1007.0,13:05:42.747741,192.168.0.101
112,-1,-100,-100,-100,"-1,-1,-1",0,0,-4,0,0,0,76,80,76,40,31,-39.78,5,10.0,-17.0,-1008.0,13:05:42.848214,192.168.0.103
113,-2,-200,-200,-200,"0,0,0",0,0,0,0,0,0,72,75,79,50,61,-39.55,5,13.0,-5.0,-994.0,13:05:42.849390,192.168.0.101
114,-1,-100,-100,-100,"-1,-1,-1",0,1,-4,0,0,0,76,80,76,40,31,-39.98,5,1.0,-17.0,-993.0,13:05:42.949682,192.168.0.103
115,-2,-200,-200,-200,"0,0,0",0,0,0,0,0,0,72,75,80,50,61,-39.56,5,7.0,7.0,-1005.0,13:05:42.951854,192.168.0.101
116,-1,-100,-100,-100,"-1,-1,-1",0,1,-4,0,0,0,76,80,76,40,31,-39.84,5,0.0,-10.0,-976.0,13:05:43.055195,192.168.0.103
117,-2,-200,-200,-200,"0,0,0",0,0,0,0,0,0,72,75,79,50,61,-39.56,5,1.0,2.0,-993.0,13:05:43.055195,192.168.0.101
118,-1,-100,-100,-100,"-1,-1,-1",0,1,-4,0,0,0,76,80,76,40,31,-39.94,5,6.0,-19.0,-1002.0,13:05:43.153476,192.168.0.103
119,-2,-200,-200,-200,"0,0,0",0,0,0,0,0,0,72,75,80,50,61,-39.55,5,3.0,0.0,-997.0,13:05:43.155662,192.168.0.101
120,-1,-100,-100,-100,"-1,-1,-1",0,1,-4,0,0,0,76,80,76,40,31,-39.77,5,9.0,-34.0,-1003.0,13:05:43.256292,192.168.0.103
121,-2,-200,-200,-200,"0,0,0",0,0,0,0,0,0,72,75,80,50,61,-39.54,5,9.0,-5.0,-999.0,13:05:43.257937,192.168.0.101
122,-1,-100,-100,-100,"-1,-1,-1",0,1,-4,0,0,0,76,80,76,40,31,-39.79,5,6.0,-22.0,-995.0,13:05:43.358916,192.168.0.103
123,-2,-200,-200,-200,"0,0,0",0,0,0,0,0,0,73,75,80,50,61,-39.55,5,0.0,2.0,-1002.0,13:05:43.359711,192.168.0.101
124,-1,-100,-100,-100,"-1,-1,-1",0,1,-4,0,0,0,76,80,76,40,31,-39.89,6,-14.0,-30.0,-1006.0,13:05:43.467550,192.168.0.103
125,-2,-200,-200,-200,"0,0,0",0,0,0,0,0,0,73,75,80,50,61,-39.57,5,10.0,-1.0,-995.0,13:05:43.468586,192.168.0.101
126,-1,-100,-100,-100,"-1,-1,-1",0,1,-4,0,0,0,76,80,76,40,31,-39.89,6,18.0,-21.0,-993.0,13:05:43.562013,192.168.0.103
127,-2,-200,-200,-200,"0,0,0",0,0,0,0,0,0,73,75,80,50,61,-39.59,6,14.0,-8.0,-1007.0,13:05:43.563719,192.168.0.101
128,-1,-100,-100,-100,"-1,-1,-1",0,2,-4,0,0,0,76,80,77,40,31,-39.87,6,1.0,-18.0,-1008.0,13:05:43.664648,192.168.0.103
129,-2,-200,-200,-200,"0,0,0",0,0,0,0,0,0,73,75,80,50,61,-39.59,6,16.0,0.0,-998.0,13:05:43.665776,192.168.0.101
130,-1,-100,-100,-100,"-1,-1,-1",0,2,-4,0,0,0,76,80,76,40,31,-39.84,6,1.0,-23.0,-989.0,13:05:43.766037,192.168.0.103
131,-2,-200,-200,-200,"0,0,0",0,0,0,0,0,0,73,75,80,50,61,-39.63,6,-1.0,3.0,-1001.0,13:05:43.767617,192.168.0.101
132,-1,-100,-100,-100,"-1,-1,-1",0,1,-4,0,0,0,76,80,76,40,31,-39.89,6,-5.0,-17.0,-1000.0,13:05:43.869057,192.168.0.103
133,-2,-200,-200,-200,"0,0,0",0,0,0,0,0,0,73,75,79,50,61,-39.63,6,3.0,8.0,-999.0,13:05:43.869942,192.168.0.101
134,-1,-100,-100,-100,"-1,-1,-1",0,1,-4,0,0,0,76,80,76,40,31,-39.83,6,8.0,-10.0,-997.0,13:05:43.970276,192.168.0.103
135,-2,-200,-200,-200,"0,0,0",0,0,0,0,0,0,73,75,80,50,61,-39.56,6,8.0,5.0,-1001.0,13:05:43.971275,192.168.0.101
136,-1,-100,-100,-100,"-1,-1,-1",0,1,-4,0,0,0,76,80,76,40,31,-39.88,6,10.0,-8.0,-989.0,13:05:44.072119,192.168.0.103
137,-2,-200,-200,-200,"0,0,0",0,0,0,0,0,0,73,75,79,50,61,-39.56,6,12.0,3.0,-998.0,13:05:44.074115,192.168.0.101
138,-1,-100,-100,-100,"-1,-1,-1",0,0,-4,0,0,0,76,80,76,40,31,-39.76,6,19.0,-6.0,-998.0,13:05:44.173589,192.168.0.103
139,-2,-200,-200,-200,"0,0,0",0,0,0,0,0,0,73,75,79,50,61,-39.56,6,3.0,9.0,-1001.0,13:05:44.175584,192.168.0.101
140,-1,-100,-100,-100,"-1,-1,-1",0,0,-4,0,0,0,76,80,76,40,31,-39.78,6,9.0,-1.0,-1012.0,13:05:44.275976,192.168.0.103
141,-2,-200,-200,-200,"0,0,0",0,0,0,0,0,0,73,75,79,50,61,-39.63,6,10.0,-1.0,-1010.0,13:05:44.277972,192.168.0.101
142,-1,-100,-100,-100,"-1,-1,-1",0,0,-4,0,0,0,76,80,76,40,31,-39.89,6,-8.0,15.0,-1016.0,13:05:44.377877,192.168.0.103
143,-2,-200,-200,-200,"0,0,0",0,0,0,0,0,0,72,75,80,50,61,-39.51,6,4.0,2.0,-998.0,13:05:44.379872,192.168.0.101
144,-1,-100,-100,-100,"-1,-1,-1",0,0,-4,0,0,0,76,80,76,40,31,-39.87,7,18.0,-6.0,-998.0,13:05:44.480016,192.168.0.103
145,-2,-200,-200,-200,"0,0,0",0,0,0,0,0,0,72,75,79,50,61,-39.62,6,2.0,1.0,-985.0,13:05:44.481800,192.168.0.101
146,-1,-100,-100,-100,"-1,-1,-1",0,0,-4,0,0,0,76,80,76,40,31,-39.77,7,11.0,3.0,-1002.0,13:05:44.581923,192.168.0.103
147,-2,-200,-200,-200,"0,0,0",0,0,0,0,0,0,72,75,79,50,61,-39.59,7,11.0,-5.0,-983.0,13:05:44.583725,192.168.0.101
148,-1,-100,-100,-100,"-1,-1,-1",0,0,-4,0,0,0,76,80,76,40,31,-39.81,7,2.0,12.0,-1005.0,13:05:44.683945,192.168.0.103
149,-2,-200,-200,-200,"0,0,0",0,0,0,0,0,0,72,75,79,50,61,-39.59,7,10.0,5.0,-1005.0,13:05:44.684947,192.168.0.101
150,-1,-100,-100,-100,"-1,-1,-1",0,0,-4,0,0,0,76,80,77,40,31,-39.85,7,24.0,-6.0,-989.0,13:05:44.785600,192.168.0.103
151,-2,-200,-200,-200,"0,0,0",0,0,0,0,0,0,72,75,78,50,61,-39.56,7,-2.0,19.0,-1005.0,13:05:44.800836,192.168.0.101
152,-1,-100,-100,-100,"-1,-1,-1",0,0,-4,0,0,0,76,80,77,40,31,-39.77,7,24.0,-20.0,-1009.0,13:05:44.888277,192.168.0.103
153,-2,-200,-200,-200,"0,0,0",0,0,0,0,0,0,72,75,79,50,61,-39.56,7,29.0,-5.0,-993.0,13:05:44.889811,192.168.0.101
154,-1,-100,-100,-100,"-1,-1,-1",0,0,-4,0,0,0,76,80,77,50,31,-39.87,7,9.0,-14.0,-999.0,13:05:44.989426,192.168.0.103
155,-2,-200,-200,-200,"0,0,0",0,0,1,0,0,0,72,75,79,50,61,-39.57,7,4.0,13.0,-997.0,13:05:44.991659,192.168.0.101
156,-1,-100,-100,-100,"-1,-1,-1",0,0,-4,0,0,0,76,80,77,50,31,-39.81,7,3.0,-10.0,-1007.0,13:05:45.041100,192.168.0.103
157,-2,-200,-200,-200,"0,0,0",0,0,0,0,0,0,72,75,79,50,61,-39.49,7,29.0,-8.0,-1001.0,13:05:45.093810,192.168.0.101
158,-1,-100,-100,-100,"-1,-1,-1",0,0,-4,0,0,0,76,80,78,50,31,-39.85,7,-4.0,-18.0,-995.0,13:05:45.142195,192.168.0.103
159,-2,-200,-200,-200,"0,0,0",0,0,0,0,0,0,72,75,79,50,61,-39.57,7,20.0,1.0,-1005.0,13:05:45.195251,192.168.0.101
160,-1,-100,-100,-100,"-1,-1,-1",0,1,-4,0,0,0,76,80,78,50,31,-39.9,7,9.0,-17.0,-1002.0,13:05:45.244886,192.168.0.103
161,-2,-200,-200,-200,"0,0,0",0,0,0,0,0,0,72,75,79,50,61,-39.55,7,8.0,2.0,-987.0,13:05:45.297441,192.168.0.101
162,-1,-100,-100,-100,"-1,-1,-1",0,1,-4,0,0,0,76,80,78,50,31,-39.81,7,0.0,-7.0,-1002.0,13:05:45.346522,192.168.0.103
163,-2,-200,-200,-200,"0,0,0",0,0,0,0,0,0,72,75,80,50,61,-39.5,7,17.0,3.0,-1000.0,13:05:45.399290,192.168.0.101
164,-1,-100,-100,-100,"-1,-1,-1",0,0,-4,0,0,0,76,80,78,50,31,-39.83,8,11.0,-7.0,-1001.0,13:05:45.448675,192.168.0.103
165,-2,-200,-200,-200,"0,0,0",0,0,0,0,0,0,72,75,80,50,61,-39.54,7,-2.0,9.0,-990.0,13:05:45.502506,192.168.0.101
166,-1,-100,-100,-100,"-1,-1,-1",0,0,-4,0,0,0,76,80,79,50,31,-39.83,8,6.0,-3.0,-988.0,13:05:45.550078,192.168.0.103
167,-2,-200,-200,-200,"0,0,0",0,0,0,0,0,0,72,75,80,50,61,-39.59,8,1.0,16.0,-996.0,13:05:45.603318,192.168.0.101
168,-1,-100,-100,-100,"-1,-1,-1",0,1,-4,0,0,0,76,80,79,50,31,-39.86,8,15.0,-10.0,-993.0,13:05:45.652913,192.168.0.103
169,-2,-200,-200,-200,"0,0,0",0,0,0,0,0,0,72,75,80,50,61,-39.55,8,23.0,-3.0,-999.0,13:05:45.707690,192.168.0.101
170,-1,-100,-100,-100,"-1,-1,-1",0,0,-4,0,0,0,76,80,79,50,31,-39.82,8,14.0,-2.0,-984.0,13:05:45.754594,192.168.0.103
171,-2,-200,-200,-200,"0,0,0",0,0,0,0,0,0,72,75,81,50,61,-39.59,8,0.0,4.0,-989.0,13:05:45.809568,192.168.0.101
172,-1,-100,-100,-100,"-1,-1,-1",0,0,-4,0,0,0,76,80,79,50,31,-39.82,8,5.0,-19.0,-1010.0,13:05:45.856962,192.168.0.103
173,-2,-200,-200,-200,"0,0,0",0,0,0,0,0,0,72,75,81,50,61,-39.55,8,12.0,0.0,-985.0,13:05:45.909671,192.168.0.101
174,-1,-100,-100,-100,"-1,-1,-1",1,1,-4,0,0,0,76,80,78,50,31,-39.88,8,8.0,-8.0,-990.0,13:05:45.958874,192.168.0.103
175,-2,-200,-200,-200,"0,0,0",0,0,0,0,0,0,72,75,81,50,61,-39.59,8,17.0,-1.0,-982.0,13:05:45.960853,192.168.0.101
176,-1,-100,-100,-100,"-1,-1,-1",1,1,-4,0,0,0,76,80,78,50,31,-39.81,8,-15.0,-16.0,-1010.0,13:05:46.060923,192.168.0.103
177,-2,-200,-200,-200,"0,0,0",0,0,0,0,0,0,72,75,81,50,61,-39.53,8,2.0,1.0,-988.0,13:05:46.062898,192.168.0.101
178,-1,-100,-100,-100,"-1,-1,-1",0,1,-4,0,0,0,76,80,78,50,31,-39.76,8,-2.0,-8.0,-1005.0,13:05:46.163131,192.168.0.103
179,-2,-200,-200,-200,"0,0,0",0,0,0,0,0,0,72,75,81,50,61,-39.59,8,15.0,3.0,-990.0,13:05:46.164798,192.168.0.101
180,-1,-100,-100,-100,"-1,-1,-1",0,1,-4,0,0,0,76,80,77,50,31,-39.84,8,0.0,1.0,-1032.0,13:05:46.264730,192.168.0.103
181,-2,-200,-200,-200,"0,0,0",0,0,0,0,0,0,72,75,81,50,61,-39.6,8,17.0,1.0,-991.0,13:05:46.266930,192.168.0.101
182,-1,-100,-100,-100,"-1,-1,-1",0,1,-4,0,0,0,76,80,77,50,31,-39.79,8,-14.0,-24.0,-1045.0,13:05:46.367025,192.168.0.103
183,-2,-200,-200,-200,"0,0,0",0,0,0,0,0,0,72,74,81,50,61,-39.54,8,-4.0,11.0,-1011.0,13:05:46.419874,192.168.0.101
184,-1,-100,-100,-100,"-1,-1,-1",-6,1,-3,0,0,0,76,80,78,50,31,-39.94,9,12.0,-28.0,-982.0,13:05:46.468823,192.168.0.103
185,-2,-200,-200,-200,"0,0,0",-2,0,0,0,0,0,72,74,81,50,61,-39.55,8,3.0,4.0,-1000.0,13:05:46.471039,192.168.0.101
186,-1,-100,-100,-100,"-1,-1,-1",-8,1,-3,1,0,0,76,80,79,50,31,-39.83,9,0.0,-14.0,-980.0,13:05:46.570413,192.168.0.103
187,-2,-200,-200,-200,"0,0,0",-7,0,0,-1,0,0,72,74,82,50,61,-39.61,9,11.0,0.0,-1010.0,13:05:46.574402,192.168.0.101
188,-1,-100,-100,-100,"-1,-1,-1",-8,1,-3,3,0,0,76,80,79,50,31,-39.91,9,-24.0,-14.0,-1003.0,13:05:46.673072,192.168.0.103
189,-2,-200,-200,-200,"0,0,0",-8,0,0,-2,0,0,72,74,82,50,61,-39.62,9,3.0,-3.0,-1009.0,13:05:46.675064,192.168.0.101
190,-1,-100,-100,-100,"-1,-1,-1",-7,0,-3,4,0,0,76,80,78,50,31,-39.95,9,-41.0,-23.0,-1026.0,13:05:46.774752,192.168.0.103
191,-2,-200,-200,-200,"0,0,0",-8,0,0,-3,0,0,72,74,81,50,61,-39.64,9,-17.0,2.0,-1004.0,13:05:46.776745,192.168.0.101
192,-1,-100,-100,-100,"-1,-1,-1",-7,0,-3,5,0,0,76,80,78,50,31,-39.92,9,-53.0,-12.0,-996.0,13:05:46.878433,192.168.0.103
193,-2,-200,-200,-200,"0,0,0",-7,0,0,-4,0,0,72,74,81,50,61,-39.61,9,-13.0,-9.0,-1002.0,13:05:46.879430,192.168.0.101
194,-1,-100,-100,-100,"-1,-1,-1",-7,2,-3,5,0,0,76,80,78,50,31,-39.92,9,-63.0,15.0,-990.0,13:05:46.980468,192.168.0.103
195,-2,-200,-200,-200,"0,0,0",-7,0,0,-5,0,0,72,74,81,50,61,-39.61,9,-35.0,10.0,-1007.0,13:05:46.980468,192.168.0.101
196,-1,-100,-100,-100,"-1,-1,-1",-6,1,-3,6,0,0,76,80,78,50,31,-40.0,9,-50.0,0.0,-998.0,13:05:47.080624,192.168.0.103
197,-2,-200,-200,-200,"0,0,0",-6,0,0,-6,0,0,72,74,81,50,61,-39.62,9,-34.0,3.0,-1000.0,13:05:47.082619,192.168.0.101
198,-1,-100,-100,-100,"-1,-1,-1",-6,1,-3,7,0,0,76,80,77,40,31,-40.01,9,-47.0,-2.0,-1023.0,13:05:47.182929,192.168.0.103
199,-2,-200,-200,-200,"0,0,0",-6,0,0,-7,0,0,72,74,81,50,61,-39.61,9,-52.0,24.0,-1006.0,13:05:47.184651,192.168.0.101
200,-1,-100,-100,-100,"-1,-1,-1",-4,0,-4,7,0,0,76,80,77,40,31,-40.04,9,-59.0,0.0,-992.0,13:05:47.284469,192.168.0.103
201,-2,-200,-200,-200,"0,0,0",-5,0,0,-7,0,0,72,74,82,50,61,-39.67,9,-59.0,22.0,-1003.0,13:05:47.286465,192.168.0.101
202,-1,-100,-100,-100,"-1,-1,-1",0,0,-4,7,0,0,76,81,76,40,31,-40.05,9,-46.0,-8.0,-1002.0,13:05:47.386353,192.168.0.103
203,-2,-200,-200,-200,"0,0,0",-3,0,0,-8,0,0,72,75,82,50,61,-39.69,9,-32.0,-5.0,-1001.0,13:05:47.388354,192.168.0.101
204,-1,-100,-100,-100,"-1,-1,-1",1,0,-4,7,0,0,76,81,75,40,31,-39.94,10,-42.0,-6.0,-1006.0,13:05:47.488418,192.168.0.103
205,-2,-200,-200,-200,"0,0,0",0,0,0,-7,0,0,72,75,81,50,61,-39.62,9,-46.0,20.0,-1000.0,13:05:47.490543,192.168.0.101
206,-1,-100,-100,-100,"-1,-1,-1",4,0,-4,6,0,0,76,81,76,40,31,-39.9,10,-49.0,0.0,-1011.0,13:05:47.539663,192.168.0.103
207,-2,-200,-200,-200,"0,0,0",2,0,0,-7,0,0,72,75,82,50,61,-39.64,10,-32.0,5.0,-1004.0,13:05:47.597748,192.168.0.101
208,-1,-100,-100,-100,"-1,-1,-1",4,0,-4,4,0,0,76,81,77,40,31,-39.96,10,-44.0,8.0,-1009.0,13:05:47.642538,192.168.0.103
209,-2,-200,-200,-200,"0,0,0",4,0,0,-6,0,0,72,75,82,50,61,-39.55,10,-39.0,6.0,-1012.0,13:05:47.695623,192.168.0.101
210,-1,-100,-100,-100,"-1,-1,-1",2,0,-4,4,0,0,76,81,77,50,31,-39.92,10,-46.0,8.0,-1021.0,13:05:47.743785,192.168.0.103
211,-2,-200,-200,-200,"0,0,0",4,0,0,-5,0,0,72,75,82,50,61,-39.55,10,-37.0,3.0,-1004.0,13:05:47.796421,192.168.0.101
212,-1,-100,-100,-100,"-1,-1,-1",1,0,-4,3,0,0,76,81,77,50,31,-39.86,10,-29.0,10.0,-1000.0,13:05:47.845765,192.168.0.103
213,-2,-200,-200,-200,"0,0,0",2,0,0,-4,0,0,72,75,82,50,61,-39.6,10,-27.0,7.0,-999.0,13:05:47.898682,192.168.0.101
214,-1,-100,-100,-100,"-1,-1,-1",0,0,-4,3,0,0,76,81,77,50,31,-39.8,10,-28.0,7.0,-1000.0,13:05:47.947762,192.168.0.103
215,-2,-200,-200,-200,"0,0,0",1,0,0,-3,0,0,72,75,82,50,61,-39.58,10,-13.0,12.0,-1010.0,13:05:48.003174,192.168.0.101
216,-1,-100,-100,-100,"-1,-1,-1",0,0,-4,3,0,0,76,81,76,50,31,-39.83,10,-21.0,12.0,-997.0,13:05:48.050683,192.168.0.103
217,-2,-200,-200,-200,"0,0,0",0,0,0,-2,0,0,72,75,82,50,61,-39.53,10,-2.0,7.0,-1007.0,13:05:48.103796,192.168.0.101
218,-1,-100,-100,-100,"-1,-1,-1",0,0,-4,2,0,0,76,81,77,50,31,-39.85,10,-30.0,21.0,-999.0,13:05:48.152337,192.168.0.103
219,-2,-200,-200,-200,"0,0,0",0,0,0,-2,0,0,72,75,82,50,61,-39.57,10,-10.0,6.0,-993.0,13:05:48.204775,192.168.0.101
220,-1,-100,-100,-100,"-1,-1,-1",0,0,-4,2,0,0,76,81,76,50,31,-39.85,10,-10.0,1.0,-998.0,13:05:48.253918,192.168.0.103
221,-2,-200,-200,-200,"0,0,0",0,0,0,-2,0,0,72,75,82,50,61,-39.56,10,-13.0,15.0,-1015.0,13:05:48.308678,192.168.0.101
222,-1,-100,-100,-100,"-1,-1,-1",0,0,-4,2,0,0,76,80,77,50,31,-39.88,10,-20.0,15.0,-998.0,13:05:48.355704,192.168.0.103
223,-2,-200,-200,-200,"0,0,0",0,0,0,-2,0,0,72,75,82,50,61,-39.48,10,-11.0,11.0,-1007.0,13:05:48.410657,192.168.0.101
224,-1,-100,-100,-100,"-1,-1,-1",1,0,-4,2,0,0,76,80,77,50,31,-39.88,11,-20.0,3.0,-997.0,13:05:48.458765,192.168.0.103
225,-2,-200,-200,-200,"0,0,0",-1,0,0,-2,0,0,72,75,82,50,61,-39.51,10,5.0,-3.0,-998.0,13:05:48.510762,192.168.0.101
226,-1,-100,-100,-100,"-1,-1,-1",2,0,-4,2,0,0,76,80,76,50,31,-39.93,11,-12.0,5.0,-1000.0,13:05:48.560090,192.168.0.103
227,-2,-200,-200,-200,"0,0,0",-1,0,0,-1,0,0,72,75,82,50,61,-39.54,11,-11.0,9.0,-1006.0,13:05:48.614430,192.168.0.101
228,-1,-100,-100,-100,"-1,-1,-1",4,0,-4,1,0,0,76,80,76,40,31,-39.88,11,-4.0,-2.0,-1004.0,13:05:48.662244,192.168.0.103
229,-2,-200,-200,-200,"0,0,0",-1,0,0,-1,0,0,72,75,83,50,61,-39.54,11,0.0,8.0,-1003.0,13:05:48.714307,192.168.0.101
230,-1,-100,-100,-100,"-1,-1,-1",2,0,-4,0,0,0,76,80,76,40,31,-39.91,11,17.0,-10.0,-988.0,13:05:48.764461,192.168.0.103
231,-2,-200,-200,-200,"0,0,0",-1,1,0,-1,0,0,72,75,83,50,61,-39.54,11,7.0,1.0,-1001.0,13:05:48.818006,192.168.0.101
232,-1,-100,-100,-100,"-1,-1,-1",0,0,-4,0,0,0,76,80,76,40,31,-39.89,11,-13.0,0.0,-999.0,13:05:48.865804,192.168.0.103
233,-2,-200,-200,-200,"0,0,0",-1,2,0,-1,0,0,72,75,83,50,61,-39.62,11,9.0,-6.0,-985.0,13:05:48.919158,192.168.0.101
234,-1,-100,-100,-100,"-1,-1,-1",0,0,-4,0,0,0,76,80,76,40,31,-39.93,11,-24.0,15.0,-1009.0,13:05:48.970833,192.168.0.103
235,-2,-200,-200,-200,"0,0,0",-1,1,0,-1,0,0,72,75,83,50,61,-39.53,11,-7.0,8.0,-1003.0,13:05:49.020425,192.168.0.101
236,-1,-100,-100,-100,"-1,-1,-1",0,0,-4,0,0,0,76,80,76,40,31,-39.89,11,-14.0,8.0,-1008.0,13:05:49.069534,192.168.0.103
237,-2,-200,-200,-200,"0,0,0",-1,0,0,-1,0,0,72,75,84,50,61,-39.63,11,-4.0,10.0,-990.0,13:05:49.122392,192.168.0.101
238,-1,-100,-100,-100,"-1,-1,-1",0,0,-4,0,0,0,76,80,76,40,31,-39.95,11,-13.0,6.0,-1004.0,13:05:49.171785,192.168.0.103
239,-2,-200,-200,-200,"0,0,0",-1,-1,0,-1,0,0,72,75,84,60,61,-39.64,11,15.0,-9.0,-991.0,13:05:49.224701,192.168.0.101
240,-1,-100,-100,-100,"-1,-1,-1",0,0,-4,0,0,0,76,80,75,40,31,-39.93,11,-16.0,10.0,-1001.0,13:05:49.273516,192.168.0.103
241,-2,-200,-200,-200,"0,0,0",-1,-1,0,-1,0,0,72,75,84,60,61,-39.56,11,0.0,3.0,-1012.0,13:05:49.326375,192.168.0.101
242,-1,-100,-100,-100,"-1,-1,-1",0,0,-4,0,0,0,76,81,75,40,31,-39.97,11,-32.0,8.0,-1013.0,13:05:49.375661,192.168.0.103
243,-2,-200,-200,-200,"0,0,0",-1,0,0,-1,0,0,73,74,84,60,61,-39.61,11,3.0,-8.0,-984.0,13:05:49.428560,192.168.0.101
244,-1,-100,-100,-100,"-1,-1,-1",0,0,-4,0,0,0,76,81,76,40,31,-39.92,12,7.0,-5.0,-1000.0,13:05:49.477709,192.168.0.103
245,-2,-200,-200,-200,"0,0,0",-1,0,0,-1,0,0,73,74,84,60,61,-39.56,12,7.0,1.0,-992.0,13:05:49.530826,192.168.0.101
246,-1,-100,-100,-100,"-1,-1,-1",0,0,-4,0,0,0,76,81,75,40,31,-39.82,12,-17.0,4.0,-1009.0,13:05:49.583382,192.168.0.103
247,-2,-200,-200,-200,"0,0,0",-1,0,0,-1,0,0,73,74,84,60,61,-39.54,12,1.0,0.0,-982.0,13:05:49.632766,192.168.0.101
248,-1,-100,-100,-100,"-1,-1,-1",0,0,-4,0,0,0,76,81,76,40,31,-39.85,12,-17.0,16.0,-998.0,13:05:49.681813,192.168.0.103
249,-2,-200,-200,-200,"0,0,0",-1,0,0,-1,0,0,73,74,85,60,61,-39.48,12,2.0,9.0,-1003.0,13:05:49.734786,192.168.0.101
250,-1,-100,-100,-100,"-1,-1,-1",0,0,-4,0,0,0,76,81,76,40,31,-39.9,12,-22.0,0.0,-1012.0,13:05:49.783646,192.168.0.103
251,-2,-200,-200,-200,"0,0,0",0,0,0,-1,0,0,73,74,84,60,61,-39.56,12,0.0,-2.0,-993.0,13:05:49.836636,192.168.0.101
252,-1,-100,-100,-100,"-1,-1,-1",0,0,-4,0,0,0,76,81,76,40,31,-39.89,12,-3.0,5.0,-1015.0,13:05:49.885601,192.168.0.103
253,-2,-200,-200,-200,"0,0,0",-1,0,0,-1,0,0,73,74,84,60,61,-39.55,12,2.0,10.0,-1012.0,13:05:49.938337,192.168.0.101
254,-1,-100,-100,-100,"-1,-1,-1",0,0,-4,0,0,0,76,81,76,40,31,-39.9,12,-5.0,0.0,-1006.0,13:05:49.988010,192.168.0.103
255,-2,-200,-200,-200,"0,0,0",0,0,0,-1,0,0,73,74,84,60,61,-39.5,12,22.0,-2.0,-965.0,13:05:49.989257,192.168.0.101
256,-1,-100,-100,-100,"-1,-1,-1",0,0,-4,0,0,0,76,81,77,40,31,-39.89,12,-10.0,4.0,-1005.0,13:05:50.089499,192.168.0.103
257,-2,-200,-200,-200,"0,0,0",3,0,0,0,0,0,73,74,84,60,61,-39.53,12,-3.0,6.0,-1022.0,13:05:50.091530,192.168.0.101
258,-1,-100,-100,-100,"-1,-1,-1",0,0,-4,0,0,0,76,81,77,40,31,-39.9,12,-22.0,12.0,-995.0,13:05:50.142502,192.168.0.103
259,-2,-200,-200,-200,"0,0,0",1,0,0,0,0,0,73,74,85,60,61,-39.52,12,22.0,0.0,-997.0,13:05:50.193468,192.168.0.101
260,-1,-100,-100,-100,"-1,-1,-1",0,0,-4,0,0,0,76,81,77,50,31,-39.87,12,-14.0,-8.0,-1005.0,13:05:50.242539,192.168.0.103
261,-2,-200,-200,-200,"0,0,0",0,0,0,0,0,0,73,74,84,60,61,-39.57,12,22.0,-10.0,-986.0,13:05:50.296931,192.168.0.101
262,-1,-100,-100,-100,"-1,-1,-1",0,0,-4,0,0,0,77,80,78,50,31,-39.96,12,-9.0,3.0,-985.0,13:05:50.344532,192.168.0.103
263,-2,-200,-200,-200,"0,0,0",1,0,0,0,0,0,72,74,84,60,61,-39.58,12,32.0,9.0,-976.0,13:05:50.397438,192.168.0.101
264,-1,-100,-100,-100,"-1,-1,-1",4,0,-4,0,0,0,77,80,78,50,31,-39.96,13,-8.0,-9.0,-967.0,13:05:50.445839,192.168.0.103
265,-2,-200,-200,-200,"0,0,0",7,0,0,0,0,0,72,74,85,60,61,-39.55,13,12.0,8.0,-1020.0,13:05:50.499608,192.168.0.101
266,-1,-100,-100,-100,"-1,-1,-1",7,0,-4,-1,0,0,77,80,78,50,31,-39.8,13,-19.0,17.0,-1028.0,13:05:50.549435,192.168.0.103
267,-2,-200,-200,-200,"0,0,0",8,0,0,2,0,0,72,74,85,60,61,-39.55,13,6.0,12.0,-996.0,13:05:50.601371,192.168.0.101
268,-1,-100,-100,-100,"-1,-1,-1",8,0,-4,-2,0,0,77,80,79,50,31,-39.85,13,15.0,0.0,-1023.0,13:05:50.650466,192.168.0.103
269,-2,-200,-200,-200,"0,0,0",8,0,0,3,0,0,72,74,85,60,61,-39.54,13,33.0,5.0,-1034.0,13:05:50.703623,192.168.0.101
270,-1,-100,-100,-100,"-1,-1,-1",8,0,-4,-4,0,0,77,80,79,50,31,-39.79,13,21.0,4.0,-1006.0,13:05:50.751921,192.168.0.103
271,-2,-200,-200,-200,"0,0,0",8,0,0,4,0,0,72,74,85,60,61,-39.59,13,44.0,23.0,-1008.0,13:05:50.805478,192.168.0.101
272,-1,-100,-100,-100,"-1,-1,-1",7,0,-4,-5,0,0,77,80,79,50,31,-39.85,13,43.0,12.0,-1023.0,13:05:50.854499,192.168.0.103
273,-2,-200,-200,-200,"0,0,0",7,0,0,6,0,0,72,74,85,60,61,-39.6,13,51.0,6.0,-996.0,13:05:50.908363,192.168.0.101
274,-1,-100,-100,-100,"-1,-1,-1",6,0,-4,-6,0,0,77,80,79,50,31,-39.87,13,41.0,17.0,-999.0,13:05:50.956399,192.168.0.103
275,-2,-200,-200,-200,"0,0,0",5,0,0,7,0,0,72,74,84,60,61,-39.49,13,65.0,11.0,-989.0,13:05:51.009512,192.168.0.101
276,-1,-100,-100,-100,"-1,-1,-1",6,0,-4,-7,0,0,77,80,79,50,31,-39.87,13,35.0,22.0,-1028.0,13:05:51.058761,192.168.0.103
277,-2,-200,-200,-200,"0,0,0",5,0,0,7,0,0,72,74,84,60,61,-39.54,13,64.0,16.0,-976.0,13:05:51.112608,192.168.0.101
278,-1,-100,-100,-100,"-1,-1,-1",5,0,-3,-7,1,0,77,80,80,50,31,-39.86,13,41.0,27.0,-1001.0,13:05:51.160734,192.168.0.103
279,-2,-200,-200,-200,"0,0,0",3,0,0,8,0,0,72,74,84,60,61,-39.52,13,57.0,17.0,-1006.0,13:05:51.213145,192.168.0.101
280,-1,-100,-100,-100,"-1,-1,-1",3,0,-3,-7,1,0,77,80,79,50,31,-39.79,13,58.0,-1.0,-992.0,13:05:51.262764,192.168.0.103
281,-2,-200,-200,-200,"0,0,0",0,0,0,8,0,0,72,74,83,60,61,-39.59,13,64.0,13.0,-999.0,13:05:51.315578,192.168.0.101
282,-1,-100,-100,-100,"-1,-1,-1",0,-1,-3,-7,0,0,76,80,79,50,31,-39.84,13,58.0,-1.0,-992.0,13:05:51.364497,192.168.0.103
283,-2,-200,-200,-200,"0,0,0",-2,0,0,7,0,0,72,75,82,60,61,-39.55,13,64.0,10.0,-987.0,13:05:51.417539,192.168.0.101
284,-1,-100,-100,-100,"-1,-1,-1",-2,-1,-3,-7,0,0,76,80,81,50,31,-39.8,14,38.0,-1.0,-999.0,13:05:51.467050,192.168.0.103
285,-2,-200,-200,-200,"0,0,0",-4,-1,0,6,0,0,72,75,83,60,61,-39.56,14,73.0,-2.0,-981.0,13:05:51.519555,192.168.0.101
286,-1,-100,-100,-100,"-1,-1,-1",-3,0,-3,-6,0,0,76,80,81,50,31,-39.77,14,42.0,-10.0,-991.0,13:05:51.568651,192.168.0.103
287,-2,-200,-200,-200,"0,0,0",-5,0,0,5,0,0,72,75,82,60,61,-39.52,14,57.0,2.0,-1004.0,13:05:51.621497,192.168.0.101
288,-1,-100,-100,-100,"-1,-1,-1",-4,0,-3,-4,0,0,76,80,81,50,31,-39.82,14,50.0,1.0,-998.0,13:05:51.670778,192.168.0.103
289,-2,-200,-200,-200,"0,0,0",-3,0,0,4,0,0,72,75,82,60,61,-39.58,14,53.0,3.0,-1009.0,13:05:51.723303,192.168.0.101
290,-1,-100,-100,-100,"-1,-1,-1",-2,0,-3,-3,0,0,76,80,81,50,31,-39.8,14,34.0,2.0,-994.0,13:05:51.773242,192.168.0.103
291,-2,-200,-200,-200,"0,0,0",-2,0,0,3,0,0,72,75,81,60,61,-39.6,14,27.0,22.0,-1018.0,13:05:51.825679,192.168.0.101
292,-1,-100,-100,-100,"-1,-1,-1",-1,0,-3,-3,0,0,76,80,81,50,31,-39.78,14,9.0,6.0,-1006.0,13:05:51.874912,192.168.0.103
293,-2,-200,-200,-200,"0,0,0",-1,0,0,3,0,0,72,75,81,60,61,-39.55,14,31.0,21.0,-1011.0,13:05:51.927674,192.168.0.101
294,-1,-100,-100,-100,"-1,-1,-1",0,1,-3,-3,0,0,76,80,81,50,31,-39.8,14,38.0,9.0,-1003.0,13:05:51.976313,192.168.0.103
295,-2,-200,-200,-200,"0,0,0",-5,0,0,2,0,0,72,75,81,50,61,-39.55,14,55.0,10.0,-1003.0,13:05:52.029421,192.168.0.101
296,-1,-100,-100,-100,"-1,-1,-1",0,2,-3,-2,0,0,76,80,81,50,31,-39.84,14,25.0,-7.0,-988.0,13:05:52.077990,192.168.0.103
297,-2,-200,-200,-200,"0,0,0",-5,0,0,1,0,0,72,75,81,50,61,-39.61,14,49.0,-4.0,-1003.0,13:05:52.131514,192.168.0.101
298,-1,-100,-100,-100,"-1,-1,-1",0,2,-3,-2,0,0,76,80,81,50,31,-39.83,14,30.0,-9.0,-995.0,13:05:52.180144,192.168.0.103
299,-2,-200,-200,-200,"0,0,0",-2,0,0,0,0,0,72,75,81,50,61,-39.56,14,27.0,18.0,-1006.0,13:05:52.233513,192.168.0.101
300,-1,-100,-100,-100,"-1,-1,-1",0,2,-3,-2,0,0,76,80,81,50,31,-39.82,14,25.0,0.0,-991.0,13:05:52.282605,192.168.0.103
301,-2,-200,-200,-200,"0,0,0",-1,0,0,0,0,0,72,75,80,50,61,-39.5,14,15.0,11.0,-996.0,13:05:52.335791,192.168.0.101
302,-1,-100,-100,-100,"-1,-1,-1",0,2,-3,-2,0,0,75,81,81,50,31,-39.81,14,38.0,-13.0,-987.0,13:05:52.384534,192.168.0.103
303,-2,-200,-200,-200,"0,0,0",0,0,0,0,0,0,72,75,80,50,61,-39.52,14,11.0,17.0,-999.0,13:05:52.438196,192.168.0.101
304,-1,-100,-100,-100,"-1,-1,-1",1,1,-3,-2,0,0,75,81,82,50,31,-39.78,15,16.0,0.0,-1008.0,13:05:52.486411,192.168.0.103
305,-2,-200,-200,-200,"0,0,0",0,0,0,0,0,0,72,75,81,50,61,-39.57,15,26.0,7.0,-994.0,13:05:52.551919,192.168.0.101
306,-1,-100,-100,-100,"-1,-1,-1",1,1,-4,-1,0,0,75,81,81,50,31,-39.77,15,4.0,11.0,-1001.0,13:05:52.588392,192.168.0.103
307,-2,-200,-200,-200,"0,0,0",0,0,0,0,0,0,72,75,80,50,61,-39.58,15,22.0,0.0,-1010.0,13:05:52.642992,192.168.0.101
308,-1,-100,-100,-100,"-1,-1,-1",0,0,-4,-1,1,0,75,81,81,50,31,-39.8,15,21.0,-22.0,-989.0,13:05:52.691684,192.168.0.103
309,-2,-200,-200,-200,"0,0,0",-1,0,0,0,0,0,72,75,80,50,61,-39.62,15,15.0,8.0,-1006.0,13:05:52.745323,192.168.0.101
310,-1,-100,-100,-100,"-1,-1,-1",0,-1,-4,-1,0,0,75,81,80,50,31,-39.81,15,-5.0,-13.0,-1037.0,13:05:52.792731,192.168.0.103
311,-2,-200,-200,-200,"0,0,0",-1,0,0,0,0,0,72,75,80,50,61,-39.57,15,12.0,15.0,-1005.0,13:05:52.847493,192.168.0.101
312,-1,-100,-100,-100,"-1,-1,-1",-4,0,-4,-1,0,0,75,81,81,50,31,-39.87,15,34.0,-6.0,-974.0,13:05:52.894056,192.168.0.103
313,-2,-200,-200,-200,"0,0,0",-1,0,0,0,0,0,72,75,81,50,61,-39.56,15,14.0,14.0,-1011.0,13:05:52.946696,192.168.0.101
314,-1,-100,-100,-100,"-1,-1,-1",-2,0,-4,0,0,0,75,81,81,50,31,-39.86,15,9.0,4.0,-999.0,13:05:52.997583,192.168.0.103
315,-2,-200,-200,-200,"0,0,0",-1,0,0,0,0,0,72,75,81,50,61,-39.54,15,22.0,2.0,-1006.0,13:05:53.049246,192.168.0.101
316,-1,-100,-100,-100,"-1,-1,-1",0,0,-4,0,0,0,75,81,81,50,31,-39.86,15,-6.0,-2.0,-1002.0,13:05:53.099540,192.168.0.103
317,-2,-200,-200,-200,"0,0,0",-1,0,0,0,0,0,72,75,81,50,61,-39.57,15,18.0,4.0,-1004.0,13:05:53.150623,192.168.0.101
318,-1,-100,-100,-100,"-1,-1,-1",0,0,-4,0,0,0,75,81,81,50,31,-39.83,15,-15.0,0.0,-1002.0,13:05:53.201511,192.168.0.103
319,-1,-100,-100,-100,"-1,-1,-1",0,0,-4,0,0,0,75,81,81,50,31,-39.75,15,11.0,-11.0,-1004.0,13:05:53.252543,192.168.0.103
320,-2,-200,-200,-200,"0,0,0",-1,0,0,0,0,0,72,75,81,50,61,-39.66,15,21.0,11.0,-1001.0,13:05:53.253078,192.168.0.101
321,-2,-200,-200,-200,"0,0,0",-1,0,0,0,0,0,72,75,81,50,61,-39.58,15,29.0,-5.0,-995.0,13:05:53.355433,192.168.0.101
322,-1,-100,-100,-100,"-1,-1,-1",0,0,-4,0,0,0,75,81,81,50,31,-39.78,15,19.0,6.0,-1005.0,13:05:53.404527,192.168.0.103
323,-2,-200,-200,-200,"0,0,0",-1,0,0,0,0,0,72,75,81,50,61,-39.6,15,22.0,12.0,-996.0,13:05:53.457299,192.168.0.101
324,-1,-100,-100,-100,"-1,-1,-1",0,0,-4,0,0,0,75,81,81,50,31,-39.84,16,15.0,-12.0,-999.0,13:05:53.507451,192.168.0.103
325,-1,-100,-100,-100,"-1,-1,-1",0,0,-4,0,0,0,75,81,80,50,31,-39.84,16,-6.0,2.0,-996.0,13:05:53.558142,192.168.0.103
326,-2,-200,-200,-200,"0,0,0",0,0,0,0,0,0,72,75,81,50,61,-39.53,16,20.0,-4.0,-995.0,13:05:53.558942,192.168.0.101
327,-1,-100,-100,-100,"-1,-1,-1",0,0,-4,0,0,0,75,81,81,50,31,-39.8,16,31.0,-15.0,-988.0,13:05:53.660428,192.168.0.103
328,-2,-200,-200,-200,"0,0,0",0,0,0,0,0,0,72,75,80,50,61,-39.59,16,21.0,-6.0,-1000.0,13:05:53.660428,192.168.0.101
329,-1,-100,-100,-100,"-1,-1,-1",0,0,-4,0,0,0,75,81,80,50,31,-39.87,16,-4.0,-10.0,-997.0,13:05:53.762393,192.168.0.103
330,-2,-200,-200,-200,"0,0,0",-1,0,0,0,0,0,72,75,81,50,61,-39.57,16,33.0,-8.0,-987.0,13:05:53.762393,192.168.0.101
331,-1,-100,-100,-100,"-1,-1,-1",0,0,-4,0,0,0,75,81,80,50,31,-39.83,16,-5.0,0.0,-995.0,13:05:53.864370,192.168.0.103
332,-2,-200,-200,-200,"0,0,0",0,0,0,0,0,0,72,75,81,50,61,-39.57,16,15.0,-2.0,-988.0,13:05:53.865586,192.168.0.101
333,-2,-200,-200,-200,"0,0,0",-1,0,0,0,0,0,72,75,81,50,61,-39.57,16,19.0,0.0,-994.0,13:05:53.916712,192.168.0.101
334,-1,-100,-100,-100,"-1,-1,-1",0,0,-4,0,0,0,75,81,80,50,31,-39.84,16,-5.0,-9.0,-987.0,13:05:53.965547,192.168.0.103
335,-2,-200,-200,-200,"0,0,0",-1,0,0,0,0,0,72,75,80,50,61,-39.58,16,17.0,9.0,-1017.0,13:05:54.019403,192.168.0.101
336,-1,-100,-100,-100,"-1,-1,-1",0,0,-4,0,0,0,75,81,80,50,31,-39.82,16,-6.0,-11.0,-992.0,13:05:54.067589,192.168.0.103
337,-2,-200,-200,-200,"0,0,0",0,0,0,0,0,0,72,75,81,50,61,-39.61,16,12.0,10.0,-1009.0,13:05:54.120474,192.168.0.101
338,-1,-100,-100,-100,"-1,-1,-1",0,1,-4,0,0,0,75,81,80,50,31,-39.86,16,-6.0,-1.0,-1006.0,13:05:54.170345,192.168.0.103
339,-2,-200,-200,-200,"0,0,0",0,0,0,0,0,0,72,75,81,50,61,-39.54,16,11.0,3.0,-995.0,13:05:54.222704,192.168.0.101
340,-1,-100,-100,-100,"-1,-1,-1",0,1,-4,0,0,0,75,81,80,50,31,-39.89,16,-14.0,1.0,-998.0,13:05:54.272009,192.168.0.103
341,-2,-200,-200,-200,"0,0,0",0,0,0,0,0,0,72,75,80,50,61,-39.59,16,22.0,-8.0,-998.0,13:05:54.325389,192.168.0.101
342,-1,-100,-100,-100,"-1,-1,-1",0,1,-4,0,0,0,77,80,79,50,31,-39.88,16,3.0,-2.0,-995.0,13:05:54.374023,192.168.0.103
343,-2,-200,-200,-200,"0,0,0",0,0,0,0,0,0,72,74,80,50,61,-39.57,16,19.0,8.0,-998.0,13:05:54.427399,192.168.0.101
344,-1,-100,-100,-100,"-1,-1,-1",0,0,-4,0,0,0,77,80,79,50,31,-39.85,17,0.0,-7.0,-1003.0,13:05:54.476473,192.168.0.103
345,-2,-200,-200,-200,"0,0,0",0,0,0,0,0,0,72,74,81,50,61,-39.65,17,-2.0,13.0,-1001.0,13:05:54.539813,192.168.0.101
346,-1,-100,-100,-100,"-1,-1,-1",0,0,-4,0,0,0,77,80,80,50,31,-39.92,17,-24.0,3.0,-1013.0,13:05:54.578682,192.168.0.103
347,-2,-200,-200,-200,"0,0,0",0,0,0,0,0,0,72,74,81,50,61,-39.64,17,1.0,14.0,-1000.0,13:05:54.631616,192.168.0.101
348,-1,-100,-100,-100,"-1,-1,-1",0,0,-4,0,0,0,77,80,79,50,31,-39.82,17,8.0,-24.0,-986.0,13:05:54.680541,192.168.0.103
349,-2,-200,-200,-200,"0,0,0",0,0,0,0,0,0,72,74,80,50,61,-39.6,17,17.0,9.0,-1001.0,13:05:54.733357,192.168.0.101
350,-1,-100,-100,-100,"-1,-1,-1",0,1,-4,0,0,0,77,80,80,50,31,-39.84,17,11.0,21.0,-995.0,13:05:54.782610,192.168.0.103
351,-2,-200,-200,-200,"0,0,0",0,0,0,0,0,0,72,74,81,50,61,-39.63,17,27.0,4.0,-1004.0,13:05:54.835314,192.168.0.101
352,-1,-100,-100,-100,"-1,-1,-1",0,1,-4,0,0,0,77,80,79,50,31,-39.84,17,-19.0,5.0,-1007.0,13:05:54.884598,192.168.0.103
353,-2,-200,-200,-200,"0,0,0",0,0,0,0,0,0,72,74,80,50,61,-39.55,17,16.0,6.0,-1000.0,13:05:54.938476,192.168.0.101
354,-1,-100,-100,-100,"-1,-1,-1",0,0,-4,0,0,0,77,80,79,50,31,-39.86,17,3.0,17.0,-1003.0,13:05:54.985775,192.168.0.103
355,-2,-200,-200,-200,"0,0,0",0,0,0,0,0,0,72,74,81,50,61,-39.55,17,5.0,7.0,-992.0,13:05:55.039284,192.168.0.101
356,-1,-100,-100,-100,"-1,-1,-1",0,0,-4,0,0,0,77,80,80,50,31,-39.85,17,2.0,-17.0,-993.0,13:05:55.088712,192.168.0.103
357,-2,-200,-200,-200,"0,0,0",0,0,0,-1,0,0,72,74,80,50,61,-39.54,17,2.0,12.0,-1005.0,13:05:55.141644,192.168.0.101
358,-1,-100,-100,-100,"-1,-1,-1",0,0,-4,0,0,0,77,80,79,50,31,-39.92,17,13.0,-13.0,-986.0,13:05:55.190280,192.168.0.103
359,-2,-200,-200,-200,"0,0,0",0,0,0,0,0,0,72,74,80,50,61,-39.64,17,5.0,12.0,-1004.0,13:05:55.243359,192.168.0.101
360,-1,-100,-100,-100,"-1,-1,-1",0,0,-4,0,0,0,77,80,79,50,31,-39.93,17,-14.0,15.0,-1007.0,13:05:55.292889,192.168.0.103
361,-2,-200,-200,-200,"0,0,0",0,0,0,0,0,0,72,74,81,50,61,-39.64,17,-1.0,23.0,-1007.0,13:05:55.344495,192.168.0.101
362,-1,-100,-100,-100,"-1,-1,-1",0,0,-4,0,0,0,76,80,79,50,31,-39.84,17,6.0,-6.0,-998.0,13:05:55.393566,192.168.0.103
363,-2,-200,-200,-200,"0,0,0",0,0,0,0,0,0,71,74,81,50,61,-39.66,17,19.0,15.0,-1006.0,13:05:55.446815,192.168.0.101
364,-1,-100,-100,-100,"-1,-1,-1",0,0,-4,0,0,0,76,80,79,50,31,-39.87,18,0.0,-4.0,-998.0,13:05:55.497842,192.168.0.103
365,-2,-200,-200,-200,"0,0,0",0,0,0,0,0,0,71,74,80,50,61,-39.6,18,-4.0,22.0,-1010.0,13:05:55.549107,192.168.0.101
366,-1,-100,-100,-100,"-1,-1,-1",0,0,-4,0,0,0,76,80,78,50,31,-39.9,18,2.0,-12.0,-989.0,13:05:55.598235,192.168.0.103
367,-2,-200,-200,-200,"0,0,0",0,0,0,0,0,0,71,74,79,50,61,-39.64,18,-2.0,8.0,-969.0,13:05:55.651201,192.168.0.101
368,-1,-100,-100,-100,"-1,-1,-1",0,0,-4,0,0,0,76,80,77,50,31,-39.9,18,16.0,-12.0,-968.0,13:05:55.700506,192.168.0.103
369,-2,-200,-200,-200,"0,0,0",0,0,0,0,0,-1,71,74,78,50,61,-39.65,18,4.0,11.0,-952.0,13:05:55.754011,192.168.0.101
370,-1,-100,-100,-100,"-1,-1,-1",0,0,-4,0,0,1,76,80,76,40,31,-39.9,18,-1.0,4.0,-958.0,13:05:55.802511,192.168.0.103
371,-2,-200,-200,-200,"0,0,0",0,0,0,0,0,-2,71,74,76,50,61,-39.65,18,0.0,12.0,-927.0,13:05:55.854963,192.168.0.101
372,-1,-100,-100,-100,"-1,-1,-1",0,0,-4,0,0,2,76,80,73,40,31,-39.94,18,2.0,-11.0,-922.0,13:05:55.904253,192.168.0.103
373,-2,-200,-200,-200,"0,0,0",1,0,0,0,0,-3,71,74,73,50,61,-39.66,18,11.0,5.0,-920.0,13:05:55.957093,192.168.0.101
374,-1,-100,-100,-100,"-1,-1,-1",0,0,-4,0,0,3,76,80,70,40,31,-39.98,18,-10.0,-11.0,-906.0,13:05:56.006293,192.168.0.103
375,-2,-200,-200,-200,"0,0,0",0,0,0,0,0,-3,71,74,69,40,61,-39.75,18,15.0,0.0,-912.0,13:05:56.058520,192.168.0.101
376,-1,-100,-100,-100,"-1,-1,-1",0,0,-3,0,0,3,76,80,66,40,31,-39.98,18,24.0,-12.0,-905.0,13:05:56.108157,192.168.0.103
377,-2,-200,-200,-200,"0,0,0",0,0,0,0,0,-4,71,74,65,40,61,-39.77,18,28.0,-1.0,-936.0,13:05:56.161587,192.168.0.101
378,-1,-100,-100,-100,"-1,-1,-1",0,0,-3,0,0,4,76,80,62,30,31,-40.04,18,15.0,1.0,-926.0,13:05:56.210014,192.168.0.103
379,-2,-200,-200,-200,"0,0,0",0,0,0,0,0,-4,71,74,60,40,61,-39.8,18,9.0,10.0,-961.0,13:05:56.262975,192.168.0.101
380,-1,-100,-100,-100,"-1,-1,-1",0,0,-3,0,0,4,76,80,57,30,31,-40.07,18,-15.0,-14.0,-956.0,13:05:56.312469,192.168.0.103
381,-2,-200,-200,-200,"0,0,0",0,0,0,0,0,-4,71,74,55,30,61,-39.8,18,3.0,7.0,-979.0,13:05:56.364726,192.168.0.101
382,-1,-100,-100,-100,"-1,-1,-1",0,0,-3,0,0,4,76,82,51,20,31,-40.12,18,-5.0,-7.0,-999.0,13:05:56.414697,192.168.0.103
383,-2,-200,-200,-200,"0,0,0",0,0,0,0,0,-4,72,75,50,30,61,-39.88,18,9.0,-1.0,-1003.0,13:05:56.466673,192.168.0.101
384,-1,-100,-100,-100,"-1,-1,-1",0,0,-4,0,0,4,76,82,47,20,31,-40.12,19,-16.0,2.0,-996.0,13:05:56.516494,192.168.0.103
385,-2,-200,-200,-200,"0,0,0",0,0,0,0,0,-4,72,75,46,20,61,-39.93,19,16.0,4.0,-997.0,13:05:56.569152,192.168.0.101
386,-1,-100,-100,-100,"-1,-1,-1",0,0,-4,0,0,4,76,82,42,10,31,-40.26,19,-11.0,-9.0,-990.0,13:05:56.618514,192.168.0.103
387,-2,-200,-200,-200,"0,0,0",0,0,0,0,0,-4,72,75,41,20,61,-39.97,19,19.0,0.0,-1003.0,13:05:56.671490,192.168.0.101
388,-1,-100,-100,-100,"-1,-1,-1",0,0,-4,0,0,4,76,82,37,10,31,-40.22,19,-7.0,8.0,-1012.0,13:05:56.720728,192.168.0.103
389,-2,-200,-200,-200,"0,0,0",0,0,0,0,0,-4,72,75,36,10,61,-39.95,19,-2.0,18.0,-1014.0,13:05:56.774185,192.168.0.101
390,-1,-100,-100,-100,"-1,-1,-1",0,0,-4,0,0,4,76,82,32,0,31,-40.23,19,-9.0,3.0,-1006.0,13:05:56.822521,192.168.0.103
391,-2,-200,-200,-200,"0,0,0",0,0,0,0,0,-4,72,75,32,10,61,-40.04,19,15.0,1.0,-1004.0,13:05:56.875731,192.168.0.101
392,-1,-100,-100,-100,"-1,-1,-1",0,0,-4,0,0,4,76,82,27,0,31,-40.37,19,-2.0,0.0,-1002.0,13:05:56.924041,192.168.0.103
393,-2,-200,-200,-200,"0,0,0",0,0,0,0,0,-4,72,75,27,0,61,-40.07,19,20.0,-3.0,-1012.0,13:05:56.977312,192.168.0.101
394,-1,-100,-100,-100,"-1,-1,-1",0,0,-4,0,0,4,76,82,22,0,31,-40.37,19,-3.0,0.0,-1012.0,13:05:57.025655,192.168.0.103
395,-2,-200,-200,-200,"0,0,0",0,0,0,0,0,-4,72,75,23,0,61,-40.06,19,23.0,-18.0,-1000.0,13:05:57.080998,192.168.0.101
396,-1,-100,-100,-100,"-1,-1,-1",0,0,-4,0,0,4,76,82,18,0,31,-40.57,19,-24.0,-4.0,-1010.0,13:05:57.128533,192.168.0.103
397,-2,-200,-200,-200,"0,0,0",0,0,0,0,0,-4,72,75,19,0,61,-40.23,19,13.0,0.0,-1027.0,13:05:57.181354,192.168.0.101
398,-1,-100,-100,-100,"-1,-1,-1",0,0,-4,0,0,4,76,82,12,-10,31,-41.03,19,7.0,0.0,-1021.0,13:05:57.230253,192.168.0.103
399,-2,-200,-200,-200,"0,0,0",0,0,0,0,0,-4,72,75,13,0,61,-40.71,19,29.0,-20.0,-1026.0,13:05:57.282517,192.168.0.101
400,-1,-100,-100,-100,"-1,-1,-1",0,0,-4,0,0,4,76,82,10,-10,31,-41.53,19,-25.0,23.0,-1061.0,13:05:57.332470,192.168.0.103
401,-2,-200,-200,-200,"0,0,0",0,0,0,0,0,-4,72,75,10,0,61,-41.32,19,20.0,-20.0,-1054.0,13:05:57.385469,192.168.0.101
402,-1,-100,-100,-100,"-1,-1,-1",0,0,-4,0,0,3,77,81,10,-10,31,-42.83,19,-32.0,3.0,-1085.0,13:05:57.434138,192.168.0.103
403,-2,-200,-200,-200,"0,0,0",0,0,0,0,0,-3,72,74,10,-10,61,-42.36,19,7.0,-3.0,-1037.0,13:05:57.486700,192.168.0.101
404,-1,-100,-100,-100,"-1,-1,-1",0,0,-4,0,0,3,77,81,10,-20,31,-44.24,20,-116.0,41.0,-2834.0,13:05:57.536504,192.168.0.103
405,-2,-200,-200,-200,"0,0,0",0,0,0,0,0,-3,72,74,10,-10,61,-43.83,20,8.0,0.0,-1073.0,13:05:57.588604,192.168.0.101
406,-1,-100,-100,-100,"-1,-1,-1",0,0,-4,0,0,0,77,81,10,-20,31,-43.07,20,30.0,-24.0,-763.0,13:05:57.638327,192.168.0.103
407,-2,-200,-200,-200,"0,0,0",0,0,0,-1,0,0,72,74,10,-10,61,-42.68,20,40.0,-25.0,-832.0,13:05:57.693241,192.168.0.101
408,-1,-100,-100,-100,"-1,-1,-1",0,0,-4,0,0,0,77,81,10,-20,31,-43.14,20,-3.0,6.0,-880.0,13:05:57.739964,192.168.0.103
409,-2,-200,-200,-200,"0,0,0",2,1,0,-1,0,0,72,74,10,-10,61,-43.05,20,97.0,0.0,-1031.0,13:05:57.792543,192.168.0.101
410,-1,-100,-100,-100,"-1,-1,-1",0,0,-4,0,0,0,77,81,10,-20,31,-42.69,20,-24.0,10.0,-1023.0,13:05:57.842399,192.168.0.103
411,-2,-200,-200,-200,"0,0,0",0,1,0,-2,0,0,72,74,10,-10,61,-42.44,20,31.0,-24.0,-980.0,13:05:57.894400,192.168.0.101
412,-1,-100,-100,-100,"-1,-1,-1",0,0,-3,0,0,0,77,81,10,-20,31,-42.13,20,-10.0,-2.0,-1004.0,13:05:57.950829,192.168.0.103
413,-2,-200,-200,-200,"0,0,0",0,0,0,-2,0,0,72,74,10,-10,61,-41.94,20,13.0,-27.0,-999.0,13:05:57.950829,192.168.0.101
414,-1,-100,-100,-100,"-1,-1,-1",0,0,-3,0,0,0,77,81,10,-20,31,-41.76,20,-12.0,-11.0,-994.0,13:05:57.994614,192.168.0.103
415,-2,-200,-200,-200,"0,0,0",0,0,0,-2,0,0,72,74,10,-10,61,-41.75,20,21.0,-20.0,-995.0,13:05:58.057113,192.168.0.101
416,-1,-100,-100,-100,"-1,-1,-1",0,0,-3,0,0,0,77,81,10,-20,31,-41.44,20,-6.0,11.0,-1000.0,13:05:58.101689,192.168.0.103
417,-2,-200,-200,-200,"0,0,0",0,0,0,-3,0,0,72,74,10,-10,61,-41.44,20,11.0,-11.0,-1005.0,13:05:58.150220,192.168.0.101
418,-1,-100,-100,-100,"-1,-1,-1",0,0,-3,0,0,0,77,81,10,-20,31,-41.46,20,-10.0,-1.0,-997.0,13:05:58.202021,192.168.0.103
419,-2,-200,-200,-200,"0,0,0",0,0,0,-3,0,0,72,74,10,-10,61,-41.37,20,21.0,-14.0,-990.0,13:05:58.252447,192.168.0.101
420,-1,-100,-100,-100,"-1,-1,-1",0,0,-3,0,0,0,77,81,10,-20,31,-41.51,20,6.0,13.0,-997.0,13:05:58.301130,192.168.0.103
421,-2,-200,-200,-200,"0,0,0",0,0,0,-3,0,0,72,74,10,-10,61,-41.43,20,8.0,0.0,-1015.0,13:05:58.353966,192.168.0.101
422,-1,-100,-100,-100,"-1,-1,-1",0,0,-3,0,0,0,76,81,10,-20,31,-41.38,20,-5.0,5.0,-996.0,13:05:58.403501,192.168.0.103
423,-2,-200,-200,-200,"0,0,0",0,0,0,-3,0,0,72,74,10,-10,61,-41.25,20,16.0,-14.0,-1005.0,13:05:58.455899,192.168.0.101
424,-1,-100,-100,-100,"-1,-1,-1",0,0,-3,0,0,0,76,81,10,-10,31,-41.32,21,1.0,0.0,-999.0,13:05:58.504828,192.168.0.103
425,-2,-200,-200,-200,"0,0,0",0,0,0,-3,0,0,72,74,10,-10,61,-41.3,21,3.0,-11.0,-998.0,13:05:58.558289,192.168.0.101
426,-1,-100,-100,-100,"-1,-1,-1",0,0,-3,0,0,0,76,81,10,-10,31,-41.19,21,1.0,3.0,-1006.0,13:05:58.606370,192.168.0.103
