,mid,x,y,z,mpry,pitch,roll,yaw,vgx,vgy,vgz,templ,temph,tof,h,bat,baro,time,agx,agy,agz,timestamp,address
1,-1,-100,-100,-100,"0,0,0",0,0,0,0,0,0,63,65,10,0,94,-9.09,0,-3.0,-2.0,-1000.0,12:24:17.668055,192.168.0.115
7,-1,-100,-100,-100,"0,0,0",0,0,0,0,0,0,63,65,10,0,94,-9.08,0,-5.0,-1.0,-1001.0,12:24:17.769959,192.168.0.115
12,-1,-100,-100,-100,"0,0,0",0,0,0,0,0,0,63,65,10,0,94,-9.05,0,-4.0,0.0,-999.0,12:24:17.872317,192.168.0.115
17,-1,-100,-100,-100,"0,0,0",0,0,0,0,0,0,63,65,10,0,94,-9.05,0,-6.0,-1.0,-1000.0,12:24:17.974379,192.168.0.115
22,-1,-100,-100,-100,"0,0,0",0,0,0,0,0,0,63,65,10,0,94,-9.05,0,-6.0,-7.0,-994.0,12:24:18.076976,192.168.0.115
27,-1,-100,-100,-100,"0,0,0",0,0,0,0,0,0,63,65,10,0,94,-9.05,0,5.0,0.0,-985.0,12:24:18.179241,192.168.0.115
32,-1,-100,-100,-100,"0,0,0",0,0,0,0,0,0,63,65,10,0,94,-9.05,0,-26.0,26.0,-1086.0,12:24:18.281509,192.168.0.115
37,-1,-100,-100,-100,"0,0,0",0,0,-1,0,0,0,63,65,10,0,94,-9.05,0,-20.0,19.0,-1206.0,12:24:18.383874,192.168.0.115
42,-1,-100,-100,-100,"0,0,0",0,0,-1,0,0,2,63,65,10,0,94,-9.05,0,56.0,2.0,-1324.0,12:24:18.487010,192.168.0.115
47,-1,-100,-100,-100,"0,0,0",0,0,-1,0,0,5,63,65,10,0,94,-8.92,0,1.0,-10.0,-1183.0,12:24:18.588726,192.168.0.115
52,-1,-100,-100,-100,"0,0,0",0,0,-1,0,0,6,63,65,18,0,94,-8.77,0,-7.0,-6.0,-1049.0,12:24:18.688386,192.168.0.115
57,-1,-100,-100,-100,"0,0,0",0,0,-1,0,0,7,63,65,24,0,94,-8.64,0,-8.0,-7.0,-1003.0,12:24:18.790282,192.168.0.115
62,-1,-100,-100,-100,"0,0,0",0,0,-1,0,0,7,63,65,34,0,94,-8.56,1,-12.0,16.0,-985.0,12:24:18.892385,192.168.0.115
67,-1,-100,-100,-100,"0,0,0",0,0,-1,0,0,6,63,65,43,10,94,-8.43,1,-12.0,27.0,-933.0,12:24:18.994308,192.168.0.115
74,-1,-100,-100,-100,"0,0,0",0,0,-1,0,0,6,63,65,52,10,94,-8.33,1,36.0,6.0,-920.0,12:24:19.096387,192.168.0.115
79,-1,-100,-100,-100,"0,0,0",0,-1,-1,0,0,5,63,66,60,20,94,-8.27,1,23.0,44.0,-868.0,12:24:19.198290,192.168.0.115
84,-1,-100,-100,-100,"0,0,0",0,-1,-1,0,0,3,63,66,67,20,94,-8.16,1,-28.0,84.0,-865.0,12:24:19.300097,192.168.0.115
85,-1,-100,-100,-100,"0,0,0",0,-2,-1,0,-1,2,63,66,73,20,94,-8.15,1,-6.0,57.0,-913.0,12:24:19.350908,192.168.0.115
90,-1,-100,-100,-100,"0,0,0",0,-4,-1,0,-1,1,63,66,78,30,94,-8.05,1,-18.0,49.0,-945.0,12:24:19.453425,192.168.0.115
95,-1,-100,-100,-100,"0,0,0",0,-5,-1,0,-1,1,63,66,84,30,94,-8.04,1,-13.0,34.0,-938.0,12:24:19.555380,192.168.0.115
100,-1,-100,-100,-100,"0,0,0",0,-4,-1,0,0,0,63,66,87,30,94,-8.11,1,-37.0,56.0,-968.0,12:24:19.657351,192.168.0.115
105,-1,-100,-100,-100,"0,0,0",0,-2,-2,0,0,0,63,66,90,30,94,-8.09,1,-36.0,66.0,-955.0,12:24:19.759174,192.168.0.115
111,-1,-100,-100,-100,"0,0,0",-1,-2,-2,0,0,0,63,66,93,30,94,-8.05,2,-10.0,34.0,-919.0,12:24:19.861303,192.168.0.115
116,-1,-100,-100,-100,"0,0,0",0,-3,-2,0,0,0,63,66,96,40,94,-7.93,2,-8.0,48.0,-923.0,12:24:19.963046,192.168.0.115
121,-1,-100,-100,-100,"0,0,0",-1,-3,-2,0,0,0,63,66,96,40,94,-7.93,2,-19.0,66.0,-943.0,12:24:20.065341,192.168.0.115
126,-1,-100,-100,-100,"0,0,0",-1,-2,-2,0,0,-1,64,65,98,40,94,-7.97,2,-5.0,70.0,-975.0,12:24:20.167233,192.168.0.115
132,-1,-100,-100,-100,"0,0,0",-1,-2,-2,0,0,-1,64,65,98,40,94,-7.91,2,-6.0,95.0,-977.0,12:24:20.269305,192.168.0.115
137,-1,-100,-100,-100,"0,0,0",-1,-4,-2,0,0,-1,64,65,99,40,94,-7.88,2,-29.0,70.0,-1005.0,12:24:20.371218,192.168.0.115
142,-1,-100,-100,-100,"0,0,0",0,-5,-2,0,0,-1,64,65,100,40,94,-7.84,2,-41.0,26.0,-1016.0,12:24:20.473328,192.168.0.115
147,8,-36,27,105,"2,9,-177",0,-4,-1,0,0,-1,64,65,99,40,94,-7.85,2,-25.0,26.0,-948.0,12:24:20.575166,192.168.0.115
152,8,-36,27,105,"2,9,-177",-1,-2,-1,0,0,-1,64,65,99,40,94,-7.91,2,-9.0,58.0,-1018.0,12:24:20.677130,192.168.0.115
157,8,-36,27,105,"2,9,-177",-1,-1,-1,0,0,-1,64,65,99,40,94,-7.94,2,-38.0,92.0,-1005.0,12:24:20.779349,192.168.0.115
162,8,-36,27,105,"2,9,-177",-1,-2,-1,0,0,0,64,65,99,40,94,-7.96,3,-1.0,56.0,-903.0,12:24:20.881247,192.168.0.115
167,8,-36,27,105,"2,9,-177",-1,-3,-2,0,0,-1,64,65,98,50,94,-8.0,3,-32.0,38.0,-981.0,12:24:20.983316,192.168.0.115
172,8,-36,27,105,"2,9,-177",0,-2,-2,0,0,-1,64,65,98,50,94,-7.91,3,-33.0,79.0,-1005.0,12:24:21.085373,192.168.0.115
177,8,-36,27,105,"2,9,-177",-1,-2,-1,0,0,-1,63,66,96,40,94,-7.96,3,5.0,29.0,-936.0,12:24:21.187599,192.168.0.115
182,8,-36,27,105,"2,9,-177",-2,-2,-1,0,0,-1,63,66,95,40,94,-7.89,3,-24.0,56.0,-990.0,12:24:21.289346,192.168.0.115
187,8,-36,27,105,"2,9,-177",-1,-4,-1,0,0,-1,63,66,94,40,94,-7.92,3,22.0,23.0,-1058.0,12:24:21.391204,192.168.0.115
192,8,-36,27,105,"2,9,-177",0,-5,-1,0,0,-1,63,66,93,40,94,-8.03,3,-6.0,40.0,-986.0,12:24:21.493219,192.168.0.115
198,8,-36,27,105,"2,9,-177",0,-4,-1,0,0,-1,63,66,91,40,94,-7.94,3,0.0,75.0,-1015.0,12:24:21.595044,192.168.0.115
204,8,-36,27,105,"2,9,-177",0,-2,-1,0,0,-1,63,66,90,40,94,-7.98,3,11.0,44.0,-977.0,12:24:21.697263,192.168.0.115
209,8,-36,27,105,"2,9,-177",0,-2,-1,0,0,-1,63,66,88,40,94,-8.04,3,7.0,60.0,-958.0,12:24:21.799267,192.168.0.115
214,8,-36,27,105,"2,9,-177",0,-2,-2,0,0,-1,63,66,86,40,94,-8.05,4,-53.0,28.0,-1029.0,12:24:21.901491,192.168.0.115
219,8,-36,27,105,"2,9,-177",0,-3,-2,0,0,-1,63,66,84,40,94,-8.17,4,-10.0,4.0,-940.0,12:24:22.003350,192.168.0.115
220,8,-36,27,105,"2,9,-177",-1,-4,-1,0,0,-1,63,66,84,40,94,-8.04,4,-22.0,42.0,-1035.0,12:24:22.054301,192.168.0.115
229,8,-36,27,105,"2,9,-177",-2,-3,-1,0,0,-1,63,65,82,40,94,-8.0,4,-14.0,45.0,-1030.0,12:24:22.207213,192.168.0.115
230,8,-36,27,105,"2,9,-177",-1,-2,-1,0,0,0,63,65,81,30,94,-7.97,4,-47.0,69.0,-983.0,12:24:22.258341,192.168.0.115
235,8,-36,27,105,"2,9,-177",-1,-2,-1,0,0,0,63,65,80,30,94,-8.04,4,8.0,80.0,-968.0,12:24:22.360410,192.168.0.115
241,8,-36,27,105,"2,9,-177",-1,-1,-1,0,0,0,63,65,78,30,94,-8.1,4,-57.0,84.0,-959.0,12:24:22.462448,192.168.0.115
246,8,-36,27,105,"2,9,-177",-1,-3,-1,0,0,0,63,65,77,30,94,-8.01,4,-19.0,63.0,-1001.0,12:24:22.564504,192.168.0.115
250,8,-36,27,105,"2,9,-177",-1,-4,-1,0,0,0,63,65,76,30,94,-8.09,4,-39.0,89.0,-1017.0,12:24:22.667085,192.168.0.115
256,8,-36,27,105,"2,9,-177",-2,-5,-1,0,0,0,63,65,76,30,94,-8.07,4,-17.0,82.0,-1011.0,12:24:22.768328,192.168.0.115
262,8,-36,27,105,"2,9,-177",-2,-5,-1,0,0,0,63,65,75,30,94,-8.14,5,-23.0,69.0,-1014.0,12:24:22.870232,192.168.0.115
267,8,-36,27,105,"2,9,-177",-1,-4,-1,0,0,0,63,65,74,30,94,-8.14,5,3.0,30.0,-990.0,12:24:22.972347,192.168.0.115
272,8,-36,27,105,"2,9,-177",-2,-4,-1,0,0,0,63,65,73,30,94,-8.19,5,-72.0,90.0,-1025.0,12:24:23.074072,192.168.0.115
277,8,-36,27,105,"2,9,-177",-2,-2,-1,0,0,0,64,65,72,30,94,-8.0,5,-54.0,84.0,-943.0,12:24:23.176298,192.168.0.115
282,8,-36,27,105,"2,9,-177",-3,-4,-1,0,0,0,64,65,72,30,94,-8.16,5,7.0,78.0,-1062.0,12:24:23.278343,192.168.0.115
287,8,-36,27,105,"2,9,-177",-2,-3,-1,0,0,0,64,65,72,30,94,-8.2,5,-74.0,78.0,-993.0,12:24:23.380443,192.168.0.115
292,8,-36,27,105,"2,9,-177",-1,-4,-1,0,0,0,64,65,72,30,94,-8.15,5,-62.0,80.0,-1038.0,12:24:23.482375,192.168.0.115
297,8,-36,27,105,"2,9,-177",-2,-6,-1,0,0,0,64,65,72,30,94,-8.12,5,-32.0,84.0,-997.0,12:24:23.583956,192.168.0.115
302,8,-36,27,105,"2,9,-177",-2,-5,-1,0,0,0,64,65,72,30,94,-8.15,5,-29.0,81.0,-1019.0,12:24:23.686666,192.168.0.115
307,8,-36,27,105,"2,9,-177",-3,-3,-1,0,0,0,64,65,72,30,94,-8.23,5,13.0,80.0,-1010.0,12:24:23.787809,192.168.0.115
312,8,-36,27,105,"2,9,-177",-2,-4,-1,0,0,0,64,65,73,30,94,-8.21,6,-16.0,49.0,-980.0,12:24:23.892762,192.168.0.115
317,8,-36,27,105,"2,9,-177",-1,-5,-1,0,0,0,64,65,73,30,94,-8.16,6,-21.0,53.0,-1002.0,12:24:23.992239,192.168.0.115
322,8,-36,27,105,"2,9,-177",0,-5,-1,0,0,0,64,65,73,30,94,-8.15,6,-54.0,53.0,-1004.0,12:24:24.094179,192.168.0.115
328,8,-36,27,105,"2,9,-177",-1,-2,-1,0,0,0,63,65,73,30,94,-8.16,6,-68.0,103.0,-1002.0,12:24:24.196424,192.168.0.115
333,8,-36,27,105,"2,9,-177",-2,-1,-1,0,0,0,63,65,74,30,94,-8.19,6,-67.0,75.0,-985.0,12:24:24.298115,192.168.0.115
338,8,-36,27,105,"2,9,-177",-2,-4,-1,0,0,0,63,65,75,30,94,-8.2,6,-36.0,52.0,-989.0,12:24:24.399727,192.168.0.115
343,8,-36,27,105,"2,9,-177",-3,-4,-1,0,0,0,63,65,75,30,94,-8.11,6,-39.0,55.0,-953.0,12:24:24.502083,192.168.0.115
349,8,-36,27,105,"2,9,-177",-2,-5,-1,0,0,0,63,65,76,30,94,-8.4,6,-52.0,54.0,-1095.0,12:24:24.604300,192.168.0.115
354,8,-36,27,105,"2,9,-177",-2,-3,-1,0,0,0,63,65,76,30,94,-8.3,6,-61.0,68.0,-1008.0,12:24:24.706436,192.168.0.115
359,8,-36,27,105,"2,9,-177",-2,-4,-1,0,0,0,63,65,77,30,94,-8.43,6,-39.0,31.0,-979.0,12:24:24.809048,192.168.0.115
364,8,-36,27,105,"2,9,-177",-2,-3,-1,0,0,0,63,65,78,30,94,-8.2,7,-48.0,96.0,-1018.0,12:24:24.910317,192.168.0.115
369,8,-36,27,105,"2,9,-177",-3,-3,-1,0,0,0,63,65,79,30,94,-8.19,7,4.0,93.0,-1057.0,12:24:25.012303,192.168.0.115
374,8,-36,27,105,"2,9,-177",-4,-2,-1,0,0,0,63,65,80,30,94,-8.1,7,-8.0,58.0,-1002.0,12:24:25.114237,192.168.0.115
379,8,-36,27,105,"2,9,-177",-1,-4,0,0,0,0,64,65,80,30,94,-8.17,7,-32.0,93.0,-1023.0,12:24:25.216357,192.168.0.115
384,8,-36,27,105,"2,9,-177",0,-4,-1,0,0,0,64,65,82,30,94,-8.17,7,-13.0,115.0,-946.0,12:24:25.318255,192.168.0.115
389,8,-36,27,105,"2,9,-177",0,-4,-1,0,0,0,64,65,82,30,94,-8.17,7,-30.0,85.0,-929.0,12:24:25.420647,192.168.0.115
392,8,-36,27,105,"2,9,-177",0,-5,-1,0,0,0,64,65,84,30,94,-8.08,7,-33.0,91.0,-1044.0,12:24:25.471339,192.168.0.115
397,8,-36,27,105,"2,9,-177",0,-6,-1,0,0,0,64,65,84,30,94,-8.08,7,-13.0,55.0,-1021.0,12:24:25.573320,192.168.0.115
402,-1,-100,-100,-100,"0,0,0",-1,-6,0,0,0,0,64,65,84,40,94,-8.13,7,1.0,99.0,-941.0,12:24:25.675323,192.168.0.115
407,-1,-100,-100,-100,"0,0,0",0,-3,0,0,0,0,64,65,84,40,94,-8.06,7,-23.0,92.0,-953.0,12:24:25.777845,192.168.0.115
412,-1,-100,-100,-100,"0,0,0",0,-2,0,0,0,0,64,65,85,40,94,-8.14,8,-12.0,100.0,-955.0,12:24:25.879386,192.168.0.115
417,-1,-100,-100,-100,"0,0,0",0,-4,-1,0,0,0,64,65,86,40,94,-8.06,8,-34.0,71.0,-963.0,12:24:25.981139,192.168.0.115
422,-1,-100,-100,-100,"0,0,0",-1,-5,-1,0,0,0,64,65,86,40,94,-8.2,8,23.0,77.0,-1023.0,12:24:26.084701,192.168.0.115
427,-1,-100,-100,-100,"0,0,0",-1,-5,-1,0,0,0,63,65,86,40,94,-8.13,8,-19.0,112.0,-935.0,12:24:26.185315,192.168.0.115
432,-1,-100,-100,-100,"0,0,0",0,-6,-1,0,0,0,63,65,86,40,94,-8.17,8,0.0,116.0,-941.0,12:24:26.287297,192.168.0.115
437,-1,-100,-100,-100,"0,0,0",0,-5,-2,0,0,0,63,65,85,40,94,-8.33,8,-42.0,65.0,-989.0,12:24:26.389395,192.168.0.115
442,-1,-100,-100,-100,"0,0,0",0,-4,-1,0,0,0,63,65,86,40,94,-8.23,8,-80.0,58.0,-1012.0,12:24:26.491366,192.168.0.115
447,-1,-100,-100,-100,"0,0,0",-3,-4,-1,0,0,0,63,65,86,40,94,-8.09,8,-58.0,69.0,-973.0,12:24:26.593144,192.168.0.115
453,-1,-100,-100,-100,"0,0,0",-3,-3,0,0,0,0,63,65,86,40,94,-8.15,8,8.0,88.0,-952.0,12:24:26.695571,192.168.0.115
458,-1,-100,-100,-100,"0,0,0",-1,-5,0,0,0,0,63,65,86,40,94,-8.28,8,-7.0,102.0,-947.0,12:24:26.797032,192.168.0.115
463,-1,-100,-100,-100,"0,0,0",0,-4,-1,0,0,0,63,65,85,40,94,-8.1,9,-16.0,75.0,-1042.0,12:24:26.899932,192.168.0.115
468,-1,-100,-100,-100,"0,0,0",-1,-3,-1,0,0,0,63,65,85,40,94,-8.28,9,-32.0,86.0,-994.0,12:24:27.001238,192.168.0.115
473,-1,-100,-100,-100,"0,0,0",-3,-2,-1,0,0,0,63,65,85,40,94,-8.23,9,-61.0,84.0,-1004.0,12:24:27.103304,192.168.0.115
478,-1,-100,-100,-100,"0,0,0",-5,-4,-1,0,0,0,64,66,85,40,94,-8.39,9,-52.0,111.0,-978.0,12:24:27.205372,192.168.0.115
483,-1,-100,-100,-100,"0,0,0",-3,-5,-1,-1,0,0,64,66,85,40,94,-8.23,9,-26.0,95.0,-988.0,12:24:27.307198,192.168.0.115
488,-1,-100,-100,-100,"0,0,0",-3,-4,-1,-1,0,0,64,66,84,40,94,-8.27,9,-68.0,82.0,-1044.0,12:24:27.409279,192.168.0.115
493,-1,-100,-100,-100,"0,0,0",-4,-3,-2,-1,0,0,64,66,84,40,94,-8.31,9,-63.0,53.0,-979.0,12:24:27.511494,192.168.0.115
498,-1,-100,-100,-100,"0,0,0",-4,-4,-2,-1,0,0,64,66,84,40,94,-8.26,9,-68.0,59.0,-971.0,12:24:27.613251,192.168.0.115
503,-1,-100,-100,-100,"0,0,0",-4,-5,-2,-1,0,0,64,66,84,40,94,-8.33,9,-47.0,26.0,-954.0,12:24:27.715342,192.168.0.115
508,-1,-100,-100,-100,"0,0,0",-4,-4,-1,-2,0,0,64,66,83,30,94,-8.36,9,-59.0,39.0,-976.0,12:24:27.817247,192.168.0.115
513,-1,-100,-100,-100,"0,0,0",-3,-3,-2,-2,1,0,64,66,82,30,94,-8.34,10,-64.0,5.0,-977.0,12:24:27.919305,192.168.0.115
518,-1,-100,-100,-100,"0,0,0",-3,-1,-1,-2,1,0,64,66,82,30,94,-8.34,10,-70.0,29.0,-1011.0,12:24:28.021311,192.168.0.115
523,-1,-100,-100,-100,"0,0,0",-4,0,-1,-2,1,0,64,66,82,30,94,-8.39,10,-55.0,43.0,-1033.0,12:24:28.123273,192.168.0.115
528,-1,-100,-100,-100,"0,0,0",-3,0,-1,-2,1,0,63,65,82,30,94,-8.21,10,-68.0,-4.0,-995.0,12:24:28.225424,192.168.0.115
534,-1,-100,-100,-100,"0,0,0",-4,0,-1,-2,1,0,63,65,83,30,94,-8.34,10,-57.0,-1.0,-1018.0,12:24:28.327375,192.168.0.115
539,-1,-100,-100,-100,"0,0,0",-4,0,-1,-2,1,0,63,65,84,30,94,-8.37,10,-63.0,-5.0,-989.0,12:24:28.429238,192.168.0.115
544,-1,-100,-100,-100,"0,0,0",-3,0,-1,-2,1,0,63,65,84,40,94,-8.38,10,-60.0,17.0,-1009.0,12:24:28.531280,192.168.0.115
549,-1,-100,-100,-100,"0,0,0",-3,0,-1,-2,1,0,63,65,85,40,94,-8.34,10,-47.0,2.0,-977.0,12:24:28.633327,192.168.0.115
554,-1,-100,-100,-100,"0,0,0",-3,0,-1,-3,1,0,63,65,86,40,94,-8.37,10,-63.0,-9.0,-994.0,12:24:28.735311,192.168.0.115
559,-1,-100,-100,-100,"0,0,0",-2,1,-1,-3,1,0,63,65,85,40,94,-8.39,11,-41.0,0.0,-984.0,12:24:28.837331,192.168.0.115
564,-1,-100,-100,-100,"0,0,0",-2,1,-1,-3,1,0,63,65,86,40,94,-8.35,11,-57.0,9.0,-988.0,12:24:28.941195,192.168.0.115
567,-1,-100,-100,-100,"0,0,0",-2,1,-1,-3,1,0,63,65,86,40,94,-8.32,11,-73.0,3.0,-985.0,12:24:28.990305,192.168.0.115
572,-1,-100,-100,-100,"0,0,0",-2,1,-1,-3,0,0,63,65,87,40,94,-8.32,11,-63.0,2.0,-980.0,12:24:29.092266,192.168.0.115
577,-1,-100,-100,-100,"0,0,0",-2,1,-1,-3,0,0,64,66,87,40,94,-8.31,11,-54.0,-3.0,-984.0,12:24:29.194422,192.168.0.115
583,-1,-100,-100,-100,"0,0,0",-1,1,-1,-3,0,0,64,66,86,40,94,-8.31,11,-19.0,-6.0,-995.0,12:24:29.296168,192.168.0.115
588,-1,-100,-100,-100,"0,0,0",0,2,-1,-3,0,0,64,66,86,40,94,-8.26,11,-43.0,-4.0,-992.0,12:24:29.401746,192.168.0.115
593,-1,-100,-100,-100,"0,0,0",0,2,0,-3,0,0,64,66,86,40,94,-8.26,11,-40.0,-5.0,-1003.0,12:24:29.500396,192.168.0.115
598,-1,-100,-100,-100,"0,0,0",0,2,0,-2,0,0,64,66,85,40,94,-8.35,11,-31.0,-15.0,-1026.0,12:24:29.602258,192.168.0.115
603,-1,-100,-100,-100,"0,0,0",0,2,0,-2,0,0,64,66,85,40,94,-8.24,11,-28.0,-5.0,-1012.0,12:24:29.704253,192.168.0.115
608,-1,-100,-100,-100,"0,0,0",-1,1,0,-2,0,0,64,66,85,40,94,-8.23,12,-19.0,-8.0,-997.0,12:24:29.806381,192.168.0.115
613,-1,-100,-100,-100,"0,0,0",-1,1,0,-2,0,0,64,66,85,40,94,-8.28,12,-43.0,0.0,-995.0,12:24:29.908281,192.168.0.115
618,-1,-100,-100,-100,"0,0,0",-1,1,0,-2,0,0,64,66,85,40,94,-8.25,12,-33.0,-8.0,-1006.0,12:24:30.010216,192.168.0.115
623,-1,-100,-100,-100,"0,0,0",-1,1,0,-2,0,0,64,66,85,40,94,-8.24,12,-44.0,-1.0,-979.0,12:24:30.112138,192.168.0.115
628,-1,-100,-100,-100,"0,0,0",-1,0,0,-2,0,0,64,66,84,40,94,-8.27,12,-11.0,-20.0,-994.0,12:24:30.214708,192.168.0.115
633,-1,-100,-100,-100,"0,0,0",-1,0,0,-2,-1,0,64,66,84,40,94,-8.29,12,-37.0,-5.0,-1015.0,12:24:30.316193,192.168.0.115
638,-1,-100,-100,-100,"0,0,0",-1,0,0,-2,-1,0,64,66,84,40,94,-8.37,12,-43.0,7.0,-1016.0,12:24:30.418261,192.168.0.115
643,-1,-100,-100,-100,"0,0,0",0,0,0,-1,-1,0,64,66,83,40,94,-8.25,12,-33.0,5.0,-995.0,12:24:30.520295,192.168.0.115
648,-1,-100,-100,-100,"0,0,0",0,0,-1,-1,-1,0,64,66,82,40,94,-8.22,12,-44.0,3.0,-990.0,12:24:30.622217,192.168.0.115
653,-1,-100,-100,-100,"0,0,0",-1,0,-1,-1,-1,0,64,66,81,40,94,-8.33,12,-19.0,10.0,-1000.0,12:24:30.724353,192.168.0.115
658,-1,-100,-100,-100,"0,0,0",-2,0,-1,-1,-1,0,64,66,82,30,94,-8.26,13,-30.0,-5.0,-991.0,12:24:30.826505,192.168.0.115
663,-1,-100,-100,-100,"0,0,0",-2,-1,-1,-1,-1,0,64,66,81,30,94,-8.21,13,-54.0,-12.0,-999.0,12:24:30.928192,192.168.0.115
668,-1,-100,-100,-100,"0,0,0",0,-4,-1,-1,-1,0,64,66,81,30,94,-8.2,13,-34.0,-12.0,-1020.0,12:24:31.030225,192.168.0.115
673,-1,-100,-100,-100,"0,0,0",1,-4,-1,0,0,0,64,66,80,30,94,-8.28,13,-32.0,7.0,-1008.0,12:24:31.132390,192.168.0.115
678,-1,-100,-100,-100,"0,0,0",0,-2,-1,0,0,0,63,66,79,30,94,-8.25,13,-55.0,25.0,-1018.0,12:24:31.233781,192.168.0.115
683,-1,-100,-100,-100,"0,0,0",-1,-1,-1,0,0,0,63,66,79,30,94,-8.15,13,-13.0,-9.0,-997.0,12:24:31.336284,192.168.0.115
688,-1,-100,-100,-100,"0,0,0",-1,-1,-1,0,0,0,63,66,79,30,94,-8.25,13,-13.0,23.0,-1005.0,12:24:31.438285,192.168.0.115
693,-1,-100,-100,-100,"0,0,0",0,-1,-1,0,0,0,63,66,79,30,94,-8.2,13,-56.0,27.0,-1008.0,12:24:31.540125,192.168.0.115
699,-1,-100,-100,-100,"0,0,0",0,-1,-1,0,0,0,63,66,78,30,94,-8.22,13,-17.0,3.0,-1008.0,12:24:31.642073,192.168.0.115
704,-1,-100,-100,-100,"0,0,0",-1,0,-1,0,0,0,63,66,78,30,94,-8.13,13,-14.0,22.0,-991.0,12:24:31.744283,192.168.0.115
709,-1,-100,-100,-100,"0,0,0",-1,0,-1,0,0,0,63,66,78,30,94,-8.18,14,-27.0,12.0,-1006.0,12:24:31.846503,192.168.0.115
714,-1,-100,-100,-100,"0,0,0",-1,0,-1,0,0,0,63,66,77,30,94,-8.2,14,-18.0,12.0,-1007.0,12:24:31.948226,192.168.0.115
719,-1,-100,-100,-100,"0,0,0",-1,0,-1,0,0,0,63,66,77,30,94,-8.18,14,-25.0,15.0,-991.0,12:24:32.050239,192.168.0.115
722,-1,-100,-100,-100,"0,0,0",-1,0,-1,0,0,0,63,66,76,30,94,-8.24,14,-16.0,17.0,-951.0,12:24:32.101616,192.168.0.115
729,-1,-100,-100,-100,"0,0,0",-1,0,-1,0,0,0,65,66,76,30,94,-8.16,14,-30.0,14.0,-931.0,12:24:32.254334,192.168.0.115
734,-1,-100,-100,-100,"0,0,0",-1,0,-1,0,0,-1,65,66,74,30,94,-8.2,14,-42.0,24.0,-920.0,12:24:32.356347,192.168.0.115
739,-1,-100,-100,-100,"0,0,0",-1,0,-1,0,0,-2,65,66,72,30,94,-8.19,14,-20.0,-2.0,-903.0,12:24:32.458287,192.168.0.115
744,-1,-100,-100,-100,"0,0,0",-1,-1,-1,0,0,-3,65,66,69,20,94,-8.23,14,-36.0,24.0,-921.0,12:24:32.560475,192.168.0.115
747,-1,-100,-100,-100,"0,0,0",-1,-1,-1,0,0,-3,65,66,65,20,94,-8.31,14,-28.0,19.0,-957.0,12:24:32.611602,192.168.0.115
752,-1,-100,-100,-100,"0,0,0",-1,-1,-1,0,0,-4,65,66,61,20,94,-8.27,14,-21.0,21.0,-965.0,12:24:32.713330,192.168.0.115
758,-1,-100,-100,-100,"0,0,0",-1,-1,-1,0,0,-4,65,66,56,10,94,-8.37,15,-34.0,15.0,-984.0,12:24:32.815201,192.168.0.115
763,-1,-100,-100,-100,"0,0,0",-1,0,-1,0,0,-4,65,66,51,10,94,-8.4,15,-54.0,27.0,-972.0,12:24:32.917267,192.168.0.115
768,-1,-100,-100,-100,"0,0,0",-1,0,-1,0,0,-4,65,66,46,0,94,-8.39,15,-10.0,26.0,-1008.0,12:24:33.020077,192.168.0.115
773,-1,-100,-100,-100,"0,0,0",-1,-1,-1,0,0,-4,65,66,41,0,94,-8.46,15,-25.0,4.0,-990.0,12:24:33.121440,192.168.0.115
778,-1,-100,-100,-100,"0,0,0",-1,0,-1,0,0,-4,64,65,37,0,94,-8.52,15,-10.0,22.0,-1006.0,12:24:33.223372,192.168.0.115
783,-1,-100,-100,-100,"0,0,0",0,0,-1,0,0,-4,64,65,32,0,94,-8.59,15,6.0,11.0,-1002.0,12:24:33.325371,192.168.0.115
788,-1,-100,-100,-100,"0,0,0",0,0,-1,0,0,-4,64,65,27,-10,94,-8.56,15,0.0,15.0,-998.0,12:24:33.427157,192.168.0.115
793,-1,-100,-100,-100,"0,0,0",0,-1,-1,0,0,-4,64,65,22,-10,94,-8.61,15,-28.0,13.0,-999.0,12:24:33.529182,192.168.0.115
797,-1,-100,-100,-100,"0,0,0",0,0,0,0,0,-4,64,65,18,-20,94,-8.69,15,-35.0,14.0,-989.0,12:24:33.631322,192.168.0.115
803,-1,-100,-100,-100,"0,0,0",0,0,0,0,0,-4,64,65,12,-20,94,-8.9,15,-44.0,28.0,-1035.0,12:24:33.733262,192.168.0.115
808,-1,-100,-100,-100,"0,0,0",-1,0,0,0,0,-4,64,65,10,-20,94,-9.59,16,-14.0,7.0,-1025.0,12:24:33.835364,192.168.0.115
813,-1,-100,-100,-100,"0,0,0",-2,0,-1,0,0,-3,64,65,10,-30,94,-10.23,16,-11.0,24.0,-1056.0,12:24:33.936806,192.168.0.115
818,-1,-100,-100,-100,"0,0,0",-1,0,-1,0,0,-3,64,65,10,-30,94,-11.83,16,-2.0,-17.0,-1030.0,12:24:34.039264,192.168.0.115
823,-1,-100,-100,-100,"0,0,0",-1,0,0,0,0,1,64,65,10,-30,94,-10.89,16,-11.0,7.0,-971.0,12:24:34.141286,192.168.0.115
828,-1,-100,-100,-100,"0,0,0",-1,1,1,0,0,-1,65,66,10,0,94,-10.21,16,-170.0,110.0,-793.0,12:24:34.244191,192.168.0.115
833,-1,-100,-100,-100,"0,0,0",0,0,1,0,0,0,65,66,10,0,94,-9.62,16,11.0,6.0,-957.0,12:24:34.344780,192.168.0.115
838,-1,-100,-100,-100,"0,0,0",0,0,1,0,0,0,65,66,10,0,94,-9.28,16,-22.0,-9.0,-1009.0,12:24:34.447796,192.168.0.115
843,-1,-100,-100,-100,"0,0,0",0,0,1,0,0,0,65,66,10,0,94,-9.18,16,-10.0,-5.0,-1002.0,12:24:34.549189,192.168.0.115
848,-1,-100,-100,-100,"0,0,0",0,0,1,0,0,0,65,66,10,0,94,-9.15,16,-7.0,2.0,-1001.0,12:24:34.651292,192.168.0.115
853,-1,-100,-100,-100,"0,0,0",0,0,1,0,0,0,65,66,10,0,94,-9.02,16,0.0,-3.0,-997.0,12:24:34.753287,192.168.0.115
858,-1,-100,-100,-100,"0,0,0",0,0,1,0,0,0,65,66,10,0,94,-9.06,16,-14.0,-2.0,-999.0,12:24:34.855295,192.168.0.115
863,-1,-100,-100,-100,"0,0,0",0,0,1,0,0,0,65,66,10,0,94,-9.04,16,-38.0,2.0,-1008.0,12:24:34.957331,192.168.0.115
869,-1,-100,-100,-100,"0,0,0",0,0,1,0,0,0,65,66,10,0,94,-9.07,16,1.0,-8.0,-997.0,12:24:35.059451,192.168.0.115
874,-1,-100,-100,-100,"0,0,0",0,0,1,0,0,0,65,66,10,0,94,-8.97,16,-16.0,0.0,-1000.0,12:24:35.166942,192.168.0.115
879,-1,-100,-100,-100,"0,0,0",0,0,1,0,0,0,64,66,10,0,94,-8.99,16,-6.0,-1.0,-1001.0,12:24:35.263270,192.168.0.115
884,-1,-100,-100,-100,"0,0,0",0,0,1,0,0,0,64,66,10,0,94,-8.94,16,-10.0,0.0,-1000.0,12:24:35.365087,192.168.0.115
