,mid,x,y,z,mpry,pitch,roll,yaw,vgx,vgy,vgz,templ,temph,tof,h,bat,baro,time,agx,agy,agz,timestamp,address
4,-1,-100,-100,-100,"0,0,0",0,0,5,0,0,0,59,61,10,0,100,-5.83,0,7.0,-8.0,-998.0,13:58:08.021990,192.168.0.111
9,-1,-100,-100,-100,"0,0,0",0,0,5,0,0,0,59,61,10,0,100,-5.81,0,6.0,-6.0,-999.0,13:58:08.120877,192.168.0.111
14,-1,-100,-100,-100,"0,0,0",0,0,5,0,0,0,59,61,10,0,100,-5.83,0,5.0,-8.0,-998.0,13:58:08.222748,192.168.0.111
19,-1,-100,-100,-100,"0,0,0",0,0,5,0,0,0,59,61,10,0,100,-5.83,0,6.0,-11.0,-998.0,13:58:08.324605,192.168.0.111
24,-1,-100,-100,-100,"0,0,0",0,0,5,0,0,0,59,61,10,0,100,-5.83,0,6.0,4.0,-1001.0,13:58:08.426676,192.168.0.111
26,-1,-100,-100,-100,"0,0,0",0,0,5,0,0,0,59,61,10,0,100,-5.83,0,0.0,-11.0,-992.0,13:58:08.477470,192.168.0.111
31,-1,-100,-100,-100,"0,0,0",0,0,5,0,0,0,59,61,10,0,100,-5.83,0,-1.0,1.0,-1104.0,13:58:08.580025,192.168.0.111
37,-1,-100,-100,-100,"0,0,0",0,0,5,0,0,3,59,61,10,0,100,-5.83,0,4.0,2.0,-1218.0,13:58:08.681594,192.168.0.111
42,-1,-100,-100,-100,"0,0,0",0,0,6,0,0,6,58,62,10,0,100,-5.83,0,42.0,-18.0,-1354.0,13:58:08.783808,192.168.0.111
47,-1,-100,-100,-100,"0,0,0",1,0,5,0,0,7,58,62,13,0,100,-5.61,0,6.0,-5.0,-1142.0,13:58:08.885386,192.168.0.111
52,-1,-100,-100,-100,"0,0,0",1,0,5,0,0,8,58,62,22,10,100,-5.5,0,19.0,-21.0,-1019.0,13:58:08.989950,192.168.0.111
57,-1,-100,-100,-100,"0,0,0",1,0,5,0,0,7,58,62,29,20,100,-5.34,0,9.0,-8.0,-950.0,13:58:09.090626,192.168.0.111
62,-1,-100,-100,-100,"0,0,0",1,0,5,0,0,6,58,62,39,20,100,-5.28,1,9.0,-6.0,-911.0,13:58:09.191365,192.168.0.111
67,-1,-100,-100,-100,"0,0,0",1,0,6,0,0,5,58,62,47,30,100,-5.16,1,17.0,-8.0,-906.0,13:58:09.293493,192.168.0.111
72,-1,-100,-100,-100,"0,0,0",1,0,6,0,0,4,58,62,54,30,100,-5.17,1,18.0,-11.0,-898.0,13:58:09.396043,192.168.0.111
77,3,2,-1,31,"-1,-3,-178",1,0,6,0,0,3,58,62,60,40,100,-5.11,1,31.0,-10.0,-904.0,13:58:09.498108,192.168.0.111
82,3,2,-1,31,"-1,-3,-178",1,0,6,0,0,2,58,62,65,40,100,-5.02,1,11.0,-15.0,-949.0,13:58:09.600523,192.168.0.111
87,3,2,-1,31,"-1,-3,-178",1,0,6,0,0,2,58,62,70,40,100,-5.0,1,18.0,-11.0,-928.0,13:58:09.702841,192.168.0.111
92,3,2,-1,31,"-1,-3,-178",1,0,6,0,0,1,59,63,74,40,100,-4.93,1,16.0,-17.0,-948.0,13:58:09.805294,192.168.0.111
97,3,2,-5,62,"-2,-3,-176",1,0,6,0,0,1,59,63,77,40,100,-4.93,1,23.0,-7.0,-966.0,13:58:09.907730,192.168.0.111
103,3,2,-5,62,"-2,-3,-176",1,0,6,0,0,0,59,63,80,50,100,-4.93,1,24.0,-20.0,-967.0,13:58:10.010107,192.168.0.111
108,3,2,-5,62,"-2,-3,-176",1,0,6,0,0,0,59,63,83,50,100,-4.89,1,19.0,-21.0,-962.0,13:58:10.109633,192.168.0.111
113,3,2,-5,78,"-5,-3,-178",1,0,6,0,0,0,59,63,85,50,100,-4.88,2,20.0,-8.0,-966.0,13:58:10.211698,192.168.0.111
119,3,2,-5,78,"-5,-3,-178",1,0,6,0,0,0,59,63,87,50,100,-4.82,2,29.0,-5.0,-977.0,13:58:10.313662,192.168.0.111
124,3,2,-5,78,"-5,-3,-178",1,0,6,0,0,0,59,63,88,50,100,-4.83,2,19.0,-6.0,-968.0,13:58:10.415572,192.168.0.111
129,3,2,-5,78,"-5,-3,-178",1,0,6,0,0,0,59,63,90,50,100,-4.74,2,30.0,3.0,-981.0,13:58:10.517609,192.168.0.111
134,3,3,-9,88,"-4,-3,-176",1,0,6,0,0,0,59,63,91,60,100,-4.81,2,18.0,3.0,-989.0,13:58:10.619531,192.168.0.111
139,3,3,-9,88,"-4,-3,-176",1,0,6,0,0,0,59,63,92,60,100,-4.81,2,18.0,-9.0,-976.0,13:58:10.721625,192.168.0.111
144,3,3,-9,88,"-4,-3,-176",1,0,6,0,0,0,60,62,92,60,100,-4.78,2,24.0,-13.0,-960.0,13:58:10.823863,192.168.0.111
149,3,3,-9,88,"-4,-3,-176",1,0,6,0,0,0,60,62,93,60,100,-4.72,2,12.0,-4.0,-976.0,13:58:10.925626,192.168.0.111
151,3,5,-12,93,"-3,-3,-175",1,0,6,0,0,0,60,62,93,60,100,-4.73,2,32.0,-2.0,-993.0,13:58:10.976569,192.168.0.111
156,3,5,-12,93,"-3,-3,-175",1,0,6,0,0,0,60,62,93,60,100,-4.68,2,18.0,-8.0,-990.0,13:58:11.078452,192.168.0.111
161,3,5,-12,93,"-3,-3,-175",1,0,6,0,0,0,60,62,93,60,100,-4.71,3,15.0,-3.0,-987.0,13:58:11.180524,192.168.0.111
167,3,3,-10,96,"-4,-3,-177",1,0,6,0,0,0,60,62,92,60,100,-4.72,3,16.0,-7.0,-987.0,13:58:11.287330,192.168.0.111
172,3,3,-10,96,"-4,-3,-177",1,0,6,0,0,0,60,62,91,60,100,-4.81,3,28.0,-11.0,-974.0,13:58:11.384636,192.168.0.111
177,3,3,-10,96,"-4,-3,-177",1,0,6,0,0,0,60,62,90,60,100,-4.77,3,29.0,-8.0,-998.0,13:58:11.486459,192.168.0.111
182,3,3,-10,96,"-4,-3,-177",1,0,6,0,0,0,60,62,90,60,100,-4.84,3,22.0,-8.0,-978.0,13:58:11.588543,192.168.0.111
187,3,1,-10,94,"-4,-3,-177",1,0,6,0,0,0,60,62,89,60,100,-4.83,3,36.0,-6.0,-1003.0,13:58:11.690641,192.168.0.111
192,3,1,-10,94,"-4,-3,-177",1,0,6,0,0,0,59,62,88,60,100,-4.8,3,22.0,-11.0,-994.0,13:58:11.905487,192.168.0.111
197,3,1,-10,94,"-4,-3,-177",1,0,6,0,0,0,59,62,88,60,100,-4.78,3,37.0,-28.0,-988.0,13:58:11.906423,192.168.0.111
202,3,1,-10,94,"-4,-3,-177",1,0,6,0,0,0,59,62,87,60,100,-4.82,3,30.0,-13.0,-1000.0,13:58:12.124151,192.168.0.111
207,3,4,-11,91,"-3,-3,-176",1,0,6,0,0,0,59,62,86,60,100,-4.8,3,34.0,-17.0,-1004.0,13:58:12.125067,192.168.0.111
212,3,4,-11,91,"-3,-3,-176",1,0,6,0,0,0,59,62,85,60,100,-4.84,4,31.0,-15.0,-1011.0,13:58:12.330445,192.168.0.111
217,3,4,-11,91,"-3,-3,-176",1,0,6,0,0,0,59,62,84,50,100,-4.82,4,22.0,-12.0,-1024.0,13:58:12.331502,192.168.0.111
222,3,4,-11,91,"-3,-3,-176",1,0,5,0,0,0,59,62,83,50,100,-4.86,4,21.0,-24.0,-998.0,13:58:12.404851,192.168.0.111
228,3,2,-7,89,"-4,-3,-178",1,0,5,0,0,0,59,62,82,50,100,-4.88,4,8.0,-26.0,-1005.0,13:58:12.506583,192.168.0.111
233,3,2,-7,89,"-4,-3,-178",1,1,5,0,0,0,59,62,81,50,100,-4.9,4,13.0,-18.0,-1011.0,13:58:12.738622,192.168.0.111
238,3,2,-7,89,"-4,-3,-178",1,1,5,0,0,0,59,62,81,50,100,-4.89,4,31.0,-24.0,-1013.0,13:58:12.739571,192.168.0.111
243,3,1,-6,86,"-5,-3,-178",1,1,5,0,0,0,59,62,80,50,100,-5.01,4,18.0,-14.0,-1024.0,13:58:12.943181,192.168.0.111
249,3,1,-6,86,"-5,-3,-178",1,0,5,0,0,0,59,62,80,50,100,-4.94,4,24.0,-13.0,-994.0,13:58:12.944048,192.168.0.111
254,3,1,-6,86,"-5,-3,-178",1,0,5,0,0,0,59,62,80,50,100,-4.89,4,40.0,-1.0,-1000.0,13:58:13.149969,192.168.0.111
259,3,1,-6,86,"-5,-3,-178",1,0,5,0,0,0,59,62,79,50,100,-4.99,4,29.0,-13.0,-1003.0,13:58:13.150766,192.168.0.111
264,3,0,-9,83,"-4,-3,-176",1,0,5,0,0,0,59,62,79,50,100,-4.91,5,29.0,-9.0,-995.0,13:58:13.356127,192.168.0.111
269,3,0,-9,83,"-4,-3,-176",1,0,5,0,0,0,59,62,79,50,100,-4.98,5,32.0,-10.0,-1007.0,13:58:13.357081,192.168.0.111
274,3,0,-9,83,"-4,-3,-176",1,0,5,0,0,0,59,62,79,50,100,-4.99,5,34.0,-9.0,-983.0,13:58:13.561256,192.168.0.111
279,3,0,-9,83,"-4,-3,-176",2,0,5,0,0,0,59,62,79,50,100,-5.0,5,26.0,-9.0,-1012.0,13:58:13.561560,192.168.0.111
284,3,1,-7,83,"-4,-2,-178",1,0,5,0,0,0,59,62,79,50,100,-5.0,5,22.0,-15.0,-995.0,13:58:13.768127,192.168.0.111
286,3,1,-7,83,"-4,-2,-178",1,0,5,0,0,0,59,62,79,50,100,-5.04,5,26.0,-11.0,-1001.0,13:58:13.768509,192.168.0.111
292,3,1,-7,83,"-4,-2,-178",1,0,5,0,0,0,60,62,79,50,100,-4.99,5,31.0,-16.0,-991.0,13:58:13.781313,192.168.0.111
297,3,1,-7,83,"-4,-2,-178",1,0,5,0,0,0,60,62,79,50,100,-4.99,5,24.0,-13.0,-992.0,13:58:13.974600,192.168.0.111
302,3,2,-9,82,"-4,-3,-178",1,0,5,0,0,0,60,62,79,50,100,-4.97,5,16.0,-16.0,-1003.0,13:58:13.985181,192.168.0.111
307,3,2,-9,82,"-4,-3,-178",1,0,5,0,0,0,60,62,79,50,100,-4.99,5,18.0,-12.0,-997.0,13:58:14.086992,192.168.0.111
312,3,2,-9,82,"-4,-3,-178",1,0,5,0,0,0,60,62,79,50,100,-4.98,6,24.0,0.0,-996.0,13:58:14.190152,192.168.0.111
317,3,3,-9,82,"-3,-3,-178",1,0,5,0,0,0,60,62,79,50,100,-5.09,6,33.0,-10.0,-988.0,13:58:14.291289,192.168.0.111
322,3,3,-9,82,"-3,-3,-178",1,0,5,0,0,0,60,62,80,50,100,-5.01,6,33.0,-7.0,-998.0,13:58:14.393515,192.168.0.111
327,3,3,-9,82,"-3,-3,-178",1,0,5,0,0,0,60,62,80,50,100,-5.11,6,14.0,-11.0,-994.0,13:58:14.495460,192.168.0.111
332,3,3,-9,82,"-3,-3,-178",1,0,5,0,0,0,60,62,80,50,100,-5.07,6,31.0,-7.0,-984.0,13:58:14.597792,192.168.0.111
337,3,2,-11,82,"-3,-3,-176",1,0,5,0,0,0,60,62,80,50,100,-4.98,6,23.0,-7.0,-999.0,13:58:14.700760,192.168.0.111
342,3,2,-11,82,"-3,-3,-176",1,0,5,0,0,0,60,62,79,50,100,-5.07,6,28.0,-4.0,-994.0,13:58:14.801535,192.168.0.111
347,3,2,-11,82,"-3,-3,-176",1,0,5,0,0,0,60,62,79,50,100,-5.1,6,32.0,-12.0,-995.0,13:58:14.903392,192.168.0.111
352,3,2,-11,82,"-3,-3,-176",1,0,5,0,0,0,60,62,80,50,100,-5.03,6,36.0,3.0,-993.0,13:58:15.005534,192.168.0.111
358,3,3,-12,82,"-3,-3,-177",2,0,5,0,0,0,60,62,80,50,100,-5.09,6,30.0,0.0,-998.0,13:58:15.107563,192.168.0.111
363,3,3,-12,82,"-3,-3,-177",2,0,5,0,0,0,60,62,80,50,100,-5.07,7,42.0,-7.0,-1000.0,13:58:15.209495,192.168.0.111
368,3,3,-12,82,"-3,-3,-177",2,0,5,0,0,0,60,62,80,50,100,-5.02,7,38.0,-2.0,-1000.0,13:58:15.311562,192.168.0.111
374,3,4,-11,83,"-3,-3,-178",2,0,6,0,0,0,60,62,80,50,100,-5.06,7,42.0,1.0,-992.0,13:58:15.413511,192.168.0.111
379,3,4,-11,83,"-3,-3,-178",2,0,6,0,0,0,60,62,80,50,100,-4.98,7,22.0,-9.0,-988.0,13:58:15.515299,192.168.0.111
384,3,4,-11,83,"-3,-3,-178",2,0,6,0,0,0,60,62,80,50,100,-5.05,7,33.0,-6.0,-1001.0,13:58:15.617686,192.168.0.111
389,3,4,-11,83,"-3,-3,-178",1,0,6,0,0,0,60,62,80,50,100,-4.95,7,28.0,-16.0,-1006.0,13:58:15.719546,192.168.0.111
394,3,3,-11,83,"-5,-3,-178",1,0,6,0,0,0,60,63,80,50,100,-4.98,7,5.0,-12.0,-1006.0,13:58:15.821487,192.168.0.111
399,3,3,-11,83,"-5,-3,-178",1,0,6,0,0,0,60,63,80,50,100,-5.06,7,13.0,-14.0,-1004.0,13:58:15.923213,192.168.0.111
404,3,3,-11,83,"-5,-3,-178",0,0,6,0,0,0,60,63,80,50,100,-5.07,7,-4.0,-12.0,-998.0,13:58:16.027021,192.168.0.111
409,3,3,-11,83,"-5,-3,-178",0,0,6,0,0,0,60,63,80,50,100,-5.03,7,0.0,-22.0,-994.0,13:58:16.130098,192.168.0.111
411,3,3,-11,83,"-3,-3,-178",0,0,6,0,0,0,60,63,80,50,100,-5.03,8,20.0,-25.0,-994.0,13:58:16.178533,192.168.0.111
416,3,3,-11,83,"-3,-3,-178",0,0,6,0,0,0,60,63,80,50,100,-4.95,8,11.0,-14.0,-1002.0,13:58:16.280507,192.168.0.111
422,3,3,-11,83,"-3,-3,-178",0,0,6,0,0,0,60,63,80,50,100,-5.01,8,10.0,-20.0,-988.0,13:58:16.382645,192.168.0.111
427,3,3,-8,83,"-1,-3,-179",0,0,6,0,0,0,60,63,80,50,100,-5.01,8,15.0,-15.0,-978.0,13:58:16.484501,192.168.0.111
432,3,3,-8,83,"-1,-3,-179",0,0,5,0,0,0,60,63,80,50,100,-4.99,8,17.0,-13.0,-1002.0,13:58:16.586327,192.168.0.111
437,3,3,-8,83,"-1,-3,-179",0,0,5,0,0,0,60,63,80,50,100,-5.07,8,18.0,-16.0,-1005.0,13:58:16.688517,192.168.0.111
442,3,3,-8,83,"-1,-3,-179",0,0,5,0,0,0,60,63,80,50,100,-5.04,8,10.0,-19.0,-1002.0,13:58:16.790747,192.168.0.111
447,3,1,-7,83,"0,-3,-179",0,0,6,0,0,0,60,63,80,50,100,-5.06,8,3.0,-11.0,-999.0,13:58:16.892420,192.168.0.111
452,3,1,-7,83,"0,-3,-179",0,0,6,0,0,0,60,63,80,50,100,-5.05,8,1.0,-18.0,-1010.0,13:58:16.994241,192.168.0.111
457,3,1,-7,83,"0,-3,-179",0,0,6,0,0,0,60,63,80,50,100,-4.98,8,13.0,-10.0,-993.0,13:58:17.096372,192.168.0.111
462,3,1,-7,83,"0,-3,-179",0,0,5,0,0,0,60,63,80,50,100,-5.01,9,9.0,-11.0,-1003.0,13:58:17.198470,192.168.0.111
467,3,0,-8,83,"-1,-3,-177",0,0,5,0,0,0,60,63,80,50,100,-4.96,9,15.0,-19.0,-997.0,13:58:17.300388,192.168.0.111
472,3,0,-8,83,"-1,-3,-177",0,0,5,0,0,0,60,63,80,50,100,-5.01,9,8.0,-14.0,-995.0,13:58:17.402371,192.168.0.111
477,3,0,-8,83,"-1,-3,-177",0,0,5,0,0,0,60,63,80,50,100,-5.01,9,16.0,-14.0,-997.0,13:58:17.504496,192.168.0.111
482,3,0,-8,83,"-1,-3,-177",0,0,5,0,0,0,60,63,80,50,100,-5.07,9,18.0,-22.0,-1003.0,13:58:17.606751,192.168.0.111
487,3,-1,-9,83,"-1,-2,-177",1,0,5,0,0,0,60,63,80,50,100,-5.03,9,10.0,-16.0,-1008.0,13:58:17.708335,192.168.0.111
492,3,-1,-9,83,"-1,-2,-177",0,0,5,0,0,0,60,62,80,50,100,-5.02,9,14.0,-16.0,-1001.0,13:58:17.810369,192.168.0.111
498,3,-1,-9,83,"-1,-2,-177",0,0,5,0,0,0,60,62,80,50,100,-5.03,9,23.0,-9.0,-994.0,13:58:17.913799,192.168.0.111
503,3,-1,-9,83,"-2,-2,-177",0,0,5,0,0,0,60,62,80,50,100,-5.07,9,29.0,-11.0,-1000.0,13:58:18.014331,192.168.0.111
508,3,-1,-9,83,"-2,-2,-177",1,0,5,0,0,0,60,62,80,50,100,-5.0,9,32.0,-23.0,-985.0,13:58:18.116392,192.168.0.111
513,3,-1,-9,83,"-2,-2,-177",1,0,5,0,0,0,60,62,80,50,100,-5.02,10,24.0,-12.0,-997.0,13:58:18.218413,192.168.0.111
518,3,-1,-9,83,"-2,-2,-177",1,0,5,0,0,0,60,62,79,50,100,-5.08,10,25.0,-15.0,-1008.0,13:58:18.320305,192.168.0.111
523,3,0,-7,83,"-2,-2,180",1,0,5,0,0,0,60,62,80,50,100,-5.04,10,13.0,-7.0,-1006.0,13:58:18.423252,192.168.0.111
529,3,0,-7,83,"-2,-2,180",1,0,5,0,0,0,60,62,80,50,100,-5.0,10,14.0,-12.0,-1005.0,13:58:18.524513,192.168.0.111
534,3,0,-7,83,"-2,-2,180",1,0,5,0,0,0,60,62,80,50,100,-4.99,10,20.0,-17.0,-998.0,13:58:18.625925,192.168.0.111
538,3,0,-7,83,"-2,-2,180",1,0,5,0,0,0,60,62,80,50,100,-5.02,10,17.0,-21.0,-991.0,13:58:18.728349,192.168.0.111
541,3,0,-10,82,"-3,-3,-177",1,0,5,0,0,0,60,63,80,50,100,-5.01,10,19.0,-13.0,-995.0,13:58:18.779464,192.168.0.111
547,3,0,-10,82,"-3,-3,-177",1,0,6,0,0,0,60,63,80,50,100,-5.0,10,23.0,-17.0,-1000.0,13:58:18.881208,192.168.0.111
552,3,0,-10,82,"-3,-3,-177",1,0,6,0,0,0,60,63,80,50,100,-4.97,10,18.0,-11.0,-1006.0,13:58:18.983102,192.168.0.111
557,3,-1,-7,83,"-4,-3,-179",0,0,5,0,0,0,60,63,79,50,100,-4.99,10,15.0,-12.0,-995.0,13:58:19.085391,192.168.0.111
562,3,-1,-7,83,"-4,-3,-179",0,0,5,0,0,0,60,63,80,50,100,-4.96,11,18.0,-16.0,-1004.0,13:58:19.187357,192.168.0.111
567,3,-1,-7,83,"-4,-3,-179",0,0,5,0,0,0,60,63,80,50,100,-4.97,11,20.0,-19.0,-1003.0,13:58:19.289455,192.168.0.111
572,3,-1,-7,83,"-4,-3,-179",0,0,5,0,0,0,60,63,80,50,100,-4.98,11,21.0,-28.0,-1007.0,13:58:19.391298,192.168.0.111
577,3,-2,-14,82,"-4,-3,-175",0,0,5,0,0,0,60,63,81,50,100,-5.0,11,23.0,-17.0,-982.0,13:58:19.493326,192.168.0.111
582,3,-2,-14,82,"-4,-3,-175",0,0,5,0,0,0,60,63,80,50,100,-4.99,11,26.0,-20.0,-998.0,13:58:19.595337,192.168.0.111
587,3,-2,-14,82,"-4,-3,-175",1,0,5,0,0,0,60,63,81,50,100,-5.02,11,15.0,-20.0,-1000.0,13:58:19.697347,192.168.0.111
592,3,-2,-14,82,"-4,-3,-175",1,0,5,0,0,0,60,63,81,50,100,-4.95,11,29.0,-21.0,-1004.0,13:58:19.799349,192.168.0.111
597,3,0,-7,83,"-2,-2,-179",1,0,5,0,0,0,60,63,80,50,100,-4.98,11,22.0,-21.0,-989.0,13:58:19.901808,192.168.0.111
602,3,0,-7,83,"-2,-2,-179",1,0,5,0,0,0,60,63,81,50,100,-4.92,11,26.0,-18.0,-991.0,13:58:20.004186,192.168.0.111
607,3,0,-7,83,"-2,-2,-179",1,0,5,0,0,0,60,63,80,50,100,-4.96,11,23.0,-20.0,-998.0,13:58:20.105323,192.168.0.111
612,3,0,-7,83,"-2,-2,-179",1,0,5,0,0,0,60,63,80,50,100,-4.99,12,20.0,-19.0,-1012.0,13:58:20.207449,192.168.0.111
617,3,-1,-8,83,"-3,-2,-178",1,0,5,0,0,0,60,63,80,50,100,-5.0,12,24.0,-19.0,-995.0,13:58:20.309274,192.168.0.111
622,3,-1,-8,83,"-3,-2,-178",1,0,5,0,0,0,60,63,80,50,100,-4.97,12,13.0,-10.0,-995.0,13:58:20.411372,192.168.0.111
628,3,-1,-8,83,"-3,-2,-178",0,0,5,0,0,0,60,63,81,50,100,-4.96,12,17.0,-9.0,-1000.0,13:58:20.513401,192.168.0.111
633,3,-1,-8,83,"-3,-2,-178",0,0,5,0,0,0,60,63,80,50,100,-5.06,12,17.0,-13.0,-999.0,13:58:20.615449,192.168.0.111
638,3,-1,-8,83,"-3,-2,-178",0,0,6,0,0,0,60,63,81,50,100,-5.07,12,17.0,-11.0,-999.0,13:58:20.717394,192.168.0.111
643,3,-1,-8,83,"-3,-2,-178",0,0,6,0,0,0,61,63,81,50,100,-4.97,12,20.0,-6.0,-993.0,13:58:20.820525,192.168.0.111
648,3,-1,-8,83,"-3,-2,-178",0,0,6,0,0,0,61,63,80,50,100,-5.06,12,11.0,-16.0,-994.0,13:58:20.921170,192.168.0.111
653,3,0,-11,83,"-1,-2,-178",0,0,6,0,0,0,61,63,81,50,100,-4.93,12,18.0,-8.0,-985.0,13:58:21.023446,192.168.0.111
658,3,0,-11,83,"-1,-2,-178",0,0,6,0,0,0,61,63,81,50,100,-4.95,12,6.0,-14.0,-990.0,13:58:21.125299,192.168.0.111
663,3,0,-11,83,"-1,-2,-178",0,0,6,0,0,0,61,63,81,50,100,-4.89,13,20.0,-12.0,-1000.0,13:58:21.227401,192.168.0.111
666,3,0,-11,83,"-1,-2,-178",0,0,6,0,0,0,61,63,80,50,100,-4.99,13,23.0,-8.0,-1009.0,13:58:21.278374,192.168.0.111
670,3,0,-10,83,"-1,-3,-179",0,0,6,0,0,0,61,63,80,50,100,-4.96,13,17.0,-15.0,-990.0,13:58:21.380189,192.168.0.111
677,3,0,-10,83,"-1,-3,-179",0,0,6,0,0,0,61,63,80,50,100,-4.96,13,17.0,-9.0,-1001.0,13:58:21.482358,192.168.0.111
682,3,0,-10,83,"-1,-3,-179",0,0,5,0,0,0,61,63,80,50,100,-4.99,13,14.0,-3.0,-1006.0,13:58:21.584413,192.168.0.111
687,3,0,-10,83,"-1,-3,-179",1,0,5,0,0,0,61,63,80,50,100,-5.05,13,16.0,-8.0,-997.0,13:58:21.686345,192.168.0.111
692,3,0,-8,83,"-1,-3,179",0,0,5,0,0,0,60,63,80,50,100,-4.99,13,11.0,-7.0,-1005.0,13:58:21.788258,192.168.0.111
697,3,0,-8,83,"-1,-3,179",0,0,5,0,0,0,60,63,80,50,100,-4.95,13,9.0,-1.0,-995.0,13:58:21.890211,192.168.0.111
702,3,0,-8,83,"-1,-3,179",0,0,5,0,0,0,60,63,80,50,100,-5.0,13,21.0,-13.0,-995.0,13:58:21.992265,192.168.0.111
707,3,0,-8,83,"-1,-3,179",0,0,5,0,0,0,60,63,80,50,100,-5.02,13,21.0,-9.0,-1009.0,13:58:22.094299,192.168.0.111
712,3,0,-8,83,"-1,-3,179",0,0,5,0,0,0,60,63,80,50,100,-4.94,14,15.0,-14.0,-1004.0,13:58:22.197420,192.168.0.111
717,3,0,-8,83,"-1,-3,179",0,0,5,0,0,0,60,63,80,50,100,-4.88,14,24.0,-8.0,-990.0,13:58:22.298191,192.168.0.111
722,3,0,-8,83,"-1,-3,179",1,0,5,0,0,0,60,63,80,50,100,-4.96,14,21.0,-15.0,-985.0,13:58:22.400910,192.168.0.111
727,3,0,-7,83,"-1,-2,179",1,0,5,0,0,0,60,63,80,50,100,-4.91,14,16.0,-3.0,-1008.0,13:58:22.503278,192.168.0.111
732,3,0,-7,83,"-1,-2,179",1,0,5,0,0,0,60,63,80,50,100,-4.93,14,25.0,-17.0,-988.0,13:58:22.605483,192.168.0.111
737,3,0,-7,83,"-1,-2,179",1,0,5,0,0,0,60,63,80,50,100,-4.95,14,29.0,-7.0,-995.0,13:58:22.707929,192.168.0.111
742,3,0,-7,83,"-1,-2,179",1,0,5,0,0,0,61,63,80,50,100,-5.02,14,32.0,-17.0,-1003.0,13:58:22.810299,192.168.0.111
747,3,-5,-11,82,"-5,-3,-177",1,0,5,0,0,0,61,63,79,50,100,-4.94,14,22.0,-9.0,-1010.0,13:58:22.912690,192.168.0.111
753,3,-5,-11,82,"-5,-3,-177",1,0,5,0,0,0,61,63,80,50,100,-4.94,14,22.0,-13.0,-1000.0,13:58:23.012477,192.168.0.111
758,3,-5,-11,82,"-5,-3,-177",1,0,5,0,0,0,61,63,80,50,100,-4.93,14,25.0,-12.0,-998.0,13:58:23.114192,192.168.0.111
763,3,-5,-11,82,"-5,-3,-177",1,0,5,0,0,0,61,63,80,50,100,-4.98,15,28.0,-25.0,-988.0,13:58:23.216297,192.168.0.111
768,3,-1,-13,82,"-3,-2,-176",1,0,5,0,0,0,61,63,80,50,100,-4.99,15,39.0,-16.0,-993.0,13:58:23.318206,192.168.0.111
773,3,-1,-13,82,"-3,-2,-176",1,0,5,0,0,0,61,63,79,50,100,-4.96,15,40.0,-17.0,-993.0,13:58:23.420254,192.168.0.111
778,3,-1,-13,82,"-3,-2,-176",1,0,5,0,0,0,61,63,80,50,100,-4.83,15,22.0,-11.0,-1002.0,13:58:23.522413,192.168.0.111
783,3,0,-8,83,"-2,-2,180",2,0,5,0,0,0,61,63,80,50,100,-4.92,15,28.0,-6.0,-1004.0,13:58:23.623663,192.168.0.111
788,3,0,-8,83,"-2,-2,180",1,0,6,0,0,0,61,63,80,50,100,-4.96,15,18.0,-6.0,-1016.0,13:58:23.729047,192.168.0.111
793,3,0,-8,83,"-2,-2,180",1,0,5,0,0,0,60,63,79,50,100,-4.97,15,27.0,-5.0,-995.0,13:58:23.828840,192.168.0.111
796,3,0,-8,83,"-2,-2,180",1,0,5,0,0,0,60,63,80,50,100,-4.92,15,30.0,-19.0,-1005.0,13:58:23.879915,192.168.0.111
801,3,1,-11,82,"-2,-2,-177",1,0,5,0,0,0,60,63,79,50,100,-5.0,15,27.0,-11.0,-994.0,13:58:23.981285,192.168.0.111
806,3,1,-11,82,"-2,-2,-177",1,0,6,0,0,0,60,63,79,50,100,-4.99,15,23.0,-12.0,-1000.0,13:58:24.083330,192.168.0.111
811,3,1,-11,82,"-2,-2,-177",1,0,6,0,0,0,60,63,79,50,100,-4.97,16,25.0,-4.0,-1002.0,13:58:24.185253,192.168.0.111
816,3,1,-11,82,"-2,-2,-177",1,0,5,0,0,0,60,63,79,50,100,-4.94,16,20.0,-16.0,-1009.0,13:58:24.287232,192.168.0.111
822,3,2,-10,82,"-2,-2,-177",1,0,5,0,0,0,60,63,79,50,100,-4.95,16,28.0,-21.0,-1001.0,13:58:24.389495,192.168.0.111
827,3,2,-10,82,"-2,-2,-177",1,0,5,0,0,0,60,63,79,50,100,-4.99,16,23.0,-13.0,-1003.0,13:58:24.491417,192.168.0.111
831,3,2,-10,82,"-2,-2,-177",1,0,6,0,0,0,60,63,79,50,100,-5.03,16,17.0,-10.0,-994.0,13:58:24.593597,192.168.0.111
836,3,-2,-11,82,"-6,-2,-176",1,0,6,0,0,0,60,63,79,50,100,-5.01,16,17.0,-12.0,-995.0,13:58:24.695093,192.168.0.111
841,3,-2,-11,82,"-6,-2,-176",1,0,6,0,0,0,61,63,79,50,100,-5.03,16,27.0,-10.0,-1004.0,13:58:24.798369,192.168.0.111
846,3,-2,-11,82,"-6,-2,-176",1,0,6,0,0,0,61,63,79,50,100,-5.01,16,27.0,-19.0,-1013.0,13:58:24.899326,192.168.0.111
852,3,-2,-11,82,"-6,-2,-176",1,0,6,0,0,0,61,63,79,50,100,-5.05,16,25.0,-9.0,-1008.0,13:58:25.001290,192.168.0.111
857,3,-2,-11,82,"-6,-2,-176",1,0,6,0,0,0,61,63,79,50,100,-5.05,16,28.0,-17.0,-996.0,13:58:25.102924,192.168.0.111
862,3,-2,-11,82,"-6,-2,-176",1,0,6,0,0,0,61,63,79,50,100,-4.99,17,35.0,-14.0,-983.0,13:58:25.205266,192.168.0.111
867,3,-2,-11,82,"-6,-2,-176",1,0,5,0,0,0,61,63,79,50,100,-5.05,17,31.0,-14.0,-1005.0,13:58:25.307054,192.168.0.111
872,3,-2,-11,82,"-6,-2,-176",1,0,5,0,0,0,61,63,79,50,100,-5.05,17,27.0,-17.0,-997.0,13:58:25.409271,192.168.0.111
877,3,0,-13,81,"-3,-3,-175",1,0,5,0,0,0,61,63,79,50,100,-5.14,17,29.0,-19.0,-991.0,13:58:25.511229,192.168.0.111
882,3,0,-13,81,"-3,-3,-175",1,0,5,0,0,0,61,63,79,50,100,-5.1,17,25.0,-8.0,-1003.0,13:58:25.613470,192.168.0.111
887,3,0,-13,81,"-3,-3,-175",1,0,5,0,0,0,61,63,79,50,100,-5.03,17,19.0,-13.0,-1004.0,13:58:25.715421,192.168.0.111
893,3,0,-13,81,"-3,-3,-175",1,0,5,0,0,0,60,63,79,50,100,-4.93,17,29.0,-7.0,-998.0,13:58:25.816962,192.168.0.111
898,3,-1,-11,81,"-5,-3,-175",1,0,5,0,0,0,60,63,79,50,100,-4.9,17,37.0,-18.0,-995.0,13:58:25.919286,192.168.0.111
903,3,-1,-11,81,"-5,-3,-175",1,0,5,0,0,0,60,63,79,50,100,-4.99,17,28.0,-6.0,-1001.0,13:58:26.021326,192.168.0.111
908,3,-1,-11,81,"-5,-3,-175",1,0,5,0,0,0,60,63,79,50,100,-5.02,17,37.0,-9.0,-998.0,13:58:26.123104,192.168.0.111
913,3,-4,-8,82,"-7,-2,-178",1,0,5,0,0,0,60,63,78,50,100,-5.05,18,18.0,-4.0,-998.0,13:58:26.225229,192.168.0.111
918,3,-4,-8,82,"-7,-2,-178",1,0,5,0,0,0,60,63,79,50,100,-4.95,18,44.0,-19.0,-995.0,13:58:26.327144,192.168.0.111
920,3,-4,-8,82,"-7,-2,-178",1,0,5,0,0,0,60,63,79,50,100,-4.96,18,27.0,-4.0,-1011.0,13:58:26.378114,192.168.0.111
925,3,-4,-8,82,"-7,-2,-178",1,0,5,0,0,0,60,63,79,50,100,-5.06,18,32.0,-10.0,-996.0,13:58:26.483470,192.168.0.111
930,3,-2,-11,81,"-5,-2,-176",1,0,5,0,0,0,60,63,78,50,100,-4.99,18,26.0,-3.0,-1000.0,13:58:26.582041,192.168.0.111
935,3,-2,-11,81,"-5,-2,-176",1,0,5,0,0,0,60,63,79,50,100,-4.97,18,22.0,0.0,-1004.0,13:58:26.683654,192.168.0.111
941,3,-2,-11,81,"-5,-2,-176",1,0,5,0,0,0,61,64,79,50,100,-5.06,18,32.0,-10.0,-1008.0,13:58:26.787044,192.168.0.111
946,3,-2,-11,81,"-5,-2,-176",1,0,5,0,0,0,61,64,79,50,100,-5.08,18,37.0,-5.0,-985.0,13:58:26.888077,192.168.0.111
951,3,-10,-14,79,"-11,-3,-173",1,0,5,0,0,0,61,64,79,50,100,-5.08,18,21.0,-1.0,-1000.0,13:58:26.990128,192.168.0.111
956,3,-10,-14,79,"-11,-3,-173",1,0,5,0,0,0,61,64,79,50,100,-5.0,18,31.0,-6.0,-1001.0,13:58:27.092069,192.168.0.111
961,3,-10,-14,79,"-11,-3,-173",1,0,5,0,0,0,61,64,79,50,100,-5.02,19,25.0,0.0,-1000.0,13:58:27.194219,192.168.0.111
966,3,-10,-14,79,"-11,-3,-173",1,0,5,0,0,0,61,64,79,50,100,-5.04,19,36.0,-11.0,-987.0,13:58:27.298226,192.168.0.111
971,3,-1,-9,81,"-4,-2,-177",1,0,5,0,0,0,61,64,79,50,100,-5.04,19,30.0,0.0,-984.0,13:58:27.398141,192.168.0.111
976,3,-1,-9,81,"-4,-2,-177",1,0,5,0,0,0,61,64,79,50,100,-4.99,19,34.0,-18.0,-994.0,13:58:27.500013,192.168.0.111
981,3,-1,-9,81,"-4,-2,-177",1,0,5,0,0,0,61,64,79,50,100,-5.01,19,17.0,6.0,-1013.0,13:58:27.602075,192.168.0.111
986,3,0,-5,82,"-3,-2,178",1,0,5,0,0,0,61,64,79,50,100,-5.0,19,19.0,-7.0,-1005.0,13:58:27.704152,192.168.0.111
991,3,0,-5,82,"-3,-2,178",1,0,5,0,0,0,61,64,79,50,100,-5.03,19,41.0,-12.0,-994.0,13:58:27.806074,192.168.0.111
996,3,0,-5,82,"-3,-2,178",1,0,5,0,0,0,61,64,79,50,100,-4.97,19,30.0,5.0,-997.0,13:58:27.907669,192.168.0.111
1001,3,0,-5,82,"-3,-2,178",1,0,5,0,0,0,61,64,79,50,100,-5.02,19,23.0,12.0,-1011.0,13:58:28.009940,192.168.0.111
1007,3,-3,-9,81,"-4,-2,-178",1,0,5,0,0,0,61,64,79,50,100,-5.03,19,17.0,1.0,-1002.0,13:58:28.112144,192.168.0.111
1012,3,-3,-9,81,"-4,-2,-178",1,0,5,0,0,0,61,64,79,50,100,-4.97,20,18.0,-1.0,-1001.0,13:58:28.214272,192.168.0.111
1017,3,-3,-9,81,"-4,-2,-178",1,0,5,0,0,0,61,64,79,50,100,-4.97,20,43.0,-9.0,-991.0,13:58:28.316088,192.168.0.111
1022,3,-3,-9,81,"-4,-2,-178",1,0,5,0,0,0,61,64,79,50,100,-4.96,20,37.0,-3.0,-988.0,13:58:28.418291,192.168.0.111
1027,3,-3,-9,81,"-4,-2,-178",1,0,5,0,0,0,61,64,79,50,100,-4.95,20,18.0,-2.0,-1001.0,13:58:28.520285,192.168.0.111
1032,3,-3,-9,81,"-4,-2,-178",1,0,5,0,0,0,61,64,79,50,100,-4.91,20,23.0,14.0,-992.0,13:58:28.623221,192.168.0.111
1037,3,-3,-9,81,"-4,-2,-178",1,0,5,0,0,0,61,64,79,50,100,-5.01,20,42.0,-9.0,-995.0,13:58:28.724133,192.168.0.111
1042,3,-3,-9,81,"-4,-2,-178",1,0,5,0,0,0,61,64,78,50,100,-4.99,20,17.0,3.0,-1004.0,13:58:28.827083,192.168.0.111
1047,3,-3,-11,81,"-4,-2,-178",1,0,5,0,0,0,61,64,79,50,100,-5.04,20,21.0,9.0,-1003.0,13:58:28.928223,192.168.0.111
1052,3,-3,-11,81,"-4,-2,-178",1,0,5,0,0,0,61,64,78,50,100,-5.05,20,35.0,-13.0,-997.0,13:58:29.029779,192.168.0.111
1057,3,-3,-11,81,"-4,-2,-178",1,0,5,0,0,0,61,64,79,50,100,-5.08,20,29.0,-1.0,-991.0,13:58:29.131908,192.168.0.111
1062,3,0,-6,82,"-2,-2,178",1,0,5,0,0,0,61,64,79,50,100,-4.97,21,23.0,12.0,-1000.0,13:58:29.234099,192.168.0.111
1067,3,0,-6,82,"-2,-2,178",1,0,5,0,0,0,61,64,79,50,100,-5.0,21,33.0,0.0,-1014.0,13:58:29.336320,192.168.0.111
1070,3,0,-6,82,"-2,-2,178",1,0,5,0,0,0,61,64,78,50,100,-5.02,21,33.0,6.0,-999.0,13:58:29.387082,192.168.0.111
1075,3,0,-6,82,"-2,-2,178",1,0,6,0,0,0,61,64,79,50,100,-5.01,21,31.0,-9.0,-1003.0,13:58:29.489038,192.168.0.111
1080,3,-1,-7,81,"-3,-2,179",1,0,6,0,0,0,61,64,79,50,100,-4.96,21,27.0,4.0,-1001.0,13:58:29.591031,192.168.0.111
1085,3,-1,-7,81,"-3,-2,179",2,0,6,0,0,0,61,64,79,50,100,-5.04,21,33.0,2.0,-991.0,13:58:29.693156,192.168.0.111
1090,3,-1,-7,81,"-3,-2,179",2,0,6,0,0,0,61,64,79,50,100,-4.95,21,28.0,6.0,-994.0,13:58:29.795072,192.168.0.111
1095,3,-1,-7,81,"-3,-2,179",1,0,6,0,0,0,61,64,79,50,100,-4.94,21,31.0,8.0,-998.0,13:58:29.897000,192.168.0.111
1100,3,-1,-7,81,"-3,-2,179",1,0,5,0,0,0,61,64,79,50,100,-4.93,21,31.0,-6.0,-1000.0,13:58:29.999056,192.168.0.111
1105,3,-1,-7,81,"-3,-2,179",1,0,5,0,0,0,61,64,79,50,100,-4.97,21,35.0,-5.0,-993.0,13:58:30.102197,192.168.0.111
1110,3,-1,-7,81,"-3,-2,179",1,0,6,0,0,0,61,64,79,50,100,-4.98,22,19.0,6.0,-995.0,13:58:30.203035,192.168.0.111
1115,3,0,-6,82,"-4,-2,179",1,0,6,0,0,0,61,64,79,50,100,-4.9,22,48.0,0.0,-990.0,13:58:30.305495,192.168.0.111
1120,3,0,-6,82,"-4,-2,179",1,0,5,0,0,0,61,64,79,50,100,-4.88,22,23.0,-4.0,-1009.0,13:58:30.407026,192.168.0.111
1126,3,0,-6,82,"-4,-2,179",1,0,5,0,0,0,61,64,79,50,100,-4.88,22,25.0,8.0,-996.0,13:58:30.509038,192.168.0.111
1131,3,0,-6,82,"-4,-2,179",1,0,5,0,0,0,61,64,79,50,100,-4.84,22,25.0,-2.0,-999.0,13:58:30.611099,192.168.0.111
1136,3,-3,-8,81,"-6,-2,-178",1,0,5,0,0,0,61,64,79,50,100,-4.89,22,23.0,5.0,-1012.0,13:58:30.713156,192.168.0.111
1141,3,-3,-8,81,"-6,-2,-178",1,0,5,0,0,0,61,65,79,50,100,-4.81,22,31.0,-3.0,-1006.0,13:58:30.817268,192.168.0.111
1146,3,-3,-8,81,"-6,-2,-178",1,0,6,0,0,0,61,65,79,50,100,-4.91,22,32.0,-6.0,-997.0,13:58:30.917049,192.168.0.111
1151,3,-3,-8,81,"-6,-2,-178",1,0,6,0,0,0,61,65,80,50,100,-4.9,22,31.0,-4.0,-1009.0,13:58:31.019136,192.168.0.111
1156,3,-3,-8,81,"-6,-2,-178",1,0,5,0,0,0,61,65,79,50,100,-4.9,22,27.0,5.0,-1000.0,13:58:31.120957,192.168.0.111
1161,3,-3,-8,81,"-6,-2,-178",1,0,5,0,0,0,61,65,79,50,100,-4.87,23,23.0,0.0,-997.0,13:58:31.222987,192.168.0.111
1166,3,-3,-8,81,"-6,-2,-178",1,0,6,0,0,0,61,65,79,50,100,-4.89,23,35.0,-7.0,-991.0,13:58:31.327064,192.168.0.111
1171,3,-5,-9,81,"-5,-2,-177",1,0,6,0,0,0,61,65,80,50,100,-4.86,23,26.0,-11.0,-988.0,13:58:31.428028,192.168.0.111
1176,3,-5,-9,81,"-5,-2,-177",1,0,6,0,0,0,61,65,79,50,100,-4.93,23,27.0,-3.0,-1006.0,13:58:31.530008,192.168.0.111
1181,3,-5,-9,81,"-5,-2,-177",1,0,6,0,0,0,61,65,79,50,100,-4.87,23,27.0,-1.0,-990.0,13:58:31.631693,192.168.0.111
1186,3,-5,-9,81,"-5,-2,-177",1,0,6,0,0,0,61,65,80,50,100,-4.95,23,22.0,-10.0,-1003.0,13:58:31.733922,192.168.0.111
1192,3,-3,-8,82,"-4,-2,-177",1,0,6,0,0,0,62,64,79,50,100,-4.98,23,28.0,-14.0,-1007.0,13:58:31.836086,192.168.0.111
1197,3,-3,-8,82,"-4,-2,-177",1,0,6,0,0,0,62,64,80,50,100,-4.83,23,23.0,-3.0,-992.0,13:58:31.938272,192.168.0.111
1202,3,-3,-8,82,"-4,-2,-177",1,0,6,0,0,0,62,64,79,50,100,-4.87,23,21.0,-3.0,-991.0,13:58:32.040060,192.168.0.111
1207,3,-3,-8,82,"-4,-2,-177",1,0,6,0,0,0,62,64,79,50,100,-4.87,23,24.0,-9.0,-995.0,13:58:32.142053,192.168.0.111
1212,3,-2,-5,82,"-3,-2,-178",1,0,6,0,0,0,62,64,78,50,100,-4.85,24,22.0,2.0,-1005.0,13:58:32.244000,192.168.0.111
1217,3,-2,-5,82,"-3,-2,-178",1,0,5,0,0,0,62,64,79,50,100,-4.95,24,19.0,4.0,-1005.0,13:58:32.345826,192.168.0.111
1222,3,-2,-5,82,"-3,-2,-178",1,0,5,0,0,0,62,64,79,50,100,-4.91,24,24.0,-14.0,-1007.0,13:58:32.447760,192.168.0.111
1227,3,-2,-5,82,"-3,-2,-178",1,0,5,0,0,0,62,64,78,50,100,-4.95,24,22.0,7.0,-1008.0,13:58:32.550255,192.168.0.111
1233,3,-3,-9,81,"-3,-2,-175",1,0,5,0,0,0,62,64,78,50,100,-4.94,24,23.0,-11.0,-987.0,13:58:32.652059,192.168.0.111
1235,3,-3,-9,81,"-3,-2,-175",1,0,5,0,0,0,62,64,78,50,100,-4.96,24,16.0,10.0,-1004.0,13:58:32.702879,192.168.0.111
1243,3,-3,-9,81,"-3,-2,-175",1,0,5,0,0,0,61,64,78,50,100,-4.97,24,24.0,-8.0,-994.0,13:58:32.856083,192.168.0.111
1245,3,-2,-8,81,"-3,-2,-176",1,0,5,0,0,0,61,64,78,50,100,-4.9,24,17.0,8.0,-1005.0,13:58:32.906976,192.168.0.111
1250,3,-2,-8,81,"-3,-2,-176",1,0,5,0,0,0,61,64,78,50,100,-4.96,24,24.0,10.0,-1012.0,13:58:33.009110,192.168.0.111
1255,3,-2,-8,81,"-3,-2,-176",1,0,5,0,0,0,61,64,78,50,100,-5.02,24,25.0,-1.0,-1005.0,13:58:33.110975,192.168.0.111
1260,3,-2,-8,81,"-3,-2,-176",1,0,5,0,0,0,61,64,78,50,100,-4.88,25,28.0,0.0,-999.0,13:58:33.213080,192.168.0.111
1265,3,-1,-5,81,"-2,-2,-179",1,0,5,0,0,0,61,64,78,50,100,-4.98,25,7.0,7.0,-1006.0,13:58:33.315190,192.168.0.111
1270,3,-1,-5,81,"-2,-2,-179",1,0,5,0,0,0,61,64,78,50,100,-4.94,25,20.0,12.0,-1003.0,13:58:33.416955,192.168.0.111
1275,3,-1,-5,81,"-2,-2,-179",1,0,5,0,0,0,61,64,79,50,100,-4.98,25,29.0,-2.0,-1006.0,13:58:33.518968,192.168.0.111
1280,3,-1,-5,81,"-2,-2,-179",1,0,5,0,0,0,61,64,78,50,100,-5.02,25,25.0,1.0,-1003.0,13:58:33.620535,192.168.0.111
1285,3,-1,-5,81,"-2,-2,180",1,0,5,0,0,0,61,64,79,50,100,-4.94,25,17.0,-6.0,-991.0,13:58:33.724575,192.168.0.111
1290,3,-1,-5,81,"-2,-2,180",1,0,5,0,0,0,62,64,79,50,100,-4.97,25,27.0,-12.0,-994.0,13:58:33.824880,192.168.0.111
1296,3,-1,-5,81,"-2,-2,180",1,0,5,0,0,0,62,64,78,50,100,-4.91,25,13.0,9.0,-993.0,13:58:33.927004,192.168.0.111
1301,3,-1,-5,81,"-2,-2,180",1,0,5,0,0,0,62,64,78,50,100,-4.95,25,19.0,11.0,-1003.0,13:58:34.028853,192.168.0.111
1306,3,-3,-8,80,"-3,-2,-177",1,0,5,0,0,0,62,64,78,50,100,-4.93,25,16.0,0.0,-998.0,13:58:34.130863,192.168.0.111
1311,3,-3,-8,80,"-3,-2,-177",1,0,5,0,0,0,62,64,78,50,100,-4.89,26,23.0,4.0,-994.0,13:58:34.233002,192.168.0.111
1315,3,-3,-8,80,"-3,-2,-177",1,0,6,0,0,0,62,64,78,50,100,-4.95,26,8.0,10.0,-1003.0,13:58:34.337800,192.168.0.111
1321,3,-3,-8,80,"-4,-2,-177",0,0,5,0,0,0,62,64,78,50,100,-4.93,26,12.0,0.0,-998.0,13:58:34.439024,192.168.0.111
1326,3,-3,-8,80,"-4,-2,-177",0,0,5,0,0,0,62,64,78,50,100,-4.97,26,20.0,0.0,-999.0,13:58:34.538874,192.168.0.111
1331,3,-3,-8,80,"-4,-2,-177",0,0,5,0,0,0,62,64,79,50,100,-4.94,26,16.0,10.0,-1007.0,13:58:34.640662,192.168.0.111
1336,3,-3,-8,80,"-4,-2,-177",0,0,5,0,0,0,62,64,79,50,100,-4.96,26,27.0,1.0,-983.0,13:58:34.742969,192.168.0.111
1341,3,-4,-9,80,"-4,-2,-177",0,0,5,0,0,0,62,64,79,50,100,-4.93,26,12.0,11.0,-1004.0,13:58:34.845070,192.168.0.111
1346,3,-4,-9,80,"-4,-2,-177",1,0,5,0,0,0,62,64,80,50,100,-4.92,26,10.0,3.0,-1007.0,13:58:34.946788,192.168.0.111
1351,3,-4,-9,80,"-4,-2,-177",0,0,5,0,0,0,62,64,79,50,100,-4.9,26,17.0,-1.0,-996.0,13:58:35.048841,192.168.0.111
1356,3,-4,-9,80,"-4,-2,-177",0,0,5,0,0,0,62,64,79,50,100,-4.98,26,21.0,1.0,-1007.0,13:58:35.150972,192.168.0.111
1362,3,-1,-5,81,"-1,-2,-179",0,0,5,0,0,0,62,64,79,50,100,-4.93,27,12.0,-3.0,-1003.0,13:58:35.253159,192.168.0.111
1367,3,-1,-5,81,"-1,-2,-179",0,0,5,0,0,0,62,64,79,50,100,-4.9,27,16.0,-3.0,-999.0,13:58:35.354906,192.168.0.111
1372,3,-1,-5,81,"-1,-2,-179",1,0,5,0,0,0,62,64,79,50,100,-4.96,27,22.0,-8.0,-1002.0,13:58:35.456747,192.168.0.111
1377,3,-1,-5,82,"-1,-2,-179",1,0,5,0,0,0,62,64,78,50,100,-4.96,27,12.0,0.0,-1003.0,13:58:35.558894,192.168.0.111
1382,3,-1,-5,82,"-1,-2,-179",1,0,6,0,0,0,62,64,79,50,100,-4.94,27,23.0,2.0,-1000.0,13:58:35.660788,192.168.0.111
1387,3,-1,-5,82,"-1,-2,-179",1,0,6,0,0,0,62,64,79,50,100,-4.95,27,29.0,-3.0,-993.0,13:58:35.764255,192.168.0.111
1392,3,-1,-5,82,"-1,-2,-179",1,0,5,0,0,0,62,65,79,50,100,-4.92,27,19.0,-3.0,-1001.0,13:58:35.864905,192.168.0.111
1397,3,-2,-5,82,"-2,-2,-178",1,0,5,0,0,0,62,65,78,50,100,-4.98,27,18.0,0.0,-1002.0,13:58:35.966965,192.168.0.111
1402,3,-2,-5,82,"-2,-2,-178",1,0,6,0,0,0,62,65,79,50,100,-4.91,27,19.0,-18.0,-1003.0,13:58:36.071231,192.168.0.111
1407,3,-2,-5,82,"-2,-2,-178",1,0,6,0,0,0,62,65,79,50,100,-4.97,27,21.0,-10.0,-1003.0,13:58:36.170964,192.168.0.111
1413,3,-2,-5,82,"-2,-2,-178",1,0,6,0,0,0,62,65,79,50,100,-4.96,28,23.0,-12.0,-993.0,13:58:36.272967,192.168.0.111
1415,3,0,-5,82,"-2,-2,-178",1,0,6,0,0,0,62,65,79,50,100,-5.0,28,36.0,-15.0,-1007.0,13:58:36.323708,192.168.0.111
1420,3,0,-5,82,"-2,-2,-178",1,0,6,0,0,0,62,65,79,50,100,-5.06,28,25.0,-8.0,-1001.0,13:58:36.425774,192.168.0.111
1425,3,0,-5,82,"-2,-2,-178",1,0,6,0,0,0,62,65,79,50,100,-4.97,28,27.0,-13.0,-1004.0,13:58:36.527998,192.168.0.111
1430,3,0,-5,82,"-2,-2,-178",1,0,6,0,0,0,62,65,80,50,100,-5.0,28,26.0,-15.0,-995.0,13:58:36.629906,192.168.0.111
1435,3,-1,-5,82,"-3,-2,-177",1,0,6,0,0,0,62,65,80,50,100,-4.94,28,22.0,-3.0,-999.0,13:58:36.732056,192.168.0.111
1440,3,-1,-5,82,"-3,-2,-177",1,0,6,0,0,0,61,65,79,50,100,-5.01,28,22.0,-14.0,-994.0,13:58:36.834036,192.168.0.111
1446,3,-1,-5,82,"-3,-2,-177",1,0,6,0,0,0,61,65,80,50,100,-5.01,28,29.0,-12.0,-992.0,13:58:36.935797,192.168.0.111
1450,3,-1,-5,82,"-4,-2,-176",1,0,6,0,0,0,61,65,80,50,100,-5.0,28,26.0,-9.0,-993.0,13:58:37.038184,192.168.0.111
1456,3,-1,-5,82,"-4,-2,-176",1,0,6,0,0,0,61,65,80,50,100,-4.98,28,22.0,-8.0,-1001.0,13:58:37.139914,192.168.0.111
1461,3,-1,-5,82,"-4,-2,-176",1,0,6,0,0,0,61,65,79,50,100,-4.94,29,26.0,-3.0,-989.0,13:58:37.241602,192.168.0.111
1466,3,-1,-5,82,"-4,-2,-176",1,0,5,0,0,0,61,65,80,50,100,-5.02,29,26.0,-5.0,-1006.0,13:58:37.343920,192.168.0.111
1471,3,-4,-6,82,"-6,-2,-176",1,0,5,0,0,0,61,65,79,50,100,-4.95,29,29.0,-12.0,-1010.0,13:58:37.445892,192.168.0.111
1476,3,-4,-6,82,"-6,-2,-176",1,0,5,0,0,0,61,65,80,50,100,-4.99,29,28.0,-8.0,-995.0,13:58:37.547906,192.168.0.111
1481,3,-4,-6,82,"-6,-2,-176",1,0,5,0,0,0,61,65,80,50,100,-5.02,29,26.0,-19.0,-998.0,13:58:37.649849,192.168.0.111
1486,3,-4,-6,82,"-6,-2,-176",1,0,5,0,0,0,61,65,80,50,100,-4.99,29,23.0,-3.0,-996.0,13:58:37.751856,192.168.0.111
1491,3,-3,-6,82,"-5,-2,-175",1,0,5,0,0,0,62,65,79,50,100,-4.96,29,20.0,-13.0,-999.0,13:58:37.853773,192.168.0.111
1496,3,-3,-6,82,"-5,-2,-175",1,0,6,0,0,0,62,65,79,50,100,-4.88,29,17.0,-10.0,-1005.0,13:58:37.955873,192.168.0.111
1501,3,-3,-6,82,"-5,-2,-175",1,0,6,0,0,0,62,65,79,50,100,-4.88,29,26.0,-15.0,-992.0,13:58:38.057733,192.168.0.111
1506,3,-3,-6,82,"-5,-2,-175",1,1,5,0,0,0,62,65,79,50,100,-4.97,29,30.0,-15.0,-996.0,13:58:38.159810,192.168.0.111
1511,3,-3,-6,82,"-6,-2,-175",1,1,5,0,0,0,62,65,79,50,100,-4.98,30,20.0,-9.0,-1007.0,13:58:38.261870,192.168.0.111
1516,3,-3,-6,82,"-6,-2,-175",1,0,5,0,0,0,62,65,79,50,100,-4.98,30,23.0,-17.0,-1008.0,13:58:38.363872,192.168.0.111
1522,3,-3,-6,82,"-6,-2,-175",1,0,6,0,0,0,62,65,79,50,100,-4.97,30,15.0,-12.0,-1004.0,13:58:38.465964,192.168.0.111
1527,3,-3,-8,82,"-5,-2,-174",1,0,6,0,0,0,62,65,78,50,100,-4.93,30,25.0,-18.0,-1003.0,13:58:38.567864,192.168.0.111
1531,3,-3,-8,82,"-5,-2,-174",1,0,6,0,0,0,62,65,79,50,100,-4.95,30,24.0,-13.0,-1006.0,13:58:38.669605,192.168.0.111
1537,3,-3,-8,82,"-5,-2,-174",1,0,6,0,0,0,62,65,79,50,100,-4.91,30,31.0,-14.0,-998.0,13:58:38.771928,192.168.0.111
1542,3,-3,-8,82,"-5,-2,-174",1,0,6,0,0,0,62,65,80,50,100,-4.92,30,32.0,-11.0,-1001.0,13:58:38.873766,192.168.0.111
1547,3,-3,-8,82,"-4,-2,-174",1,0,6,0,0,0,62,65,80,50,100,-5.0,30,29.0,-14.0,-981.0,13:58:38.975378,192.168.0.111
1552,3,-3,-8,82,"-4,-2,-174",1,0,6,0,0,0,62,65,80,50,100,-5.0,30,28.0,-20.0,-996.0,13:58:39.077714,192.168.0.111
1557,3,-3,-8,82,"-4,-2,-174",1,0,6,0,0,0,62,65,80,50,100,-5.01,30,28.0,-19.0,-999.0,13:58:39.179797,192.168.0.111
1562,3,-3,-8,82,"-4,-2,-174",1,0,6,0,0,0,62,65,81,50,100,-4.94,31,21.0,-9.0,-996.0,13:58:39.281782,192.168.0.111
1567,3,-4,-8,82,"-5,-2,-174",1,0,6,0,0,0,62,65,81,50,100,-5.02,31,14.0,-13.0,-1006.0,13:58:39.387158,192.168.0.111
1572,3,-4,-8,82,"-5,-2,-174",1,1,6,0,0,0,62,65,80,50,100,-5.06,31,23.0,-11.0,-993.0,13:58:39.485982,192.168.0.111
1578,3,-4,-8,82,"-5,-2,-174",1,1,6,0,0,0,62,65,80,50,100,-5.02,31,13.0,-14.0,-986.0,13:58:39.587996,192.168.0.111
1583,3,-4,-8,82,"-5,-2,-174",1,1,6,0,0,0,62,65,80,50,100,-4.96,31,27.0,-11.0,-990.0,13:58:39.695817,192.168.0.111
1585,3,-4,-8,82,"-5,-2,-173",0,1,6,0,0,0,62,65,80,50,100,-4.98,31,5.0,-10.0,-993.0,13:58:39.740889,192.168.0.111
1593,3,-4,-8,82,"-5,-2,-173",0,1,5,0,0,0,62,65,79,50,100,-4.99,31,24.0,-22.0,-997.0,13:58:39.893525,192.168.0.111
1598,3,-4,-8,82,"-5,-2,-173",0,1,6,0,0,0,62,65,79,50,100,-5.0,31,10.0,-16.0,-999.0,13:58:39.995618,192.168.0.111
1600,3,-4,-7,83,"-4,-2,-174",0,1,6,0,0,0,62,65,79,50,100,-4.99,31,23.0,-19.0,-999.0,13:58:40.046690,192.168.0.111
1605,3,-4,-7,83,"-4,-2,-174",0,1,6,0,0,0,62,65,79,50,100,-4.98,31,19.0,-18.0,-997.0,13:58:40.148542,192.168.0.111
1610,3,-4,-7,83,"-4,-2,-174",0,1,6,0,0,0,62,65,79,50,100,-5.02,32,22.0,-24.0,-999.0,13:58:40.250558,192.168.0.111
1615,3,-4,-7,83,"-4,-2,-174",0,1,6,0,0,0,62,65,80,50,100,-4.99,32,21.0,-18.0,-991.0,13:58:40.352919,192.168.0.111
1620,3,-3,-4,83,"-3,-2,-176",0,1,6,0,0,0,62,65,79,50,100,-4.93,32,18.0,-15.0,-997.0,13:58:40.454788,192.168.0.111
1625,3,-3,-4,83,"-3,-2,-176",1,1,6,0,0,0,62,65,80,50,100,-4.97,32,20.0,-17.0,-1005.0,13:58:40.557707,192.168.0.111
1630,3,-3,-4,83,"-3,-2,-176",1,1,6,0,0,0,62,65,80,50,100,-5.01,32,15.0,-10.0,-1002.0,13:58:40.658568,192.168.0.111
1635,3,-3,-4,83,"-3,-2,-176",1,1,6,0,0,0,62,65,80,50,100,-4.93,32,19.0,-14.0,-995.0,13:58:40.760614,192.168.0.111
1641,3,-4,-4,83,"-4,-2,-176",1,0,6,0,0,0,62,65,80,50,100,-5.02,32,20.0,-8.0,-1002.0,13:58:40.862618,192.168.0.111
1646,3,-4,-4,83,"-4,-2,-176",1,0,6,0,0,0,62,65,79,50,100,-4.99,32,17.0,-13.0,-1006.0,13:58:40.964404,192.168.0.111
1651,3,-4,-4,83,"-4,-2,-176",1,0,6,0,0,0,62,65,79,50,100,-4.98,32,23.0,-16.0,-997.0,13:58:41.066700,192.168.0.111
1656,3,-4,-4,83,"-4,-2,-176",1,1,5,0,0,0,62,65,80,50,100,-4.97,32,29.0,-25.0,-997.0,13:58:41.168570,192.168.0.111
1661,3,-4,-6,82,"-4,-2,-174",1,1,5,0,0,0,62,65,79,50,100,-4.98,33,23.0,-23.0,-989.0,13:58:41.270494,192.168.0.111
1666,3,-4,-6,82,"-4,-2,-174",1,1,5,0,0,0,62,65,79,50,100,-4.95,33,17.0,-14.0,-1002.0,13:58:41.372852,192.168.0.111
1671,3,-4,-6,82,"-4,-2,-174",1,1,5,0,0,0,62,65,78,50,100,-5.02,33,19.0,-17.0,-1012.0,13:58:41.474750,192.168.0.111
1676,3,-5,-7,82,"-5,-2,-174",1,1,5,0,0,0,62,65,78,50,100,-5.06,33,25.0,-29.0,-1004.0,13:58:41.576639,192.168.0.111
1681,3,-5,-7,82,"-5,-2,-174",1,1,5,0,0,0,62,65,79,50,100,-4.94,33,21.0,-31.0,-999.0,13:58:41.678706,192.168.0.111
1686,3,-5,-7,82,"-5,-2,-174",1,1,5,0,0,0,62,65,79,50,100,-5.02,33,20.0,-10.0,-1000.0,13:58:41.782777,192.168.0.111
1691,3,-5,-7,82,"-5,-2,-174",1,1,5,0,0,0,62,65,78,50,100,-4.97,33,18.0,-26.0,-994.0,13:58:41.882794,192.168.0.111
1696,3,-4,-6,81,"-4,-2,-174",1,1,5,0,0,0,62,65,79,50,100,-5.01,33,26.0,-21.0,-1001.0,13:58:41.986480,192.168.0.111
1702,3,-4,-6,81,"-4,-2,-174",1,1,5,0,0,0,62,65,79,50,100,-5.05,33,12.0,-10.0,-1002.0,13:58:42.086646,192.168.0.111
1707,3,-4,-6,81,"-4,-2,-174",0,1,5,0,0,0,62,65,79,50,100,-5.05,33,9.0,-23.0,-1007.0,13:58:42.188547,192.168.0.111
1712,3,-4,-6,81,"-4,-2,-174",0,1,5,0,0,0,62,65,78,50,100,-5.06,34,9.0,-24.0,-1004.0,13:58:42.290829,192.168.0.111
1717,3,-3,-7,81,"-4,-2,-173",0,1,6,0,0,0,62,65,79,50,100,-5.05,34,2.0,-21.0,-1009.0,13:58:42.392656,192.168.0.111
1722,3,-3,-7,81,"-4,-2,-173",0,1,6,0,0,0,62,65,79,50,100,-4.99,34,-2.0,-19.0,-985.0,13:58:42.494676,192.168.0.111
1727,3,-3,-7,81,"-4,-2,-173",0,1,6,0,0,0,62,65,79,50,100,-5.0,34,4.0,-28.0,-1001.0,13:58:42.596674,192.168.0.111
1733,3,-2,-6,82,"-2,-2,-175",0,1,6,0,0,0,62,65,79,50,100,-4.98,34,-1.0,-19.0,-1003.0,13:58:42.698670,192.168.0.111
1738,3,-2,-6,82,"-2,-2,-175",0,1,6,0,0,0,62,65,80,50,100,-5.0,34,0.0,-13.0,-993.0,13:58:42.800532,192.168.0.111
1743,3,-2,-6,82,"-2,-2,-175",0,1,6,0,0,0,62,65,80,50,100,-5.02,34,9.0,-18.0,-1000.0,13:58:42.902708,192.168.0.111
1748,3,-2,-6,82,"-2,-2,-175",0,1,6,0,0,0,62,65,80,50,100,-5.09,34,3.0,-16.0,-997.0,13:58:43.004582,192.168.0.111
1753,3,-3,-6,82,"0,-2,-174",0,0,6,0,0,0,62,65,80,50,100,-4.99,34,20.0,-9.0,-998.0,13:58:43.106351,192.168.0.111
1758,3,-3,-6,82,"0,-2,-174",0,0,6,0,0,0,62,65,80,50,100,-5.03,34,29.0,-20.0,-998.0,13:58:43.208658,192.168.0.111
1760,3,-3,-6,82,"0,-2,-174",0,0,6,0,0,0,62,65,79,50,100,-4.97,35,11.0,-5.0,-998.0,13:58:43.259690,192.168.0.111
1765,3,-3,-6,82,"0,-2,-174",0,1,6,0,0,0,62,65,80,50,100,-5.03,35,17.0,-13.0,-1001.0,13:58:43.361564,192.168.0.111
1770,3,-4,-7,82,"-1,-2,-175",0,0,6,0,0,0,62,65,79,50,100,-5.03,35,13.0,-19.0,-1004.0,13:58:43.463508,192.168.0.111
1775,3,-4,-7,82,"-1,-2,-175",0,0,6,0,0,0,62,65,79,50,100,-4.99,35,18.0,-7.0,-1001.0,13:58:43.565448,192.168.0.111
1780,3,-4,-7,82,"-1,-2,-175",0,0,6,0,0,0,62,65,79,50,100,-5.0,35,13.0,-9.0,-1011.0,13:58:43.667560,192.168.0.111
1785,3,-4,-7,82,"-1,-2,-175",1,0,5,0,0,0,62,65,79,50,100,-5.01,35,21.0,-4.0,-997.0,13:58:43.769740,192.168.0.111
1790,3,-4,-6,82,"-2,-2,-175",1,0,5,0,0,0,62,65,79,50,100,-5.0,35,31.0,-4.0,-994.0,13:58:43.871810,192.168.0.111
1795,3,-4,-6,82,"-2,-2,-175",1,0,5,0,0,0,62,65,79,50,100,-4.97,35,15.0,3.0,-1011.0,13:58:43.973613,192.168.0.111
1801,3,-4,-6,82,"-2,-2,-175",1,0,5,0,0,0,62,65,79,50,100,-5.02,35,27.0,-13.0,-1006.0,13:58:44.075690,192.168.0.111
1806,3,-3,-7,81,"-3,-2,-176",1,0,5,0,0,0,62,65,78,50,100,-5.04,35,28.0,-3.0,-999.0,13:58:44.177603,192.168.0.111
1811,3,-3,-7,81,"-3,-2,-176",1,0,5,0,0,0,62,65,79,50,100,-4.98,36,26.0,-9.0,-1003.0,13:58:44.279692,192.168.0.111
1816,3,-3,-7,81,"-3,-2,-176",1,0,5,0,0,0,62,65,79,50,100,-5.01,36,28.0,-1.0,-1002.0,13:58:44.381478,192.168.0.111
1821,3,-3,-7,81,"-3,-2,-176",1,0,5,0,0,0,62,65,79,50,100,-5.06,36,32.0,-8.0,-990.0,13:58:44.483614,192.168.0.111
1826,3,-2,-9,81,"-4,-2,-175",1,0,5,0,0,0,62,65,79,50,100,-4.99,36,30.0,4.0,-1009.0,13:58:44.585335,192.168.0.111
1831,3,-2,-9,81,"-4,-2,-175",2,0,5,0,0,0,62,65,79,50,100,-4.97,36,29.0,0.0,-1005.0,13:58:44.687252,192.168.0.111
1836,3,-2,-9,81,"-4,-2,-175",2,0,5,0,0,0,62,65,80,50,100,-5.04,36,31.0,-10.0,-1002.0,13:58:44.789667,192.168.0.111
1841,3,-2,-9,81,"-4,-2,-175",2,0,5,0,0,0,62,65,79,50,100,-4.97,36,34.0,-10.0,-1001.0,13:58:44.896388,192.168.0.111
1846,3,-4,-10,81,"-6,-2,-175",2,0,5,0,0,0,62,65,79,50,100,-4.96,36,30.0,-6.0,-994.0,13:58:44.993715,192.168.0.111
1851,3,-4,-10,81,"-6,-2,-175",1,0,5,0,0,0,62,65,79,50,100,-5.0,36,35.0,-1.0,-996.0,13:58:45.095668,192.168.0.111
1856,3,-4,-10,81,"-6,-2,-175",1,0,5,0,0,0,62,65,78,50,100,-4.97,36,33.0,-10.0,-992.0,13:58:45.197421,192.168.0.111
1861,3,-4,-10,81,"-6,-2,-175",1,0,5,0,0,0,62,65,79,50,100,-4.95,37,28.0,0.0,-1000.0,13:58:45.299783,192.168.0.111
1866,3,-4,-5,81,"-7,-2,-179",1,0,5,0,0,0,62,65,79,50,100,-4.97,37,25.0,-9.0,-996.0,13:58:45.401495,192.168.0.111
1872,3,-4,-5,81,"-7,-2,-179",1,0,5,0,0,0,62,65,79,50,100,-4.96,37,28.0,-2.0,-998.0,13:58:45.503656,192.168.0.111
1876,3,-4,-5,81,"-7,-2,-179",1,0,5,0,0,0,62,65,79,50,100,-5.02,37,30.0,-4.0,-995.0,13:58:45.636062,192.168.0.111
1880,3,-3,-9,81,"-6,-2,-176",1,0,5,0,0,0,62,65,79,50,100,-5.0,37,33.0,0.0,-1003.0,13:58:45.742453,192.168.0.111
1887,3,-3,-9,81,"-6,-2,-176",1,0,5,0,0,0,62,65,79,50,100,-4.94,37,26.0,2.0,-999.0,13:58:45.809567,192.168.0.111
1892,3,-3,-9,81,"-6,-2,-176",1,0,5,0,0,0,62,64,79,50,100,-4.94,37,19.0,-1.0,-1008.0,13:58:45.911840,192.168.0.111
1897,3,-3,-9,81,"-6,-2,-176",1,0,5,0,0,0,62,64,79,50,100,-4.96,37,15.0,0.0,-1005.0,13:58:46.013035,192.168.0.111
1902,3,-3,-9,81,"-6,-2,-176",1,0,5,0,0,0,62,64,79,50,100,-4.98,37,26.0,-14.0,-1012.0,13:58:46.115623,192.168.0.111
1907,3,-3,-9,81,"-6,-2,-176",1,0,5,0,0,0,62,64,79,50,100,-5.01,38,16.0,-1.0,-995.0,13:58:46.217585,192.168.0.111
1912,3,-3,-9,81,"-6,-2,-176",1,0,5,0,0,0,62,64,79,50,100,-5.01,38,18.0,4.0,-997.0,13:58:46.319473,192.168.0.111
1918,3,-3,-9,81,"-6,-2,-176",1,0,5,0,0,0,62,64,79,50,100,-5.01,38,34.0,-7.0,-1005.0,13:58:46.421562,192.168.0.111
1923,3,-5,-10,81,"-6,-2,-176",1,0,5,0,0,0,62,64,79,50,100,-5.01,38,26.0,1.0,-1005.0,13:58:46.523549,192.168.0.111
1928,3,-5,-10,81,"-6,-2,-176",1,0,5,0,0,0,62,64,79,50,100,-4.94,38,27.0,-11.0,-997.0,13:58:46.625624,192.168.0.111
1930,3,-5,-10,81,"-6,-2,-176",1,0,5,0,0,0,62,64,79,50,100,-4.97,38,23.0,3.0,-993.0,13:58:46.676455,192.168.0.111
1935,3,-5,-10,81,"-6,-2,-176",1,0,5,0,0,0,62,64,79,50,100,-5.03,38,35.0,-9.0,-990.0,13:58:46.779052,192.168.0.111
1940,3,-5,-9,81,"-6,-2,-176",1,0,5,0,0,0,62,65,79,50,100,-4.92,38,37.0,0.0,-998.0,13:58:46.880699,192.168.0.111
1945,3,-5,-9,81,"-6,-2,-176",1,0,5,0,0,0,62,65,79,50,100,-4.98,38,31.0,1.0,-990.0,13:58:46.982638,192.168.0.111
1950,3,-5,-9,81,"-6,-2,-176",1,0,5,0,0,0,62,65,80,50,100,-4.89,38,23.0,-9.0,-994.0,13:58:47.086551,192.168.0.111
1955,3,-2,-8,82,"-4,-2,-177",1,0,5,0,0,0,62,65,79,50,100,-5.02,39,34.0,-23.0,-988.0,13:58:47.186781,192.168.0.111
1961,3,-2,-8,82,"-4,-2,-177",1,0,5,0,0,0,62,65,80,50,100,-5.01,39,33.0,-5.0,-995.0,13:58:47.289067,192.168.0.111
1966,3,-2,-8,82,"-4,-2,-177",1,0,5,0,0,0,62,65,80,50,100,-4.98,39,28.0,-9.0,-998.0,13:58:47.390505,192.168.0.111
1971,3,-2,-8,82,"-4,-2,-177",1,0,5,0,0,0,62,65,80,50,100,-4.97,39,22.0,-2.0,-999.0,13:58:47.492395,192.168.0.111
1976,3,-2,-8,82,"-4,-2,-176",1,0,5,0,0,0,62,65,80,50,100,-4.98,39,33.0,-6.0,-1000.0,13:58:47.595438,192.168.0.111
1981,3,-2,-8,82,"-4,-2,-176",1,0,5,0,0,0,62,65,80,50,100,-4.97,39,26.0,-7.0,-1001.0,13:58:47.696714,192.168.0.111
1986,3,-2,-8,82,"-4,-2,-176",1,0,5,0,0,0,62,65,80,50,100,-5.01,39,32.0,-12.0,-986.0,13:58:47.798271,192.168.0.111
1991,3,-2,-8,82,"-4,-2,-176",1,0,5,0,0,0,63,65,80,50,100,-5.06,39,38.0,-8.0,-990.0,13:58:47.900242,192.168.0.111
1996,3,-3,-10,81,"-5,-2,-175",1,0,5,0,0,0,63,65,80,50,100,-5.06,39,29.0,-17.0,-995.0,13:58:48.002203,192.168.0.111
2001,3,-3,-10,81,"-5,-2,-175",1,0,5,0,0,0,63,65,81,50,100,-4.98,39,26.0,-2.0,-994.0,13:58:48.104422,192.168.0.111
2006,3,-3,-10,81,"-5,-2,-175",1,0,5,0,0,0,63,65,80,50,100,-4.99,40,34.0,-7.0,-991.0,13:58:48.206682,192.168.0.111
2011,3,-3,-10,81,"-5,-2,-175",1,0,5,0,0,0,63,65,81,50,100,-5.05,40,26.0,-9.0,-996.0,13:58:48.308469,192.168.0.111
2016,3,-4,-7,82,"-6,-2,-177",1,0,5,0,0,0,63,65,80,50,100,-5.05,40,20.0,-1.0,-990.0,13:58:48.413194,192.168.0.111
2021,3,-4,-7,82,"-6,-2,-177",1,0,5,0,0,0,63,65,81,50,100,-5.02,40,36.0,-8.0,-980.0,13:58:48.513252,192.168.0.111
2026,3,-4,-7,82,"-6,-2,-177",1,0,5,0,0,0,63,65,80,50,100,-4.98,40,40.0,-12.0,-997.0,13:58:48.615178,192.168.0.111
2030,3,-3,-9,82,"-5,-2,-176",1,0,5,0,0,0,63,65,80,50,100,-4.97,40,15.0,4.0,-1015.0,13:58:48.718041,192.168.0.111
2036,3,-3,-9,82,"-5,-2,-176",1,0,5,0,0,0,63,65,80,50,100,-4.94,40,20.0,7.0,-996.0,13:58:48.820443,192.168.0.111
2041,3,-3,-9,82,"-5,-2,-176",1,0,5,0,0,0,62,65,80,50,100,-4.98,40,25.0,-5.0,-997.0,13:58:48.922607,192.168.0.111
2047,3,-3,-9,82,"-5,-2,-176",1,0,6,0,0,0,62,65,80,50,100,-4.96,40,22.0,-10.0,-1001.0,13:58:49.021979,192.168.0.111
2052,3,-3,-10,82,"-5,-2,-175",1,0,6,0,0,0,62,65,80,50,100,-4.97,40,28.0,-12.0,-1001.0,13:58:49.124036,192.168.0.111
2057,3,-3,-10,82,"-5,-2,-175",1,0,6,0,0,0,62,65,80,50,100,-5.01,41,17.0,0.0,-1004.0,13:58:49.226210,192.168.0.111
2062,3,-3,-10,82,"-5,-2,-175",1,0,6,0,0,0,62,65,81,50,100,-4.99,41,25.0,-8.0,-997.0,13:58:49.328448,192.168.0.111
2067,3,-3,-10,82,"-5,-2,-175",1,0,6,0,0,0,62,65,80,50,100,-4.98,41,34.0,-8.0,-990.0,13:58:49.431018,192.168.0.111
2072,3,-3,-9,82,"-5,-2,-175",1,0,6,0,0,0,62,65,80,50,100,-4.95,41,21.0,-1.0,-993.0,13:58:49.532615,192.168.0.111
2077,3,-3,-9,82,"-5,-2,-175",1,0,5,0,0,0,62,65,80,50,100,-4.97,41,24.0,-10.0,-1000.0,13:58:49.634189,192.168.0.111
2082,3,-3,-9,82,"-5,-2,-175",1,0,5,0,0,0,62,65,80,50,100,-4.92,41,28.0,-6.0,-996.0,13:58:49.736700,192.168.0.111
2088,3,-3,-9,82,"-5,-2,-175",1,0,5,0,0,0,62,65,80,50,100,-5.02,41,19.0,-1.0,-1002.0,13:58:49.840915,192.168.0.111
2093,3,-4,-6,82,"-5,-2,-177",1,0,5,0,0,0,63,65,80,50,100,-4.95,41,27.0,-10.0,-996.0,13:58:49.940503,192.168.0.111
2098,3,-4,-6,82,"-5,-2,-177",1,0,5,0,0,0,63,65,80,50,100,-5.03,41,22.0,-1.0,-1012.0,13:58:50.042461,192.168.0.111
2103,3,-4,-6,82,"-5,-2,-177",1,0,5,0,0,0,63,65,80,50,100,-4.97,41,30.0,-4.0,-1016.0,13:58:50.144500,192.168.0.111
2108,3,-1,-6,82,"-3,-2,-177",1,0,5,0,0,0,63,65,80,50,100,-5.05,42,15.0,7.0,-993.0,13:58:50.246159,192.168.0.111
2113,3,-1,-6,82,"-3,-2,-177",1,0,5,0,0,0,63,65,79,50,100,-4.99,42,33.0,-7.0,-993.0,13:58:50.351250,192.168.0.111
2115,3,-1,-6,82,"-3,-2,-177",1,0,5,0,0,0,63,65,79,50,100,-5.02,42,23.0,3.0,-1010.0,13:58:50.400535,192.168.0.111
2120,3,-1,-6,82,"-3,-2,-177",1,0,6,0,0,0,63,65,80,50,100,-4.95,42,19.0,1.0,-1008.0,13:58:50.501528,192.168.0.111
2125,3,-2,-5,82,"-3,-2,-177",1,0,6,0,0,0,63,65,79,50,100,-5.04,42,23.0,-9.0,-1004.0,13:58:50.603472,192.168.0.111
2130,3,-2,-5,82,"-3,-2,-177",1,0,6,0,0,0,63,65,80,50,100,-5.04,42,27.0,-11.0,-996.0,13:58:50.705574,192.168.0.111
2136,3,-2,-5,82,"-3,-2,-177",1,0,6,0,0,0,63,65,79,50,100,-4.98,42,32.0,-11.0,-997.0,13:58:50.807471,192.168.0.111
2141,3,-2,-5,82,"-3,-2,-177",1,0,6,0,0,0,63,65,79,50,100,-4.99,42,30.0,-15.0,-992.0,13:58:50.909468,192.168.0.111
2146,3,-6,-7,81,"-6,-2,-176",1,0,6,0,0,0,63,65,80,50,100,-5.04,42,31.0,1.0,-1012.0,13:58:51.011339,192.168.0.111
2151,3,-6,-7,81,"-6,-2,-176",1,0,6,0,0,0,63,65,79,50,100,-4.96,42,31.0,-2.0,-998.0,13:58:51.113522,192.168.0.111
2156,3,-6,-7,81,"-6,-2,-176",1,0,6,0,0,0,63,65,79,50,100,-5.01,43,28.0,-11.0,-1003.0,13:58:51.215721,192.168.0.111
2161,3,-6,-7,81,"-6,-2,-176",1,0,6,0,0,0,63,65,80,50,100,-5.03,43,25.0,-1.0,-996.0,13:58:51.317583,192.168.0.111
2166,3,-1,-6,82,"-4,-2,-177",1,0,6,0,0,0,63,65,80,50,100,-5.04,43,27.0,-4.0,-1002.0,13:58:51.419514,192.168.0.111
2171,3,-1,-6,82,"-4,-2,-177",1,0,6,0,0,0,63,65,80,50,100,-5.04,43,27.0,-3.0,-996.0,13:58:51.525300,192.168.0.111
2176,3,-1,-6,82,"-4,-2,-177",1,0,6,0,0,0,63,65,80,50,100,-5.05,43,29.0,-1.0,-997.0,13:58:51.623449,192.168.0.111
2181,3,-5,-7,82,"-6,-2,-177",1,0,6,0,0,0,63,65,80,50,100,-5.02,43,22.0,0.0,-994.0,13:58:51.725396,192.168.0.111
2186,3,-5,-7,82,"-6,-2,-177",1,0,6,0,0,0,63,65,80,50,100,-5.14,43,23.0,-2.0,-1004.0,13:58:51.828635,192.168.0.111
2191,3,-5,-7,82,"-6,-2,-177",1,0,6,0,0,0,63,65,80,50,100,-5.08,43,29.0,-11.0,-995.0,13:58:51.928885,192.168.0.111
2196,3,-5,-7,82,"-6,-2,-177",1,0,6,0,0,0,63,65,79,50,100,-5.01,43,17.0,-6.0,-999.0,13:58:52.031387,192.168.0.111
2201,3,-3,-9,82,"-5,-2,-175",1,0,6,0,0,0,63,65,80,50,100,-5.06,43,26.0,-8.0,-998.0,13:58:52.134048,192.168.0.111
2207,3,-3,-9,82,"-5,-2,-175",1,0,6,0,0,0,63,65,80,50,100,-5.08,44,27.0,0.0,-994.0,13:58:52.235117,192.168.0.111
2212,3,-3,-9,82,"-5,-2,-175",1,0,6,0,0,0,63,65,80,50,100,-5.04,44,25.0,-10.0,-1003.0,13:58:52.337342,192.168.0.111
2217,3,-3,-9,82,"-5,-2,-175",1,0,6,0,0,0,63,65,80,50,100,-5.01,44,14.0,-4.0,-996.0,13:58:52.439299,192.168.0.111
2222,3,-7,-11,81,"-8,-2,-173",1,0,6,0,0,0,63,65,80,50,100,-5.07,44,15.0,2.0,-994.0,13:58:52.542673,192.168.0.111
2227,3,-7,-11,81,"-8,-2,-173",0,0,6,0,0,0,63,65,79,50,100,-5.07,44,18.0,-7.0,-996.0,13:58:52.643397,192.168.0.111
2232,3,-7,-11,81,"-8,-2,-173",0,0,6,0,0,0,63,65,80,50,100,-5.08,44,19.0,-7.0,-998.0,13:58:52.745264,192.168.0.111
2237,3,-7,-11,81,"-8,-2,-173",0,0,6,0,0,0,63,65,80,50,100,-5.14,44,19.0,-11.0,-1000.0,13:58:52.847794,192.168.0.111
2242,3,-1,-5,82,"-3,-2,-177",0,0,5,0,0,0,63,65,80,50,100,-5.11,44,2.0,-7.0,-1003.0,13:58:52.949421,192.168.0.111
2248,3,-1,-5,82,"-3,-2,-177",0,0,5,0,0,0,63,65,80,50,100,-5.13,44,15.0,-14.0,-1006.0,13:58:53.052903,192.168.0.111
2252,3,-1,-5,82,"-3,-2,-177",0,0,5,0,0,0,63,65,80,50,100,-5.04,44,15.0,-13.0,-989.0,13:58:53.158690,192.168.0.111
2258,3,-2,-5,82,"-2,-2,-177",0,0,5,0,0,0,63,65,80,50,100,-5.13,45,18.0,-20.0,-996.0,13:58:53.255812,192.168.0.111
2263,3,-2,-5,82,"-2,-2,-177",0,1,5,0,0,0,63,65,80,50,100,-5.17,45,21.0,-16.0,-991.0,13:58:53.357384,192.168.0.111
2265,3,-2,-5,82,"-2,-2,-177",0,1,6,0,0,0,63,65,80,50,100,-5.21,45,14.0,-12.0,-1002.0,13:58:53.408169,192.168.0.111
2270,3,-2,-5,82,"-2,-2,-177",0,1,6,0,0,0,63,65,80,50,100,-5.12,45,17.0,-2.0,-1000.0,13:58:53.510214,192.168.0.111
2275,3,-1,-4,82,"-2,-2,-177",1,0,6,0,0,0,63,65,80,50,100,-5.17,45,16.0,-9.0,-1002.0,13:58:53.611869,192.168.0.111
2280,3,-1,-4,82,"-2,-2,-177",0,0,6,0,0,0,63,65,80,50,100,-5.27,45,5.0,-1.0,-996.0,13:58:53.714268,192.168.0.111
2285,3,-1,-4,82,"-2,-2,-177",0,0,6,0,0,0,63,65,80,50,100,-5.13,45,17.0,-6.0,-997.0,13:58:53.823355,192.168.0.111
2290,3,-1,-4,82,"-2,-2,-177",0,0,6,0,0,0,62,66,80,50,100,-5.14,45,12.0,-8.0,-994.0,13:58:53.918439,192.168.0.111
2295,3,-1,-4,82,"-2,-2,-177",0,0,6,0,0,0,62,66,80,50,100,-5.17,45,10.0,-1.0,-990.0,13:58:54.020265,192.168.0.111
2300,3,-1,-4,82,"-2,-2,-177",0,0,6,0,0,0,62,66,80,50,100,-5.08,45,8.0,-4.0,-997.0,13:58:54.122176,192.168.0.111
2306,3,-1,-4,82,"-2,-2,-177",0,0,6,0,0,0,62,66,80,50,100,-5.16,46,13.0,-9.0,-1006.0,13:58:54.224436,192.168.0.111
2311,3,-1,-3,82,"-1,-2,-178",0,0,6,0,0,0,62,66,80,50,100,-5.18,46,4.0,4.0,-1007.0,13:58:54.326355,192.168.0.111
2316,3,-1,-3,82,"-1,-2,-178",0,0,6,0,0,0,62,66,80,50,100,-5.12,46,12.0,-9.0,-993.0,13:58:54.429305,192.168.0.111
2321,3,-1,-3,82,"-1,-2,-178",0,0,5,0,0,0,62,66,80,50,100,-5.13,46,17.0,-9.0,-1006.0,13:58:54.530464,192.168.0.111
2326,3,-1,-3,82,"-1,-2,-178",1,0,5,0,0,0,62,66,80,50,100,-5.13,46,20.0,-10.0,-991.0,13:58:54.632310,192.168.0.111
2331,3,-5,-6,82,"-4,-2,-176",1,0,5,0,0,0,62,66,80,50,100,-5.14,46,15.0,-9.0,-1009.0,13:58:54.734133,192.168.0.111
2336,3,-5,-6,82,"-4,-2,-176",1,0,6,0,0,0,62,66,81,50,100,-5.17,46,29.0,-16.0,-991.0,13:58:54.836229,192.168.0.111
2341,3,-5,-6,82,"-4,-2,-176",1,0,6,0,0,0,62,65,81,50,100,-5.18,46,17.0,-2.0,-993.0,13:58:54.938244,192.168.0.111
2346,3,-5,-6,82,"-4,-2,-176",0,0,6,0,0,0,62,65,80,50,100,-5.15,46,10.0,-2.0,-994.0,13:58:55.040027,192.168.0.111
2351,3,-4,-6,82,"-4,-2,-175",0,0,5,0,0,0,62,65,80,50,100,-5.14,46,11.0,-3.0,-996.0,13:58:55.142195,192.168.0.111
2357,3,-4,-6,82,"-4,-2,-175",0,0,5,0,0,0,62,65,80,50,100,-5.09,47,9.0,-7.0,-1003.0,13:58:55.244214,192.168.0.111
2362,3,-4,-6,82,"-4,-2,-175",0,0,5,0,0,0,62,65,80,50,100,-5.09,47,8.0,-7.0,-997.0,13:58:55.346218,192.168.0.111
2367,3,-4,-6,82,"-4,-2,-175",0,0,5,0,0,0,62,65,80,50,100,-5.06,47,6.0,-13.0,-996.0,13:58:55.448093,192.168.0.111
2372,3,-1,-3,83,"-2,-2,-178",0,0,5,0,0,0,62,65,80,50,100,-5.04,47,14.0,-1.0,-1006.0,13:58:55.550282,192.168.0.111
2377,3,-1,-3,83,"-2,-2,-178",0,0,5,0,0,0,62,65,79,50,100,-5.11,47,11.0,-6.0,-998.0,13:58:55.652418,192.168.0.111
2382,3,-1,-3,83,"-2,-2,-178",0,0,5,0,0,0,62,65,80,50,100,-5.21,47,9.0,-2.0,-1005.0,13:58:55.753937,192.168.0.111
2387,3,-1,-4,83,"-1,-1,-178",0,0,5,0,0,0,62,65,80,50,100,-5.06,47,12.0,-4.0,-998.0,13:58:55.856306,192.168.0.111
2392,3,-1,-4,83,"-1,-1,-178",0,0,5,0,0,0,63,65,80,50,100,-5.08,47,8.0,-4.0,-1009.0,13:58:55.958493,192.168.0.111
2397,3,-1,-4,83,"-1,-1,-178",0,0,5,0,0,0,63,65,80,50,100,-5.0,47,22.0,-16.0,-987.0,13:58:56.060240,192.168.0.111
2402,3,-1,-4,83,"-1,-1,-178",0,0,5,0,0,0,63,65,80,50,100,-5.0,47,19.0,-19.0,-985.0,13:58:56.162296,192.168.0.111
2407,3,-1,-3,83,"-1,-1,-179",0,0,5,0,0,0,63,65,80,50,100,-5.04,48,16.0,-19.0,-998.0,13:58:56.264270,192.168.0.111
2412,3,-1,-3,83,"-1,-1,-179",0,0,5,0,0,0,63,65,80,50,100,-5.06,48,20.0,-20.0,-999.0,13:58:56.366370,192.168.0.111
2417,3,-1,-3,83,"-1,-1,-179",0,1,5,0,0,0,63,65,80,50,100,-5.01,48,23.0,-18.0,-996.0,13:58:56.468474,192.168.0.111
2423,3,-1,-3,83,"-1,-1,-179",0,1,5,0,0,0,63,65,79,50,100,-5.02,48,14.0,-15.0,-1012.0,13:58:56.570300,192.168.0.111
2428,3,-1,-4,82,"-1,-1,-177",1,1,5,0,0,0,63,65,79,50,100,-5.01,48,19.0,-29.0,-1003.0,13:58:56.672393,192.168.0.111
2433,3,-1,-4,82,"-1,-1,-177",1,1,5,0,0,0,63,65,79,50,100,-5.08,48,9.0,-15.0,-1004.0,13:58:56.776108,192.168.0.111
2438,3,-1,-4,82,"-1,-1,-177",1,1,5,0,0,0,63,65,78,50,100,-5.09,48,27.0,-31.0,-1001.0,13:58:56.876156,192.168.0.111
2443,3,-1,-4,82,"-1,-1,-177",1,1,5,0,0,0,62,67,78,50,100,-5.03,48,18.0,-23.0,-1004.0,13:58:56.978251,192.168.0.111
2445,3,-3,-4,82,"-3,-1,-176",1,1,5,0,0,0,62,67,79,50,100,-5.1,48,18.0,-20.0,-1005.0,13:58:57.029137,192.168.0.111
2450,3,-3,-4,82,"-3,-1,-176",1,1,5,0,0,0,62,67,79,50,100,-5.07,48,24.0,-26.0,-995.0,13:58:57.131191,192.168.0.111
2455,3,-3,-4,82,"-3,-1,-176",1,1,5,0,0,0,62,67,79,50,100,-5.05,49,16.0,-22.0,-1002.0,13:58:57.233328,192.168.0.111
2461,3,-2,-5,82,"-3,-1,-175",1,1,5,0,0,0,62,67,79,50,100,-5.06,49,26.0,-20.0,-992.0,13:58:57.335807,192.168.0.111
2465,3,-2,-5,82,"-3,-1,-175",1,1,5,0,0,0,62,67,80,50,100,-5.16,49,24.0,-20.0,-991.0,13:58:57.437442,192.168.0.111
2470,3,-2,-5,82,"-3,-1,-175",1,1,6,0,0,0,62,67,79,50,100,-5.05,49,33.0,-22.0,-994.0,13:58:57.541981,192.168.0.111
2475,3,-2,-5,82,"-3,-1,-175",1,1,6,0,0,0,62,67,79,50,100,-5.08,49,33.0,-19.0,-1002.0,13:58:57.641786,192.168.0.111
2481,3,0,-6,82,"-3,-2,-174",1,0,6,0,0,0,62,67,79,50,100,-5.11,49,37.0,-26.0,-998.0,13:58:57.743013,192.168.0.111
2486,3,0,-6,82,"-3,-2,-174",1,0,6,0,0,0,62,67,79,50,100,-5.13,49,24.0,-12.0,-999.0,13:58:57.845316,192.168.0.111
2491,3,0,-6,82,"-3,-2,-174",1,0,6,0,0,0,63,67,79,50,100,-5.15,49,29.0,-13.0,-995.0,13:58:57.946911,192.168.0.111
2496,3,0,-6,82,"-3,-2,-174",2,0,6,0,0,0,63,67,79,50,100,-5.06,49,33.0,-20.0,-1005.0,13:58:58.049162,192.168.0.111
2501,3,-1,-9,82,"-5,-2,-173",2,1,6,0,0,0,63,67,79,50,100,-5.1,49,20.0,-12.0,-999.0,13:58:58.150890,192.168.0.111
2506,3,-1,-9,82,"-5,-2,-173",1,1,6,0,0,0,63,67,79,50,100,-5.1,50,24.0,-20.0,-993.0,13:58:58.253502,192.168.0.111
2511,3,-1,-9,82,"-5,-2,-173",1,1,6,0,0,0,63,67,78,50,100,-5.13,50,27.0,-27.0,-1001.0,13:58:58.355244,192.168.0.111
2516,3,0,-6,82,"-4,-2,-175",1,1,5,0,0,0,63,67,79,50,100,-5.16,50,28.0,-27.0,-998.0,13:58:58.457143,192.168.0.111
2521,3,0,-6,82,"-4,-2,-175",1,1,5,0,0,0,63,67,79,50,100,-4.98,50,25.0,-14.0,-995.0,13:58:58.558761,192.168.0.111
2526,3,0,-6,82,"-4,-2,-175",1,1,5,0,0,0,63,67,79,50,100,-5.1,50,29.0,-26.0,-982.0,13:58:58.661216,192.168.0.111
2531,3,0,-6,82,"-4,-2,-175",1,1,5,0,0,0,63,67,79,50,100,-5.12,50,27.0,-31.0,-996.0,13:58:58.763367,192.168.0.111
2536,3,0,-6,82,"-5,-2,-175",1,1,5,0,0,0,63,67,79,50,100,-5.06,50,12.0,-13.0,-1002.0,13:58:58.865199,192.168.0.111
2541,3,0,-6,82,"-5,-2,-175",1,1,5,0,0,0,63,66,79,50,100,-5.08,50,14.0,-9.0,-1005.0,13:58:58.967203,192.168.0.111
2547,3,0,-6,82,"-5,-2,-175",1,1,5,0,0,0,63,66,79,50,100,-5.07,50,16.0,-20.0,-1019.0,13:58:59.068728,192.168.0.111
2552,3,0,-6,82,"-5,-2,-175",1,1,6,0,0,0,63,66,79,50,100,-5.12,50,14.0,-16.0,-1024.0,13:58:59.171165,192.168.0.111
2557,3,0,-6,82,"-5,-2,-174",1,0,6,0,0,0,63,66,80,50,100,-5.1,51,27.0,-20.0,-1008.0,13:58:59.273157,192.168.0.111
2562,3,0,-6,82,"-5,-2,-174",0,1,6,0,0,0,63,66,79,50,100,-5.07,51,23.0,-13.0,-1001.0,13:58:59.374907,192.168.0.111
2567,3,0,-6,82,"-5,-2,-174",1,1,6,0,0,0,63,66,79,50,100,-5.03,51,20.0,-19.0,-995.0,13:58:59.477316,192.168.0.111
2572,3,0,-6,82,"-5,-2,-174",1,1,6,0,0,0,63,66,80,50,100,-5.07,51,20.0,-22.0,-1009.0,13:58:59.579990,192.168.0.111
2577,3,0,-3,82,"-4,-2,-177",1,1,6,0,0,0,63,66,79,50,100,-5.09,51,19.0,-18.0,-993.0,13:58:59.681096,192.168.0.111
2582,3,0,-3,82,"-4,-2,-177",1,1,6,0,0,0,63,66,80,50,100,-5.06,51,22.0,-20.0,-990.0,13:58:59.783056,192.168.0.111
2587,3,0,-3,82,"-4,-2,-177",1,1,6,0,0,0,63,66,79,50,100,-5.1,51,29.0,-22.0,-1003.0,13:58:59.884840,192.168.0.111
2593,3,-1,-6,82,"-4,-2,-175",1,1,6,0,0,0,62,65,79,50,100,-5.07,51,23.0,-14.0,-1000.0,13:58:59.987014,192.168.0.111
2598,3,-1,-6,82,"-4,-2,-175",1,1,6,0,0,0,62,65,79,50,100,-5.13,51,24.0,-28.0,-1007.0,13:59:00.088934,192.168.0.111
2603,3,-1,-6,82,"-4,-2,-175",1,1,6,0,0,0,62,65,79,50,100,-5.07,51,28.0,-25.0,-1001.0,13:59:00.190813,192.168.0.111
2608,3,-1,-6,82,"-4,-2,-175",1,1,6,0,0,0,62,65,79,50,100,-5.1,52,23.0,-18.0,-1007.0,13:59:00.292928,192.168.0.111
2610,3,-1,-7,83,"-3,-2,-174",1,1,5,0,0,0,62,65,80,50,100,-5.14,52,30.0,-25.0,-1000.0,13:59:00.344235,192.168.0.111
2615,3,-1,-7,83,"-3,-2,-174",1,1,6,0,0,0,62,65,79,50,100,-5.05,52,25.0,-14.0,-1004.0,13:59:00.446183,192.168.0.111
2620,3,-1,-7,83,"-3,-2,-174",1,1,6,0,0,0,62,65,79,50,100,-5.11,52,18.0,-13.0,-1010.0,13:59:00.548205,192.168.0.111
2625,3,-1,-7,83,"-3,-2,-174",1,1,6,0,0,0,62,65,79,50,100,-5.18,52,12.0,-29.0,-1002.0,13:59:00.650122,192.168.0.111
2630,3,-3,-8,82,"-6,-2,-173",1,1,6,0,0,0,62,65,79,50,100,-5.09,52,21.0,-21.0,-996.0,13:59:00.752187,192.168.0.111
2635,3,-3,-8,82,"-6,-2,-173",1,1,6,0,0,0,62,65,79,50,100,-5.17,52,22.0,-27.0,-1000.0,13:59:00.854213,192.168.0.111
2641,3,-3,-8,82,"-6,-2,-173",0,1,6,0,0,0,63,66,79,50,100,-5.1,52,24.0,-23.0,-984.0,13:59:00.956171,192.168.0.111
2646,3,-1,-6,82,"-4,-2,-175",0,1,6,0,0,0,63,66,79,50,100,-5.06,52,18.0,-13.0,-1005.0,13:59:01.057995,192.168.0.111
