,mid,x,y,z,mpry,pitch,roll,yaw,vgx,vgy,vgz,templ,temph,tof,h,bat,baro,time,agx,agy,agz,timestamp,address
0,-1,-100,-100,-100,"0,0,0",0,0,0,0,0,0,62,65,10,0,100,-6.49,0,0.0,-4.0,-1001.0,13:58:07.972633,192.168.0.113
5,-1,-100,-100,-100,"0,0,0",0,0,0,0,0,0,62,65,10,0,100,-6.52,0,0.0,-3.0,-1000.0,13:58:08.074558,192.168.0.113
10,-1,-100,-100,-100,"0,0,0",0,0,0,0,0,0,62,65,10,0,100,-6.52,0,0.0,0.0,-999.0,13:58:08.176722,192.168.0.113
15,-1,-100,-100,-100,"0,0,0",0,0,0,0,0,0,62,65,10,0,100,-6.52,0,1.0,-4.0,-999.0,13:58:08.281317,192.168.0.113
21,-1,-100,-100,-100,"0,0,0",0,0,0,0,0,0,62,65,10,0,100,-6.52,0,5.0,5.0,-996.0,13:58:08.380985,192.168.0.113
27,-1,-100,-100,-100,"0,0,0",0,0,0,0,0,0,62,65,10,0,100,-6.52,0,-25.0,12.0,-996.0,13:58:08.482874,192.168.0.113
32,-1,-100,-100,-100,"0,0,0",0,0,0,0,0,0,62,65,10,0,100,-6.52,0,49.0,-38.0,-1071.0,13:58:08.584206,192.168.0.113
38,-1,-100,-100,-100,"0,0,0",0,0,0,0,0,1,62,65,10,0,100,-6.52,0,-22.0,19.0,-1034.0,13:58:08.686676,192.168.0.113
43,-1,-100,-100,-100,"0,0,0",0,0,0,0,0,4,62,65,10,0,100,-6.52,0,11.0,9.0,-1137.0,13:58:08.788929,192.168.0.113
48,-1,-100,-100,-100,"0,0,0",0,0,0,0,0,7,62,65,12,0,100,-6.46,0,-6.0,11.0,-1107.0,13:58:08.890471,192.168.0.113
53,-1,-100,-100,-100,"0,0,0",1,0,0,0,0,8,62,65,21,10,100,-6.18,0,3.0,35.0,-1016.0,13:58:08.992731,192.168.0.113
58,-1,-100,-100,-100,"0,0,0",1,0,0,0,0,8,62,65,29,20,100,-5.95,0,5.0,23.0,-940.0,13:58:09.094606,192.168.0.113
63,-1,-100,-100,-100,"0,0,0",1,-1,0,0,0,7,62,65,36,20,100,-5.89,1,2.0,39.0,-863.0,13:58:09.196651,192.168.0.113
68,-1,-100,-100,-100,"0,0,0",0,-1,0,0,0,6,62,65,44,30,100,-5.76,1,16.0,50.0,-886.0,13:58:09.298779,192.168.0.113
73,-1,-100,-100,-100,"0,0,0",0,-2,0,0,0,5,62,65,50,40,100,-5.88,1,2.0,44.0,-915.0,13:58:09.400601,192.168.0.113
78,-1,-100,-100,-100,"0,0,0",0,-2,0,0,-1,4,62,65,56,40,100,-5.71,1,-10.0,40.0,-871.0,13:58:09.503120,192.168.0.113
83,-1,-100,-100,-100,"0,0,0",0,-3,-1,0,-1,3,62,65,60,40,100,-5.72,1,5.0,20.0,-919.0,13:58:09.604485,192.168.0.113
88,-1,-100,-100,-100,"0,0,0",0,-3,-1,0,0,2,62,65,64,50,100,-5.63,1,0.0,61.0,-969.0,13:58:09.706702,192.168.0.113
93,-1,-100,-100,-100,"0,0,0",0,-4,0,0,0,1,62,65,67,50,100,-5.62,1,-16.0,30.0,-955.0,13:58:09.808901,192.168.0.113
98,-1,-100,-100,-100,"0,0,0",0,-4,0,0,0,1,62,65,69,50,100,-5.58,1,21.0,23.0,-986.0,13:58:09.910779,192.168.0.113
104,-1,-100,-100,-100,"0,0,0",0,-2,0,0,0,1,63,66,71,50,100,-5.63,1,34.0,35.0,-987.0,13:58:10.012848,192.168.0.113
109,-1,-100,-100,-100,"0,0,0",1,-3,0,0,0,1,63,66,74,50,100,-5.54,1,-14.0,50.0,-1048.0,13:58:10.114816,192.168.0.113
114,-1,-100,-100,-100,"0,0,0",0,-2,0,0,0,1,63,66,76,60,100,-5.54,2,-4.0,21.0,-1066.0,13:58:10.216608,192.168.0.113
115,-1,-100,-100,-100,"0,0,0",0,-2,0,0,0,1,63,66,78,60,100,-5.56,2,-5.0,22.0,-979.0,13:58:10.267816,192.168.0.113
120,-1,-100,-100,-100,"0,0,0",0,-2,0,0,0,1,63,66,80,60,100,-5.35,2,39.0,16.0,-970.0,13:58:10.371022,192.168.0.113
125,-1,-100,-100,-100,"0,0,0",0,-1,0,0,0,0,63,66,82,60,100,-5.49,2,11.0,71.0,-932.0,13:58:10.471650,192.168.0.113
130,-1,-100,-100,-100,"0,0,0",0,-2,0,0,0,0,63,66,83,60,100,-5.47,2,-7.0,52.0,-987.0,13:58:10.573752,192.168.0.113
135,-1,-100,-100,-100,"0,0,0",1,-3,0,0,0,0,63,66,84,60,100,-5.53,2,24.0,24.0,-976.0,13:58:10.677663,192.168.0.113
140,-1,-100,-100,-100,"0,0,0",1,-2,0,0,0,0,63,66,85,60,100,-5.47,2,21.0,43.0,-1014.0,13:58:10.777902,192.168.0.113
145,-1,-100,-100,-100,"0,0,0",1,-2,0,0,0,0,63,66,86,70,100,-5.5,2,16.0,26.0,-978.0,13:58:10.879834,192.168.0.113
152,-1,-100,-100,-100,"0,0,0",1,-3,0,0,0,0,63,65,86,70,100,-5.44,2,28.0,34.0,-965.0,13:58:10.982267,192.168.0.113
157,-1,-100,-100,-100,"0,0,0",1,-2,0,0,0,0,63,65,87,70,100,-5.42,2,14.0,16.0,-994.0,13:58:11.083827,192.168.0.113
162,-1,-100,-100,-100,"0,0,0",1,-2,0,0,0,0,63,65,87,70,100,-5.42,3,9.0,28.0,-971.0,13:58:11.185580,192.168.0.113
168,-1,-100,-100,-100,"0,0,0",1,-2,0,0,0,0,63,65,87,70,100,-5.42,3,16.0,22.0,-991.0,13:58:11.287571,192.168.0.113
173,-1,-100,-100,-100,"0,0,0",1,-1,0,0,0,0,63,65,87,70,100,-5.52,3,22.0,27.0,-961.0,13:58:11.390355,192.168.0.113
178,-1,-100,-100,-100,"0,0,0",1,-1,0,0,0,0,63,65,87,70,100,-5.48,3,5.0,3.0,-982.0,13:58:11.491856,192.168.0.113
183,-1,-100,-100,-100,"0,0,0",1,-1,0,0,0,0,63,65,86,70,100,-5.47,3,30.0,8.0,-1012.0,13:58:11.594052,192.168.0.113
188,-1,-100,-100,-100,"0,0,0",1,-1,0,0,0,0,63,65,86,70,100,-5.46,3,49.0,1.0,-987.0,13:58:11.695835,192.168.0.113
193,-1,-100,-100,-100,"0,0,0",1,-1,0,0,0,0,63,65,86,70,100,-5.52,3,39.0,25.0,-987.0,13:58:11.905663,192.168.0.113
198,-1,-100,-100,-100,"0,0,0",1,-1,0,0,0,0,63,65,85,70,100,-5.59,3,27.0,29.0,-1007.0,13:58:11.906627,192.168.0.113
203,-1,-100,-100,-100,"0,0,0",2,-1,0,0,0,0,63,66,85,70,100,-5.56,3,15.0,22.0,-1002.0,13:58:12.124331,192.168.0.113
208,-1,-100,-100,-100,"0,0,0",2,-1,0,0,0,0,63,66,84,70,100,-5.52,3,14.0,0.0,-1027.0,13:58:12.125233,192.168.0.113
213,-1,-100,-100,-100,"0,0,0",1,-1,0,0,0,0,63,66,83,70,100,-5.55,4,6.0,9.0,-1004.0,13:58:12.330676,192.168.0.113
218,-1,-100,-100,-100,"0,0,0",1,-1,0,0,0,0,63,66,83,70,100,-5.61,4,-6.0,11.0,-995.0,13:58:12.331694,192.168.0.113
223,-1,-100,-100,-100,"0,0,0",1,-1,0,0,0,0,63,66,83,70,100,-5.54,4,1.0,25.0,-988.0,13:58:12.409763,192.168.0.113
229,-1,-100,-100,-100,"0,0,0",1,-1,0,0,0,0,63,66,82,70,100,-5.38,4,8.0,15.0,-996.0,13:58:12.511783,192.168.0.113
234,-1,-100,-100,-100,"0,0,0",0,-1,0,0,0,0,63,66,83,70,100,-5.38,4,27.0,17.0,-1021.0,13:58:12.738843,192.168.0.113
239,-1,-100,-100,-100,"0,0,0",0,-1,0,0,0,0,63,66,82,70,100,-5.56,4,51.0,36.0,-962.0,13:58:12.739786,192.168.0.113
240,-1,-100,-100,-100,"0,0,0",0,0,0,0,0,0,63,66,82,70,100,-5.49,4,9.0,11.0,-1011.0,13:58:12.766836,192.168.0.113
245,-1,-100,-100,-100,"0,0,0",1,-1,0,0,0,0,63,66,82,70,100,-5.52,4,30.0,6.0,-1009.0,13:58:12.943439,192.168.0.113
250,-1,-100,-100,-100,"0,0,0",1,-1,0,0,0,0,63,66,82,70,100,-5.59,4,23.0,10.0,-1011.0,13:58:12.972041,192.168.0.113
255,-1,-100,-100,-100,"0,0,0",1,-1,0,0,0,0,63,66,82,60,100,-5.62,4,17.0,15.0,-1001.0,13:58:13.150149,192.168.0.113
260,-1,-100,-100,-100,"0,0,0",1,0,0,0,0,0,63,66,82,60,100,-5.66,5,14.0,35.0,-997.0,13:58:13.174716,192.168.0.113
265,-1,-100,-100,-100,"0,0,0",1,-1,0,0,0,0,63,66,82,60,100,-5.63,5,1.0,15.0,-987.0,13:58:13.356335,192.168.0.113
270,-1,-100,-100,-100,"0,0,0",1,-1,0,0,0,0,63,66,82,60,100,-5.63,5,38.0,8.0,-993.0,13:58:13.378659,192.168.0.113
276,-1,-100,-100,-100,"0,0,0",0,-2,0,0,0,0,63,66,82,60,100,-5.61,5,2.0,34.0,-1008.0,13:58:13.561374,192.168.0.113
281,-1,-100,-100,-100,"0,0,0",1,-1,0,0,0,0,63,66,82,60,100,-5.54,5,2.0,47.0,-983.0,13:58:13.582266,192.168.0.113
287,-1,-100,-100,-100,"0,0,0",2,-1,0,0,0,0,63,66,83,60,100,-5.58,5,23.0,20.0,-988.0,13:58:13.768726,192.168.0.113
293,-1,-100,-100,-100,"0,0,0",2,-1,0,0,0,0,63,66,83,60,100,-5.54,5,30.0,27.0,-986.0,13:58:13.786683,192.168.0.113
298,-1,-100,-100,-100,"0,0,0",1,-2,0,0,0,0,63,66,83,60,100,-5.53,5,54.0,8.0,-986.0,13:58:13.974845,192.168.0.113
303,-1,-100,-100,-100,"0,0,0",1,-2,0,0,0,0,63,66,82,60,100,-5.59,5,27.0,23.0,-1034.0,13:58:13.990670,192.168.0.113
308,-1,-100,-100,-100,"0,0,0",2,-1,0,0,0,0,63,66,82,60,100,-5.7,5,18.0,11.0,-1036.0,13:58:14.091993,192.168.0.113
313,-1,-100,-100,-100,"0,0,0",2,-2,0,0,0,0,63,66,83,60,100,-5.69,6,1.0,33.0,-999.0,13:58:14.196196,192.168.0.113
318,-1,-100,-100,-100,"0,0,0",1,-1,0,0,0,0,63,66,83,60,100,-5.64,6,-10.0,41.0,-980.0,13:58:14.296563,192.168.0.113
323,-1,-100,-100,-100,"0,0,0",1,-1,0,0,0,0,63,66,84,60,100,-5.6,6,43.0,5.0,-961.0,13:58:14.398935,192.168.0.113
328,-1,-100,-100,-100,"0,0,0",1,-1,0,0,0,0,63,66,83,70,100,-5.68,6,14.0,33.0,-1010.0,13:58:14.500541,192.168.0.113
333,-1,-100,-100,-100,"0,0,0",1,-2,0,0,0,0,63,66,84,70,100,-5.62,6,-3.0,51.0,-1009.0,13:58:14.602442,192.168.0.113
338,-1,-100,-100,-100,"0,0,0",1,-2,0,0,0,0,63,66,84,70,100,-5.62,6,7.0,23.0,-990.0,13:58:14.704452,192.168.0.113
343,-1,-100,-100,-100,"0,0,0",1,-2,0,0,0,0,63,66,85,70,100,-5.49,6,13.0,40.0,-979.0,13:58:14.806755,192.168.0.113
348,-1,-100,-100,-100,"0,0,0",0,-2,0,0,0,0,63,66,85,70,100,-5.4,6,7.0,37.0,-1003.0,13:58:14.908440,192.168.0.113
353,-1,-100,-100,-100,"0,0,0",1,-2,0,0,0,0,63,66,85,70,100,-5.57,6,43.0,22.0,-981.0,13:58:15.010999,192.168.0.113
359,-1,-100,-100,-100,"0,0,0",1,-2,0,0,0,0,63,66,85,70,100,-5.59,6,32.0,37.0,-968.0,13:58:15.113275,192.168.0.113
364,-1,-100,-100,-100,"0,0,0",1,-3,0,0,0,0,63,66,85,70,100,-5.63,7,45.0,34.0,-1007.0,13:58:15.214622,192.168.0.113
369,-1,-100,-100,-100,"0,0,0",2,-2,0,0,0,0,63,66,84,70,100,-5.6,7,43.0,22.0,-972.0,13:58:15.316394,192.168.0.113
370,-1,-100,-100,-100,"0,0,0",2,-2,0,0,0,0,63,66,84,70,100,-5.67,7,15.0,42.0,-1013.0,13:58:15.367641,192.168.0.113
375,-1,-100,-100,-100,"0,0,0",3,-1,0,0,0,0,63,66,85,70,100,-5.61,7,46.0,26.0,-959.0,13:58:15.470531,192.168.0.113
380,-1,-100,-100,-100,"0,0,0",2,-2,0,0,0,0,63,66,85,70,100,-5.65,7,29.0,14.0,-982.0,13:58:15.571497,192.168.0.113
385,-1,-100,-100,-100,"0,0,0",2,-2,0,0,0,0,63,66,84,70,100,-5.6,7,46.0,9.0,-1018.0,13:58:15.673712,192.168.0.113
390,-1,-100,-100,-100,"0,0,0",2,-3,0,0,0,0,63,66,84,70,100,-5.65,7,50.0,-1.0,-992.0,13:58:15.775718,192.168.0.113
395,-1,-100,-100,-100,"0,0,0",2,-1,0,0,0,0,63,66,84,70,100,-5.68,7,22.0,11.0,-998.0,13:58:15.877519,192.168.0.113
400,-1,-100,-100,-100,"0,0,0",2,0,0,0,0,0,63,66,84,70,100,-5.67,7,8.0,15.0,-1027.0,13:58:15.979578,192.168.0.113
406,-1,-100,-100,-100,"0,0,0",2,0,0,0,0,0,63,66,85,70,100,-5.68,7,3.0,44.0,-979.0,13:58:16.082608,192.168.0.113
412,-1,-100,-100,-100,"0,0,0",1,-1,0,0,0,0,63,66,85,70,100,-5.58,8,9.0,14.0,-990.0,13:58:16.183506,192.168.0.113
417,-1,-100,-100,-100,"0,0,0",1,-2,0,0,0,0,63,66,85,70,100,-5.55,8,27.0,21.0,-990.0,13:58:16.285865,192.168.0.113
423,-1,-100,-100,-100,"0,0,0",0,-2,0,0,0,0,63,66,85,70,100,-5.68,8,27.0,34.0,-1012.0,13:58:16.387672,192.168.0.113
428,-1,-100,-100,-100,"0,0,0",1,-1,0,0,0,0,63,66,86,70,100,-5.67,8,24.0,26.0,-967.0,13:58:16.489647,192.168.0.113
433,-1,-100,-100,-100,"0,0,0",2,-1,0,0,0,0,63,66,85,70,100,-5.68,8,15.0,40.0,-996.0,13:58:16.593977,192.168.0.113
438,-1,-100,-100,-100,"0,0,0",2,-1,0,0,0,0,63,66,86,70,100,-5.6,8,19.0,11.0,-977.0,13:58:16.693798,192.168.0.113
443,-1,-100,-100,-100,"0,0,0",1,-2,0,0,0,0,63,66,86,70,100,-5.6,8,21.0,33.0,-977.0,13:58:16.797035,192.168.0.113
448,-1,-100,-100,-100,"0,0,0",1,-2,0,0,0,0,63,66,86,70,100,-5.67,8,42.0,6.0,-992.0,13:58:16.897613,192.168.0.113
453,-1,-100,-100,-100,"0,0,0",1,-2,0,0,0,0,63,66,86,70,100,-5.69,8,44.0,23.0,-976.0,13:58:16.999506,192.168.0.113
458,-1,-100,-100,-100,"0,0,0",2,-2,0,0,0,0,63,66,86,70,100,-5.68,8,21.0,29.0,-975.0,13:58:17.101794,192.168.0.113
463,-1,-100,-100,-100,"0,0,0",2,-1,0,0,0,0,63,66,86,70,100,-5.66,9,29.0,13.0,-996.0,13:58:17.203569,192.168.0.113
468,-1,-100,-100,-100,"0,0,0",2,-1,0,0,0,0,63,66,86,70,100,-5.62,9,10.0,26.0,-995.0,13:58:17.305510,192.168.0.113
473,-1,-100,-100,-100,"0,0,0",2,-1,0,0,0,0,63,66,86,70,100,-5.6,9,25.0,26.0,-991.0,13:58:17.407655,192.168.0.113
478,-1,-100,-100,-100,"0,0,0",1,-1,0,0,0,0,63,66,85,70,100,-5.61,9,26.0,7.0,-1003.0,13:58:17.513843,192.168.0.113
483,-1,-100,-100,-100,"0,0,0",2,-1,0,0,0,0,63,66,86,70,100,-5.7,9,30.0,17.0,-995.0,13:58:17.611411,192.168.0.113
488,-1,-100,-100,-100,"0,0,0",2,-1,0,0,0,0,63,66,85,70,100,-5.69,9,20.0,-1.0,-988.0,13:58:17.713388,192.168.0.113
493,-1,-100,-100,-100,"0,0,0",2,0,0,0,0,0,63,66,85,70,100,-5.72,9,12.0,-6.0,-1010.0,13:58:17.815578,192.168.0.113
495,-1,-100,-100,-100,"0,0,0",2,0,0,0,0,0,63,66,85,70,100,-5.67,9,5.0,6.0,-1001.0,13:58:17.867196,192.168.0.113
500,-1,-100,-100,-100,"0,0,0",2,0,0,0,0,0,63,67,85,70,100,-5.6,9,0.0,4.0,-1009.0,13:58:17.968674,192.168.0.113
505,-1,-100,-100,-100,"0,0,0",1,0,0,0,0,0,63,67,85,70,100,-5.69,9,17.0,7.0,-1016.0,13:58:18.070367,192.168.0.113
510,-1,-100,-100,-100,"0,0,0",1,0,0,0,0,0,63,67,85,70,100,-5.68,10,-6.0,19.0,-991.0,13:58:18.172548,192.168.0.113
515,-1,-100,-100,-100,"0,0,0",1,0,0,0,0,0,63,67,85,70,100,-5.65,10,12.0,14.0,-996.0,13:58:18.274707,192.168.0.113
520,-1,-100,-100,-100,"0,0,0",1,0,0,0,0,0,63,67,84,70,100,-5.65,10,9.0,15.0,-1001.0,13:58:18.376651,192.168.0.113
525,-1,-100,-100,-100,"0,0,0",1,0,0,0,0,0,63,67,84,70,100,-5.68,10,12.0,17.0,-1011.0,13:58:18.478675,192.168.0.113
531,-1,-100,-100,-100,"0,0,0",1,-1,0,0,0,0,63,67,84,70,100,-5.73,10,48.0,19.0,-1006.0,13:58:18.579982,192.168.0.113
536,-1,-100,-100,-100,"0,0,0",1,-1,0,0,0,0,63,67,84,70,100,-5.64,10,23.0,14.0,-1004.0,13:58:18.682467,192.168.0.113
542,-1,-100,-100,-100,"0,0,0",2,-1,0,0,0,0,63,67,84,70,100,-5.64,10,36.0,23.0,-1011.0,13:58:18.784490,192.168.0.113
548,-1,-100,-100,-100,"0,0,0",2,-1,0,0,0,0,63,67,85,70,100,-5.68,10,25.0,23.0,-1000.0,13:58:18.886416,192.168.0.113
553,-1,-100,-100,-100,"0,0,0",2,-1,0,0,0,0,63,66,84,70,100,-5.69,10,6.0,22.0,-997.0,13:58:18.988422,192.168.0.113
558,-1,-100,-100,-100,"0,0,0",2,-1,0,0,0,0,63,66,85,70,100,-5.75,10,44.0,4.0,-988.0,13:58:19.090523,192.168.0.113
563,-1,-100,-100,-100,"0,0,0",2,-1,0,0,0,0,63,66,85,70,100,-5.7,11,29.0,-4.0,-1002.0,13:58:19.192245,192.168.0.113
568,-1,-100,-100,-100,"0,0,0",2,-1,0,0,0,0,63,66,85,70,100,-5.68,11,1.0,16.0,-974.0,13:58:19.294493,192.168.0.113
573,-1,-100,-100,-100,"0,0,0",2,-1,0,0,0,0,63,66,85,70,100,-5.73,11,40.0,21.0,-1019.0,13:58:19.396478,192.168.0.113
578,-1,-100,-100,-100,"0,0,0",2,-1,0,0,0,0,63,66,86,70,100,-5.72,11,43.0,6.0,-965.0,13:58:19.500859,192.168.0.113
583,-1,-100,-100,-100,"0,0,0",3,-1,0,0,0,0,63,66,86,70,100,-5.62,11,28.0,6.0,-981.0,13:58:19.600193,192.168.0.113
588,-1,-100,-100,-100,"0,0,0",3,-1,0,0,0,0,63,66,85,70,100,-5.72,11,19.0,1.0,-1000.0,13:58:19.702450,192.168.0.113
593,-1,-100,-100,-100,"0,0,0",3,-1,0,0,0,0,63,66,86,70,100,-5.58,11,26.0,-17.0,-1021.0,13:58:19.804439,192.168.0.113
598,-1,-100,-100,-100,"0,0,0",2,-1,0,0,0,0,63,66,86,70,100,-5.66,11,5.0,-5.0,-1007.0,13:58:19.908356,192.168.0.113
603,-1,-100,-100,-100,"0,0,0",3,0,0,0,0,0,64,67,86,70,100,-5.65,11,10.0,12.0,-986.0,13:58:20.011121,192.168.0.113
608,-1,-100,-100,-100,"0,0,0",2,0,0,0,0,0,64,67,86,70,100,-5.68,11,13.0,4.0,-991.0,13:58:20.111499,192.168.0.113
613,-1,-100,-100,-100,"0,0,0",2,-1,0,0,0,0,64,67,86,70,100,-5.74,12,29.0,22.0,-1001.0,13:58:20.214709,192.168.0.113
618,-1,-100,-100,-100,"0,0,0",2,-1,0,0,0,0,64,67,86,70,100,-5.69,12,17.0,21.0,-994.0,13:58:20.314386,192.168.0.113
623,-1,-100,-100,-100,"0,0,0",2,-1,0,0,0,0,64,67,86,70,100,-5.65,12,11.0,-5.0,-991.0,13:58:20.416469,192.168.0.113
625,-1,-100,-100,-100,"0,0,0",2,-1,0,0,0,0,64,67,86,70,100,-5.68,12,14.0,38.0,-1020.0,13:58:20.467434,192.168.0.113
630,-1,-100,-100,-100,"0,0,0",2,-1,0,0,0,0,64,67,86,70,100,-5.69,12,23.0,15.0,-987.0,13:58:20.569360,192.168.0.113
635,-1,-100,-100,-100,"0,0,0",2,-2,0,0,0,0,64,67,86,70,100,-5.78,12,15.0,28.0,-991.0,13:58:20.671576,192.168.0.113
640,-1,-100,-100,-100,"0,0,0",2,-2,0,0,0,0,64,67,86,70,100,-5.67,12,31.0,13.0,-1000.0,13:58:20.773460,192.168.0.113
645,-1,-100,-100,-100,"0,0,0",2,-2,0,0,0,0,64,67,85,70,100,-5.65,12,28.0,10.0,-993.0,13:58:20.875343,192.168.0.113
650,-1,-100,-100,-100,"0,0,0",2,-2,0,0,0,0,64,67,86,70,100,-5.64,12,29.0,12.0,-994.0,13:58:20.978496,192.168.0.113
655,-1,-100,-100,-100,"0,0,0",2,-1,0,0,0,0,64,67,86,70,100,-5.71,12,31.0,8.0,-995.0,13:58:21.079456,192.168.0.113
661,-1,-100,-100,-100,"0,0,0",2,-1,0,0,0,0,64,67,86,70,100,-5.68,13,7.0,5.0,-999.0,13:58:21.181517,192.168.0.113
667,-1,-100,-100,-100,"0,0,0",2,-2,0,0,0,0,64,67,86,70,100,-5.72,13,18.0,18.0,-1008.0,13:58:21.288197,192.168.0.113
672,-1,-100,-100,-100,"0,0,0",2,-1,0,0,0,0,64,67,85,70,100,-5.69,13,3.0,22.0,-1010.0,13:58:21.388100,192.168.0.113
678,-1,-100,-100,-100,"0,0,0",2,-1,0,0,0,0,64,67,85,70,100,-5.74,13,19.0,18.0,-993.0,13:58:21.489562,192.168.0.113
683,-1,-100,-100,-100,"0,0,0",2,-1,0,0,0,0,64,67,86,70,100,-5.73,13,-4.0,41.0,-1004.0,13:58:21.590202,192.168.0.113
688,-1,-100,-100,-100,"0,0,0",2,-1,0,0,0,0,64,67,85,70,100,-5.71,13,12.0,35.0,-999.0,13:58:21.691330,192.168.0.113
693,-1,-100,-100,-100,"0,0,0",2,-1,0,0,0,0,64,67,85,70,100,-5.7,13,40.0,30.0,-991.0,13:58:21.796023,192.168.0.113
698,-1,-100,-100,-100,"0,0,0",2,-1,0,0,0,0,64,67,84,70,100,-5.69,13,33.0,45.0,-980.0,13:58:21.895150,192.168.0.113
703,-1,-100,-100,-100,"0,0,0",2,-1,0,0,0,0,64,66,84,70,100,-5.71,13,-3.0,21.0,-1009.0,13:58:21.997433,192.168.0.113
708,-1,-100,-100,-100,"0,0,0",2,-2,0,0,0,0,64,66,84,70,100,-5.68,13,-3.0,34.0,-1010.0,13:58:22.099403,192.168.0.113
713,-1,-100,-100,-100,"0,0,0",2,-2,0,0,0,0,64,66,84,70,100,-5.58,14,33.0,77.0,-1022.0,13:58:22.208457,192.168.0.113
718,-1,-100,-100,-100,"0,0,0",1,-2,0,0,0,0,64,66,84,70,100,-5.69,14,21.0,61.0,-988.0,13:58:22.303101,192.168.0.113
723,-1,-100,-100,-100,"0,0,0",2,-3,0,0,0,0,64,66,84,70,100,-5.66,14,27.0,22.0,-1009.0,13:58:22.405374,192.168.0.113
728,-1,-100,-100,-100,"0,0,0",2,-3,0,0,0,0,64,66,84,70,100,-5.77,14,26.0,51.0,-992.0,13:58:22.507456,192.168.0.113
733,-1,-100,-100,-100,"0,0,0",3,-2,0,0,0,0,64,66,84,70,100,-5.69,14,15.0,28.0,-1014.0,13:58:22.611028,192.168.0.113
738,-1,-100,-100,-100,"0,0,0",3,-2,0,0,0,0,64,66,85,70,100,-5.67,14,11.0,39.0,-1030.0,13:58:22.711325,192.168.0.113
743,-1,-100,-100,-100,"0,0,0",2,-1,0,0,0,0,64,66,84,70,100,-5.75,14,-18.0,56.0,-998.0,13:58:22.813335,192.168.0.113
748,-1,-100,-100,-100,"0,0,0",2,-2,0,0,0,0,64,66,84,70,100,-5.74,14,32.0,30.0,-998.0,13:58:22.915696,192.168.0.113
750,-1,-100,-100,-100,"0,0,0",2,-2,0,0,0,0,63,67,83,70,100,-5.81,14,7.0,24.0,-1017.0,13:58:22.966291,192.168.0.113
755,-1,-100,-100,-100,"0,0,0",2,-2,0,0,0,0,63,67,83,70,100,-5.62,14,-2.0,46.0,-997.0,13:58:23.068391,192.168.0.113
760,-1,-100,-100,-100,"0,0,0",2,-2,0,0,0,0,63,67,83,70,100,-5.65,15,6.0,31.0,-996.0,13:58:23.170336,192.168.0.113
765,-1,-100,-100,-100,"0,0,0",1,-2,0,0,0,0,63,67,83,70,100,-5.51,15,24.0,31.0,-984.0,13:58:23.272447,192.168.0.113
770,-1,-100,-100,-100,"0,0,0",1,-2,0,0,0,0,63,67,83,70,100,-5.71,15,38.0,37.0,-971.0,13:58:23.374188,192.168.0.113
775,-1,-100,-100,-100,"0,0,0",1,-1,0,0,0,0,63,67,83,70,100,-5.72,15,19.0,41.0,-1011.0,13:58:23.476235,192.168.0.113
780,-1,-100,-100,-100,"0,0,0",2,-2,0,0,0,0,63,67,84,70,100,-5.71,15,20.0,53.0,-1021.0,13:58:23.578117,192.168.0.113
786,-1,-100,-100,-100,"0,0,0",2,-2,0,0,0,0,63,67,83,70,100,-5.58,15,35.0,12.0,-1000.0,13:58:23.680267,192.168.0.113
791,-1,-100,-100,-100,"0,0,0",2,-2,0,0,0,0,63,67,83,70,100,-5.69,15,32.0,49.0,-1019.0,13:58:23.782299,192.168.0.113
797,-1,-100,-100,-100,"0,0,0",2,-2,0,0,0,0,63,67,84,70,100,-5.67,15,19.0,24.0,-998.0,13:58:23.886702,192.168.0.113
802,-1,-100,-100,-100,"0,0,0",2,-2,0,0,0,0,63,66,84,70,100,-5.73,15,21.0,29.0,-1001.0,13:58:23.986325,192.168.0.113
807,-1,-100,-100,-100,"0,0,0",2,-1,0,0,0,0,63,66,84,70,100,-5.71,15,18.0,24.0,-990.0,13:58:24.088341,192.168.0.113
812,-1,-100,-100,-100,"0,0,0",2,-1,0,0,0,0,63,66,85,70,100,-5.7,16,13.0,38.0,-1012.0,13:58:24.190405,192.168.0.113
817,-1,-100,-100,-100,"0,0,0",2,-1,0,0,0,0,63,66,84,70,100,-5.69,16,39.0,16.0,-956.0,13:58:24.292431,192.168.0.113
823,-1,-100,-100,-100,"0,0,0",2,-2,0,0,0,0,63,66,85,70,100,-5.62,16,60.0,10.0,-1005.0,13:58:24.394331,192.168.0.113
828,-1,-100,-100,-100,"0,0,0",2,-2,0,0,0,0,63,66,85,70,100,-5.78,16,35.0,38.0,-983.0,13:58:24.496593,192.168.0.113
832,-1,-100,-100,-100,"0,0,0",3,-2,0,0,0,0,63,66,85,70,100,-5.76,16,6.0,35.0,-997.0,13:58:24.597996,192.168.0.113
837,-1,-100,-100,-100,"0,0,0",2,-2,0,0,0,0,63,66,84,70,100,-5.7,16,28.0,15.0,-1006.0,13:58:24.700333,192.168.0.113
842,-1,-100,-100,-100,"0,0,0",2,-2,0,0,0,0,63,66,85,70,100,-5.68,16,28.0,32.0,-998.0,13:58:24.802350,192.168.0.113
847,-1,-100,-100,-100,"0,0,0",3,-1,0,0,0,0,63,66,85,70,100,-5.44,16,36.0,27.0,-991.0,13:58:24.904444,192.168.0.113
853,-1,-100,-100,-100,"0,0,0",2,-1,0,0,0,0,64,67,85,70,100,-5.69,16,49.0,28.0,-1002.0,13:58:25.006312,192.168.0.113
858,-1,-100,-100,-100,"0,0,0",3,-2,0,0,0,0,64,67,85,70,100,-5.78,16,35.0,36.0,-1042.0,13:58:25.108379,192.168.0.113
863,-1,-100,-100,-100,"0,0,0",3,-2,0,0,0,0,64,67,85,70,100,-5.78,17,24.0,37.0,-981.0,13:58:25.210343,192.168.0.113
868,-1,-100,-100,-100,"0,0,0",3,-2,0,0,0,0,64,67,85,70,100,-5.58,17,37.0,5.0,-986.0,13:58:25.314008,192.168.0.113
873,-1,-100,-100,-100,"0,0,0",2,-2,0,0,0,0,64,67,84,70,100,-5.74,17,12.0,29.0,-1043.0,13:58:25.414257,192.168.0.113
878,-1,-100,-100,-100,"0,0,0",2,-1,0,0,0,0,64,67,85,70,100,-5.69,17,12.0,25.0,-1003.0,13:58:25.516088,192.168.0.113
883,-1,-100,-100,-100,"0,0,0",2,-1,0,0,0,0,64,67,84,70,100,-5.76,17,19.0,26.0,-995.0,13:58:25.618314,192.168.0.113
888,-1,-100,-100,-100,"0,0,0",2,-1,0,0,0,0,64,67,85,70,100,-5.73,17,23.0,22.0,-996.0,13:58:25.720235,192.168.0.113
890,-1,-100,-100,-100,"0,0,0",2,-1,0,0,0,0,64,67,84,70,100,-5.76,17,18.0,16.0,-982.0,13:58:25.772057,192.168.0.113
895,-1,-100,-100,-100,"0,0,0",3,-1,0,0,0,0,64,67,83,70,100,-5.72,17,15.0,61.0,-1004.0,13:58:25.873159,192.168.0.113
900,-1,-100,-100,-100,"0,0,0",3,0,0,0,0,0,64,66,83,70,100,-5.81,17,51.0,30.0,-1002.0,13:58:25.975571,192.168.0.113
905,-1,-100,-100,-100,"0,0,0",2,-1,0,0,0,0,64,66,83,70,100,-5.66,17,34.0,26.0,-984.0,13:58:26.077278,192.168.0.113
910,-1,-100,-100,-100,"0,0,0",3,-2,0,0,0,0,64,66,83,70,100,-5.67,18,38.0,11.0,-1001.0,13:58:26.179344,192.168.0.113
915,-1,-100,-100,-100,"0,0,0",3,-2,0,0,0,0,64,66,83,70,100,-5.74,18,25.0,15.0,-979.0,13:58:26.281253,192.168.0.113
921,-1,-100,-100,-100,"0,0,0",3,-1,0,0,0,0,64,66,82,70,100,-5.81,18,39.0,29.0,-1028.0,13:58:26.383170,192.168.0.113
926,-1,-100,-100,-100,"0,0,0",3,-1,0,0,0,0,64,66,82,70,100,-5.88,18,15.0,36.0,-1006.0,13:58:26.485195,192.168.0.113
931,-1,-100,-100,-100,"0,0,0",3,-1,0,0,0,0,64,66,82,70,100,-5.75,18,16.0,37.0,-986.0,13:58:26.587484,192.168.0.113
936,-1,-100,-100,-100,"0,0,0",3,-1,0,0,0,0,64,66,82,70,100,-5.78,18,47.0,30.0,-998.0,13:58:26.688673,192.168.0.113
942,-1,-100,-100,-100,"0,0,0",3,-1,0,0,0,0,64,66,82,70,100,-5.83,18,31.0,39.0,-992.0,13:58:26.793150,192.168.0.113
947,-1,-100,-100,-100,"0,0,0",3,-1,0,0,0,0,64,66,82,70,100,-5.77,18,8.0,49.0,-982.0,13:58:26.892952,192.168.0.113
952,-1,-100,-100,-100,"0,0,0",3,-2,0,0,0,0,64,67,82,70,100,-5.66,18,-16.0,23.0,-985.0,13:58:26.995222,192.168.0.113
957,-1,-100,-100,-100,"0,0,0",3,-2,0,1,0,0,64,67,82,60,100,-5.72,18,4.0,22.0,-1010.0,13:58:27.102715,192.168.0.113
962,-1,-100,-100,-100,"0,0,0",2,-1,0,1,0,0,64,67,81,60,100,-5.76,19,-11.0,63.0,-1034.0,13:58:27.201568,192.168.0.113
967,-1,-100,-100,-100,"0,0,0",1,-1,0,1,0,0,64,67,81,60,100,-5.81,19,34.0,65.0,-1061.0,13:58:27.301199,192.168.0.113
972,-1,-100,-100,-100,"0,0,0",1,-1,0,1,0,0,64,67,82,60,100,-5.58,19,35.0,54.0,-952.0,13:58:27.403187,192.168.0.113
977,-1,-100,-100,-100,"0,0,0",1,-3,0,1,0,0,64,67,83,60,100,-5.75,19,0.0,41.0,-986.0,13:58:27.505040,192.168.0.113
982,-1,-100,-100,-100,"0,0,0",1,-4,0,1,0,0,64,67,84,70,100,-5.76,19,27.0,52.0,-1039.0,13:58:27.607137,192.168.0.113
987,-1,-100,-100,-100,"0,0,0",1,-3,0,1,0,0,64,67,84,70,100,-5.68,19,35.0,26.0,-986.0,13:58:27.709136,192.168.0.113
992,-1,-100,-100,-100,"0,0,0",1,-2,0,0,0,0,64,67,84,70,100,-5.57,19,39.0,22.0,-980.0,13:58:27.811180,192.168.0.113
997,-1,-100,-100,-100,"0,0,0",2,-2,0,0,0,0,64,67,84,70,100,-5.72,19,23.0,61.0,-998.0,13:58:27.912986,192.168.0.113
1002,-1,-100,-100,-100,"0,0,0",2,-2,0,0,0,0,63,67,84,70,100,-5.68,19,6.0,39.0,-1031.0,13:58:28.015255,192.168.0.113
1008,-1,-100,-100,-100,"0,0,0",3,-2,0,0,0,0,63,67,84,70,100,-5.68,19,-3.0,21.0,-990.0,13:58:28.118743,192.168.0.113
1013,-1,-100,-100,-100,"0,0,0",2,-2,0,0,0,0,63,67,84,70,100,-5.6,20,18.0,41.0,-1010.0,13:58:28.219437,192.168.0.113
1018,-1,-100,-100,-100,"0,0,0",2,-2,0,0,0,0,63,67,85,70,100,-5.65,20,20.0,27.0,-1037.0,13:58:28.321078,192.168.0.113
1023,-1,-100,-100,-100,"0,0,0",2,-2,0,0,0,0,63,67,84,70,100,-5.7,20,0.0,45.0,-980.0,13:58:28.425655,192.168.0.113
1028,-1,-100,-100,-100,"0,0,0",2,-1,0,0,0,0,63,67,84,70,100,-5.49,20,13.0,61.0,-971.0,13:58:28.525471,192.168.0.113
1033,-1,-100,-100,-100,"0,0,0",3,-1,0,0,0,0,63,67,85,70,100,-5.65,20,21.0,50.0,-1022.0,13:58:28.627476,192.168.0.113
1038,-1,-100,-100,-100,"0,0,0",2,-1,0,0,0,0,63,67,85,70,100,-5.69,20,30.0,20.0,-972.0,13:58:28.729103,192.168.0.113
1043,-1,-100,-100,-100,"0,0,0",2,-2,0,0,0,0,63,67,85,70,100,-5.73,20,23.0,36.0,-1001.0,13:58:28.831060,192.168.0.113
1048,-1,-100,-100,-100,"0,0,0",3,-2,0,0,0,0,63,67,84,70,100,-5.81,20,31.0,23.0,-1034.0,13:58:28.933186,192.168.0.113
1053,-1,-100,-100,-100,"0,0,0",2,-1,0,0,0,0,64,67,85,70,100,-5.81,20,-1.0,39.0,-1007.0,13:58:29.034794,192.168.0.113
1058,-1,-100,-100,-100,"0,0,0",2,-2,0,0,0,0,64,67,84,70,100,-5.73,20,26.0,39.0,-976.0,13:58:29.137110,192.168.0.113
1063,-1,-100,-100,-100,"0,0,0",2,-3,0,0,0,0,64,67,84,70,100,-5.64,21,11.0,51.0,-1019.0,13:58:29.238950,192.168.0.113
1068,-1,-100,-100,-100,"0,0,0",2,-3,0,0,0,0,64,67,84,70,100,-5.59,21,29.0,25.0,-958.0,13:58:29.340966,192.168.0.113
1071,-1,-100,-100,-100,"0,0,0",2,-2,0,0,0,0,64,67,84,70,100,-5.6,21,38.0,49.0,-994.0,13:58:29.392131,192.168.0.113
1076,-1,-100,-100,-100,"0,0,0",2,-2,0,0,0,0,64,67,84,70,100,-5.59,21,72.0,35.0,-1005.0,13:58:29.493954,192.168.0.113
1081,-1,-100,-100,-100,"0,0,0",3,-2,0,0,0,0,64,67,83,70,100,-5.59,21,38.0,53.0,-1014.0,13:58:29.596396,192.168.0.113
1086,-1,-100,-100,-100,"0,0,0",4,-2,0,0,0,0,64,67,83,70,100,-5.74,21,54.0,41.0,-1002.0,13:58:29.699399,192.168.0.113
1091,-1,-100,-100,-100,"0,0,0",3,-3,0,0,0,0,64,67,83,70,100,-5.72,21,61.0,10.0,-1004.0,13:58:29.801263,192.168.0.113
1096,-1,-100,-100,-100,"0,0,0",4,-2,0,0,0,0,64,67,82,70,100,-5.66,21,18.0,32.0,-973.0,13:58:29.902254,192.168.0.113
1101,-1,-100,-100,-100,"0,0,0",4,-1,0,0,0,0,65,66,83,70,100,-5.58,21,31.0,26.0,-993.0,13:58:30.005653,192.168.0.113
1106,-1,-100,-100,-100,"0,0,0",3,-2,0,0,0,0,65,66,83,70,100,-5.66,21,22.0,23.0,-1004.0,13:58:30.105983,192.168.0.113
1111,-1,-100,-100,-100,"0,0,0",2,-2,0,0,0,0,65,66,83,70,100,-5.52,22,36.0,56.0,-1024.0,13:58:30.208327,192.168.0.113
1116,-1,-100,-100,-100,"0,0,0",3,-2,0,0,0,0,65,66,83,60,100,-5.64,22,59.0,15.0,-1018.0,13:58:30.310077,192.168.0.113
1121,-1,-100,-100,-100,"0,0,0",2,-2,0,0,0,0,65,66,83,70,100,-5.5,22,58.0,21.0,-968.0,13:58:30.412330,192.168.0.113
1127,-1,-100,-100,-100,"0,0,0",3,-1,0,0,0,0,65,66,82,70,100,-5.58,22,32.0,40.0,-1000.0,13:58:30.514305,192.168.0.113
1132,-1,-100,-100,-100,"0,0,0",4,-1,0,0,0,0,65,66,83,70,100,-5.6,22,49.0,48.0,-999.0,13:58:30.616189,192.168.0.113
1137,-1,-100,-100,-100,"0,0,0",3,-2,0,0,0,0,65,66,83,70,100,-5.58,22,28.0,83.0,-971.0,13:58:30.718390,192.168.0.113
1142,-1,-100,-100,-100,"0,0,0",3,-2,0,0,0,0,65,66,83,70,100,-5.49,22,9.0,29.0,-966.0,13:58:30.820725,192.168.0.113
1147,-1,-100,-100,-100,"0,0,0",3,-3,0,0,0,0,65,66,83,70,100,-5.65,22,24.0,34.0,-981.0,13:58:30.921971,192.168.0.113
1152,-1,-100,-100,-100,"0,0,0",3,-3,0,0,0,0,65,67,84,70,100,-5.63,22,36.0,30.0,-1004.0,13:58:31.027709,192.168.0.113
1157,-1,-100,-100,-100,"0,0,0",3,-2,0,0,0,0,65,67,84,70,100,-5.58,22,55.0,24.0,-962.0,13:58:31.126033,192.168.0.113
1162,-1,-100,-100,-100,"0,0,0",3,-2,0,0,0,0,65,67,84,70,100,-5.7,23,40.0,14.0,-990.0,13:58:31.228140,192.168.0.113
1167,-1,-100,-100,-100,"0,0,0",2,-2,0,0,0,0,65,67,84,70,100,-5.68,23,22.0,26.0,-980.0,13:58:31.330953,192.168.0.113
1172,-1,-100,-100,-100,"0,0,0",3,-2,0,0,0,0,65,67,84,70,100,-5.57,23,55.0,48.0,-1004.0,13:58:31.432964,192.168.0.113
1177,-1,-100,-100,-100,"0,0,0",3,-1,0,0,0,0,65,67,84,70,100,-5.6,23,27.0,80.0,-969.0,13:58:31.535133,192.168.0.113
1182,-1,-100,-100,-100,"0,0,0",2,-3,0,1,0,0,65,67,85,70,100,-5.64,23,53.0,83.0,-971.0,13:58:31.638572,192.168.0.113
1187,-1,-100,-100,-100,"0,0,0",1,-4,0,0,0,0,65,67,84,70,100,-5.62,23,47.0,54.0,-1008.0,13:58:31.738960,192.168.0.113
1193,-1,-100,-100,-100,"0,0,0",2,-4,0,0,0,0,65,67,84,70,100,-5.55,23,77.0,48.0,-1008.0,13:58:31.841026,192.168.0.113
1198,-1,-100,-100,-100,"0,0,0",2,-3,0,0,0,0,65,67,84,70,100,-5.68,23,21.0,70.0,-968.0,13:58:31.943257,192.168.0.113
1203,-1,-100,-100,-100,"0,0,0",3,-4,0,0,0,0,64,66,84,70,100,-5.5,23,33.0,85.0,-1001.0,13:58:32.045173,192.168.0.113
1208,-1,-100,-100,-100,"0,0,0",2,-4,0,0,0,0,64,66,83,70,100,-5.65,23,28.0,82.0,-1010.0,13:58:32.147681,192.168.0.113
1213,-1,-100,-100,-100,"0,0,0",2,-5,0,0,0,0,64,66,84,70,100,-5.62,24,60.0,67.0,-1000.0,13:58:32.250980,192.168.0.113
1218,-1,-100,-100,-100,"0,0,0",2,-4,0,0,0,0,64,66,84,70,100,-5.79,24,27.0,98.0,-961.0,13:58:32.350874,192.168.0.113
1223,-1,-100,-100,-100,"0,0,0",3,-4,0,0,0,0,64,66,84,70,100,-5.6,24,21.0,114.0,-972.0,13:58:32.452727,192.168.0.113
1228,-1,-100,-100,-100,"0,0,0",3,-4,0,0,0,0,64,66,84,70,100,-5.75,24,23.0,59.0,-1024.0,13:58:32.557111,192.168.0.113
1230,-1,-100,-100,-100,"0,0,0",2,-4,-1,0,0,0,64,66,84,70,100,-5.5,24,23.0,85.0,-1008.0,13:58:32.605894,192.168.0.113
1236,-1,-100,-100,-100,"0,0,0",2,-5,0,0,0,0,64,66,84,70,100,-5.75,24,-33.0,80.0,-1024.0,13:58:32.707907,192.168.0.113
1240,-1,-100,-100,-100,"0,0,0",1,-6,-1,1,0,0,64,66,83,70,100,-5.7,24,-5.0,76.0,-998.0,13:58:32.809960,192.168.0.113
1246,-1,-100,-100,-100,"0,0,0",0,-4,0,1,0,0,64,66,83,70,100,-5.63,24,-3.0,75.0,-977.0,13:58:32.912231,192.168.0.113
1251,-1,-100,-100,-100,"0,0,0",0,-5,0,1,0,0,64,67,82,60,100,-5.75,24,23.0,81.0,-942.0,13:58:33.014146,192.168.0.113
1256,-1,-100,-100,-100,"0,0,0",0,-5,0,1,0,0,64,67,82,60,100,-5.77,24,-11.0,47.0,-1008.0,13:58:33.116076,192.168.0.113
1261,-1,-100,-100,-100,"0,0,0",0,-4,0,1,0,0,64,67,82,60,100,-5.6,25,6.0,79.0,-1016.0,13:58:33.218330,192.168.0.113
1266,-1,-100,-100,-100,"0,0,0",1,-2,0,0,0,0,64,67,83,60,100,-5.59,25,59.0,69.0,-999.0,13:58:33.319986,192.168.0.113
1271,-1,-100,-100,-100,"0,0,0",1,-3,0,0,0,0,64,67,83,70,100,-5.7,25,24.0,80.0,-1044.0,13:58:33.421776,192.168.0.113
1276,-1,-100,-100,-100,"0,0,0",2,-2,-1,0,0,0,64,67,84,70,100,-5.73,25,24.0,78.0,-958.0,13:58:33.524706,192.168.0.113
1281,-1,-100,-100,-100,"0,0,0",2,-3,0,1,0,0,64,67,83,70,100,-5.37,25,-15.0,93.0,-951.0,13:58:33.625516,192.168.0.113
1286,-1,-100,-100,-100,"0,0,0",1,-4,0,1,0,0,64,67,84,70,100,-5.48,25,8.0,39.0,-988.0,13:58:33.727669,192.168.0.113
1291,-1,-100,-100,-100,"0,0,0",0,-5,0,0,0,0,64,67,84,70,100,-5.52,25,38.0,84.0,-996.0,13:58:33.829929,192.168.0.113
1297,-1,-100,-100,-100,"0,0,0",1,-4,0,0,0,0,64,67,85,70,100,-5.65,25,42.0,89.0,-1019.0,13:58:33.932148,192.168.0.113
1302,-1,-100,-100,-100,"0,0,0",1,-5,0,0,0,0,64,67,86,70,100,-5.52,25,-4.0,87.0,-972.0,13:58:34.033817,192.168.0.113
1307,-1,-100,-100,-100,"0,0,0",1,-7,0,0,0,0,64,67,86,70,100,-5.58,25,35.0,97.0,-1009.0,13:58:34.135942,192.168.0.113
1312,-1,-100,-100,-100,"0,0,0",0,-6,0,0,0,0,64,67,85,70,100,-5.61,26,21.0,104.0,-1021.0,13:58:34.237946,192.168.0.113
1317,-1,-100,-100,-100,"0,0,0",0,-6,0,0,0,0,64,67,86,70,100,-5.66,26,14.0,86.0,-931.0,13:58:34.339675,192.168.0.113
1322,-1,-100,-100,-100,"0,0,0",0,-6,0,0,0,0,64,67,86,70,100,-5.62,26,-4.0,86.0,-964.0,13:58:34.441963,192.168.0.113
1327,-1,-100,-100,-100,"0,0,0",1,-8,0,0,0,0,64,67,86,70,100,-5.63,26,-25.0,64.0,-984.0,13:58:34.543794,192.168.0.113
1332,-1,-100,-100,-100,"0,0,0",0,-7,-1,0,0,0,64,67,85,70,100,-5.71,26,-21.0,74.0,-995.0,13:58:34.645656,192.168.0.113
1337,-1,-100,-100,-100,"0,0,0",0,-6,-1,0,0,0,64,67,83,70,100,-5.63,26,-40.0,84.0,-1083.0,13:58:34.748012,192.168.0.113
1342,-1,-100,-100,-100,"0,0,0",0,-4,0,1,0,0,64,67,83,70,100,-5.64,26,0.0,118.0,-975.0,13:58:34.851472,192.168.0.113
1347,-1,-100,-100,-100,"0,0,0",0,-4,0,0,0,0,64,67,83,70,100,-5.58,26,4.0,80.0,-979.0,13:58:34.951791,192.168.0.113
1352,-1,-100,-100,-100,"0,0,0",0,-5,0,0,0,0,65,67,82,70,100,-5.58,26,15.0,81.0,-1041.0,13:58:35.053767,192.168.0.113
1357,-1,-100,-100,-100,"0,0,0",2,-4,0,0,0,0,65,67,82,60,100,-5.63,27,19.0,91.0,-1089.0,13:58:35.155987,192.168.0.113
1363,-1,-100,-100,-100,"0,0,0",2,-4,0,0,0,0,65,67,83,70,100,-5.7,27,15.0,110.0,-950.0,13:58:35.257977,192.168.0.113
1368,-1,-100,-100,-100,"0,0,0",2,-5,0,0,0,0,65,67,83,70,100,-5.68,27,-24.0,69.0,-1007.0,13:58:35.360140,192.168.0.113
1373,-1,-100,-100,-100,"0,0,0",2,-4,0,0,0,0,65,67,84,70,100,-5.64,27,-3.0,77.0,-1018.0,13:58:35.461896,192.168.0.113
1378,-1,-100,-100,-100,"0,0,0",0,-3,0,0,0,0,65,67,83,70,100,-5.59,27,5.0,95.0,-1031.0,13:58:35.563997,192.168.0.113
1383,-1,-100,-100,-100,"0,0,0",1,-4,0,0,0,0,65,67,83,70,100,-5.47,27,50.0,104.0,-1019.0,13:58:35.665833,192.168.0.113
1388,-1,-100,-100,-100,"0,0,0",1,-5,0,0,0,0,65,67,84,70,100,-5.42,27,56.0,87.0,-932.0,13:58:35.767771,192.168.0.113
1393,-1,-100,-100,-100,"0,0,0",2,-5,0,0,0,0,65,67,85,70,100,-5.47,27,40.0,91.0,-997.0,13:58:35.869843,192.168.0.113
1398,-1,-100,-100,-100,"0,0,0",3,-5,0,0,0,0,65,67,86,70,100,-5.49,27,94.0,74.0,-954.0,13:58:35.971868,192.168.0.113
1403,-1,-100,-100,-100,"0,0,0",3,-5,0,0,0,0,64,68,86,70,100,-5.49,27,21.0,98.0,-979.0,13:58:36.073854,192.168.0.113
1408,-1,-100,-100,-100,"0,0,0",4,-4,0,0,0,0,64,68,86,70,100,-5.66,28,37.0,121.0,-1021.0,13:58:36.177212,192.168.0.113
1410,-1,-100,-100,-100,"0,0,0",3,-5,0,0,0,0,64,68,86,70,100,-5.82,28,39.0,98.0,-946.0,13:58:36.226889,192.168.0.113
1416,-1,-100,-100,-100,"0,0,0",3,-6,0,0,0,0,64,68,86,70,100,-5.72,28,19.0,102.0,-990.0,13:58:36.328559,192.168.0.113
1421,-1,-100,-100,-100,"0,0,0",2,-6,0,0,0,0,64,68,86,70,100,-5.64,28,-6.0,106.0,-1024.0,13:58:36.430898,192.168.0.113
1426,-1,-100,-100,-100,"0,0,0",2,-5,0,0,0,0,64,68,86,70,100,-5.63,28,33.0,116.0,-979.0,13:58:36.532908,192.168.0.113
1431,-1,-100,-100,-100,"0,0,0",2,-6,0,0,0,0,64,68,87,70,100,-5.61,28,66.0,100.0,-988.0,13:58:36.634876,192.168.0.113
1436,-1,-100,-100,-100,"0,0,0",2,-7,0,0,0,0,64,68,87,70,100,-5.65,28,47.0,61.0,-927.0,13:58:36.736990,192.168.0.113
1441,-1,-100,-100,-100,"0,0,0",3,-5,0,0,0,0,64,68,87,70,100,-5.58,28,42.0,128.0,-989.0,13:58:36.839425,192.168.0.113
1447,-1,-100,-100,-100,"0,0,0",3,-5,0,0,0,0,64,68,86,70,100,-5.73,28,41.0,101.0,-975.0,13:58:36.941802,192.168.0.113
1452,-1,-100,-100,-100,"0,0,0",3,-5,0,0,0,0,64,66,87,70,100,-5.72,28,52.0,95.0,-901.0,13:58:37.044387,192.168.0.113
1457,-1,-100,-100,-100,"0,0,0",3,-5,0,0,0,0,64,66,86,70,100,-5.82,29,11.0,97.0,-992.0,13:58:37.146657,192.168.0.113
1462,-1,-100,-100,-100,"0,0,0",2,-5,0,0,0,0,64,66,86,70,100,-5.57,29,26.0,100.0,-1017.0,13:58:37.249016,192.168.0.113
1467,-1,-100,-100,-100,"0,0,0",2,-5,0,0,0,0,64,66,86,70,100,-5.61,29,48.0,89.0,-939.0,13:58:37.348763,192.168.0.113
1472,-1,-100,-100,-100,"0,0,0",2,-6,0,0,0,0,64,66,86,70,100,-5.69,29,15.0,101.0,-948.0,13:58:37.450719,192.168.0.113
1477,-1,-100,-100,-100,"0,0,0",2,-7,0,1,0,0,64,66,86,70,100,-5.76,29,-11.0,75.0,-1066.0,13:58:37.552673,192.168.0.113
1482,-1,-100,-100,-100,"0,0,0",1,-5,0,1,0,0,64,66,86,70,100,-5.73,29,43.0,102.0,-942.0,13:58:37.655179,192.168.0.113
1487,-1,-100,-100,-100,"0,0,0",1,-6,0,1,0,0,64,66,86,70,100,-5.61,29,28.0,59.0,-961.0,13:58:37.756707,192.168.0.113
1492,-1,-100,-100,-100,"0,0,0",1,-5,0,1,0,0,64,66,86,70,100,-5.63,29,34.0,65.0,-1045.0,13:58:37.860986,192.168.0.113
1497,-1,-100,-100,-100,"0,0,0",0,-5,0,1,0,0,64,66,85,70,100,-5.59,29,13.0,66.0,-970.0,13:58:37.961126,192.168.0.113
1502,-1,-100,-100,-100,"0,0,0",0,-5,0,0,0,0,64,67,86,70,100,-5.71,29,23.0,72.0,-1009.0,13:58:38.062690,192.168.0.113
1507,-1,-100,-100,-100,"0,0,0",1,-4,0,0,0,0,64,67,86,70,100,-5.73,30,-10.0,68.0,-1022.0,13:58:38.165707,192.168.0.113
1512,-1,-100,-100,-100,"0,0,0",2,-2,0,1,0,0,64,67,85,70,100,-5.65,30,3.0,107.0,-930.0,13:58:38.267716,192.168.0.113
1517,-1,-100,-100,-100,"0,0,0",0,-4,0,0,0,0,64,67,85,70,100,-5.53,30,31.0,75.0,-1003.0,13:58:38.368719,192.168.0.113
1523,-1,-100,-100,-100,"0,0,0",1,-5,0,0,0,0,64,67,85,70,100,-5.63,30,33.0,83.0,-1003.0,13:58:38.470748,192.168.0.113
1528,-1,-100,-100,-100,"0,0,0",1,-5,0,0,0,0,64,67,85,70,100,-5.63,30,15.0,101.0,-961.0,13:58:38.572719,192.168.0.113
1532,-1,-100,-100,-100,"0,0,0",1,-6,0,0,0,0,64,67,86,70,100,-5.53,30,24.0,79.0,-941.0,13:58:38.674659,192.168.0.113
1538,-1,-100,-100,-100,"0,0,0",1,-5,0,0,0,0,64,67,87,70,100,-5.64,30,7.0,84.0,-992.0,13:58:38.778988,192.168.0.113
1543,-1,-100,-100,-100,"0,0,0",1,-4,-1,0,0,0,64,67,86,70,100,-5.67,30,10.0,98.0,-989.0,13:58:38.878772,192.168.0.113
1548,-1,-100,-100,-100,"0,0,0",1,-5,-1,0,0,0,64,67,87,70,100,-5.79,30,-24.0,38.0,-984.0,13:58:38.980309,192.168.0.113
1553,-1,-100,-100,-100,"0,0,0",1,-3,-1,1,0,0,64,67,87,70,100,-5.78,30,-48.0,77.0,-985.0,13:58:39.082604,192.168.0.113
1558,-1,-100,-100,-100,"0,0,0",0,-2,0,1,0,0,64,67,86,70,100,-5.86,31,-15.0,77.0,-1023.0,13:58:39.184658,192.168.0.113
1563,-1,-100,-100,-100,"0,0,0",-1,-3,0,1,0,0,64,67,86,70,100,-5.75,31,30.0,65.0,-971.0,13:58:39.288696,192.168.0.113
1568,-1,-100,-100,-100,"0,0,0",0,-4,0,0,0,0,64,67,85,70,100,-5.71,31,17.0,36.0,-1031.0,13:58:39.388572,192.168.0.113
1573,-1,-100,-100,-100,"0,0,0",0,-3,0,0,0,0,64,67,86,70,100,-5.68,31,15.0,26.0,-1019.0,13:58:39.491091,192.168.0.113
1575,-1,-100,-100,-100,"0,0,0",0,-2,0,0,0,0,64,67,86,70,100,-5.74,31,23.0,45.0,-993.0,13:58:39.541696,192.168.0.113
1580,-1,-100,-100,-100,"0,0,0",1,-2,0,0,0,0,64,67,86,70,100,-5.83,31,-1.0,44.0,-999.0,13:58:39.643514,192.168.0.113
1586,-1,-100,-100,-100,"0,0,0",0,-2,0,0,0,0,64,67,86,70,100,-5.75,31,0.0,26.0,-1003.0,13:58:39.745726,192.168.0.113
1590,-1,-100,-100,-100,"0,0,0",0,-2,0,0,0,0,64,67,86,70,100,-5.64,31,19.0,34.0,-987.0,13:58:39.847845,192.168.0.113
1595,-1,-100,-100,-100,"0,0,0",0,-1,0,0,0,0,64,67,86,70,100,-5.62,31,9.0,49.0,-969.0,13:58:39.949159,192.168.0.113
1601,-1,-100,-100,-100,"0,0,0",1,-1,0,0,0,0,65,66,86,70,100,-5.6,31,24.0,73.0,-977.0,13:58:40.051577,192.168.0.113
1606,-1,-100,-100,-100,"0,0,0",2,-1,0,0,0,0,65,66,86,70,100,-5.42,32,15.0,75.0,-999.0,13:58:40.153436,192.168.0.113
1611,-1,-100,-100,-100,"0,0,0",2,-2,0,0,0,0,65,66,87,70,100,-5.71,32,12.0,39.0,-992.0,13:58:40.255603,192.168.0.113
1616,-1,-100,-100,-100,"0,0,0",2,-3,0,0,0,0,65,66,86,70,100,-5.6,32,30.0,49.0,-987.0,13:58:40.357816,192.168.0.113
1621,-1,-100,-100,-100,"0,0,0",3,-2,0,0,0,0,65,66,85,70,100,-5.71,32,30.0,49.0,-997.0,13:58:40.462060,192.168.0.113
1626,-1,-100,-100,-100,"0,0,0",3,-3,0,0,0,0,65,66,85,70,100,-5.65,32,10.0,73.0,-979.0,13:58:40.562341,192.168.0.113
1631,-1,-100,-100,-100,"0,0,0",3,-3,0,0,0,0,65,66,84,70,100,-5.61,32,32.0,35.0,-970.0,13:58:40.664157,192.168.0.113
1636,-1,-100,-100,-100,"0,0,0",2,-1,0,0,0,0,65,66,84,70,100,-5.7,32,31.0,96.0,-1022.0,13:58:40.765754,192.168.0.113
1642,-1,-100,-100,-100,"0,0,0",2,-3,0,0,0,0,65,66,84,70,100,-5.82,32,30.0,75.0,-969.0,13:58:40.867637,192.168.0.113
1647,-1,-100,-100,-100,"0,0,0",3,-4,0,0,0,0,65,66,84,70,100,-5.75,32,55.0,59.0,-1023.0,13:58:40.969503,192.168.0.113
1652,-1,-100,-100,-100,"0,0,0",3,-4,0,0,0,0,65,67,83,70,100,-5.78,32,17.0,64.0,-999.0,13:58:41.071698,192.168.0.113
1657,-1,-100,-100,-100,"0,0,0",3,-3,0,0,0,0,65,67,83,70,100,-5.64,33,59.0,64.0,-1007.0,13:58:41.173563,192.168.0.113
1662,-1,-100,-100,-100,"0,0,0",3,-2,0,0,0,0,65,67,82,70,100,-5.65,33,44.0,58.0,-1028.0,13:58:41.275445,192.168.0.113
1667,-1,-100,-100,-100,"0,0,0",4,-3,0,0,0,0,65,67,83,70,100,-5.8,33,63.0,43.0,-1040.0,13:58:41.377370,192.168.0.113
1672,-1,-100,-100,-100,"0,0,0",3,-4,-1,0,0,0,65,67,83,70,100,-5.81,33,15.0,49.0,-966.0,13:58:41.479655,192.168.0.113
1677,-1,-100,-100,-100,"0,0,0",3,-3,-1,0,0,0,65,67,83,70,100,-5.78,33,1.0,62.0,-1019.0,13:58:41.581542,192.168.0.113
1682,-1,-100,-100,-100,"0,0,0",2,-4,0,1,0,0,65,67,83,70,100,-5.66,33,12.0,63.0,-981.0,13:58:41.683523,192.168.0.113
1687,-1,-100,-100,-100,"0,0,0",1,-3,0,0,0,0,65,67,83,70,100,-5.69,33,30.0,68.0,-1020.0,13:58:41.785648,192.168.0.113
1692,-1,-100,-100,-100,"0,0,0",2,-2,0,0,0,0,65,67,82,70,100,-5.88,33,23.0,85.0,-1007.0,13:58:41.887848,192.168.0.113
1697,-1,-100,-100,-100,"0,0,0",1,-5,0,0,0,0,65,67,83,60,100,-5.84,33,13.0,35.0,-1051.0,13:58:41.989657,192.168.0.113
1703,-1,-100,-100,-100,"0,0,0",1,-4,0,0,0,0,65,67,84,60,100,-5.84,33,45.0,34.0,-986.0,13:58:42.091648,192.168.0.113
1708,-1,-100,-100,-100,"0,0,0",1,-2,0,0,0,0,65,67,84,70,100,-5.73,34,-22.0,89.0,-999.0,13:58:42.193592,192.168.0.113
1713,-1,-100,-100,-100,"0,0,0",1,-4,0,0,0,0,65,67,84,70,100,-5.79,34,-1.0,62.0,-987.0,13:58:42.295592,192.168.0.113
1718,-1,-100,-100,-100,"0,0,0",0,-4,0,0,0,0,65,67,84,70,100,-5.74,34,20.0,41.0,-1011.0,13:58:42.398002,192.168.0.113
1723,-1,-100,-100,-100,"0,0,0",1,-3,0,0,0,0,65,67,84,70,100,-5.72,34,12.0,67.0,-966.0,13:58:42.499571,192.168.0.113
1728,-1,-100,-100,-100,"0,0,0",1,-2,0,0,0,0,65,67,83,70,100,-5.68,34,25.0,41.0,-1008.0,13:58:42.601585,192.168.0.113
1730,-1,-100,-100,-100,"0,0,0",2,-2,0,0,0,0,65,67,82,70,100,-5.39,34,24.0,49.0,-1027.0,13:58:42.652550,192.168.0.113
1735,-1,-100,-100,-100,"0,0,0",2,-2,0,0,0,0,65,67,83,70,100,-5.64,34,52.0,60.0,-1010.0,13:58:42.754622,192.168.0.113
1740,-1,-100,-100,-100,"0,0,0",2,-3,0,0,0,0,65,67,83,70,100,-5.67,34,61.0,32.0,-994.0,13:58:42.856726,192.168.0.113
1745,-1,-100,-100,-100,"0,0,0",3,-2,0,0,0,0,65,67,82,70,100,-5.58,34,32.0,31.0,-979.0,13:58:42.958495,192.168.0.113
1750,-1,-100,-100,-100,"0,0,0",4,-1,0,0,0,0,64,66,82,70,100,-5.74,34,79.0,18.0,-990.0,13:58:43.060721,192.168.0.113
1755,-1,-100,-100,-100,"0,0,0",4,-1,0,0,0,0,64,66,81,70,100,-5.71,35,46.0,21.0,-1015.0,13:58:43.162688,192.168.0.113
1761,-1,-100,-100,-100,"0,0,0",4,-1,0,0,0,0,64,66,82,60,100,-5.8,35,46.0,30.0,-999.0,13:58:43.264476,192.168.0.113
1766,-1,-100,-100,-100,"0,0,0",3,0,0,0,0,0,64,66,82,60,100,-5.79,35,44.0,34.0,-1049.0,13:58:43.366512,192.168.0.113
1771,-1,-100,-100,-100,"0,0,0",4,-1,0,0,0,0,64,66,82,70,100,-5.6,35,58.0,56.0,-954.0,13:58:43.468451,192.168.0.113
1776,-1,-100,-100,-100,"0,0,0",3,-2,0,0,0,0,64,66,83,70,100,-5.75,35,39.0,64.0,-1023.0,13:58:43.570281,192.168.0.113
1781,-1,-100,-100,-100,"0,0,0",3,-3,0,0,0,0,64,66,83,70,100,-5.73,35,41.0,60.0,-1001.0,13:58:43.672445,192.168.0.113
1786,-1,-100,-100,-100,"0,0,0",3,-3,0,0,0,0,64,66,83,70,100,-5.51,35,42.0,92.0,-962.0,13:58:43.774255,192.168.0.113
1791,-1,-100,-100,-100,"0,0,0",3,-5,0,0,-1,0,64,66,84,70,100,-5.61,35,26.0,75.0,-972.0,13:58:43.876510,192.168.0.113
1796,-1,-100,-100,-100,"0,0,0",3,-5,0,0,0,0,64,66,84,70,100,-5.71,35,31.0,79.0,-982.0,13:58:43.978656,192.168.0.113
1802,-1,-100,-100,-100,"0,0,0",2,-4,0,0,0,0,65,68,83,70,100,-5.61,35,59.0,92.0,-948.0,13:58:44.080567,192.168.0.113
1807,-1,-100,-100,-100,"0,0,0",2,-3,0,0,0,0,65,68,83,70,100,-5.35,36,39.0,83.0,-993.0,13:58:44.182380,192.168.0.113
1812,-1,-100,-100,-100,"0,0,0",2,-5,0,0,0,0,65,68,83,70,100,-5.85,36,15.0,107.0,-952.0,13:58:44.284468,192.168.0.113
1817,-1,-100,-100,-100,"0,0,0",3,-5,0,0,0,0,65,68,84,70,100,-5.49,36,44.0,82.0,-1010.0,13:58:44.386619,192.168.0.113
1822,-1,-100,-100,-100,"0,0,0",3,-5,0,0,0,0,65,68,83,70,100,-5.47,36,83.0,109.0,-998.0,13:58:44.488590,192.168.0.113
1827,-1,-100,-100,-100,"0,0,0",3,-5,0,0,0,0,65,68,82,70,100,-5.6,36,57.0,123.0,-997.0,13:58:44.590338,192.168.0.113
1832,-1,-100,-100,-100,"0,0,0",3,-7,0,0,-1,0,65,68,83,60,100,-5.81,36,37.0,82.0,-996.0,13:58:44.692220,192.168.0.113
1837,-1,-100,-100,-100,"0,0,0",3,-8,0,0,0,0,65,68,83,60,100,-5.71,36,47.0,33.0,-1002.0,13:58:44.794678,192.168.0.113
1842,-1,-100,-100,-100,"0,0,0",3,-6,-1,0,0,0,65,68,82,60,100,-5.86,36,-4.0,109.0,-1001.0,13:58:44.896723,192.168.0.113
1847,-1,-100,-100,-100,"0,0,0",2,-4,0,0,0,0,65,68,83,70,100,-5.78,36,28.0,103.0,-1000.0,13:58:45.002697,192.168.0.113
1852,-1,-100,-100,-100,"0,0,0",2,-4,0,0,0,0,65,67,83,70,100,-5.84,36,51.0,70.0,-1018.0,13:58:45.100581,192.168.0.113
1857,-1,-100,-100,-100,"0,0,0",1,-5,0,0,0,0,65,67,84,70,100,-5.69,37,17.0,93.0,-970.0,13:58:45.202642,192.168.0.113
1862,-1,-100,-100,-100,"0,0,0",3,-5,-1,0,0,0,65,67,83,70,100,-5.83,37,25.0,36.0,-1004.0,13:58:45.306753,192.168.0.113
1867,-1,-100,-100,-100,"0,0,0",3,-5,-1,0,0,0,65,67,83,70,100,-5.9,37,-3.0,66.0,-1016.0,13:58:45.406927,192.168.0.113
1873,-1,-100,-100,-100,"0,0,0",2,-4,-1,0,0,0,65,67,83,70,100,-5.83,37,0.0,146.0,-1017.0,13:58:45.510304,192.168.0.113
1877,-1,-100,-100,-100,"0,0,0",2,-3,0,1,0,0,65,67,83,70,100,-5.61,37,18.0,106.0,-1006.0,13:58:45.636262,192.168.0.113
1883,-1,-100,-100,-100,"0,0,0",1,-5,0,1,0,0,65,67,83,70,100,-5.66,37,33.0,73.0,-976.0,13:58:45.743120,192.168.0.113
1888,-1,-100,-100,-100,"0,0,0",1,-6,0,0,0,0,65,67,84,70,100,-5.87,37,38.0,81.0,-1054.0,13:58:45.814427,192.168.0.113
1893,-1,-100,-100,-100,"0,0,0",2,-4,0,0,0,0,65,67,83,70,100,-5.75,37,31.0,72.0,-986.0,13:58:45.916548,192.168.0.113
1898,-1,-100,-100,-100,"0,0,0",3,-5,0,0,0,0,65,67,83,70,100,-5.77,37,58.0,27.0,-997.0,13:58:46.017997,192.168.0.113
1903,-1,-100,-100,-100,"0,0,0",2,-4,0,0,0,0,64,68,84,70,100,-5.73,37,65.0,31.0,-990.0,13:58:46.120453,192.168.0.113
1908,-1,-100,-100,-100,"0,0,0",2,-3,0,0,0,0,64,68,84,70,100,-5.66,38,28.0,36.0,-924.0,13:58:46.222588,192.168.0.113
1913,-1,-100,-100,-100,"0,0,0",3,-2,0,0,0,0,64,68,84,70,100,-5.66,38,-5.0,85.0,-1020.0,13:58:46.324577,192.168.0.113
1915,-1,-100,-100,-100,"0,0,0",3,-2,0,0,0,0,64,68,84,70,100,-5.76,38,42.0,45.0,-929.0,13:58:46.375813,192.168.0.113
1920,-1,-100,-100,-100,"0,0,0",2,-3,0,0,0,0,64,68,85,70,100,-5.79,38,41.0,60.0,-1031.0,13:58:46.477596,192.168.0.113
1925,-1,-100,-100,-100,"0,0,0",1,-2,0,0,0,0,64,68,85,70,100,-5.62,38,22.0,32.0,-1015.0,13:58:46.579612,192.168.0.113
1931,-1,-100,-100,-100,"0,0,0",2,-2,0,0,0,0,64,68,84,70,100,-5.69,38,45.0,33.0,-1014.0,13:58:46.682061,192.168.0.113
1936,-1,-100,-100,-100,"0,0,0",2,-1,0,0,0,0,64,68,84,70,100,-5.63,38,50.0,79.0,-1006.0,13:58:46.783443,192.168.0.113
1941,-1,-100,-100,-100,"0,0,0",2,-1,0,0,0,0,64,68,84,70,100,-5.74,38,43.0,68.0,-971.0,13:58:46.885254,192.168.0.113
1946,-1,-100,-100,-100,"0,0,0",2,-3,0,0,0,0,64,68,85,70,100,-5.78,38,19.0,59.0,-999.0,13:58:46.987631,192.168.0.113
1951,-1,-100,-100,-100,"0,0,0",3,-3,0,0,0,0,64,67,85,70,100,-5.64,38,46.0,56.0,-1005.0,13:58:47.089368,192.168.0.113
1956,-1,-100,-100,-100,"0,0,0",2,-2,0,0,0,0,64,67,84,70,100,-5.93,39,21.0,82.0,-993.0,13:58:47.191834,192.168.0.113
1962,-1,-100,-100,-100,"0,0,0",2,-2,0,0,0,0,64,67,85,70,100,-5.72,39,20.0,32.0,-956.0,13:58:47.294233,192.168.0.113
1967,-1,-100,-100,-100,"0,0,0",2,-4,0,0,0,0,64,67,85,70,100,-5.49,39,48.0,18.0,-1004.0,13:58:47.395518,192.168.0.113
1972,-1,-100,-100,-100,"0,0,0",2,-2,0,0,0,0,64,67,84,70,100,-5.66,39,67.0,50.0,-1007.0,13:58:47.497451,192.168.0.113
1977,-1,-100,-100,-100,"0,0,0",2,-2,0,0,0,0,64,67,85,70,100,-5.74,39,65.0,45.0,-986.0,13:58:47.599285,192.168.0.113
1982,-1,-100,-100,-100,"0,0,0",3,-2,0,0,0,0,64,67,84,70,100,-5.72,39,22.0,74.0,-993.0,13:58:47.701440,192.168.0.113
1987,-1,-100,-100,-100,"0,0,0",3,-1,0,0,0,0,64,67,83,70,100,-5.63,39,1.0,84.0,-1031.0,13:58:47.803623,192.168.0.113
1992,-1,-100,-100,-100,"0,0,0",2,-3,0,0,0,0,64,67,84,70,100,-5.71,39,53.0,45.0,-933.0,13:58:47.905446,192.168.0.113
1997,-1,-100,-100,-100,"0,0,0",2,-3,0,0,0,0,64,67,83,70,100,-5.79,39,41.0,27.0,-993.0,13:58:48.007141,192.168.0.113
2002,-1,-100,-100,-100,"0,0,0",3,-3,0,0,0,0,65,67,82,70,100,-5.75,39,57.0,9.0,-988.0,13:58:48.109277,192.168.0.113
2007,-1,-100,-100,-100,"0,0,0",3,-2,0,0,0,0,65,67,82,70,100,-5.74,40,32.0,24.0,-1038.0,13:58:48.211376,192.168.0.113
2012,-1,-100,-100,-100,"0,0,0",3,-1,0,0,0,0,65,67,81,60,100,-5.87,40,35.0,23.0,-1039.0,13:58:48.313299,192.168.0.113
2017,-1,-100,-100,-100,"0,0,0",3,0,0,0,0,0,65,67,81,60,100,-5.82,40,35.0,-2.0,-1025.0,13:58:48.415466,192.168.0.113
2022,-1,-100,-100,-100,"0,0,0",3,0,0,0,0,0,65,67,82,60,100,-5.84,40,61.0,11.0,-997.0,13:58:48.518085,192.168.0.113
2027,-1,-100,-100,-100,"0,0,0",3,0,0,0,0,0,65,67,81,60,100,-5.91,40,33.0,-13.0,-1009.0,13:58:48.618815,192.168.0.113
2032,-1,-100,-100,-100,"0,0,0",3,0,0,0,0,0,65,67,82,60,100,-5.87,40,20.0,16.0,-1006.0,13:58:48.721489,192.168.0.113
2037,-1,-100,-100,-100,"0,0,0",3,0,0,0,0,0,65,67,82,60,100,-5.85,40,25.0,-14.0,-975.0,13:58:48.823412,192.168.0.113
2042,-1,-100,-100,-100,"0,0,0",2,0,0,0,0,0,65,67,83,70,100,-5.75,40,51.0,10.0,-984.0,13:58:48.925075,192.168.0.113
2048,-1,-100,-100,-100,"0,0,0",2,0,0,0,0,0,65,67,83,70,100,-5.63,40,32.0,13.0,-980.0,13:58:49.026935,192.168.0.113
2053,-1,-100,-100,-100,"0,0,0",3,0,0,0,0,0,65,67,83,70,100,-5.69,40,18.0,5.0,-970.0,13:58:49.128856,192.168.0.113
2058,-1,-100,-100,-100,"0,0,0",3,0,0,0,0,0,65,67,83,70,100,-5.79,41,29.0,28.0,-994.0,13:58:49.230954,192.168.0.113
2063,-1,-100,-100,-100,"0,0,0",3,0,0,0,0,0,65,67,84,70,100,-5.74,41,37.0,10.0,-1040.0,13:58:49.333485,192.168.0.113
2068,-1,-100,-100,-100,"0,0,0",2,0,0,0,0,0,65,67,83,70,100,-5.59,41,45.0,22.0,-987.0,13:58:49.436582,192.168.0.113
2073,-1,-100,-100,-100,"0,0,0",2,0,0,0,0,0,65,67,83,70,100,-5.64,41,36.0,-9.0,-998.0,13:58:49.537397,192.168.0.113
2078,-1,-100,-100,-100,"0,0,0",2,-1,0,0,0,0,65,67,83,70,100,-5.7,41,54.0,-5.0,-975.0,13:58:49.639432,192.168.0.113
2083,-1,-100,-100,-100,"0,0,0",2,0,0,0,0,0,65,67,83,70,100,-5.69,41,23.0,20.0,-980.0,13:58:49.742200,192.168.0.113
2085,-1,-100,-100,-100,"0,0,0",3,0,0,0,0,0,65,67,82,70,100,-5.71,41,39.0,35.0,-1033.0,13:58:49.792521,192.168.0.113
2090,-1,-100,-100,-100,"0,0,0",3,0,0,0,0,0,65,67,83,70,100,-5.64,41,29.0,54.0,-992.0,13:58:49.894425,192.168.0.113
2095,-1,-100,-100,-100,"0,0,0",2,-1,0,0,0,0,65,67,83,70,100,-5.7,41,33.0,6.0,-995.0,13:58:49.996396,192.168.0.113
2100,-1,-100,-100,-100,"0,0,0",2,-2,0,0,0,0,65,67,83,70,100,-5.73,41,22.0,-23.0,-1018.0,13:58:50.098416,192.168.0.113
2105,-1,-100,-100,-100,"0,0,0",2,-1,0,0,0,0,65,67,83,70,100,-5.85,42,33.0,-11.0,-968.0,13:58:50.200290,192.168.0.113
2110,-1,-100,-100,-100,"0,0,0",2,0,0,0,0,0,65,67,83,70,100,-5.57,42,50.0,10.0,-1011.0,13:58:50.302447,192.168.0.113
2116,-1,-100,-100,-100,"0,0,0",2,0,0,0,0,0,65,67,83,70,100,-5.73,42,31.0,4.0,-1002.0,13:58:50.406374,192.168.0.113
2121,-1,-100,-100,-100,"0,0,0",2,0,0,0,0,0,65,67,84,70,100,-5.78,42,27.0,3.0,-1008.0,13:58:50.506495,192.168.0.113
2126,-1,-100,-100,-100,"0,0,0",2,0,0,0,0,0,65,67,84,70,100,-5.78,42,36.0,15.0,-997.0,13:58:50.608398,192.168.0.113
2131,-1,-100,-100,-100,"0,0,0",2,0,0,0,0,0,65,67,84,70,100,-5.68,42,31.0,15.0,-990.0,13:58:50.710273,192.168.0.113
2137,-1,-100,-100,-100,"0,0,0",3,0,0,0,0,0,65,67,84,70,100,-5.63,42,42.0,9.0,-1017.0,13:58:50.812290,192.168.0.113
2142,-1,-100,-100,-100,"0,0,0",2,0,0,0,0,0,65,67,84,70,100,-5.64,42,44.0,-23.0,-996.0,13:58:50.914206,192.168.0.113
2147,-1,-100,-100,-100,"0,0,0",2,0,0,0,0,0,65,67,84,70,100,-5.8,42,31.0,14.0,-990.0,13:58:51.019586,192.168.0.113
2152,-1,-100,-100,-100,"0,0,0",2,0,0,0,0,0,65,67,84,70,100,-5.68,42,30.0,28.0,-968.0,13:58:51.118391,192.168.0.113
2157,-1,-100,-100,-100,"0,0,0",2,0,0,0,0,0,65,67,84,70,100,-5.64,43,32.0,15.0,-969.0,13:58:51.220294,192.168.0.113
2162,-1,-100,-100,-100,"0,0,0",2,0,0,0,0,0,65,67,83,70,100,-5.65,43,27.0,21.0,-1024.0,13:58:51.322203,192.168.0.113
2167,-1,-100,-100,-100,"0,0,0",2,-1,0,0,0,0,65,67,83,70,100,-5.72,43,22.0,16.0,-994.0,13:58:51.424338,192.168.0.113
2172,-1,-100,-100,-100,"0,0,0",2,0,0,0,0,0,65,67,83,70,100,-5.57,43,44.0,7.0,-1012.0,13:58:51.526030,192.168.0.113
2177,-1,-100,-100,-100,"0,0,0",2,0,0,0,0,0,65,67,83,70,100,-5.85,43,28.0,32.0,-991.0,13:58:51.628256,192.168.0.113
2182,-1,-100,-100,-100,"0,0,0",2,0,0,0,0,0,65,67,83,70,100,-5.58,43,0.0,88.0,-978.0,13:58:51.730384,192.168.0.113
2187,-1,-100,-100,-100,"0,0,0",1,-1,0,0,-1,0,65,67,83,70,100,-5.72,43,46.0,29.0,-982.0,13:58:51.832325,192.168.0.113
2192,-1,-100,-100,-100,"0,0,0",1,-3,0,0,-1,0,65,67,83,70,100,-5.93,43,47.0,20.0,-1015.0,13:58:51.933909,192.168.0.113
2197,-1,-100,-100,-100,"0,0,0",1,-3,0,0,0,0,65,67,82,70,100,-5.72,43,34.0,31.0,-991.0,13:58:52.038744,192.168.0.113
2202,-1,-100,-100,-100,"0,0,0",2,-2,0,0,0,0,65,68,82,70,100,-5.7,43,31.0,62.0,-1008.0,13:58:52.140086,192.168.0.113
2208,-1,-100,-100,-100,"0,0,0",3,-2,0,0,0,0,65,68,83,70,100,-5.77,44,36.0,37.0,-994.0,13:58:52.240066,192.168.0.113
2213,-1,-100,-100,-100,"0,0,0",2,-3,0,0,0,0,65,68,83,70,100,-5.65,44,40.0,-2.0,-1012.0,13:58:52.342397,192.168.0.113
2218,-1,-100,-100,-100,"0,0,0",2,-2,0,0,0,0,65,68,82,70,100,-5.73,44,18.0,25.0,-976.0,13:58:52.444172,192.168.0.113
2223,-1,-100,-100,-100,"0,0,0",2,-1,0,0,0,0,65,68,82,70,100,-5.73,44,18.0,48.0,-998.0,13:58:52.546312,192.168.0.113
2228,-1,-100,-100,-100,"0,0,0",2,-1,0,0,0,0,65,68,82,70,100,-5.71,44,45.0,88.0,-961.0,13:58:52.648294,192.168.0.113
2233,-1,-100,-100,-100,"0,0,0",2,-1,0,0,0,0,65,68,82,60,100,-5.82,44,26.0,52.0,-965.0,13:58:52.751061,192.168.0.113
2238,-1,-100,-100,-100,"0,0,0",2,-3,0,0,0,0,65,68,82,60,100,-5.79,44,4.0,59.0,-1052.0,13:58:52.852343,192.168.0.113
2243,-1,-100,-100,-100,"0,0,0",2,-4,0,0,0,0,65,68,83,60,100,-5.82,44,47.0,56.0,-995.0,13:58:52.954330,192.168.0.113
2245,-1,-100,-100,-100,"0,0,0",1,-3,0,0,0,0,65,68,82,60,100,-5.74,44,49.0,45.0,-976.0,13:58:53.005382,192.168.0.113
2253,-1,-100,-100,-100,"0,0,0",2,-2,0,0,0,0,65,67,82,60,100,-5.66,44,57.0,38.0,-1013.0,13:58:53.158952,192.168.0.113
2255,-1,-100,-100,-100,"0,0,0",3,-3,0,0,-1,0,65,67,81,60,100,-5.73,45,25.0,98.0,-970.0,13:58:53.209547,192.168.0.113
2260,-1,-100,-100,-100,"0,0,0",2,-5,0,0,-1,0,65,67,81,60,100,-5.72,45,51.0,112.0,-965.0,13:58:53.311216,192.168.0.113
2266,-1,-100,-100,-100,"0,0,0",2,-5,0,0,0,0,65,67,81,60,100,-5.74,45,55.0,53.0,-1034.0,13:58:53.413190,192.168.0.113
2271,-1,-100,-100,-100,"0,0,0",2,-3,0,0,0,0,65,67,80,60,100,-5.71,45,14.0,55.0,-995.0,13:58:53.515136,192.168.0.113
2276,-1,-100,-100,-100,"0,0,0",2,-4,0,0,0,0,65,67,80,60,100,-5.72,45,42.0,61.0,-1023.0,13:58:53.616702,192.168.0.113
2281,-1,-100,-100,-100,"0,0,0",1,-3,0,0,0,0,65,67,80,60,100,-5.7,45,29.0,19.0,-1005.0,13:58:53.719218,192.168.0.113
2286,-1,-100,-100,-100,"0,0,0",2,-2,0,0,0,0,65,67,80,60,100,-5.6,45,66.0,58.0,-1019.0,13:58:53.825702,192.168.0.113
2291,-1,-100,-100,-100,"0,0,0",2,-2,0,0,0,0,65,67,80,60,100,-5.75,45,30.0,78.0,-985.0,13:58:53.923105,192.168.0.113
2296,-1,-100,-100,-100,"0,0,0",2,-3,0,0,0,0,65,67,80,60,100,-5.65,45,57.0,36.0,-1013.0,13:58:54.025329,192.168.0.113
2301,-1,-100,-100,-100,"0,0,0",2,-4,0,0,0,0,65,67,79,60,100,-5.81,45,24.0,128.0,-1010.0,13:58:54.127604,192.168.0.113
2307,-1,-100,-100,-100,"0,0,0",2,-5,0,0,0,0,65,67,80,60,100,-5.86,46,19.0,53.0,-983.0,13:58:54.229239,192.168.0.113
2312,-1,-100,-100,-100,"0,0,0",2,-5,-1,0,0,0,65,67,80,60,100,-5.92,46,1.0,91.0,-1019.0,13:58:54.331282,192.168.0.113
2317,-1,-100,-100,-100,"0,0,0",2,-6,-1,0,0,0,65,67,80,60,100,-5.89,46,-9.0,94.0,-998.0,13:58:54.433252,192.168.0.113
2322,-1,-100,-100,-100,"0,0,0",1,-5,-1,0,0,0,65,67,80,60,100,-5.91,46,-27.0,78.0,-1002.0,13:58:54.535294,192.168.0.113
2327,-1,-100,-100,-100,"0,0,0",1,-6,-1,0,0,0,65,67,80,60,100,-5.9,46,19.0,45.0,-988.0,13:58:54.636942,192.168.0.113
2332,-1,-100,-100,-100,"0,0,0",1,-4,0,0,0,0,65,67,80,60,100,-5.59,46,19.0,85.0,-1008.0,13:58:54.738891,192.168.0.113
2337,-1,-100,-100,-100,"0,0,0",0,-3,0,1,0,0,65,67,79,60,100,-5.53,46,32.0,91.0,-999.0,13:58:54.840982,192.168.0.113
2342,-1,-100,-100,-100,"0,0,0",0,-3,0,0,0,0,65,67,79,60,100,-5.87,46,45.0,53.0,-940.0,13:58:54.944796,192.168.0.113
2347,-1,-100,-100,-100,"0,0,0",0,-4,0,0,0,0,65,67,80,60,100,-5.88,46,36.0,35.0,-1006.0,13:58:55.045074,192.168.0.113
2352,-1,-100,-100,-100,"0,0,0",2,-2,0,0,1,0,65,68,80,60,100,-5.79,47,7.0,56.0,-1026.0,13:58:55.147134,192.168.0.113
2358,-1,-100,-100,-100,"0,0,0",1,-1,0,0,0,0,65,68,80,60,100,-5.82,47,0.0,49.0,-1024.0,13:58:55.249147,192.168.0.113
2363,-1,-100,-100,-100,"0,0,0",1,-1,0,0,0,0,65,68,81,60,100,-5.77,47,36.0,53.0,-1012.0,13:58:55.352794,192.168.0.113
2368,-1,-100,-100,-100,"0,0,0",0,-2,0,0,0,0,65,68,80,60,100,-5.81,47,43.0,27.0,-985.0,13:58:55.452978,192.168.0.113
2373,-1,-100,-100,-100,"0,0,0",1,-2,0,0,0,0,65,68,81,70,100,-5.76,47,28.0,34.0,-986.0,13:58:55.555328,192.168.0.113
2378,-1,-100,-100,-100,"0,0,0",1,-2,0,0,0,0,65,68,82,70,100,-5.86,47,22.0,19.0,-1025.0,13:58:55.657101,192.168.0.113
2383,-1,-100,-100,-100,"0,0,0",1,-1,0,0,0,0,65,68,82,70,100,-5.83,47,35.0,20.0,-993.0,13:58:55.758764,192.168.0.113
2388,-1,-100,-100,-100,"0,0,0",1,0,0,0,0,0,65,68,81,70,100,-5.78,47,36.0,22.0,-993.0,13:58:55.862060,192.168.0.113
2393,-1,-100,-100,-100,"0,0,0",1,0,0,0,0,0,65,68,82,70,100,-5.9,47,28.0,24.0,-1004.0,13:58:55.964714,192.168.0.113
2398,-1,-100,-100,-100,"0,0,0",2,0,0,0,0,0,65,68,82,70,100,-5.75,47,37.0,39.0,-991.0,13:58:56.065002,192.168.0.113
2403,-1,-100,-100,-100,"0,0,0",2,0,0,0,0,0,65,67,82,70,100,-5.73,48,48.0,32.0,-994.0,13:58:56.167236,192.168.0.113
2408,-1,-100,-100,-100,"0,0,0",2,0,0,0,0,0,65,67,82,70,100,-5.66,48,59.0,41.0,-997.0,13:58:56.269155,192.168.0.113
2413,-1,-100,-100,-100,"0,0,0",2,-1,0,0,0,0,65,67,82,70,100,-5.79,48,41.0,46.0,-996.0,13:58:56.371220,192.168.0.113
2418,-1,-100,-100,-100,"0,0,0",3,-1,0,0,0,0,65,67,81,70,100,-5.79,48,55.0,57.0,-1006.0,13:58:56.473237,192.168.0.113
2420,-1,-100,-100,-100,"0,0,0",3,-1,0,0,0,0,65,67,82,70,100,-5.69,48,9.0,49.0,-973.0,13:58:56.524237,192.168.0.113
2425,-1,-100,-100,-100,"0,0,0",3,-2,0,0,0,0,65,67,82,70,100,-5.82,48,28.0,33.0,-1050.0,13:58:56.631608,192.168.0.113
2430,-1,-100,-100,-100,"0,0,0",2,-2,0,0,0,0,65,67,82,70,100,-5.73,48,30.0,16.0,-996.0,13:58:56.732015,192.168.0.113
2435,-1,-100,-100,-100,"0,0,0",2,-2,0,0,0,0,65,67,82,70,100,-5.75,48,43.0,35.0,-1002.0,13:58:56.830327,192.168.0.113
2440,-1,-100,-100,-100,"0,0,0",2,-2,0,0,0,0,65,67,82,70,100,-5.63,48,23.0,58.0,-984.0,13:58:56.932188,192.168.0.113
2446,-1,-100,-100,-100,"0,0,0",1,-1,0,0,0,0,65,67,83,70,100,-5.69,48,40.0,51.0,-924.0,13:58:57.033831,192.168.0.113
2451,-1,-100,-100,-100,"0,0,0",2,-2,0,0,0,0,64,68,83,70,100,-5.74,49,21.0,62.0,-1006.0,13:58:57.135822,192.168.0.113
2456,-1,-100,-100,-100,"0,0,0",2,-1,0,0,0,0,64,68,83,70,100,-5.66,49,35.0,47.0,-1005.0,13:58:57.245335,192.168.0.113
2462,-1,-100,-100,-100,"0,0,0",2,-2,0,0,0,0,64,68,83,70,100,-5.8,49,11.0,12.0,-1006.0,13:58:57.341270,192.168.0.113
2466,-1,-100,-100,-100,"0,0,0",2,-2,0,0,0,0,64,68,84,70,100,-5.79,49,32.0,42.0,-1045.0,13:58:57.443295,192.168.0.113
2471,-1,-100,-100,-100,"0,0,0",2,-1,0,0,0,0,64,68,83,70,100,-5.76,49,26.0,12.0,-982.0,13:58:57.543965,192.168.0.113
2476,-1,-100,-100,-100,"0,0,0",1,-1,0,0,0,0,64,68,84,70,100,-5.75,49,14.0,47.0,-995.0,13:58:57.646065,192.168.0.113
2482,-1,-100,-100,-100,"0,0,0",2,-1,0,0,0,0,64,68,84,70,100,-5.85,49,15.0,66.0,-1003.0,13:58:57.747910,192.168.0.113
2487,-1,-100,-100,-100,"0,0,0",1,-2,0,0,0,0,64,68,85,70,100,-5.82,49,35.0,52.0,-958.0,13:58:57.850733,192.168.0.113
2492,-1,-100,-100,-100,"0,0,0",1,-1,0,0,0,0,64,68,86,70,100,-5.82,49,15.0,38.0,-988.0,13:58:57.952989,192.168.0.113
2497,-1,-100,-100,-100,"0,0,0",1,-1,0,0,0,0,64,68,86,70,100,-5.82,49,35.0,29.0,-997.0,13:58:58.055098,192.168.0.113
2502,-1,-100,-100,-100,"0,0,0",1,-1,0,0,0,0,65,67,86,70,100,-5.77,50,38.0,34.0,-1003.0,13:58:58.157097,192.168.0.113
2507,-1,-100,-100,-100,"0,0,0",1,-1,0,0,0,0,65,67,86,70,100,-5.74,50,30.0,21.0,-1019.0,13:58:58.259000,192.168.0.113
2512,-1,-100,-100,-100,"0,0,0",1,-1,0,0,0,0,65,67,86,70,100,-5.79,50,-5.0,38.0,-1011.0,13:58:58.362001,192.168.0.113
2517,-1,-100,-100,-100,"0,0,0",0,-2,0,0,0,0,65,67,86,70,100,-5.6,50,32.0,35.0,-950.0,13:58:58.463082,192.168.0.113
2522,-1,-100,-100,-100,"0,0,0",1,-1,0,0,0,0,65,67,85,70,100,-5.52,50,43.0,27.0,-1028.0,13:58:58.564666,192.168.0.113
2527,-1,-100,-100,-100,"0,0,0",1,-1,0,0,0,0,65,67,85,70,100,-5.67,50,28.0,55.0,-1008.0,13:58:58.667054,192.168.0.113
2532,-1,-100,-100,-100,"0,0,0",1,-2,0,0,0,0,65,67,86,70,100,-5.76,50,23.0,34.0,-1004.0,13:58:58.769205,192.168.0.113
2537,-1,-100,-100,-100,"0,0,0",1,-2,0,0,0,0,65,67,85,70,100,-5.71,50,21.0,21.0,-1015.0,13:58:58.871058,192.168.0.113
2542,-1,-100,-100,-100,"0,0,0",1,-1,0,0,0,0,65,67,84,70,100,-5.86,50,33.0,10.0,-1021.0,13:58:58.973176,192.168.0.113
2548,-1,-100,-100,-100,"0,0,0",0,-1,0,0,0,0,65,67,84,70,100,-5.74,50,27.0,22.0,-1006.0,13:58:59.074720,192.168.0.113
2553,-1,-100,-100,-100,"0,0,0",1,0,0,0,0,0,66,67,83,70,100,-5.9,51,9.0,18.0,-1015.0,13:58:59.177076,192.168.0.113
2558,-1,-100,-100,-100,"0,0,0",1,0,0,0,0,0,66,67,84,70,100,-5.8,51,11.0,3.0,-1018.0,13:58:59.279101,192.168.0.113
2563,-1,-100,-100,-100,"0,0,0",0,0,0,0,0,0,66,67,83,70,100,-5.77,51,30.0,32.0,-999.0,13:58:59.380918,192.168.0.113
2568,-1,-100,-100,-100,"0,0,0",0,0,0,0,0,0,66,67,84,70,100,-5.82,51,27.0,33.0,-1010.0,13:58:59.482882,192.168.0.113
2573,-1,-100,-100,-100,"0,0,0",1,0,0,0,0,0,66,67,84,70,100,-5.73,51,5.0,41.0,-964.0,13:58:59.585056,192.168.0.113
2578,-1,-100,-100,-100,"0,0,0",1,-1,0,0,0,0,66,67,83,70,100,-5.76,51,31.0,44.0,-1034.0,13:58:59.687095,192.168.0.113
2583,-1,-100,-100,-100,"0,0,0",0,-1,0,0,0,0,66,67,83,70,100,-5.75,51,36.0,30.0,-956.0,13:58:59.788982,192.168.0.113
2588,-1,-100,-100,-100,"0,0,0",1,-1,0,0,0,0,66,67,83,70,100,-5.84,51,41.0,34.0,-1024.0,13:58:59.890853,192.168.0.113
