,mid,x,y,z,mpry,pitch,roll,yaw,vgx,vgy,vgz,templ,temph,tof,h,bat,baro,time,agx,agy,agz,timestamp,address
1,-1,-100,-100,-100,"0,0,0",0,0,0,0,0,0,59,62,10,0,100,-5.67,0,-1.0,-4.0,-996.0,13:58:07.989806,192.168.0.112
6,-1,-100,-100,-100,"0,0,0",0,0,0,0,0,0,59,62,10,0,100,-5.63,0,-1.0,-3.0,-1001.0,13:58:08.090737,192.168.0.112
11,-1,-100,-100,-100,"0,0,0",0,0,0,0,0,0,59,62,10,0,100,-5.64,0,6.0,-1.0,-998.0,13:58:08.192833,192.168.0.112
16,-1,-100,-100,-100,"0,0,0",0,0,0,0,0,0,59,62,10,0,100,-5.64,0,-4.0,0.0,-998.0,13:58:08.294881,192.168.0.112
22,-1,-100,-100,-100,"0,0,0",0,0,0,0,0,0,59,62,10,0,100,-5.64,0,1.0,0.0,-998.0,13:58:08.396769,192.168.0.112
28,-1,-100,-100,-100,"0,0,0",0,0,0,0,0,0,59,62,10,0,100,-5.64,0,15.0,5.0,-1007.0,13:58:08.498339,192.168.0.112
33,-1,-100,-100,-100,"0,0,0",0,0,0,0,0,0,59,62,10,0,100,-5.64,0,-7.0,16.0,-1164.0,13:58:08.602872,192.168.0.112
39,-1,-100,-100,-100,"0,0,0",0,0,0,0,0,1,59,62,10,0,100,-5.64,0,36.0,-5.0,-1297.0,13:58:08.702868,192.168.0.112
44,-1,-100,-100,-100,"0,0,0",1,0,0,0,0,5,59,62,10,0,100,-5.64,0,-19.0,17.0,-1296.0,13:58:08.804930,192.168.0.112
49,-1,-100,-100,-100,"0,0,0",1,0,0,0,0,7,59,62,18,0,100,-5.47,0,29.0,-4.0,-1106.0,13:58:08.907053,192.168.0.112
54,-1,-100,-100,-100,"0,0,0",0,-1,0,0,0,8,59,62,23,10,100,-5.22,0,22.0,-21.0,-1033.0,13:58:09.008865,192.168.0.112
59,-1,-100,-100,-100,"0,0,0",1,0,0,0,0,7,59,62,32,20,100,-5.11,0,31.0,-23.0,-981.0,13:58:09.112784,192.168.0.112
64,-1,-100,-100,-100,"0,0,0",1,1,0,0,0,7,59,62,41,20,100,-5.13,1,-17.0,14.0,-937.0,13:58:09.212813,192.168.0.112
69,-1,-100,-100,-100,"0,0,0",2,1,0,0,0,6,59,62,49,30,100,-4.95,1,16.0,31.0,-893.0,13:58:09.314676,192.168.0.112
74,-1,-100,-100,-100,"0,0,0",1,0,0,0,0,4,59,62,56,30,100,-4.75,1,40.0,29.0,-890.0,13:58:09.416703,192.168.0.112
79,-1,-100,-100,-100,"0,0,0",0,-2,0,0,0,3,59,62,61,40,100,-4.73,1,41.0,-2.0,-880.0,13:58:09.519676,192.168.0.112
84,-1,-100,-100,-100,"0,0,0",0,-1,0,0,0,2,59,62,66,40,100,-4.67,1,55.0,8.0,-887.0,13:58:09.620842,192.168.0.112
89,-1,-100,-100,-100,"0,0,0",1,-1,0,0,0,1,59,62,69,40,100,-4.72,1,31.0,35.0,-939.0,13:58:09.722821,192.168.0.112
94,-1,-100,-100,-100,"0,0,0",1,-1,0,0,0,1,59,62,72,40,100,-4.68,1,61.0,14.0,-945.0,13:58:09.824787,192.168.0.112
99,-1,-100,-100,-100,"0,0,0",1,-1,0,0,0,0,59,62,74,40,100,-4.79,1,37.0,19.0,-951.0,13:58:09.926880,192.168.0.112
100,-1,-100,-100,-100,"0,0,0",2,0,0,0,0,0,59,62,77,50,100,-4.67,1,11.0,41.0,-1034.0,13:58:09.977979,192.168.0.112
105,-1,-100,-100,-100,"0,0,0",1,-1,0,0,0,0,59,62,80,50,100,-4.68,1,49.0,-1.0,-1008.0,13:58:10.080506,192.168.0.112
110,-1,-100,-100,-100,"0,0,0",1,0,0,0,0,1,59,62,82,50,100,-4.72,2,51.0,1.0,-996.0,13:58:10.181846,192.168.0.112
116,-1,-100,-100,-100,"0,0,0",1,0,0,0,0,0,59,62,84,50,100,-4.75,2,19.0,21.0,-998.0,13:58:10.283951,192.168.0.112
121,-1,-100,-100,-100,"0,0,0",1,-1,0,0,0,0,59,62,86,50,100,-4.61,2,0.0,-3.0,-961.0,13:58:10.385797,192.168.0.112
126,-1,-100,-100,-100,"0,0,0",0,-1,0,0,0,0,59,62,88,50,100,-4.45,2,37.0,-7.0,-964.0,13:58:10.490352,192.168.0.112
131,-1,-100,-100,-100,"0,0,0",0,0,0,0,0,0,59,62,90,60,100,-4.58,2,52.0,9.0,-961.0,13:58:10.589785,192.168.0.112
136,-1,-100,-100,-100,"0,0,0",1,0,0,0,0,0,59,62,91,60,100,-4.55,2,24.0,24.0,-977.0,13:58:10.693768,192.168.0.112
141,-1,-100,-100,-100,"0,0,0",1,0,0,0,0,0,59,62,91,60,100,-4.59,2,11.0,6.0,-968.0,13:58:10.793907,192.168.0.112
146,-1,-100,-100,-100,"0,0,0",0,0,0,0,0,0,59,62,93,60,100,-4.52,2,33.0,-4.0,-965.0,13:58:10.895968,192.168.0.112
153,-1,-100,-100,-100,"0,0,0",0,0,0,0,0,0,59,62,92,60,100,-4.58,2,39.0,-4.0,-955.0,13:58:10.998524,192.168.0.112
158,-1,-100,-100,-100,"0,0,0",1,0,0,0,0,0,59,62,93,60,100,-4.6,2,29.0,11.0,-977.0,13:58:11.102074,192.168.0.112
163,-1,-100,-100,-100,"0,0,0",1,0,0,0,0,0,59,62,93,60,100,-4.55,3,24.0,17.0,-984.0,13:58:11.201908,192.168.0.112
169,-1,-100,-100,-100,"0,0,0",0,0,0,0,0,0,59,62,92,60,100,-4.6,3,29.0,17.0,-989.0,13:58:11.303921,192.168.0.112
174,-1,-100,-100,-100,"0,0,0",1,0,0,0,0,0,59,62,92,60,100,-4.54,3,33.0,9.0,-986.0,13:58:11.406172,192.168.0.112
179,-1,-100,-100,-100,"0,0,0",0,0,0,0,0,0,59,62,92,60,100,-4.61,3,27.0,18.0,-980.0,13:58:11.507892,192.168.0.112
184,-1,-100,-100,-100,"0,0,0",0,0,0,0,0,0,59,62,91,60,100,-4.56,3,9.0,31.0,-965.0,13:58:11.609653,192.168.0.112
189,-1,-100,-100,-100,"0,0,0",0,0,0,0,0,-1,59,62,90,60,100,-4.61,3,42.0,12.0,-994.0,13:58:11.711932,192.168.0.112
194,-1,-100,-100,-100,"0,0,0",1,0,0,0,0,0,59,62,89,60,100,-4.61,3,38.0,12.0,-1001.0,13:58:11.905864,192.168.0.112
199,-1,-100,-100,-100,"0,0,0",1,0,0,0,0,0,59,62,89,60,100,-4.63,3,47.0,2.0,-1004.0,13:58:11.917413,192.168.0.112
204,-1,-100,-100,-100,"0,0,0",1,0,0,0,0,0,59,62,88,60,100,-4.66,3,35.0,18.0,-1015.0,13:58:12.124519,192.168.0.112
209,-1,-100,-100,-100,"0,0,0",1,-1,0,0,0,0,59,62,87,60,100,-4.68,3,25.0,26.0,-1003.0,13:58:12.125423,192.168.0.112
214,-1,-100,-100,-100,"0,0,0",0,-1,0,0,0,0,59,62,87,60,100,-4.65,4,36.0,14.0,-976.0,13:58:12.330875,192.168.0.112
219,-1,-100,-100,-100,"0,0,0",0,-1,0,0,0,0,59,62,86,60,100,-4.64,4,45.0,12.0,-968.0,13:58:12.331930,192.168.0.112
224,-1,-100,-100,-100,"0,0,0",1,0,0,0,0,0,59,62,86,60,100,-4.63,4,30.0,27.0,-1030.0,13:58:12.425839,192.168.0.112
225,-1,-100,-100,-100,"0,0,0",1,-1,0,0,0,0,59,62,84,60,100,-4.73,4,27.0,41.0,-1014.0,13:58:12.476934,192.168.0.112
230,-1,-100,-100,-100,"0,0,0",1,0,0,0,0,0,59,62,84,60,100,-4.61,4,22.0,48.0,-1000.0,13:58:12.738001,192.168.0.112
235,-1,-100,-100,-100,"0,0,0",1,-1,0,0,0,0,60,62,83,60,100,-4.69,4,18.0,42.0,-1012.0,13:58:12.739029,192.168.0.112
241,-1,-100,-100,-100,"0,0,0",0,-2,0,0,0,0,60,62,83,60,100,-4.59,4,25.0,17.0,-979.0,13:58:12.782871,192.168.0.112
246,-1,-100,-100,-100,"0,0,0",0,-2,0,0,0,0,60,62,82,60,100,-4.63,4,40.0,-5.0,-962.0,13:58:12.943554,192.168.0.112
251,-1,-100,-100,-100,"0,0,0",0,-1,0,0,0,0,60,62,82,50,100,-4.6,4,25.0,9.0,-1001.0,13:58:13.149405,192.168.0.112
256,-1,-100,-100,-100,"0,0,0",0,0,0,0,0,0,60,62,81,50,100,-4.58,4,38.0,-17.0,-1001.0,13:58:13.150297,192.168.0.112
261,-1,-100,-100,-100,"0,0,0",0,0,0,0,0,0,60,62,81,50,100,-4.73,5,36.0,-16.0,-990.0,13:58:13.190809,192.168.0.112
266,-1,-100,-100,-100,"0,0,0",0,0,0,0,0,0,60,62,80,50,100,-4.73,5,35.0,-10.0,-1009.0,13:58:13.356551,192.168.0.112
271,-1,-100,-100,-100,"0,0,0",0,0,0,0,0,0,60,62,80,50,100,-4.74,5,29.0,-10.0,-992.0,13:58:13.394608,192.168.0.112
277,-1,-100,-100,-100,"0,0,0",0,0,0,0,0,0,60,62,80,50,100,-4.63,5,20.0,-11.0,-1008.0,13:58:13.561425,192.168.0.112
282,-1,-100,-100,-100,"0,0,0",0,1,0,0,0,0,60,62,79,50,100,-4.64,5,42.0,-20.0,-1002.0,13:58:13.598391,192.168.0.112
288,-1,-100,-100,-100,"0,0,0",0,1,0,0,0,0,59,61,80,50,100,-4.73,5,47.0,8.0,-1009.0,13:58:13.768900,192.168.0.112
294,-1,-100,-100,-100,"0,0,0",1,1,0,0,0,0,59,61,80,50,100,-4.73,5,56.0,11.0,-982.0,13:58:13.802577,192.168.0.112
299,-1,-100,-100,-100,"0,0,0",1,0,0,0,0,0,59,61,80,50,100,-4.78,5,34.0,17.0,-986.0,13:58:13.975023,192.168.0.112
304,-1,-100,-100,-100,"0,0,0",2,0,0,0,0,0,59,61,80,50,100,-4.63,5,17.0,22.0,-1000.0,13:58:14.006857,192.168.0.112
309,-1,-100,-100,-100,"0,0,0",1,0,0,0,0,0,59,61,81,50,100,-4.74,5,24.0,7.0,-986.0,13:58:14.108462,192.168.0.112
314,-1,-100,-100,-100,"0,0,0",1,0,0,0,0,0,59,61,81,50,100,-4.74,6,29.0,6.0,-1000.0,13:58:14.210565,192.168.0.112
319,-1,-100,-100,-100,"0,0,0",0,0,0,0,0,0,59,61,81,50,100,-4.83,6,31.0,3.0,-984.0,13:58:14.312640,192.168.0.112
324,-1,-100,-100,-100,"0,0,0",1,0,0,0,0,0,59,61,82,50,100,-4.66,6,31.0,8.0,-1007.0,13:58:14.414713,192.168.0.112
329,-1,-100,-100,-100,"0,0,0",1,0,0,0,0,0,59,61,82,50,100,-4.65,6,35.0,2.0,-987.0,13:58:14.516879,192.168.0.112
334,-1,-100,-100,-100,"0,0,0",1,0,0,0,0,0,59,61,82,50,100,-4.65,6,48.0,-5.0,-973.0,13:58:14.618686,192.168.0.112
339,-1,-100,-100,-100,"0,0,0",1,0,0,0,0,0,59,62,81,50,100,-4.73,6,34.0,6.0,-982.0,13:58:14.720632,192.168.0.112
344,-1,-100,-100,-100,"0,0,0",1,0,0,0,0,0,59,62,81,50,100,-4.75,6,50.0,-7.0,-983.0,13:58:14.822898,192.168.0.112
349,-1,-100,-100,-100,"0,0,0",1,0,0,0,0,0,59,62,81,50,100,-4.69,6,33.0,3.0,-1017.0,13:58:14.925375,192.168.0.112
354,-1,-100,-100,-100,"0,0,0",1,0,0,0,0,0,59,62,81,50,100,-4.72,6,15.0,0.0,-1013.0,13:58:15.027909,192.168.0.112
355,-1,-100,-100,-100,"0,0,0",0,0,0,0,0,0,59,62,80,50,100,-4.68,6,7.0,-8.0,-1024.0,13:58:15.077692,192.168.0.112
360,-1,-100,-100,-100,"0,0,0",0,0,0,0,0,0,59,62,81,50,100,-4.71,7,19.0,-13.0,-1001.0,13:58:15.179596,192.168.0.112
365,-1,-100,-100,-100,"0,0,0",0,1,0,0,0,0,59,62,81,50,100,-4.69,7,0.0,-18.0,-1016.0,13:58:15.281610,192.168.0.112
371,-1,-100,-100,-100,"0,0,0",0,1,0,0,0,0,59,62,81,50,100,-4.76,7,4.0,-17.0,-1006.0,13:58:15.383587,192.168.0.112
376,-1,-100,-100,-100,"0,0,0",0,1,0,0,0,0,59,62,82,50,100,-4.73,7,4.0,-16.0,-1007.0,13:58:15.485741,192.168.0.112
381,-1,-100,-100,-100,"0,0,0",0,2,0,0,0,0,59,62,82,50,100,-4.74,7,41.0,-42.0,-995.0,13:58:15.587959,192.168.0.112
386,-1,-100,-100,-100,"0,0,0",0,2,0,0,0,0,59,62,82,50,100,-4.7,7,34.0,-22.0,-994.0,13:58:15.694148,192.168.0.112
391,-1,-100,-100,-100,"0,0,0",0,2,0,0,0,0,59,62,82,50,100,-4.8,7,22.0,-5.0,-992.0,13:58:15.792919,192.168.0.112
396,-1,-100,-100,-100,"0,0,0",0,1,0,0,0,0,59,62,83,60,100,-4.73,7,5.0,-8.0,-999.0,13:58:15.894335,192.168.0.112
401,-1,-100,-100,-100,"0,0,0",0,0,0,0,0,0,59,62,83,60,100,-4.78,7,25.0,-6.0,-973.0,13:58:15.995567,192.168.0.112
407,-1,-100,-100,-100,"0,0,0",0,1,0,0,0,0,59,62,83,60,100,-4.77,7,12.0,20.0,-988.0,13:58:16.099054,192.168.0.112
413,-1,-100,-100,-100,"0,0,0",0,0,0,0,0,0,59,62,82,60,100,-4.61,8,18.0,5.0,-998.0,13:58:16.199570,192.168.0.112
418,-1,-100,-100,-100,"0,0,0",0,0,0,0,0,0,59,62,82,60,100,-4.72,8,26.0,-1.0,-1023.0,13:58:16.301901,192.168.0.112
424,-1,-100,-100,-100,"0,0,0",0,0,0,0,0,0,59,62,81,60,100,-4.71,8,44.0,-11.0,-988.0,13:58:16.403932,192.168.0.112
429,-1,-100,-100,-100,"0,0,0",0,0,0,0,0,0,59,62,81,50,100,-4.81,8,25.0,-15.0,-1004.0,13:58:16.505663,192.168.0.112
434,-1,-100,-100,-100,"0,0,0",0,0,0,0,0,0,59,62,80,50,100,-4.77,8,19.0,-3.0,-1032.0,13:58:16.608599,192.168.0.112
439,-1,-100,-100,-100,"0,0,0",0,0,0,0,0,0,59,62,81,50,100,-4.8,8,36.0,-5.0,-1035.0,13:58:16.710504,192.168.0.112
444,-1,-100,-100,-100,"0,0,0",0,0,0,0,0,0,59,62,80,50,100,-4.71,8,10.0,11.0,-998.0,13:58:16.811553,192.168.0.112
449,-1,-100,-100,-100,"0,0,0",0,0,0,0,0,0,59,62,80,50,100,-4.69,8,18.0,6.0,-1005.0,13:58:16.913417,192.168.0.112
454,-1,-100,-100,-100,"0,0,0",0,0,0,0,0,0,59,62,81,50,100,-4.71,8,15.0,-7.0,-1006.0,13:58:17.015635,192.168.0.112
459,-1,-100,-100,-100,"0,0,0",0,0,0,0,0,0,59,62,81,50,100,-4.67,8,4.0,-15.0,-960.0,13:58:17.117575,192.168.0.112
464,-1,-100,-100,-100,"0,0,0",0,0,0,0,0,0,59,62,79,50,100,-4.71,9,16.0,-16.0,-1023.0,13:58:17.219595,192.168.0.112
469,-1,-100,-100,-100,"0,0,0",0,0,0,0,0,0,59,62,79,50,100,-4.68,9,21.0,-19.0,-985.0,13:58:17.321634,192.168.0.112
474,-1,-100,-100,-100,"0,0,0",0,1,0,0,0,0,59,62,79,50,100,-4.64,9,6.0,-6.0,-1022.0,13:58:17.423657,192.168.0.112
479,-1,-100,-100,-100,"0,0,0",0,1,0,0,0,0,59,62,79,50,100,-4.61,9,10.0,-6.0,-1005.0,13:58:17.525731,192.168.0.112
484,-1,-100,-100,-100,"0,0,0",0,1,0,0,0,0,59,62,79,50,100,-4.64,9,-1.0,3.0,-997.0,13:58:17.627566,192.168.0.112
489,-1,-100,-100,-100,"0,0,0",0,0,0,0,0,0,60,62,78,50,100,-4.52,9,1.0,1.0,-972.0,13:58:17.730110,192.168.0.112
494,-1,-100,-100,-100,"0,0,0",-1,0,2,0,0,0,60,62,78,50,100,-4.62,9,17.0,2.0,-1045.0,13:58:17.831708,192.168.0.112
499,-1,-100,-100,-100,"0,0,0",0,0,2,0,0,0,60,62,78,50,100,-4.74,9,38.0,-3.0,-984.0,13:58:17.933440,192.168.0.112
504,-1,-100,-100,-100,"0,0,0",0,0,0,0,0,0,60,62,77,50,100,-4.66,9,18.0,3.0,-974.0,13:58:18.035464,192.168.0.112
509,-1,-100,-100,-100,"0,0,0",0,1,0,0,0,0,60,62,76,50,100,-4.72,9,21.0,-29.0,-988.0,13:58:18.137593,192.168.0.112
514,-1,-100,-100,-100,"0,0,0",0,1,0,0,0,0,60,62,76,50,100,-4.92,10,5.0,-20.0,-1067.0,13:58:18.240172,192.168.0.112
519,-1,-100,-100,-100,"0,0,0",0,0,0,0,0,0,60,62,77,50,100,-4.83,10,8.0,-7.0,-1036.0,13:58:18.341672,192.168.0.112
524,-1,-100,-100,-100,"0,0,0",0,0,0,0,0,0,60,62,76,50,100,-4.81,10,5.0,-16.0,-1036.0,13:58:18.443732,192.168.0.112
526,-1,-100,-100,-100,"0,0,0",-1,0,0,0,0,0,60,62,77,50,100,-4.71,10,-13.0,-14.0,-998.0,13:58:18.494465,192.168.0.112
532,-1,-100,-100,-100,"0,0,0",-1,1,0,0,0,0,60,62,77,50,100,-4.73,10,0.0,-16.0,-1019.0,13:58:18.597905,192.168.0.112
539,-1,-100,-100,-100,"0,0,0",-1,1,0,0,0,0,60,62,78,50,100,-4.77,10,0.0,-3.0,-993.0,13:58:18.749811,192.168.0.112
543,-1,-100,-100,-100,"0,0,0",-1,0,0,0,0,0,60,62,79,50,100,-4.69,10,-7.0,-10.0,-976.0,13:58:18.800530,192.168.0.112
549,-1,-100,-100,-100,"0,0,0",-1,0,0,0,0,0,60,62,79,50,100,-4.68,10,16.0,-13.0,-970.0,13:58:18.902459,192.168.0.112
554,-1,-100,-100,-100,"0,0,0",-1,1,0,0,0,0,60,62,79,50,100,-4.73,10,14.0,-19.0,-1007.0,13:58:19.004625,192.168.0.112
559,-1,-100,-100,-100,"0,0,0",0,1,0,0,0,0,60,62,80,50,100,-4.74,10,16.0,-17.0,-1006.0,13:58:19.107921,192.168.0.112
564,-1,-100,-100,-100,"0,0,0",0,1,0,0,0,0,60,62,81,50,100,-4.76,11,7.0,-14.0,-988.0,13:58:19.210139,192.168.0.112
569,-1,-100,-100,-100,"0,0,0",0,1,0,0,0,0,60,62,81,50,100,-4.85,11,-15.0,4.0,-999.0,13:58:19.311843,192.168.0.112
574,-1,-100,-100,-100,"0,0,0",0,0,0,0,0,0,60,62,81,50,100,-4.81,11,3.0,-9.0,-1015.0,13:58:19.412507,192.168.0.112
579,-1,-100,-100,-100,"0,0,0",0,0,0,0,0,0,60,62,82,50,100,-4.82,11,6.0,-26.0,-992.0,13:58:19.514420,192.168.0.112
584,-1,-100,-100,-100,"0,0,0",-1,0,0,0,0,0,60,62,82,50,100,-4.71,11,-2.0,-21.0,-988.0,13:58:19.616255,192.168.0.112
589,-1,-100,-100,-100,"0,0,0",-1,0,0,0,0,0,59,62,82,50,100,-4.73,11,-1.0,-9.0,-983.0,13:58:19.718495,192.168.0.112
594,-1,-100,-100,-100,"0,0,0",-1,1,0,0,0,0,59,62,83,50,100,-4.71,11,0.0,-2.0,-992.0,13:58:19.820609,192.168.0.112
599,-1,-100,-100,-100,"0,0,0",-1,1,0,0,0,0,59,62,82,60,100,-4.68,11,0.0,-11.0,-998.0,13:58:19.922660,192.168.0.112
604,-1,-100,-100,-100,"0,0,0",-1,0,0,0,0,0,59,62,83,60,100,-4.75,11,-4.0,-5.0,-1001.0,13:58:20.024475,192.168.0.112
609,-1,-100,-100,-100,"0,0,0",-1,0,0,0,0,0,59,62,83,60,100,-4.78,11,11.0,-20.0,-986.0,13:58:20.126571,192.168.0.112
614,-1,-100,-100,-100,"0,0,0",-1,0,0,0,0,0,59,62,83,50,100,-4.78,12,3.0,-26.0,-989.0,13:58:20.228560,192.168.0.112
619,-1,-100,-100,-100,"0,0,0",-1,0,0,0,0,0,59,62,83,50,100,-4.78,12,-18.0,-1.0,-1005.0,13:58:20.330457,192.168.0.112
624,-1,-100,-100,-100,"0,0,0",-1,0,0,0,0,0,59,62,82,50,100,-4.75,12,-9.0,-11.0,-994.0,13:58:20.434143,192.168.0.112
629,-1,-100,-100,-100,"0,0,0",-1,0,0,0,0,0,59,62,82,50,100,-4.75,12,-11.0,-12.0,-984.0,13:58:20.534606,192.168.0.112
634,-1,-100,-100,-100,"0,0,0",-1,0,0,0,0,0,59,62,82,50,100,-4.76,12,2.0,-17.0,-1002.0,13:58:20.637106,192.168.0.112
639,-1,-100,-100,-100,"0,0,0",-1,0,0,0,0,0,60,62,82,50,100,-4.76,12,-5.0,-16.0,-994.0,13:58:20.738506,192.168.0.112
644,-1,-100,-100,-100,"0,0,0",-1,0,0,0,0,0,60,62,82,50,100,-4.76,12,-6.0,-23.0,-1001.0,13:58:20.840544,192.168.0.112
649,-1,-100,-100,-100,"0,0,0",-1,1,0,0,0,0,60,62,81,50,100,-4.74,12,-13.0,-17.0,-1006.0,13:58:20.944691,192.168.0.112
654,-1,-100,-100,-100,"0,0,0",-1,1,0,0,0,0,60,62,81,50,100,-4.78,12,0.0,-24.0,-993.0,13:58:21.044511,192.168.0.112
659,-1,-100,-100,-100,"0,0,0",-1,1,0,0,0,0,60,62,81,50,100,-4.71,12,7.0,-25.0,-1003.0,13:58:21.146325,192.168.0.112
664,-1,-100,-100,-100,"0,0,0",-1,1,0,0,0,0,60,62,82,50,100,-4.78,13,9.0,-16.0,-992.0,13:58:21.248407,192.168.0.112
669,-1,-100,-100,-100,"0,0,0",-1,1,0,0,0,0,60,62,81,50,100,-4.87,13,0.0,0.0,-1002.0,13:58:21.351436,192.168.0.112
674,-1,-100,-100,-100,"0,0,0",-1,0,0,0,0,0,60,62,82,50,100,-4.79,13,0.0,2.0,-1000.0,13:58:21.456174,192.168.0.112
679,-1,-100,-100,-100,"0,0,0",-1,0,0,0,0,0,60,62,81,50,100,-4.69,13,-2.0,-15.0,-1004.0,13:58:21.555536,192.168.0.112
684,-1,-100,-100,-100,"0,0,0",-1,0,0,0,0,0,60,62,80,50,100,-4.74,13,18.0,-14.0,-992.0,13:58:21.606850,192.168.0.112
689,-1,-100,-100,-100,"0,0,0",-1,0,0,0,0,0,60,62,80,50,100,-4.74,13,2.0,-3.0,-1016.0,13:58:21.759423,192.168.0.112
694,-1,-100,-100,-100,"0,0,0",0,0,0,0,0,0,60,62,81,50,100,-4.79,13,15.0,-5.0,-1004.0,13:58:21.861560,192.168.0.112
699,-1,-100,-100,-100,"0,0,0",0,0,0,0,0,0,60,62,80,50,100,-4.85,13,13.0,-22.0,-995.0,13:58:21.963505,192.168.0.112
704,-1,-100,-100,-100,"0,0,0",0,0,0,0,0,0,60,62,80,50,100,-4.81,13,4.0,-18.0,-993.0,13:58:22.065531,192.168.0.112
709,-1,-100,-100,-100,"0,0,0",0,0,0,0,0,0,60,62,81,50,100,-4.84,13,14.0,-18.0,-991.0,13:58:22.120397,192.168.0.112
714,-1,-100,-100,-100,"0,0,0",0,0,0,0,0,0,60,62,80,50,100,-4.71,14,0.0,-8.0,-990.0,13:58:22.218699,192.168.0.112
719,-1,-100,-100,-100,"0,0,0",0,0,0,0,0,0,60,62,80,50,100,-4.68,14,-7.0,0.0,-1008.0,13:58:22.320396,192.168.0.112
724,-1,-100,-100,-100,"0,0,0",0,0,0,0,0,0,60,62,80,50,100,-4.73,14,7.0,-21.0,-995.0,13:58:22.422796,192.168.0.112
729,-1,-100,-100,-100,"0,0,0",0,0,0,0,0,0,60,62,81,50,100,-4.69,14,1.0,-6.0,-1023.0,13:58:22.524515,192.168.0.112
734,-1,-100,-100,-100,"0,0,0",0,0,0,0,0,0,60,62,80,50,100,-4.74,14,-3.0,-7.0,-1007.0,13:58:22.626450,192.168.0.112
739,-1,-100,-100,-100,"0,0,0",-1,0,0,0,0,0,60,63,81,50,100,-4.77,14,3.0,-26.0,-992.0,13:58:22.728503,192.168.0.112
744,-1,-100,-100,-100,"0,0,0",-1,0,0,0,0,0,60,63,80,50,100,-4.73,14,8.0,-25.0,-979.0,13:58:22.830289,192.168.0.112
749,-1,-100,-100,-100,"0,0,0",-1,0,0,0,0,0,60,63,80,50,100,-4.69,14,-10.0,-2.0,-997.0,13:58:22.932493,192.168.0.112
754,-1,-100,-100,-100,"0,0,0",-1,0,0,0,0,0,60,63,80,50,100,-4.68,14,6.0,-23.0,-987.0,13:58:23.034655,192.168.0.112
759,-1,-100,-100,-100,"0,0,0",-1,0,0,0,0,0,60,63,80,50,100,-4.7,14,-11.0,-6.0,-1002.0,13:58:23.136600,192.168.0.112
764,-1,-100,-100,-100,"0,0,0",-1,0,0,0,0,0,60,63,80,50,100,-4.76,15,-6.0,-14.0,-1018.0,13:58:23.238457,192.168.0.112
769,-1,-100,-100,-100,"0,0,0",-1,0,0,0,0,0,60,63,80,50,100,-4.73,15,-11.0,-1.0,-1002.0,13:58:23.340337,192.168.0.112
774,-1,-100,-100,-100,"0,0,0",-1,0,0,0,0,0,60,63,79,50,100,-4.76,15,-29.0,17.0,-998.0,13:58:23.442470,192.168.0.112
779,-1,-100,-100,-100,"0,0,0",-2,0,0,0,0,0,60,63,79,50,100,-4.74,15,-13.0,-5.0,-1021.0,13:58:23.548328,192.168.0.112
784,-1,-100,-100,-100,"0,0,0",-2,0,0,0,0,0,60,63,79,50,100,-4.72,15,-22.0,-3.0,-1004.0,13:58:23.646102,192.168.0.112
789,-1,-100,-100,-100,"0,0,0",-2,0,0,0,0,0,60,63,80,50,100,-4.66,15,-1.0,-14.0,-992.0,13:58:23.748526,192.168.0.112
794,-1,-100,-100,-100,"0,0,0",-2,0,0,0,0,0,60,63,80,50,100,-4.67,15,-15.0,4.0,-1005.0,13:58:23.850560,192.168.0.112
799,-1,-100,-100,-100,"0,0,0",-1,0,0,0,0,0,60,63,79,50,100,-4.73,15,-12.0,-1.0,-1001.0,13:58:23.952505,192.168.0.112
804,-1,-100,-100,-100,"0,0,0",-1,0,0,0,0,0,60,63,80,50,100,-4.74,15,-21.0,4.0,-990.0,13:58:24.054412,192.168.0.112
809,-1,-100,-100,-100,"0,0,0",-1,0,0,0,0,0,60,63,80,50,100,-4.8,15,-17.0,1.0,-1002.0,13:58:24.157182,192.168.0.112
814,-1,-100,-100,-100,"0,0,0",-1,0,0,0,0,0,60,63,80,50,100,-4.8,16,-1.0,1.0,-995.0,13:58:24.262949,192.168.0.112
819,-1,-100,-100,-100,"0,0,0",-1,0,0,0,0,0,60,63,80,50,100,-4.74,16,-9.0,-4.0,-998.0,13:58:24.360558,192.168.0.112
824,-1,-100,-100,-100,"0,0,0",-1,0,0,0,0,0,60,63,80,50,100,-4.84,16,-22.0,5.0,-988.0,13:58:24.462473,192.168.0.112
829,-1,-100,-100,-100,"0,0,0",-1,0,0,0,0,0,60,63,81,50,100,-4.86,16,-9.0,-19.0,-1002.0,13:58:24.564458,192.168.0.112
834,-1,-100,-100,-100,"0,0,0",-1,0,0,0,0,0,60,63,81,50,100,-4.87,16,-8.0,-7.0,-994.0,13:58:24.666922,192.168.0.112
839,-1,-100,-100,-100,"0,0,0",-1,0,0,0,0,0,59,63,80,50,100,-4.81,16,-12.0,-10.0,-990.0,13:58:24.768561,192.168.0.112
844,-1,-100,-100,-100,"0,0,0",-1,0,0,0,0,0,59,63,81,50,100,-4.8,16,-5.0,-8.0,-990.0,13:58:24.870637,192.168.0.112
849,-1,-100,-100,-100,"0,0,0",-1,1,0,0,0,0,59,63,80,50,100,-4.79,16,14.0,-32.0,-1011.0,13:58:24.972447,192.168.0.112
854,-1,-100,-100,-100,"0,0,0",-1,1,0,0,0,0,59,63,81,50,100,-4.83,16,-5.0,-17.0,-1005.0,13:58:25.074441,192.168.0.112
859,-1,-100,-100,-100,"0,0,0",-1,1,0,0,0,0,59,63,80,50,100,-4.73,16,2.0,-26.0,-1002.0,13:58:25.176478,192.168.0.112
864,-1,-100,-100,-100,"0,0,0",-1,1,0,0,0,0,59,63,80,50,100,-4.75,17,-8.0,-18.0,-1009.0,13:58:25.227267,192.168.0.112
869,-1,-100,-100,-100,"0,0,0",-1,1,0,0,0,0,59,63,80,50,100,-4.79,17,-27.0,-10.0,-987.0,13:58:25.329387,192.168.0.112
874,-1,-100,-100,-100,"0,0,0",-1,1,0,0,0,0,59,63,80,50,100,-4.71,17,0.0,-18.0,-997.0,13:58:25.431231,192.168.0.112
879,-1,-100,-100,-100,"0,0,0",-1,1,0,0,0,0,59,63,81,50,100,-4.79,17,0.0,-17.0,-995.0,13:58:25.533377,192.168.0.112
884,-1,-100,-100,-100,"0,0,0",-1,1,0,0,0,0,59,63,79,50,100,-4.72,17,-21.0,0.0,-987.0,13:58:25.635316,192.168.0.112
889,-1,-100,-100,-100,"0,0,0",-1,1,0,0,0,0,60,63,80,50,100,-4.73,17,-9.0,-13.0,-985.0,13:58:25.737277,192.168.0.112
894,-1,-100,-100,-100,"0,0,0",-1,1,0,0,0,0,60,63,80,50,100,-4.73,17,-7.0,-11.0,-994.0,13:58:25.839289,192.168.0.112
899,-1,-100,-100,-100,"0,0,0",-1,1,0,0,0,0,60,63,79,50,100,-4.67,17,0.0,-17.0,-992.0,13:58:25.941345,192.168.0.112
904,-1,-100,-100,-100,"0,0,0",0,1,0,0,0,0,60,63,80,50,100,-4.76,17,-7.0,-2.0,-1006.0,13:58:26.043511,192.168.0.112
909,-1,-100,-100,-100,"0,0,0",0,1,0,0,0,0,60,63,81,50,100,-4.79,17,-5.0,-9.0,-996.0,13:58:26.145384,192.168.0.112
914,-1,-100,-100,-100,"0,0,0",-1,1,0,0,0,0,60,63,81,50,100,-4.77,18,-11.0,-24.0,-997.0,13:58:26.247438,192.168.0.112
919,-1,-100,-100,-100,"0,0,0",-1,0,0,0,0,0,60,63,81,50,100,-4.77,18,7.0,-14.0,-993.0,13:58:26.349413,192.168.0.112
924,-1,-100,-100,-100,"0,0,0",-1,0,0,0,0,0,60,63,80,50,100,-4.78,18,4.0,-10.0,-1010.0,13:58:26.451319,192.168.0.112
929,-1,-100,-100,-100,"0,0,0",-1,0,0,0,0,0,60,63,81,50,100,-4.72,18,5.0,-27.0,-995.0,13:58:26.553426,192.168.0.112
934,-1,-100,-100,-100,"0,0,0",-1,0,0,0,0,0,60,63,81,50,100,-4.74,18,11.0,-15.0,-992.0,13:58:26.654992,192.168.0.112
939,-1,-100,-100,-100,"0,0,0",0,0,0,0,0,0,60,63,81,50,100,-4.78,18,15.0,-14.0,-996.0,13:58:26.756872,192.168.0.112
944,-1,-100,-100,-100,"0,0,0",0,0,0,0,0,0,60,63,81,50,100,-4.76,18,17.0,-19.0,-983.0,13:58:26.858901,192.168.0.112
949,-1,-100,-100,-100,"0,0,0",0,0,0,0,0,0,60,63,81,50,100,-4.75,18,9.0,2.0,-996.0,13:58:26.961304,192.168.0.112
954,-1,-100,-100,-100,"0,0,0",0,0,0,0,0,0,60,63,82,50,100,-4.76,18,0.0,-13.0,-991.0,13:58:27.063236,192.168.0.112
959,-1,-100,-100,-100,"0,0,0",0,0,0,0,0,0,60,63,81,50,100,-4.67,18,8.0,-19.0,-999.0,13:58:27.165295,192.168.0.112
964,-1,-100,-100,-100,"0,0,0",0,0,0,0,0,0,60,63,81,50,100,-4.64,19,6.0,-4.0,-996.0,13:58:27.267389,192.168.0.112
969,-1,-100,-100,-100,"0,0,0",0,0,0,0,0,0,60,63,80,50,100,-4.71,19,12.0,-15.0,-1005.0,13:58:27.369281,192.168.0.112
974,-1,-100,-100,-100,"0,0,0",0,0,0,0,0,0,60,63,80,50,100,-4.71,19,9.0,-4.0,-1000.0,13:58:27.471570,192.168.0.112
979,-1,-100,-100,-100,"0,0,0",0,0,0,0,0,0,60,63,81,50,100,-4.76,19,8.0,-3.0,-995.0,13:58:27.573217,192.168.0.112
984,-1,-100,-100,-100,"0,0,0",0,0,0,0,0,0,60,63,80,50,100,-4.72,19,-5.0,6.0,-997.0,13:58:27.676286,192.168.0.112
989,-1,-100,-100,-100,"0,0,0",0,0,0,0,0,0,61,63,79,50,100,-4.65,19,0.0,-17.0,-1004.0,13:58:27.777225,192.168.0.112
994,-1,-100,-100,-100,"0,0,0",0,0,0,0,0,0,61,63,80,50,100,-4.65,19,14.0,-18.0,-993.0,13:58:27.879398,192.168.0.112
999,-1,-100,-100,-100,"0,0,0",0,0,0,0,0,0,61,63,80,50,100,-4.7,19,2.0,-6.0,-1004.0,13:58:27.981276,192.168.0.112
1004,-1,-100,-100,-100,"0,0,0",0,0,0,0,0,0,61,63,80,50,100,-4.75,19,17.0,-12.0,-994.0,13:58:28.083369,192.168.0.112
1009,-1,-100,-100,-100,"0,0,0",0,0,0,0,0,0,61,63,80,50,100,-4.72,19,10.0,-5.0,-994.0,13:58:28.188152,192.168.0.112
1014,-1,-100,-100,-100,"0,0,0",0,0,0,0,0,0,61,63,80,50,100,-4.72,20,8.0,-4.0,-1007.0,13:58:28.287419,192.168.0.112
1019,-1,-100,-100,-100,"0,0,0",0,0,0,0,0,0,61,63,80,50,100,-4.8,20,22.0,-7.0,-1013.0,13:58:28.389244,192.168.0.112
1024,-1,-100,-100,-100,"0,0,0",0,0,0,0,0,0,61,63,80,50,100,-4.84,20,23.0,-12.0,-994.0,13:58:28.442500,192.168.0.112
1029,-1,-100,-100,-100,"0,0,0",0,0,0,0,0,0,61,63,80,50,100,-4.76,20,9.0,-4.0,-1000.0,13:58:28.544768,192.168.0.112
1034,-1,-100,-100,-100,"0,0,0",0,0,0,0,0,0,61,63,80,50,100,-4.69,20,23.0,-19.0,-1000.0,13:58:28.643915,192.168.0.112
1039,-1,-100,-100,-100,"0,0,0",0,0,0,0,0,0,61,63,79,50,100,-4.71,20,29.0,-16.0,-1008.0,13:58:28.746342,192.168.0.112
1044,-1,-100,-100,-100,"0,0,0",0,0,0,0,0,0,61,63,79,50,100,-4.79,20,11.0,-8.0,-995.0,13:58:28.852106,192.168.0.112
1049,-1,-100,-100,-100,"0,0,0",0,0,0,0,0,0,61,63,79,50,100,-4.77,20,19.0,-11.0,-999.0,13:58:28.950292,192.168.0.112
1054,-1,-100,-100,-100,"0,0,0",0,1,0,0,0,0,61,63,79,50,100,-4.7,20,13.0,-3.0,-995.0,13:58:29.056933,192.168.0.112
1059,-1,-100,-100,-100,"0,0,0",0,0,0,0,0,0,61,63,79,50,100,-4.69,20,21.0,-8.0,-989.0,13:58:29.154098,192.168.0.112
1064,-1,-100,-100,-100,"0,0,0",0,0,0,0,0,0,61,63,80,50,100,-4.76,21,6.0,0.0,-989.0,13:58:29.256177,192.168.0.112
1069,-1,-100,-100,-100,"0,0,0",0,0,0,0,0,0,61,63,79,50,100,-4.71,21,-1.0,-2.0,-996.0,13:58:29.360499,192.168.0.112
1074,-1,-100,-100,-100,"0,0,0",0,0,0,0,0,0,61,63,78,50,100,-4.71,21,18.0,5.0,-1001.0,13:58:29.466490,192.168.0.112
1079,-1,-100,-100,-100,"0,0,0",0,0,0,0,0,0,61,63,78,50,100,-4.64,21,23.0,-4.0,-1000.0,13:58:29.562578,192.168.0.112
1084,-1,-100,-100,-100,"0,0,0",0,0,0,0,0,0,61,63,78,50,100,-4.78,21,9.0,3.0,-1013.0,13:58:29.664269,192.168.0.112
1089,-1,-100,-100,-100,"0,0,0",0,0,0,0,0,0,61,63,77,50,100,-4.77,21,7.0,10.0,-1017.0,13:58:29.766128,192.168.0.112
1094,-1,-100,-100,-100,"0,0,0",0,0,0,0,0,0,61,63,78,50,100,-4.79,21,1.0,6.0,-997.0,13:58:29.868352,192.168.0.112
1099,-1,-100,-100,-100,"0,0,0",0,0,0,0,0,0,61,63,78,50,100,-4.75,21,4.0,-6.0,-995.0,13:58:29.970211,192.168.0.112
1104,-1,-100,-100,-100,"0,0,0",0,0,0,0,0,0,61,63,78,50,100,-4.73,21,6.0,-8.0,-1005.0,13:58:30.072304,192.168.0.112
1109,-1,-100,-100,-100,"0,0,0",0,0,0,0,0,0,61,63,78,50,100,-4.75,21,15.0,-10.0,-1008.0,13:58:30.173904,192.168.0.112
1114,-1,-100,-100,-100,"0,0,0",0,0,0,0,0,0,61,63,78,50,100,-4.73,22,12.0,-4.0,-1007.0,13:58:30.276259,192.168.0.112
1119,-1,-100,-100,-100,"0,0,0",0,0,0,0,0,0,61,63,78,50,100,-4.72,22,7.0,-6.0,-1009.0,13:58:30.378365,192.168.0.112
1124,-1,-100,-100,-100,"0,0,0",0,0,0,0,0,0,61,63,78,50,100,-4.72,22,-3.0,2.0,-1004.0,13:58:30.480328,192.168.0.112
1129,-1,-100,-100,-100,"0,0,0",0,0,0,0,0,0,61,63,78,50,100,-4.65,22,-1.0,5.0,-999.0,13:58:30.582220,192.168.0.112
1134,-1,-100,-100,-100,"0,0,0",0,0,0,0,0,0,61,63,78,50,100,-4.72,22,1.0,0.0,-1006.0,13:58:30.684791,192.168.0.112
1139,-1,-100,-100,-100,"0,0,0",0,0,0,0,0,0,61,63,78,50,100,-4.63,22,8.0,-8.0,-1001.0,13:58:30.786232,192.168.0.112
1144,-1,-100,-100,-100,"0,0,0",0,0,0,0,0,0,61,63,78,50,100,-4.63,22,-7.0,4.0,-994.0,13:58:30.888165,192.168.0.112
1149,-1,-100,-100,-100,"0,0,0",-1,0,0,0,0,0,61,63,79,50,100,-4.62,22,1.0,5.0,-992.0,13:58:30.990298,192.168.0.112
1154,-1,-100,-100,-100,"0,0,0",-1,0,0,0,0,0,61,63,79,50,100,-4.67,22,-9.0,7.0,-1000.0,13:58:31.092166,192.168.0.112
1159,-1,-100,-100,-100,"0,0,0",-1,0,0,0,0,0,61,63,78,50,100,-4.7,23,14.0,-10.0,-1003.0,13:58:31.194380,192.168.0.112
1164,-1,-100,-100,-100,"0,0,0",0,0,0,0,0,0,61,63,79,50,100,-4.68,23,-7.0,0.0,-1002.0,13:58:31.296396,192.168.0.112
1169,-1,-100,-100,-100,"0,0,0",0,0,0,0,0,0,61,63,78,50,100,-4.67,23,13.0,-12.0,-998.0,13:58:31.399263,192.168.0.112
1174,-1,-100,-100,-100,"0,0,0",0,0,0,0,0,0,61,63,78,50,100,-4.72,23,13.0,-3.0,-1005.0,13:58:31.500236,192.168.0.112
1179,-1,-100,-100,-100,"0,0,0",0,0,0,0,0,0,61,63,78,50,100,-4.65,23,22.0,-8.0,-1000.0,13:58:31.602032,192.168.0.112
1184,-1,-100,-100,-100,"0,0,0",0,0,0,0,0,0,61,63,78,50,100,-4.66,23,6.0,-5.0,-1003.0,13:58:31.703863,192.168.0.112
1189,-1,-100,-100,-100,"0,0,0",0,0,0,0,0,0,60,63,78,50,100,-4.76,23,3.0,-4.0,-992.0,13:58:31.806179,192.168.0.112
1194,-1,-100,-100,-100,"0,0,0",0,0,0,0,0,0,60,63,78,50,100,-4.76,23,5.0,-19.0,-1011.0,13:58:31.908354,192.168.0.112
1199,-1,-100,-100,-100,"0,0,0",0,0,0,0,0,0,60,63,77,50,100,-4.67,23,2.0,-11.0,-998.0,13:58:32.010344,192.168.0.112
1204,-1,-100,-100,-100,"0,0,0",0,0,0,0,0,0,60,63,78,50,100,-4.73,23,-3.0,-8.0,-996.0,13:58:32.061336,192.168.0.112
1209,-1,-100,-100,-100,"0,0,0",0,0,0,0,0,0,60,63,78,50,100,-4.73,24,20.0,-9.0,-1006.0,13:58:32.163628,192.168.0.112
1214,-1,-100,-100,-100,"0,0,0",0,0,0,0,0,0,60,63,78,50,100,-4.68,24,0.0,0.0,-987.0,13:58:32.264882,192.168.0.112
1219,-1,-100,-100,-100,"0,0,0",0,0,0,0,0,0,60,63,79,50,100,-4.71,24,21.0,-13.0,-1006.0,13:58:32.367461,192.168.0.112
1224,-1,-100,-100,-100,"0,0,0",0,0,0,0,0,0,60,63,79,50,100,-4.74,24,19.0,-8.0,-1003.0,13:58:32.468870,192.168.0.112
1229,-1,-100,-100,-100,"0,0,0",0,0,0,0,0,0,60,63,79,50,100,-4.73,24,3.0,4.0,-986.0,13:58:32.572639,192.168.0.112
1234,-1,-100,-100,-100,"0,0,0",0,0,0,0,0,0,60,63,79,50,100,-4.72,24,17.0,-18.0,-1003.0,13:58:32.673140,192.168.0.112
1239,-1,-100,-100,-100,"0,0,0",0,0,0,0,0,0,61,64,79,50,100,-4.73,24,-20.0,10.0,-989.0,13:58:32.775109,192.168.0.112
1244,-1,-100,-100,-100,"0,0,0",0,0,0,0,0,0,61,64,79,50,100,-4.67,24,7.0,-10.0,-995.0,13:58:32.878342,192.168.0.112
1249,-1,-100,-100,-100,"0,0,0",0,0,0,0,0,0,61,64,79,50,100,-4.66,24,27.0,-17.0,-1000.0,13:58:32.979094,192.168.0.112
1254,-1,-100,-100,-100,"0,0,0",0,0,0,0,0,0,61,64,79,50,100,-4.71,24,2.0,6.0,-991.0,13:58:33.081159,192.168.0.112
1259,-1,-100,-100,-100,"0,0,0",0,0,0,0,0,0,61,64,79,50,100,-4.67,25,15.0,1.0,-997.0,13:58:33.183201,192.168.0.112
1264,-1,-100,-100,-100,"0,0,0",0,0,0,0,0,0,61,64,79,50,100,-4.72,25,0.0,0.0,-1001.0,13:58:33.285059,192.168.0.112
1269,-1,-100,-100,-100,"0,0,0",0,0,0,0,0,0,61,64,80,50,100,-4.71,25,6.0,0.0,-1000.0,13:58:33.387057,192.168.0.112
1274,-1,-100,-100,-100,"0,0,0",0,0,0,0,0,0,61,64,79,50,100,-4.71,25,5.0,-6.0,-1002.0,13:58:33.489071,192.168.0.112
1279,-1,-100,-100,-100,"0,0,0",0,0,0,0,0,0,61,64,79,50,100,-4.66,25,0.0,-4.0,-1008.0,13:58:33.591665,192.168.0.112
1284,-1,-100,-100,-100,"0,0,0",0,0,0,0,0,0,61,64,79,50,100,-4.59,25,5.0,0.0,-1000.0,13:58:33.693046,192.168.0.112
1289,-1,-100,-100,-100,"0,0,0",0,0,0,0,0,0,61,64,79,50,100,-4.7,25,10.0,6.0,-999.0,13:58:33.795063,192.168.0.112
1294,-1,-100,-100,-100,"0,0,0",0,0,0,0,0,0,61,64,79,50,100,-4.75,25,8.0,4.0,-1019.0,13:58:33.897081,192.168.0.112
1299,-1,-100,-100,-100,"0,0,0",0,0,0,0,0,0,61,64,79,50,100,-4.71,25,-2.0,8.0,-1008.0,13:58:33.999714,192.168.0.112
1304,-1,-100,-100,-100,"0,0,0",0,0,0,0,0,0,61,64,79,50,100,-4.62,25,-15.0,9.0,-1000.0,13:58:34.101706,192.168.0.112
1309,-1,-100,-100,-100,"0,0,0",0,0,0,0,0,0,61,64,79,50,100,-4.61,26,0.0,1.0,-1004.0,13:58:34.202942,192.168.0.112
1314,-1,-100,-100,-100,"0,0,0",0,0,0,0,0,0,61,64,79,50,100,-4.7,26,17.0,-1.0,-994.0,13:58:34.308243,192.168.0.112
1319,-1,-100,-100,-100,"0,0,0",0,0,0,0,0,0,61,64,79,50,100,-4.64,26,3.0,20.0,-995.0,13:58:34.408550,192.168.0.112
1324,-1,-100,-100,-100,"0,0,0",0,0,0,0,0,0,61,64,79,50,100,-4.69,26,2.0,-1.0,-988.0,13:58:34.509024,192.168.0.112
1329,-1,-100,-100,-100,"0,0,0",0,0,0,0,0,0,61,64,79,50,100,-4.76,26,-1.0,12.0,-1002.0,13:58:34.613969,192.168.0.112
1334,-1,-100,-100,-100,"0,0,0",0,0,0,0,0,0,61,64,79,50,100,-4.8,26,-22.0,24.0,-1011.0,13:58:34.713125,192.168.0.112
1339,-1,-100,-100,-100,"0,0,0",0,-1,0,0,0,0,61,63,80,50,100,-4.75,26,0.0,7.0,-995.0,13:58:34.815035,192.168.0.112
1344,-1,-100,-100,-100,"0,0,0",0,0,0,0,0,0,61,63,78,50,100,-4.65,26,18.0,-4.0,-1001.0,13:58:34.918713,192.168.0.112
1349,-1,-100,-100,-100,"0,0,0",0,0,0,0,0,0,61,63,79,50,100,-4.72,26,25.0,14.0,-993.0,13:58:35.019259,192.168.0.112
1354,-1,-100,-100,-100,"0,0,0",0,0,0,0,0,0,61,63,79,50,100,-4.77,26,22.0,2.0,-992.0,13:58:35.125910,192.168.0.112
1359,-1,-100,-100,-100,"0,0,0",0,0,0,0,0,0,61,63,79,50,100,-4.69,27,3.0,25.0,-1016.0,13:58:35.223108,192.168.0.112
1364,-1,-100,-100,-100,"0,0,0",0,0,0,0,0,0,61,63,79,50,100,-4.73,27,22.0,-21.0,-988.0,13:58:35.325123,192.168.0.112
1369,-1,-100,-100,-100,"0,0,0",0,0,0,0,0,0,61,63,79,50,100,-4.78,27,19.0,7.0,-987.0,13:58:35.376191,192.168.0.112
1374,-1,-100,-100,-100,"0,0,0",0,0,0,0,0,0,61,63,79,50,100,-4.69,27,18.0,-4.0,-996.0,13:58:35.478010,192.168.0.112
1379,-1,-100,-100,-100,"0,0,0",0,0,0,0,0,0,61,63,79,50,100,-4.7,27,15.0,-10.0,-1005.0,13:58:35.580075,192.168.0.112
1384,-1,-100,-100,-100,"0,0,0",0,0,0,0,0,0,61,63,79,50,100,-4.75,27,14.0,-8.0,-1008.0,13:58:35.685429,192.168.0.112
1389,-1,-100,-100,-100,"0,0,0",0,0,0,0,0,0,61,64,79,50,100,-4.75,27,24.0,-22.0,-986.0,13:58:35.785501,192.168.0.112
1394,-1,-100,-100,-100,"0,0,0",0,0,0,0,0,0,61,64,79,50,100,-4.7,27,15.0,-15.0,-989.0,13:58:35.886088,192.168.0.112
1399,-1,-100,-100,-100,"0,0,0",0,0,0,0,0,0,61,64,79,50,100,-4.72,27,10.0,-2.0,-1015.0,13:58:35.988313,192.168.0.112
1404,-1,-100,-100,-100,"0,0,0",0,0,0,0,0,0,61,64,79,50,100,-4.67,27,18.0,-10.0,-1008.0,13:58:36.090101,192.168.0.112
1409,-1,-100,-100,-100,"0,0,0",0,0,0,0,0,0,61,64,79,50,100,-4.6,28,21.0,-18.0,-1005.0,13:58:36.191982,192.168.0.112
1414,-1,-100,-100,-100,"0,0,0",0,0,0,0,0,0,61,64,79,50,100,-4.64,28,51.0,-27.0,-978.0,13:58:36.293986,192.168.0.112
1419,-1,-100,-100,-100,"0,0,0",0,1,0,0,0,0,61,64,79,50,100,-4.7,28,21.0,-7.0,-1002.0,13:58:36.396073,192.168.0.112
1424,-1,-100,-100,-100,"0,0,0",1,1,0,0,0,0,61,64,79,50,100,-4.75,28,18.0,-3.0,-1004.0,13:58:36.498053,192.168.0.112
1429,-1,-100,-100,-100,"0,0,0",1,0,0,0,0,0,61,64,79,50,100,-4.77,28,-3.0,7.0,-1008.0,13:58:36.600066,192.168.0.112
1434,-1,-100,-100,-100,"0,0,0",0,0,0,0,0,0,61,64,79,50,100,-4.76,28,18.0,-5.0,-992.0,13:58:36.701961,192.168.0.112
1439,-1,-100,-100,-100,"0,0,0",0,0,0,0,0,0,61,64,79,50,100,-4.71,28,27.0,-17.0,-998.0,13:58:36.804141,192.168.0.112
1444,-1,-100,-100,-100,"0,0,0",0,0,0,0,0,0,61,64,79,50,100,-4.76,28,15.0,-1.0,-1000.0,13:58:36.905842,192.168.0.112
1449,-1,-100,-100,-100,"0,0,0",0,0,0,0,0,0,61,64,78,50,100,-4.82,28,14.0,-7.0,-995.0,13:58:37.008082,192.168.0.112
1454,-1,-100,-100,-100,"0,0,0",0,0,0,0,0,0,61,64,79,50,100,-4.77,28,22.0,-13.0,-1002.0,13:58:37.109904,192.168.0.112
1459,-1,-100,-100,-100,"0,0,0",0,0,0,0,0,0,61,64,79,50,100,-4.77,29,21.0,-10.0,-999.0,13:58:37.212123,192.168.0.112
1464,-1,-100,-100,-100,"0,0,0",0,0,0,0,0,0,61,64,78,50,100,-4.77,29,21.0,-5.0,-1027.0,13:58:37.314031,192.168.0.112
1469,-1,-100,-100,-100,"0,0,0",0,1,0,0,0,0,61,64,79,50,100,-4.79,29,29.0,-9.0,-1004.0,13:58:37.416126,192.168.0.112
1474,-1,-100,-100,-100,"0,0,0",0,1,0,0,0,0,61,64,78,50,100,-4.7,29,2.0,-12.0,-1001.0,13:58:37.518460,192.168.0.112
1479,-1,-100,-100,-100,"0,0,0",0,0,0,0,0,0,61,64,79,50,100,-4.8,29,26.0,-26.0,-1009.0,13:58:37.620119,192.168.0.112
1484,-1,-100,-100,-100,"0,0,0",0,0,0,0,0,0,61,64,79,50,100,-4.79,29,28.0,-18.0,-1001.0,13:58:37.725272,192.168.0.112
1489,-1,-100,-100,-100,"0,0,0",0,1,0,0,0,0,61,63,79,50,100,-4.77,29,19.0,4.0,-993.0,13:58:37.824163,192.168.0.112
1494,-1,-100,-100,-100,"0,0,0",0,0,0,0,0,0,61,63,79,50,100,-4.76,29,39.0,-19.0,-999.0,13:58:37.925932,192.168.0.112
1499,-1,-100,-100,-100,"0,0,0",0,0,0,0,0,0,61,63,79,50,100,-4.77,29,24.0,-18.0,-996.0,13:58:38.028161,192.168.0.112
1504,-1,-100,-100,-100,"0,0,0",0,0,0,0,0,0,61,63,79,50,100,-4.71,29,11.0,-12.0,-1006.0,13:58:38.129977,192.168.0.112
1509,-1,-100,-100,-100,"0,0,0",0,0,0,0,0,0,61,63,79,50,100,-4.68,30,29.0,-9.0,-998.0,13:58:38.231868,192.168.0.112
1514,-1,-100,-100,-100,"0,0,0",0,0,0,0,0,0,61,63,79,50,100,-4.6,30,14.0,-1.0,-990.0,13:58:38.334076,192.168.0.112
1519,-1,-100,-100,-100,"0,0,0",0,0,0,0,0,0,61,63,79,50,100,-4.65,30,24.0,-10.0,-1000.0,13:58:38.435876,192.168.0.112
1524,-1,-100,-100,-100,"0,0,0",0,0,0,0,0,0,61,63,79,50,100,-4.61,30,24.0,-5.0,-1015.0,13:58:38.538037,192.168.0.112
1529,-1,-100,-100,-100,"0,0,0",0,0,0,0,0,0,61,63,78,50,100,-4.66,30,6.0,10.0,-981.0,13:58:38.640036,192.168.0.112
1534,-1,-100,-100,-100,"0,0,0",0,0,0,0,0,0,61,63,78,50,100,-4.76,30,46.0,-27.0,-999.0,13:58:38.741832,192.168.0.112
1539,-1,-100,-100,-100,"0,0,0",1,0,0,0,0,0,61,64,78,50,100,-4.76,30,0.0,-13.0,-1009.0,13:58:38.844032,192.168.0.112
1544,-1,-100,-100,-100,"0,0,0",1,1,0,0,0,0,61,64,78,50,100,-4.65,30,16.0,-21.0,-1007.0,13:58:38.945948,192.168.0.112
1549,-1,-100,-100,-100,"0,0,0",0,1,0,0,0,0,61,64,77,50,100,-4.74,30,22.0,-11.0,-1017.0,13:58:39.048113,192.168.0.112
1554,-1,-100,-100,-100,"0,0,0",0,1,0,0,0,0,61,64,78,50,100,-4.8,30,27.0,-33.0,-1018.0,13:58:39.098938,192.168.0.112
1559,-1,-100,-100,-100,"0,0,0",0,1,0,0,0,0,61,64,78,50,100,-4.84,31,22.0,-29.0,-1010.0,13:58:39.200921,192.168.0.112
1564,-1,-100,-100,-100,"0,0,0",0,1,0,0,0,0,61,64,78,50,100,-4.79,31,11.0,-18.0,-984.0,13:58:39.303832,192.168.0.112
1569,-1,-100,-100,-100,"0,0,0",0,1,0,0,0,0,61,64,78,50,100,-4.77,31,9.0,-19.0,-993.0,13:58:39.405701,192.168.0.112
1574,-1,-100,-100,-100,"0,0,0",0,1,0,0,0,0,61,64,78,50,100,-4.76,31,15.0,-23.0,-1004.0,13:58:39.510108,192.168.0.112
1579,-1,-100,-100,-100,"0,0,0",0,1,0,0,0,0,61,64,78,50,100,-4.72,31,11.0,-20.0,-989.0,13:58:39.608822,192.168.0.112
1584,-1,-100,-100,-100,"0,0,0",0,1,0,0,0,0,61,64,78,50,100,-4.76,31,1.0,-3.0,-1000.0,13:58:39.710977,192.168.0.112
1589,-1,-100,-100,-100,"0,0,0",0,0,0,0,0,0,61,64,78,50,100,-4.79,31,15.0,-16.0,-996.0,13:58:39.812941,192.168.0.112
1594,-1,-100,-100,-100,"0,0,0",0,0,0,0,0,0,61,64,78,50,100,-4.87,31,10.0,-7.0,-1004.0,13:58:39.915251,192.168.0.112
1599,-1,-100,-100,-100,"0,0,0",0,0,0,0,0,0,61,64,79,50,100,-4.83,31,3.0,-19.0,-1009.0,13:58:40.016813,192.168.0.112
1604,-1,-100,-100,-100,"0,0,0",0,0,0,0,0,0,61,64,78,50,100,-4.71,31,-3.0,-27.0,-1002.0,13:58:40.118906,192.168.0.112
1609,-1,-100,-100,-100,"0,0,0",0,0,0,0,0,0,61,64,78,50,100,-4.67,32,31.0,-35.0,-992.0,13:58:40.220758,192.168.0.112
1614,-1,-100,-100,-100,"0,0,0",0,0,0,0,0,0,61,64,78,50,100,-4.77,32,17.0,-13.0,-999.0,13:58:40.322687,192.168.0.112
1619,-1,-100,-100,-100,"0,0,0",0,1,0,0,0,0,61,64,78,50,100,-4.79,32,27.0,-27.0,-1013.0,13:58:40.425149,192.168.0.112
1624,-1,-100,-100,-100,"0,0,0",0,0,0,0,0,0,61,64,77,50,100,-4.82,32,12.0,5.0,-995.0,13:58:40.526838,192.168.0.112
1629,-1,-100,-100,-100,"0,0,0",0,0,0,0,0,0,61,64,78,50,100,-4.78,32,6.0,-10.0,-980.0,13:58:40.628828,192.168.0.112
1634,-1,-100,-100,-100,"0,0,0",0,0,0,0,0,0,61,64,78,50,100,-4.73,32,9.0,-12.0,-993.0,13:58:40.730854,192.168.0.112
1639,-1,-100,-100,-100,"0,0,0",0,0,0,0,0,0,61,64,78,50,100,-4.73,32,30.0,-12.0,-996.0,13:58:40.833180,192.168.0.112
1644,-1,-100,-100,-100,"0,0,0",0,0,0,0,0,0,61,64,78,50,100,-4.82,32,25.0,-15.0,-999.0,13:58:40.935542,192.168.0.112
1649,-1,-100,-100,-100,"0,0,0",0,0,0,0,0,0,61,64,78,50,100,-4.76,32,28.0,-16.0,-998.0,13:58:41.037653,192.168.0.112
1654,-1,-100,-100,-100,"0,0,0",0,0,0,0,0,0,61,64,78,50,100,-4.77,32,2.0,0.0,-1017.0,13:58:41.140269,192.168.0.112
1659,-1,-100,-100,-100,"0,0,0",0,0,0,0,0,0,61,64,77,50,100,-4.87,33,-15.0,14.0,-1006.0,13:58:41.244563,192.168.0.112
1664,-1,-100,-100,-100,"0,0,0",0,0,0,0,0,0,61,64,78,50,100,-4.89,33,0.0,-8.0,-1004.0,13:58:41.345000,192.168.0.112
1669,-1,-100,-100,-100,"0,0,0",0,0,0,0,0,0,61,64,78,50,100,-4.82,33,6.0,-21.0,-979.0,13:58:41.444783,192.168.0.112
1674,-1,-100,-100,-100,"0,0,0",0,0,0,0,0,0,61,64,78,50,100,-4.78,33,-6.0,-26.0,-1000.0,13:58:41.546829,192.168.0.112
1679,-1,-100,-100,-100,"0,0,0",0,0,0,0,0,0,61,64,78,50,100,-4.75,33,4.0,-29.0,-1000.0,13:58:41.648984,192.168.0.112
1684,-1,-100,-100,-100,"0,0,0",0,1,0,0,0,0,61,64,77,50,100,-4.86,33,-6.0,-5.0,-1020.0,13:58:41.750765,192.168.0.112
1689,-1,-100,-100,-100,"0,0,0",0,1,0,0,0,0,62,65,78,50,100,-4.86,33,-5.0,-3.0,-1024.0,13:58:41.853920,192.168.0.112
1694,-1,-100,-100,-100,"0,0,0",0,1,0,0,0,0,62,65,78,50,100,-4.84,33,-18.0,-12.0,-997.0,13:58:41.954874,192.168.0.112
1699,-1,-100,-100,-100,"0,0,0",0,0,0,0,0,0,62,65,77,50,100,-4.82,33,-14.0,-12.0,-1005.0,13:58:42.057921,192.168.0.112
1704,-1,-100,-100,-100,"0,0,0",-1,0,0,0,0,0,62,65,78,50,100,-4.87,33,12.0,-14.0,-995.0,13:58:42.160315,192.168.0.112
1709,-1,-100,-100,-100,"0,0,0",-1,0,0,0,0,0,62,65,78,50,100,-4.82,34,-13.0,7.0,-1002.0,13:58:42.260867,192.168.0.112
1714,-1,-100,-100,-100,"0,0,0",0,0,0,0,0,0,62,65,78,50,100,-4.88,34,13.0,-8.0,-1002.0,13:58:42.362777,192.168.0.112
1719,-1,-100,-100,-100,"0,0,0",0,0,0,0,0,0,62,65,78,50,100,-4.83,34,-6.0,2.0,-1007.0,13:58:42.464803,192.168.0.112
1724,-1,-100,-100,-100,"0,0,0",0,0,0,0,0,0,62,65,78,50,100,-4.86,34,2.0,4.0,-1008.0,13:58:42.516264,192.168.0.112
1729,-1,-100,-100,-100,"0,0,0",0,0,0,0,0,0,62,65,78,50,100,-4.8,34,10.0,-21.0,-994.0,13:58:42.618005,192.168.0.112
1734,-1,-100,-100,-100,"0,0,0",0,0,0,0,0,0,62,65,78,50,100,-4.79,34,11.0,-12.0,-987.0,13:58:42.719895,192.168.0.112
1739,-1,-100,-100,-100,"0,0,0",0,0,0,0,0,0,62,64,78,50,100,-4.83,34,11.0,-5.0,-992.0,13:58:42.823968,192.168.0.112
1744,-1,-100,-100,-100,"0,0,0",0,0,0,0,0,0,62,64,78,50,100,-4.76,34,-14.0,16.0,-995.0,13:58:42.923846,192.168.0.112
1749,-1,-100,-100,-100,"0,0,0",0,0,0,0,0,0,62,64,78,50,100,-4.8,34,5.0,4.0,-1001.0,13:58:43.025792,192.168.0.112
1754,-1,-100,-100,-100,"0,0,0",0,0,0,0,0,0,62,64,78,50,100,-4.74,34,6.0,-2.0,-982.0,13:58:43.127952,192.168.0.112
1759,-1,-100,-100,-100,"0,0,0",0,0,0,0,0,0,62,64,78,50,100,-4.71,35,8.0,-6.0,-1016.0,13:58:43.229933,192.168.0.112
1764,-1,-100,-100,-100,"0,0,0",0,0,0,0,0,0,62,64,78,50,100,-4.81,35,-5.0,12.0,-1021.0,13:58:43.331973,192.168.0.112
1769,-1,-100,-100,-100,"0,0,0",0,0,0,0,0,0,62,64,77,50,100,-4.76,35,10.0,-11.0,-991.0,13:58:43.433975,192.168.0.112
1774,-1,-100,-100,-100,"0,0,0",0,0,0,0,0,0,62,64,78,50,100,-4.76,35,10.0,-14.0,-1001.0,13:58:43.535675,192.168.0.112
1779,-1,-100,-100,-100,"0,0,0",0,0,0,0,0,0,62,64,78,50,100,-4.79,35,9.0,8.0,-1015.0,13:58:43.637419,192.168.0.112
1784,-1,-100,-100,-100,"0,0,0",0,0,0,0,0,0,62,64,77,50,100,-4.73,35,10.0,15.0,-1000.0,13:58:43.739818,192.168.0.112
1789,-1,-100,-100,-100,"0,0,0",0,0,0,0,0,0,61,64,78,50,100,-4.72,35,15.0,0.0,-987.0,13:58:43.841427,192.168.0.112
1794,-1,-100,-100,-100,"0,0,0",0,0,0,0,0,0,61,64,78,50,100,-4.7,35,-5.0,17.0,-988.0,13:58:43.943931,192.168.0.112
1799,-1,-100,-100,-100,"0,0,0",0,-1,0,0,0,0,61,64,78,50,100,-4.74,35,0.0,-3.0,-1018.0,13:58:44.045917,192.168.0.112
1804,-1,-100,-100,-100,"0,0,0",0,-1,0,0,0,0,61,64,78,50,100,-4.79,35,5.0,-5.0,-1008.0,13:58:44.147835,192.168.0.112
1809,-1,-100,-100,-100,"0,0,0",0,0,0,0,0,0,61,64,78,50,100,-4.79,36,-8.0,-2.0,-1004.0,13:58:44.249790,192.168.0.112
1814,-1,-100,-100,-100,"0,0,0",0,0,0,0,0,0,61,64,78,50,100,-4.74,36,-11.0,14.0,-1028.0,13:58:44.351914,192.168.0.112
1819,-1,-100,-100,-100,"0,0,0",0,0,0,0,0,0,61,64,78,50,100,-4.71,36,2.0,-11.0,-995.0,13:58:44.453781,192.168.0.112
1824,-1,-100,-100,-100,"0,0,0",0,0,0,0,0,0,61,64,79,50,100,-4.75,36,-12.0,4.0,-991.0,13:58:44.556015,192.168.0.112
1829,-1,-100,-100,-100,"0,0,0",0,0,0,0,0,0,61,64,78,50,100,-4.76,36,-8.0,0.0,-978.0,13:58:44.657941,192.168.0.112
1834,-1,-100,-100,-100,"0,0,0",0,0,0,0,0,0,61,64,78,50,100,-4.77,36,-10.0,8.0,-1001.0,13:58:44.759858,192.168.0.112
1839,-1,-100,-100,-100,"0,0,0",0,0,0,0,0,0,62,63,79,50,100,-4.75,36,-8.0,-15.0,-987.0,13:58:44.862044,192.168.0.112
1844,-1,-100,-100,-100,"0,0,0",-1,0,0,0,0,0,62,63,79,50,100,-4.84,36,-11.0,4.0,-999.0,13:58:44.963694,192.168.0.112
1849,-1,-100,-100,-100,"0,0,0",-1,0,0,0,0,0,62,63,79,50,100,-4.74,36,-10.0,-3.0,-1005.0,13:58:45.065786,192.168.0.112
1854,-1,-100,-100,-100,"0,0,0",-1,0,0,0,0,0,62,63,79,50,100,-4.71,36,9.0,-25.0,-996.0,13:58:45.167859,192.168.0.112
1859,-1,-100,-100,-100,"0,0,0",-1,0,0,0,0,0,62,63,79,50,100,-4.68,37,0.0,-17.0,-991.0,13:58:45.269818,192.168.0.112
1864,-1,-100,-100,-100,"0,0,0",0,0,0,0,0,0,62,63,79,50,100,-4.71,37,0.0,-26.0,-1001.0,13:58:45.372315,192.168.0.112
1869,-1,-100,-100,-100,"0,0,0",0,0,0,0,0,0,62,63,79,50,100,-4.74,37,6.0,-15.0,-1000.0,13:58:45.473760,192.168.0.112
1874,-1,-100,-100,-100,"0,0,0",0,0,0,0,0,0,62,63,79,50,100,-4.82,37,1.0,-17.0,-1003.0,13:58:45.576245,192.168.0.112
1879,-1,-100,-100,-100,"0,0,0",0,0,0,0,0,0,62,63,79,50,100,-4.8,37,-15.0,9.0,-1004.0,13:58:45.636736,192.168.0.112
1882,-1,-100,-100,-100,"0,0,0",0,0,0,0,0,0,62,63,79,50,100,-4.73,37,-9.0,0.0,-997.0,13:58:45.742927,192.168.0.112
1889,-1,-100,-100,-100,"0,0,0",0,0,0,0,0,0,62,64,78,50,100,-4.67,37,-6.0,3.0,-984.0,13:58:45.881688,192.168.0.112
1894,-1,-100,-100,-100,"0,0,0",0,0,0,0,0,0,62,64,78,50,100,-4.75,37,-22.0,11.0,-998.0,13:58:45.983338,192.168.0.112
1899,-1,-100,-100,-100,"0,0,0",0,0,0,0,0,0,62,64,79,50,100,-4.71,37,-1.0,-3.0,-1006.0,13:58:46.034225,192.168.0.112
1904,-1,-100,-100,-100,"0,0,0",0,0,0,0,0,0,62,64,79,50,100,-4.74,37,-1.0,-14.0,-996.0,13:58:46.137595,192.168.0.112
1909,-1,-100,-100,-100,"0,0,0",0,0,0,0,0,0,62,64,79,50,100,-4.8,38,11.0,-4.0,-994.0,13:58:46.238645,192.168.0.112
1914,-1,-100,-100,-100,"0,0,0",0,0,0,0,0,0,62,64,79,50,100,-4.81,38,12.0,0.0,-1011.0,13:58:46.340726,192.168.0.112
1919,-1,-100,-100,-100,"0,0,0",0,1,0,0,0,0,62,64,79,50,100,-4.67,38,4.0,0.0,-1006.0,13:58:46.442726,192.168.0.112
1924,-1,-100,-100,-100,"0,0,0",0,0,0,0,0,0,62,64,79,50,100,-4.79,38,-3.0,4.0,-1012.0,13:58:46.544627,192.168.0.112
1929,-1,-100,-100,-100,"0,0,0",0,0,0,0,0,0,62,64,79,50,100,-4.74,38,8.0,-6.0,-997.0,13:58:46.646736,192.168.0.112
1934,-1,-100,-100,-100,"0,0,0",0,0,0,0,0,0,62,64,79,50,100,-4.76,38,6.0,-8.0,-1009.0,13:58:46.748607,192.168.0.112
1939,-1,-100,-100,-100,"0,0,0",0,0,0,0,0,0,62,64,80,50,100,-4.74,38,11.0,-3.0,-996.0,13:58:46.850802,192.168.0.112
1944,-1,-100,-100,-100,"0,0,0",0,0,0,0,0,0,62,64,80,50,100,-4.85,38,1.0,4.0,-996.0,13:58:46.952666,192.168.0.112
1949,-1,-100,-100,-100,"0,0,0",0,0,0,0,0,0,62,64,79,50,100,-4.77,38,10.0,0.0,-991.0,13:58:47.054757,192.168.0.112
1954,-1,-100,-100,-100,"0,0,0",0,0,0,0,0,0,62,64,79,50,100,-4.78,38,3.0,9.0,-1005.0,13:58:47.156542,192.168.0.112
1959,-1,-100,-100,-100,"0,0,0",0,0,0,0,0,0,62,64,80,50,100,-4.78,39,10.0,-6.0,-1012.0,13:58:47.258712,192.168.0.112
1964,-1,-100,-100,-100,"0,0,0",0,0,0,0,0,0,62,64,79,50,100,-4.78,39,17.0,-14.0,-1005.0,13:58:47.360948,192.168.0.112
1969,-1,-100,-100,-100,"0,0,0",0,0,0,0,0,0,62,64,79,50,100,-4.79,39,12.0,6.0,-987.0,13:58:47.462556,192.168.0.112
1974,-1,-100,-100,-100,"0,0,0",0,0,0,0,0,0,62,64,80,50,100,-4.77,39,18.0,0.0,-1001.0,13:58:47.564622,192.168.0.112
1979,-1,-100,-100,-100,"0,0,0",0,0,0,0,0,0,62,64,79,50,100,-4.8,39,8.0,-1.0,-1001.0,13:58:47.666800,192.168.0.112
1984,-1,-100,-100,-100,"0,0,0",0,0,0,0,0,0,62,64,79,50,100,-4.87,39,6.0,-8.0,-1001.0,13:58:47.768747,192.168.0.112
1989,-1,-100,-100,-100,"0,0,0",0,0,0,0,0,0,62,63,79,50,100,-4.87,39,31.0,-15.0,-1006.0,13:58:47.871681,192.168.0.112
1994,-1,-100,-100,-100,"0,0,0",0,0,0,0,0,0,62,63,79,50,100,-4.84,39,12.0,-15.0,-1001.0,13:58:47.973652,192.168.0.112
1999,-1,-100,-100,-100,"0,0,0",0,0,0,0,0,0,62,63,80,50,100,-4.81,39,29.0,-14.0,-996.0,13:58:48.075713,192.168.0.112
2004,-1,-100,-100,-100,"0,0,0",1,0,0,0,0,0,62,63,80,50,100,-4.73,39,21.0,-3.0,-1007.0,13:58:48.177755,192.168.0.112
2009,-1,-100,-100,-100,"0,0,0",0,0,0,0,0,0,62,63,79,50,100,-4.79,40,6.0,-4.0,-1013.0,13:58:48.280924,192.168.0.112
2014,-1,-100,-100,-100,"0,0,0",0,0,0,0,0,0,62,63,80,50,100,-4.81,40,25.0,-18.0,-1003.0,13:58:48.381737,192.168.0.112
2019,-1,-100,-100,-100,"0,0,0",1,1,0,0,0,0,62,63,80,50,100,-4.77,40,24.0,-3.0,-993.0,13:58:48.483791,192.168.0.112
2024,-1,-100,-100,-100,"0,0,0",1,1,0,0,0,0,62,63,80,50,100,-4.78,40,23.0,-9.0,-1003.0,13:58:48.585546,192.168.0.112
2029,-1,-100,-100,-100,"0,0,0",1,0,0,0,0,0,62,63,80,50,100,-4.69,40,17.0,-5.0,-990.0,13:58:48.688871,192.168.0.112
2034,-1,-100,-100,-100,"0,0,0",1,0,0,0,0,0,62,63,80,50,100,-4.68,40,20.0,-4.0,-983.0,13:58:48.789719,192.168.0.112
2039,-1,-100,-100,-100,"0,0,0",1,1,0,0,0,0,61,64,80,50,100,-4.83,40,24.0,0.0,-1007.0,13:58:48.891686,192.168.0.112
2044,-1,-100,-100,-100,"0,0,0",1,1,0,0,0,0,61,64,79,50,100,-4.79,40,45.0,-4.0,-997.0,13:58:48.993445,192.168.0.112
2049,-1,-100,-100,-100,"0,0,0",2,0,0,0,0,0,61,64,79,50,100,-4.71,40,30.0,1.0,-997.0,13:58:49.044270,192.168.0.112
2054,-1,-100,-100,-100,"0,0,0",1,0,0,0,0,0,61,64,79,50,100,-4.8,40,27.0,-7.0,-1015.0,13:58:49.146227,192.168.0.112
2059,-1,-100,-100,-100,"0,0,0",1,0,0,0,0,0,61,64,79,50,100,-4.8,41,20.0,-3.0,-1018.0,13:58:49.248583,192.168.0.112
2064,-1,-100,-100,-100,"0,0,0",1,0,0,0,0,0,61,64,80,50,100,-4.79,41,41.0,1.0,-992.0,13:58:49.350588,192.168.0.112
2069,-1,-100,-100,-100,"0,0,0",1,0,0,0,0,0,61,64,80,50,100,-4.7,41,27.0,6.0,-1008.0,13:58:49.452878,192.168.0.112
2074,-1,-100,-100,-100,"0,0,0",1,0,0,0,0,0,61,64,80,50,100,-4.71,41,30.0,-1.0,-997.0,13:58:49.554612,192.168.0.112
2079,-1,-100,-100,-100,"0,0,0",1,0,0,0,0,0,61,64,80,50,100,-4.71,41,30.0,4.0,-991.0,13:58:49.660030,192.168.0.112
2084,-1,-100,-100,-100,"0,0,0",1,0,0,0,0,0,61,64,80,50,100,-4.71,41,39.0,-2.0,-1006.0,13:58:49.758672,192.168.0.112
2089,-1,-100,-100,-100,"0,0,0",1,0,0,0,0,0,62,64,80,50,100,-4.7,41,24.0,3.0,-996.0,13:58:49.860785,192.168.0.112
2094,-1,-100,-100,-100,"0,0,0",1,0,0,0,0,0,62,64,80,50,100,-4.75,41,24.0,-1.0,-993.0,13:58:49.963272,192.168.0.112
2099,-1,-100,-100,-100,"0,0,0",1,0,0,0,0,0,62,64,80,50,100,-4.71,41,15.0,2.0,-998.0,13:58:50.065794,192.168.0.112
2104,-1,-100,-100,-100,"0,0,0",1,0,0,0,0,0,62,64,80,50,100,-4.74,42,32.0,-13.0,-997.0,13:58:50.167050,192.168.0.112
2109,-1,-100,-100,-100,"0,0,0",1,0,0,0,0,0,62,64,80,50,100,-4.69,42,14.0,10.0,-998.0,13:58:50.270677,192.168.0.112
2114,-1,-100,-100,-100,"0,0,0",0,0,0,0,0,0,62,64,80,50,100,-4.76,42,21.0,1.0,-1002.0,13:58:50.370545,192.168.0.112
2119,-1,-100,-100,-100,"0,0,0",0,0,0,0,0,0,62,64,79,50,100,-4.76,42,21.0,2.0,-989.0,13:58:50.472589,192.168.0.112
2124,-1,-100,-100,-100,"0,0,0",1,0,0,0,0,0,62,64,80,50,100,-4.82,42,12.0,0.0,-998.0,13:58:50.574745,192.168.0.112
2129,-1,-100,-100,-100,"0,0,0",0,0,0,0,0,0,62,64,80,50,100,-4.74,42,20.0,-8.0,-1006.0,13:58:50.686998,192.168.0.112
2134,-1,-100,-100,-100,"0,0,0",1,0,0,0,0,0,62,64,80,50,100,-4.75,42,31.0,-7.0,-1005.0,13:58:50.778534,192.168.0.112
2139,-1,-100,-100,-100,"0,0,0",1,0,0,0,0,0,62,65,79,50,100,-4.75,42,34.0,-15.0,-993.0,13:58:50.880602,192.168.0.112
2144,-1,-100,-100,-100,"0,0,0",1,0,0,0,0,0,62,65,80,50,100,-4.82,42,1.0,11.0,-998.0,13:58:50.982593,192.168.0.112
2149,-1,-100,-100,-100,"0,0,0",0,0,0,0,0,0,62,65,80,50,100,-4.77,42,11.0,7.0,-993.0,13:58:51.084609,192.168.0.112
2154,-1,-100,-100,-100,"0,0,0",0,0,0,0,0,0,62,65,79,50,100,-4.78,43,13.0,0.0,-998.0,13:58:51.186451,192.168.0.112
2159,-1,-100,-100,-100,"0,0,0",0,0,0,0,0,0,62,65,79,50,100,-4.8,43,24.0,10.0,-998.0,13:58:51.288494,192.168.0.112
2164,-1,-100,-100,-100,"0,0,0",1,0,0,0,0,0,62,65,79,50,100,-4.76,43,35.0,-22.0,-1015.0,13:58:51.390820,192.168.0.112
2169,-1,-100,-100,-100,"0,0,0",1,0,0,0,0,0,62,65,79,50,100,-4.7,43,20.0,2.0,-999.0,13:58:51.492630,192.168.0.112
2174,-1,-100,-100,-100,"0,0,0",1,1,0,0,0,0,62,65,79,50,100,-4.63,43,15.0,10.0,-985.0,13:58:51.594539,192.168.0.112
2179,-1,-100,-100,-100,"0,0,0",1,1,0,0,0,0,62,65,79,50,100,-4.84,43,36.0,-11.0,-1000.0,13:58:51.696552,192.168.0.112
2184,-1,-100,-100,-100,"0,0,0",1,0,0,0,0,0,62,65,79,50,100,-4.82,43,16.0,5.0,-999.0,13:58:51.798606,192.168.0.112
2189,-1,-100,-100,-100,"0,0,0",1,0,0,0,0,0,61,64,80,50,100,-4.8,43,22.0,-1.0,-999.0,13:58:51.900705,192.168.0.112
2194,-1,-100,-100,-100,"0,0,0",1,0,0,0,0,0,61,64,79,50,100,-4.82,43,15.0,8.0,-1009.0,13:58:52.004014,192.168.0.112
2199,-1,-100,-100,-100,"0,0,0",1,0,0,0,0,0,61,64,79,50,100,-4.79,43,22.0,-8.0,-1011.0,13:58:52.104437,192.168.0.112
2204,-1,-100,-100,-100,"0,0,0",1,0,0,0,0,0,61,64,79,50,100,-4.84,44,26.0,-8.0,-991.0,13:58:52.206619,192.168.0.112
2209,-1,-100,-100,-100,"0,0,0",0,0,0,0,0,0,61,64,79,50,100,-4.9,44,16.0,-9.0,-986.0,13:58:52.308545,192.168.0.112
2214,-1,-100,-100,-100,"0,0,0",0,0,0,0,0,0,61,64,79,50,100,-4.87,44,1.0,4.0,-1012.0,13:58:52.410340,192.168.0.112
2219,-1,-100,-100,-100,"0,0,0",0,0,0,0,0,0,61,64,79,50,100,-4.79,44,4.0,-2.0,-1010.0,13:58:52.512500,192.168.0.112
2224,-1,-100,-100,-100,"0,0,0",0,0,0,0,0,0,61,64,79,50,100,-4.83,44,-16.0,10.0,-1001.0,13:58:52.614596,192.168.0.112
2229,-1,-100,-100,-100,"0,0,0",0,0,0,0,0,0,61,64,79,50,100,-4.82,44,6.0,-4.0,-985.0,13:58:52.665977,192.168.0.112
2234,-1,-100,-100,-100,"0,0,0",0,0,0,0,0,0,61,64,79,50,100,-4.85,44,16.0,-9.0,-990.0,13:58:52.767646,192.168.0.112
2239,-1,-100,-100,-100,"0,0,0",0,0,0,0,0,0,61,64,79,50,100,-4.83,44,7.0,-7.0,-995.0,13:58:52.920967,192.168.0.112
2244,-1,-100,-100,-100,"0,0,0",0,0,0,0,0,0,61,64,79,50,100,-4.9,44,21.0,-10.0,-990.0,13:58:52.971494,192.168.0.112
2249,-1,-100,-100,-100,"0,0,0",0,0,0,0,0,0,61,64,79,50,100,-4.84,44,24.0,-5.0,-1008.0,13:58:53.075498,192.168.0.112
2254,-1,-100,-100,-100,"0,0,0",0,0,0,0,0,0,61,64,79,50,100,-4.87,45,12.0,-8.0,-1002.0,13:58:53.175611,192.168.0.112
2259,-1,-100,-100,-100,"0,0,0",0,0,0,0,0,0,61,64,79,50,100,-4.81,45,18.0,-9.0,-1008.0,13:58:53.277525,192.168.0.112
2264,-1,-100,-100,-100,"0,0,0",0,0,0,0,0,0,61,64,79,50,100,-4.89,45,6.0,2.0,-995.0,13:58:53.379295,192.168.0.112
2269,-1,-100,-100,-100,"0,0,0",0,0,0,0,0,0,61,64,79,50,100,-4.88,45,6.0,6.0,-993.0,13:58:53.481374,192.168.0.112
2274,-1,-100,-100,-100,"0,0,0",1,0,0,0,0,0,61,64,79,50,100,-4.88,45,30.0,-8.0,-993.0,13:58:53.583249,192.168.0.112
2279,-1,-100,-100,-100,"0,0,0",0,0,0,0,0,0,61,64,79,50,100,-4.86,45,20.0,0.0,-996.0,13:58:53.685267,192.168.0.112
2284,-1,-100,-100,-100,"0,0,0",0,0,0,0,0,0,61,64,79,50,100,-4.85,45,-3.0,13.0,-1004.0,13:58:53.787489,192.168.0.112
2289,-1,-100,-100,-100,"0,0,0",0,0,0,0,0,0,63,65,79,50,100,-4.94,45,-17.0,12.0,-984.0,13:58:53.889467,192.168.0.112
2294,-1,-100,-100,-100,"0,0,0",0,0,0,0,0,0,63,65,79,50,100,-4.98,45,-20.0,17.0,-1009.0,13:58:53.991647,192.168.0.112
2299,-1,-100,-100,-100,"0,0,0",0,-1,0,0,0,0,63,65,79,50,100,-4.94,45,7.0,-10.0,-1014.0,13:58:54.093412,192.168.0.112
2304,-1,-100,-100,-100,"0,0,0",0,0,0,0,0,0,63,65,79,50,100,-4.82,46,7.0,-1.0,-1000.0,13:58:54.195489,192.168.0.112
2309,-1,-100,-100,-100,"0,0,0",0,0,0,0,0,0,63,65,79,50,100,-4.95,46,29.0,1.0,-1012.0,13:58:54.297655,192.168.0.112
2314,-1,-100,-100,-100,"0,0,0",0,0,0,0,0,0,63,65,78,50,100,-4.89,46,17.0,2.0,-1008.0,13:58:54.401293,192.168.0.112
2319,-1,-100,-100,-100,"0,0,0",0,0,0,0,0,0,63,65,79,50,100,-4.87,46,22.0,-7.0,-1000.0,13:58:54.503081,192.168.0.112
2324,-1,-100,-100,-100,"0,0,0",0,0,0,0,0,0,63,65,79,50,100,-4.94,46,1.0,10.0,-1003.0,13:58:54.603272,192.168.0.112
2329,-1,-100,-100,-100,"0,0,0",0,0,0,0,0,0,63,65,79,50,100,-4.95,46,11.0,-5.0,-998.0,13:58:54.705296,192.168.0.112
2334,-1,-100,-100,-100,"0,0,0",0,0,0,0,0,0,63,65,79,50,100,-4.85,46,4.0,1.0,-1002.0,13:58:54.807605,192.168.0.112
2339,-1,-100,-100,-100,"0,0,0",0,0,0,0,0,0,62,64,79,50,100,-4.86,46,7.0,2.0,-994.0,13:58:54.909271,192.168.0.112
2344,-1,-100,-100,-100,"0,0,0",0,0,0,0,0,0,62,64,79,50,100,-4.85,46,14.0,0.0,-999.0,13:58:55.012145,192.168.0.112
2349,-1,-100,-100,-100,"0,0,0",0,0,0,0,0,0,62,64,79,50,100,-4.9,46,2.0,-1.0,-992.0,13:58:55.113514,192.168.0.112
2354,-1,-100,-100,-100,"0,0,0",0,0,0,0,0,0,62,64,79,50,100,-4.85,47,3.0,6.0,-1012.0,13:58:55.215408,192.168.0.112
2359,-1,-100,-100,-100,"0,0,0",0,0,0,0,0,0,62,64,79,50,100,-4.79,47,-8.0,-11.0,-990.0,13:58:55.317486,192.168.0.112
2364,-1,-100,-100,-100,"0,0,0",0,0,0,0,0,0,62,64,78,50,100,-4.78,47,1.0,-7.0,-997.0,13:58:55.419984,192.168.0.112
2369,-1,-100,-100,-100,"0,0,0",0,0,0,0,0,0,62,64,78,50,100,-4.83,47,13.0,-15.0,-1000.0,13:58:55.521355,192.168.0.112
2374,-1,-100,-100,-100,"0,0,0",0,1,0,0,0,0,62,64,78,50,100,-4.86,47,5.0,-6.0,-1005.0,13:58:55.623323,192.168.0.112
2379,-1,-100,-100,-100,"0,0,0",0,1,0,0,0,0,62,64,78,50,100,-4.86,47,12.0,-2.0,-1022.0,13:58:55.725352,192.168.0.112
2384,-1,-100,-100,-100,"0,0,0",1,1,0,0,0,0,62,64,78,50,100,-4.93,47,14.0,-14.0,-1018.0,13:58:55.827356,192.168.0.112
2389,-1,-100,-100,-100,"0,0,0",1,1,0,0,0,0,63,65,78,50,100,-4.93,47,9.0,-12.0,-1006.0,13:58:55.929678,192.168.0.112
2394,-1,-100,-100,-100,"0,0,0",0,1,0,0,0,0,63,65,78,50,100,-4.94,47,21.0,-15.0,-1010.0,13:58:56.031473,192.168.0.112
2399,-1,-100,-100,-100,"0,0,0",0,1,0,0,0,0,63,65,78,50,100,-4.9,47,28.0,-31.0,-1011.0,13:58:56.082569,192.168.0.112
2404,-1,-100,-100,-100,"0,0,0",0,1,0,0,0,0,63,65,78,50,100,-4.78,48,18.0,-31.0,-1002.0,13:58:56.185525,192.168.0.112
2409,-1,-100,-100,-100,"0,0,0",0,1,0,0,0,0,63,65,78,50,100,-4.77,48,27.0,-8.0,-974.0,13:58:56.286354,192.168.0.112
2414,-1,-100,-100,-100,"0,0,0",1,1,0,0,0,0,63,65,79,50,100,-4.84,48,21.0,-9.0,-1007.0,13:58:56.388502,192.168.0.112
2419,-1,-100,-100,-100,"0,0,0",1,1,0,0,0,0,63,65,79,50,100,-4.92,48,16.0,-7.0,-999.0,13:58:56.490637,192.168.0.112
2424,-1,-100,-100,-100,"0,0,0",1,0,0,0,0,0,63,65,80,50,100,-4.8,48,13.0,-11.0,-996.0,13:58:56.592458,192.168.0.112
2429,-1,-100,-100,-100,"0,0,0",1,0,0,0,0,0,63,65,80,50,100,-4.87,48,19.0,-16.0,-990.0,13:58:56.694423,192.168.0.112
2434,-1,-100,-100,-100,"0,0,0",1,0,0,0,0,0,63,65,81,50,100,-4.83,48,11.0,-12.0,-981.0,13:58:56.796524,192.168.0.112
2439,-1,-100,-100,-100,"0,0,0",1,0,0,0,0,0,62,64,80,50,100,-4.77,48,20.0,-16.0,-982.0,13:58:56.898431,192.168.0.112
2444,-1,-100,-100,-100,"0,0,0",1,1,0,0,0,0,62,64,80,50,100,-4.88,48,23.0,-6.0,-981.0,13:58:57.000638,192.168.0.112
2449,-1,-100,-100,-100,"0,0,0",1,1,0,0,0,0,62,64,80,50,100,-4.9,48,21.0,-2.0,-986.0,13:58:57.102466,192.168.0.112
2454,-1,-100,-100,-100,"0,0,0",1,0,0,0,0,0,62,64,80,50,100,-4.79,49,29.0,-3.0,-996.0,13:58:57.204595,192.168.0.112
2459,-1,-100,-100,-100,"0,0,0",1,0,0,0,0,0,62,64,80,50,100,-4.79,49,6.0,0.0,-987.0,13:58:57.306556,192.168.0.112
2464,-1,-100,-100,-100,"0,0,0",1,0,0,0,0,0,62,64,80,50,100,-4.89,49,7.0,1.0,-1012.0,13:58:57.408581,192.168.0.112
2469,-1,-100,-100,-100,"0,0,0",1,0,0,0,0,0,62,64,80,50,100,-4.88,49,18.0,-2.0,-1008.0,13:58:57.510279,192.168.0.112
2474,-1,-100,-100,-100,"0,0,0",0,0,0,0,0,0,62,64,80,50,100,-4.9,49,40.0,-19.0,-1006.0,13:58:57.612274,192.168.0.112
2479,-1,-100,-100,-100,"0,0,0",0,0,0,0,0,0,62,64,80,50,100,-4.89,49,9.0,-9.0,-1004.0,13:58:57.714446,192.168.0.112
2484,-1,-100,-100,-100,"0,0,0",0,0,0,0,0,0,62,64,80,50,100,-4.81,49,25.0,-25.0,-990.0,13:58:57.816465,192.168.0.112
2489,-1,-100,-100,-100,"0,0,0",0,0,0,0,0,0,63,65,80,50,100,-4.86,49,0.0,2.0,-989.0,13:58:57.919265,192.168.0.112
2494,-1,-100,-100,-100,"0,0,0",0,0,0,0,0,0,63,65,79,50,100,-4.79,49,17.0,-13.0,-1000.0,13:58:58.021482,192.168.0.112
2499,-1,-100,-100,-100,"0,0,0",0,0,0,0,0,0,63,65,78,50,100,-4.9,49,11.0,-13.0,-1011.0,13:58:58.123318,192.168.0.112
2504,-1,-100,-100,-100,"0,0,0",0,0,0,0,0,0,63,65,79,50,100,-4.87,50,32.0,-18.0,-989.0,13:58:58.225253,192.168.0.112
2509,-1,-100,-100,-100,"0,0,0",0,1,0,0,0,0,63,65,79,50,100,-4.83,50,11.0,-5.0,-983.0,13:58:58.327265,192.168.0.112
2514,-1,-100,-100,-100,"0,0,0",0,1,0,0,0,0,63,65,78,50,100,-4.85,50,19.0,-12.0,-1017.0,13:58:58.429447,192.168.0.112
2519,-1,-100,-100,-100,"0,0,0",1,0,0,0,0,0,63,65,78,50,100,-4.82,50,25.0,-5.0,-997.0,13:58:58.531392,192.168.0.112
2524,-1,-100,-100,-100,"0,0,0",1,0,0,0,0,0,63,65,78,50,100,-4.86,50,19.0,-21.0,-1005.0,13:58:58.633515,192.168.0.112
2529,-1,-100,-100,-100,"0,0,0",1,0,0,0,0,0,63,65,77,50,100,-4.85,50,44.0,-37.0,-1016.0,13:58:58.735534,192.168.0.112
2534,-1,-100,-100,-100,"0,0,0",1,1,0,0,0,0,63,65,78,50,100,-4.87,50,11.0,-15.0,-1003.0,13:58:58.837375,192.168.0.112
2539,-1,-100,-100,-100,"0,0,0",1,1,0,0,0,0,62,65,78,50,100,-4.89,50,-7.0,-4.0,-993.0,13:58:58.939250,192.168.0.112
2544,-1,-100,-100,-100,"0,0,0",1,0,0,0,0,0,62,65,78,50,100,-4.81,50,31.0,-33.0,-1005.0,13:58:59.042089,192.168.0.112
2549,-1,-100,-100,-100,"0,0,0",1,0,0,0,0,0,62,65,78,50,100,-4.89,50,19.0,-27.0,-991.0,13:58:59.143385,192.168.0.112
2554,-1,-100,-100,-100,"0,0,0",1,1,0,0,0,0,62,65,78,50,100,-4.82,51,19.0,-14.0,-990.0,13:58:59.245558,192.168.0.112
2559,-1,-100,-100,-100,"0,0,0",0,1,0,0,0,0,62,65,79,50,100,-4.82,51,16.0,3.0,-1016.0,13:58:59.350119,192.168.0.112
2564,-1,-100,-100,-100,"0,0,0",0,1,0,0,0,0,62,65,79,50,100,-4.85,51,-14.0,6.0,-1001.0,13:58:59.449372,192.168.0.112
2569,-1,-100,-100,-100,"0,0,0",0,0,0,0,0,0,62,65,79,50,100,-4.84,51,22.0,-33.0,-1001.0,13:58:59.500331,192.168.0.112
2574,-1,-100,-100,-100,"0,0,0",0,0,0,0,0,0,62,65,79,50,100,-4.79,51,-7.0,-14.0,-990.0,13:58:59.601871,192.168.0.112
2579,-1,-100,-100,-100,"0,0,0",0,0,0,0,0,0,62,65,80,50,100,-4.79,51,4.0,-16.0,-979.0,13:58:59.704330,192.168.0.112
2584,-1,-100,-100,-100,"0,0,0",0,0,0,0,0,0,62,65,79,50,100,-4.84,51,0.0,-7.0,-990.0,13:58:59.806395,192.168.0.112
2589,-1,-100,-100,-100,"0,0,0",0,0,0,0,0,0,62,65,80,50,100,-4.85,51,27.0,-26.0,-1012.0,13:58:59.908224,192.168.0.112
2594,-1,-100,-100,-100,"0,0,0",0,0,0,0,0,0,62,65,80,50,100,-4.85,51,0.0,-9.0,-1008.0,13:59:00.010203,192.168.0.112
2599,-1,-100,-100,-100,"0,0,0",0,0,0,0,0,0,62,65,80,50,100,-4.9,51,14.0,-15.0,-1003.0,13:59:00.112292,192.168.0.112
2604,-1,-100,-100,-100,"0,0,0",0,0,0,0,0,0,62,65,80,50,100,-4.81,52,-19.0,3.0,-996.0,13:59:00.214340,192.168.0.112
