,mid,x,y,z,mpry,pitch,roll,yaw,vgx,vgy,vgz,templ,temph,tof,h,bat,baro,time,agx,agy,agz,timestamp,address
2,-1,-100,-100,-100,"0,0,0",0,0,0,0,0,0,62,65,10,0,100,-5.94,0,-6.0,-1.0,-1003.0,13:58:08.011030,192.168.0.115
7,-1,-100,-100,-100,"0,0,0",0,0,0,0,0,0,62,65,10,0,100,-5.94,0,-7.0,-1.0,-1001.0,13:58:08.112924,192.168.0.115
12,-1,-100,-100,-100,"0,0,0",0,0,0,0,0,0,62,65,10,0,100,-5.94,0,-9.0,-2.0,-1001.0,13:58:08.215279,192.168.0.115
17,-1,-100,-100,-100,"0,0,0",0,0,0,0,0,0,62,65,10,0,100,-5.94,0,-2.0,-4.0,-997.0,13:58:08.317122,192.168.0.115
23,-1,-100,-100,-100,"0,0,0",0,0,0,0,0,0,62,65,10,0,100,-5.94,0,-9.0,1.0,-1001.0,13:58:08.419115,192.168.0.115
29,-1,-100,-100,-100,"0,0,0",0,0,0,0,0,0,62,65,10,0,100,-5.94,0,-10.0,7.0,-1012.0,13:58:08.521387,192.168.0.115
34,-1,-100,-100,-100,"0,0,0",0,0,0,0,0,0,62,65,10,0,100,-5.94,0,-1.0,8.0,-1084.0,13:58:08.623452,192.168.0.115
35,-1,-100,-100,-100,"0,0,0",0,0,0,0,0,1,62,65,10,0,100,-5.94,0,2.0,0.0,-1236.0,13:58:08.674050,192.168.0.115
40,-1,-100,-100,-100,"0,0,0",0,0,0,0,0,4,62,65,10,0,100,-5.94,0,5.0,21.0,-1342.0,13:58:08.776370,192.168.0.115
45,-1,-100,-100,-100,"0,0,0",0,0,0,0,0,7,62,65,14,0,100,-5.89,0,-22.0,31.0,-1156.0,13:58:08.878283,192.168.0.115
50,-1,-100,-100,-100,"0,0,0",0,0,0,0,0,8,62,65,22,10,100,-5.35,0,-27.0,34.0,-1005.0,13:58:08.980111,192.168.0.115
55,-1,-100,-100,-100,"0,0,0",0,-2,0,0,0,8,62,65,29,20,100,-5.47,0,0.0,16.0,-973.0,13:58:09.082024,192.168.0.115
60,-1,-100,-100,-100,"0,0,0",-1,-2,0,0,0,7,62,65,37,20,100,-5.34,1,-64.0,53.0,-944.0,13:58:09.184287,192.168.0.115
65,-1,-100,-100,-100,"0,0,0",-2,-2,0,0,-1,6,62,65,46,30,100,-5.2,1,30.0,45.0,-894.0,13:58:09.286174,192.168.0.115
70,-1,-100,-100,-100,"0,0,0",-2,-3,0,0,-1,5,62,65,53,40,100,-5.16,1,-59.0,56.0,-837.0,13:58:09.388186,192.168.0.115
76,-1,-100,-100,-100,"0,0,0",-1,-4,0,0,-1,4,62,65,59,40,100,-5.22,1,-16.0,45.0,-868.0,13:58:09.492533,192.168.0.115
80,-1,-100,-100,-100,"0,0,0",-2,-3,0,0,-1,3,63,65,64,40,100,-5.07,1,-93.0,97.0,-922.0,13:58:09.592074,192.168.0.115
85,-1,-100,-100,-100,"0,0,0",-3,-5,0,0,-1,2,63,65,68,50,100,-4.97,1,24.0,64.0,-893.0,13:58:09.694077,192.168.0.115
90,-1,-100,-100,-100,"0,0,0",-2,-6,0,0,0,2,63,65,71,50,100,-5.13,1,35.0,35.0,-969.0,13:58:09.796258,192.168.0.115
95,-1,-100,-100,-100,"0,0,0",-1,-5,0,0,0,1,63,65,74,50,100,-5.01,1,18.0,52.0,-977.0,13:58:09.898337,192.168.0.115
101,-1,-100,-100,-100,"0,0,0",0,-4,0,0,0,1,63,65,76,50,100,-4.91,1,1.0,42.0,-942.0,13:58:10.000177,192.168.0.115
106,-1,-100,-100,-100,"0,0,0",1,-2,0,0,0,1,63,65,77,50,100,-4.94,1,-45.0,38.0,-975.0,13:58:10.102178,192.168.0.115
111,-1,-100,-100,-100,"0,0,0",0,-3,0,0,0,0,63,65,80,60,100,-4.8,2,15.0,5.0,-1001.0,13:58:10.204808,192.168.0.115
117,-1,-100,-100,-100,"0,0,0",0,-2,0,0,0,0,63,65,82,60,100,-5.0,2,17.0,38.0,-975.0,13:58:10.306086,192.168.0.115
122,-1,-100,-100,-100,"0,0,0",0,0,0,0,0,0,63,65,83,60,100,-4.94,2,0.0,57.0,-975.0,13:58:10.408164,192.168.0.115
127,-1,-100,-100,-100,"0,0,0",1,0,0,0,0,0,63,65,84,60,100,-4.93,2,-23.0,87.0,-964.0,13:58:10.511956,192.168.0.115
132,-1,-100,-100,-100,"0,0,0",0,-2,0,0,0,0,62,65,85,60,100,-4.85,2,8.0,81.0,-964.0,13:58:10.613518,192.168.0.115
137,-1,-100,-100,-100,"0,0,0",0,-3,0,0,0,0,62,65,85,60,100,-4.86,2,-11.0,82.0,-1011.0,13:58:10.714014,192.168.0.115
142,-1,-100,-100,-100,"0,0,0",1,-3,0,0,0,0,62,65,86,60,100,-4.89,2,-11.0,95.0,-984.0,13:58:10.816249,192.168.0.115
147,7,-46,-3,81,"-4,1,174",1,-3,0,0,0,0,62,65,87,60,100,-4.8,2,32.0,66.0,-1006.0,13:58:10.918158,192.168.0.115
154,7,-46,-3,81,"-4,1,174",1,-4,0,0,0,0,62,65,86,60,100,-4.94,2,27.0,72.0,-963.0,13:58:11.020131,192.168.0.115
159,7,-46,-3,81,"-4,1,174",1,-4,0,0,0,0,62,65,87,70,100,-4.94,2,1.0,62.0,-992.0,13:58:11.122098,192.168.0.115
164,7,-46,-3,81,"-4,1,174",1,-3,0,0,0,0,62,65,87,70,100,-4.94,3,39.0,73.0,-998.0,13:58:11.224428,192.168.0.115
165,7,-43,3,84,"-4,0,169",1,-4,0,0,0,0,62,65,87,70,100,-4.79,3,26.0,80.0,-987.0,13:58:11.275047,192.168.0.115
171,7,-43,3,84,"-4,0,169",2,-4,0,0,0,0,62,65,87,70,100,-4.89,3,15.0,79.0,-1003.0,13:58:11.379523,192.168.0.115
175,7,-43,3,84,"-4,0,169",1,-3,0,0,0,0,62,65,86,70,100,-5.04,3,-2.0,91.0,-986.0,13:58:11.479207,192.168.0.115
180,7,-43,3,84,"-4,0,169",0,-6,0,0,0,0,62,65,86,70,100,-4.99,3,-19.0,51.0,-984.0,13:58:11.581100,192.168.0.115
185,7,-43,3,84,"-4,0,169",0,-5,0,0,0,0,62,65,85,70,100,-5.01,3,-18.0,69.0,-1019.0,13:58:11.683144,192.168.0.115
190,7,-43,3,84,"-4,0,169",0,-4,0,0,0,0,62,65,85,60,100,-4.96,3,-3.0,79.0,-1000.0,13:58:11.904986,192.168.0.115
195,7,-43,3,84,"-4,0,169",-1,-4,0,0,0,0,62,65,84,60,100,-5.02,3,5.0,80.0,-967.0,13:58:11.906079,192.168.0.115
200,7,-43,3,84,"-4,0,169",0,-4,0,0,0,0,62,65,84,60,100,-5.02,3,-11.0,50.0,-1036.0,13:58:12.123604,192.168.0.115
205,7,-48,-1,82,"-4,1,167",-1,-3,0,0,0,0,62,65,84,60,100,-4.89,3,13.0,81.0,-1005.0,13:58:12.124713,192.168.0.115
210,7,-48,-1,82,"-4,1,167",0,-3,0,0,0,0,62,65,83,60,100,-5.05,4,-7.0,81.0,-980.0,13:58:12.329910,192.168.0.115
215,7,-48,-1,82,"-4,1,167",0,-3,0,0,0,0,62,65,83,60,100,-4.9,4,-19.0,84.0,-992.0,13:58:12.331074,192.168.0.115
220,7,-48,-1,82,"-4,1,167",-1,-4,0,0,0,0,62,65,83,60,100,-4.81,4,-39.0,101.0,-1007.0,13:58:12.398986,192.168.0.115
226,7,-48,-1,82,"-4,1,167",-1,-5,0,0,0,0,62,65,83,60,100,-4.94,4,-46.0,102.0,-1041.0,13:58:12.499029,192.168.0.115
231,7,-48,-1,82,"-4,1,167",-1,-4,0,0,0,0,62,64,82,60,100,-5.04,4,15.0,77.0,-1019.0,13:58:12.738238,192.168.0.115
236,7,-48,-1,82,"-4,1,167",-2,-4,0,0,0,0,62,64,81,60,100,-4.96,4,-21.0,108.0,-958.0,13:58:12.739206,192.168.0.115
242,7,-48,-1,82,"-4,1,167",-1,-5,0,0,0,0,62,64,81,60,100,-4.94,4,-48.0,117.0,-982.0,13:58:12.943059,192.168.0.115
247,7,-48,-1,82,"-4,1,167",-1,-5,0,0,0,0,62,64,82,60,100,-5.1,4,-45.0,74.0,-961.0,13:58:12.943767,192.168.0.115
252,7,-48,-1,82,"-4,1,167",-2,-6,0,0,0,0,62,64,82,60,100,-5.04,4,-29.0,58.0,-968.0,13:58:13.149629,192.168.0.115
257,7,-48,-1,82,"-4,1,167",-2,-5,0,0,0,0,62,64,81,60,100,-5.05,4,-51.0,108.0,-1007.0,13:58:13.150455,192.168.0.115
263,7,-48,-1,82,"-4,1,167",-1,-5,0,0,0,0,62,64,82,60,100,-4.99,5,-23.0,68.0,-1003.0,13:58:13.355876,192.168.0.115
267,7,-48,-1,82,"-4,1,167",-2,-4,0,0,0,0,62,64,81,60,100,-5.19,5,-21.0,55.0,-1024.0,13:58:13.356740,192.168.0.115
272,7,-48,-1,82,"-4,1,167",-2,-3,0,0,0,0,62,64,82,60,100,-5.17,5,-22.0,84.0,-999.0,13:58:13.561119,192.168.0.115
278,7,-48,-1,82,"-4,1,167",-1,-3,0,0,0,0,62,64,83,60,100,-5.07,5,-10.0,84.0,-945.0,13:58:13.561476,192.168.0.115
283,7,-48,-1,82,"-4,1,167",-1,-4,0,0,0,0,62,64,83,60,100,-4.97,5,0.0,110.0,-990.0,13:58:13.767882,192.168.0.115
289,7,-48,-1,82,"-4,1,167",-1,-5,0,0,0,0,62,64,83,60,100,-5.05,5,-43.0,94.0,-992.0,13:58:13.769089,192.168.0.115
290,7,-48,-1,82,"-4,1,167",0,-4,0,0,0,0,62,64,83,60,100,-5.1,5,-59.0,108.0,-1037.0,13:58:13.773985,192.168.0.115
296,7,-48,-1,82,"-4,1,167",-1,-4,0,0,0,0,62,64,84,60,100,-5.13,5,-40.0,103.0,-981.0,13:58:13.974407,192.168.0.115
300,7,-48,-1,82,"-4,1,167",-2,-5,0,0,0,0,62,64,83,60,100,-5.08,5,4.0,96.0,-976.0,13:58:13.977793,192.168.0.115
305,7,-48,-1,82,"-4,1,167",-2,-5,0,0,0,0,62,64,83,60,100,-5.1,5,-36.0,89.0,-977.0,13:58:14.079396,192.168.0.115
310,7,-48,-1,82,"-4,1,167",-1,-4,-1,0,0,0,62,64,83,60,100,-5.17,6,-55.0,51.0,-935.0,13:58:14.181857,192.168.0.115
315,7,-48,-1,82,"-4,1,167",-1,-4,0,0,0,0,62,64,83,60,100,-5.16,6,-50.0,105.0,-963.0,13:58:14.284248,192.168.0.115
320,7,-48,-1,82,"-4,1,167",-2,-6,0,0,0,0,62,64,84,60,100,-5.01,6,-27.0,87.0,-987.0,13:58:14.385948,192.168.0.115
325,7,-48,-1,82,"-4,1,167",-1,-5,0,0,0,0,62,64,83,60,100,-5.1,6,-30.0,97.0,-942.0,13:58:14.488049,192.168.0.115
330,7,-48,-1,82,"-4,1,167",-1,-5,0,0,0,0,63,65,84,60,100,-5.19,6,-2.0,33.0,-1004.0,13:58:14.589914,192.168.0.115
335,7,-48,-1,82,"-4,1,167",-2,-4,0,0,0,0,63,65,83,60,100,-5.19,6,-5.0,48.0,-1011.0,13:58:14.691821,192.168.0.115
340,7,-48,-1,82,"-4,1,167",0,-2,0,0,0,0,63,65,83,60,100,-5.12,6,-60.0,110.0,-1023.0,13:58:14.793931,192.168.0.115
345,7,-48,-1,82,"-4,1,167",-1,-2,0,0,0,0,63,65,84,60,100,-5.12,6,-23.0,77.0,-943.0,13:58:14.895976,192.168.0.115
350,7,-48,-1,82,"-4,1,167",-2,-4,0,0,0,0,63,65,84,60,100,-5.13,6,-37.0,45.0,-1004.0,13:58:14.998004,192.168.0.115
356,7,-48,-1,82,"-4,1,167",-2,-4,0,0,0,0,63,65,84,60,100,-5.1,6,-64.0,103.0,-990.0,13:58:15.099996,192.168.0.115
361,7,-48,-1,82,"-4,1,167",-2,-4,0,0,0,0,63,65,85,60,100,-4.93,7,-84.0,118.0,-997.0,13:58:15.201965,192.168.0.115
366,7,-48,-1,82,"-4,1,167",-3,-4,0,0,0,0,63,65,85,60,100,-5.12,7,-22.0,77.0,-981.0,13:58:15.304094,192.168.0.115
372,7,-48,-1,82,"-4,1,167",-3,-5,0,0,0,0,63,65,85,60,100,-5.19,7,-34.0,127.0,-1003.0,13:58:15.405843,192.168.0.115
377,7,-48,-1,82,"-4,1,167",-2,-6,0,0,0,0,63,65,86,60,100,-5.25,7,-14.0,89.0,-959.0,13:58:15.507890,192.168.0.115
382,7,-48,-1,82,"-4,1,167",-2,-7,0,0,0,0,63,65,85,60,100,-5.11,7,-41.0,70.0,-1048.0,13:58:15.610111,192.168.0.115
387,7,-48,-1,82,"-4,1,167",-2,-4,0,0,0,0,63,65,86,60,100,-5.11,7,-52.0,130.0,-991.0,13:58:15.711901,192.168.0.115
392,7,-48,-1,82,"-4,1,167",-2,-5,0,0,0,0,63,65,85,60,100,-5.01,7,-35.0,84.0,-997.0,13:58:15.816160,192.168.0.115
398,7,-48,-1,82,"-4,1,167",-1,-5,0,0,0,0,63,65,86,60,100,-5.1,7,-74.0,99.0,-967.0,13:58:15.920325,192.168.0.115
402,7,-48,-1,82,"-4,1,167",-2,-5,0,0,0,0,63,65,86,60,100,-5.1,7,-17.0,103.0,-935.0,13:58:16.020285,192.168.0.115
408,7,-48,-1,82,"-4,1,167",-1,-4,0,0,0,0,63,65,86,60,100,-5.21,7,-16.0,78.0,-1042.0,13:58:16.120086,192.168.0.115
414,7,-48,-1,82,"-4,1,167",-1,-5,0,0,0,0,63,65,86,60,100,-5.36,8,-49.0,80.0,-983.0,13:58:16.221925,192.168.0.115
419,7,-48,-1,82,"-4,1,167",-1,-6,0,0,0,0,63,65,86,60,100,-5.33,8,7.0,90.0,-987.0,13:58:16.324113,192.168.0.115
420,7,-48,-1,82,"-4,1,167",0,-7,0,0,0,0,63,65,87,60,100,-5.26,8,-83.0,93.0,-1035.0,13:58:16.375062,192.168.0.115
425,7,-48,-1,82,"-4,1,167",-1,-6,0,0,0,0,63,65,87,60,100,-5.11,8,-64.0,80.0,-959.0,13:58:16.477888,192.168.0.115
430,7,-48,-1,82,"-4,1,167",-2,-4,0,0,0,0,63,65,86,60,100,-5.18,8,-46.0,114.0,-955.0,13:58:16.578990,192.168.0.115
435,7,-48,-1,82,"-4,1,167",-2,-4,0,0,0,0,63,65,86,60,100,-5.21,8,-19.0,102.0,-952.0,13:58:16.681864,192.168.0.115
440,7,-48,-1,82,"-4,1,167",-1,-6,0,0,0,0,63,65,87,60,100,-5.11,8,-35.0,67.0,-1023.0,13:58:16.782995,192.168.0.115
445,7,-48,-1,82,"-4,1,167",-1,-4,0,0,0,0,63,65,87,60,100,-5.24,8,-89.0,92.0,-993.0,13:58:16.884661,192.168.0.115
450,7,-48,-1,82,"-4,1,167",-2,-4,0,0,0,0,63,65,87,60,100,-5.26,8,-41.0,103.0,-977.0,13:58:16.986951,192.168.0.115
455,7,-48,-1,82,"-4,1,167",-2,-5,0,0,0,0,63,65,87,70,100,-5.16,8,-90.0,113.0,-1039.0,13:58:17.089124,192.168.0.115
460,7,-48,-1,82,"-4,1,167",-2,-5,0,0,0,0,63,65,88,70,100,-5.26,9,-33.0,76.0,-937.0,13:58:17.190895,192.168.0.115
465,7,-48,-1,82,"-4,1,167",-3,-4,0,0,0,0,63,65,87,70,100,-5.19,9,-52.0,74.0,-945.0,13:58:17.292793,192.168.0.115
470,-1,-100,-100,-100,"0,0,0",-2,-4,0,0,0,0,63,65,86,60,100,-5.25,9,-40.0,65.0,-997.0,13:58:17.394848,192.168.0.115
475,-1,-100,-100,-100,"0,0,0",-2,-4,0,0,0,0,63,65,86,60,100,-5.13,9,-28.0,43.0,-946.0,13:58:17.497006,192.168.0.115
480,-1,-100,-100,-100,"0,0,0",-2,-3,0,0,0,0,63,65,86,60,100,-5.18,9,-17.0,64.0,-1023.0,13:58:17.599066,192.168.0.115
485,-1,-100,-100,-100,"0,0,0",-2,-3,0,0,0,0,63,65,86,60,100,-5.31,9,19.0,59.0,-1037.0,13:58:17.700851,192.168.0.115
490,-1,-100,-100,-100,"0,0,0",-1,-3,0,0,0,0,63,65,86,60,100,-5.25,9,-19.0,116.0,-1006.0,13:58:17.802833,192.168.0.115
496,-1,-100,-100,-100,"0,0,0",0,-4,0,0,0,0,63,65,86,60,100,-5.23,9,-34.0,70.0,-983.0,13:58:17.904769,192.168.0.115
501,-1,-100,-100,-100,"0,0,0",0,-4,0,0,0,0,63,65,86,60,100,-5.18,9,-24.0,67.0,-980.0,13:58:18.006866,192.168.0.115
506,-1,-100,-100,-100,"0,0,0",0,-4,0,0,0,0,63,65,87,60,100,-5.11,9,-18.0,31.0,-924.0,13:58:18.108822,192.168.0.115
511,-1,-100,-100,-100,"0,0,0",-1,-4,0,0,0,0,63,65,87,60,100,-5.21,10,-12.0,35.0,-992.0,13:58:18.210702,192.168.0.115
516,-1,-100,-100,-100,"0,0,0",0,-2,0,0,1,0,63,65,86,60,100,-5.22,10,-5.0,76.0,-998.0,13:58:18.312834,192.168.0.115
521,-1,-100,-100,-100,"0,0,0",0,-1,0,0,0,0,63,65,86,60,100,-5.15,10,0.0,88.0,-1032.0,13:58:18.415223,192.168.0.115
527,-1,-100,-100,-100,"0,0,0",0,-2,0,0,0,0,63,65,86,60,100,-5.3,10,12.0,102.0,-964.0,13:58:18.516711,192.168.0.115
533,-1,-100,-100,-100,"0,0,0",0,-4,0,0,0,0,63,65,87,60,100,-5.09,10,-5.0,97.0,-934.0,13:58:18.618506,192.168.0.115
537,-1,-100,-100,-100,"0,0,0",0,-5,0,0,0,0,63,65,87,60,100,-5.14,10,32.0,68.0,-975.0,13:58:18.720680,192.168.0.115
544,-1,-100,-100,-100,"0,0,0",1,-6,0,0,0,0,63,65,87,60,100,-5.21,10,-3.0,50.0,-953.0,13:58:18.822877,192.168.0.115
545,7,-48,8,82,"-3,0,171",0,-4,0,0,0,0,63,65,86,60,100,-5.31,10,-26.0,85.0,-1046.0,13:58:18.873869,192.168.0.115
550,7,-48,8,82,"-3,0,171",0,-4,0,0,0,0,63,65,85,60,100,-5.15,10,-31.0,97.0,-943.0,13:58:18.975828,192.168.0.115
555,7,-48,8,82,"-3,0,171",0,-4,0,0,0,0,63,65,85,60,100,-5.03,10,-1.0,111.0,-1002.0,13:58:19.077818,192.168.0.115
560,7,-45,4,82,"-4,2,170",0,-5,0,0,0,0,63,65,85,60,100,-5.13,11,0.0,82.0,-1017.0,13:58:19.180872,192.168.0.115
565,7,-45,4,82,"-4,2,170",0,-6,0,0,0,0,63,65,85,60,100,-5.13,11,5.0,53.0,-1021.0,13:58:19.281844,192.168.0.115
570,7,-45,4,82,"-4,2,170",0,-6,-1,0,0,0,63,65,84,60,100,-5.19,11,-25.0,33.0,-1043.0,13:58:19.383671,192.168.0.115
575,7,-45,4,82,"-4,2,170",0,-3,0,0,0,0,63,65,84,60,100,-5.36,11,-57.0,83.0,-957.0,13:58:19.487198,192.168.0.115
580,7,-41,6,82,"-2,1,168",-1,-3,0,0,0,0,63,65,83,60,100,-5.02,11,14.0,71.0,-948.0,13:58:19.587875,192.168.0.115
585,7,-41,6,82,"-2,1,168",-2,-4,0,0,0,0,63,65,84,60,100,-5.17,11,-29.0,41.0,-1036.0,13:58:19.690014,192.168.0.115
590,7,-41,6,82,"-2,1,168",0,-2,0,0,0,0,63,65,83,60,100,-5.28,11,-50.0,57.0,-996.0,13:58:19.792469,192.168.0.115
595,7,-41,6,82,"-2,1,168",-2,-2,0,0,0,0,63,65,83,60,100,-5.26,11,-11.0,134.0,-1040.0,13:58:19.893903,192.168.0.115
600,7,-38,6,82,"-1,1,170",-1,-4,0,0,0,0,63,65,83,60,100,-5.12,11,-44.0,126.0,-978.0,13:58:19.995811,192.168.0.115
605,7,-38,6,82,"-1,1,170",0,-6,0,0,0,0,63,65,84,60,100,-5.17,11,-42.0,59.0,-968.0,13:58:20.097783,192.168.0.115
610,7,-38,6,82,"-1,1,170",-1,-4,0,0,0,0,63,65,83,60,100,-5.26,12,-42.0,80.0,-934.0,13:58:20.199920,192.168.0.115
615,7,-38,6,82,"-1,1,170",-2,-4,0,0,0,0,63,65,84,60,100,-5.3,12,-26.0,87.0,-1023.0,13:58:20.301678,192.168.0.115
620,7,-29,1,88,"8,2,175",-2,-3,0,0,0,0,63,65,84,60,100,-5.06,12,-1.0,81.0,-1005.0,13:58:20.403957,192.168.0.115
626,7,-29,1,88,"8,2,175",-1,-3,0,0,0,0,63,65,85,60,100,-5.09,12,14.0,110.0,-973.0,13:58:20.505813,192.168.0.115
631,7,-29,1,88,"8,2,175",0,-5,0,0,0,0,63,65,85,60,100,-5.06,12,-26.0,67.0,-1026.0,13:58:20.607873,192.168.0.115
636,7,-29,1,88,"8,2,175",0,-4,-1,0,0,0,63,65,85,60,100,-5.19,12,-31.0,37.0,-971.0,13:58:20.709798,192.168.0.115
641,7,-39,7,83,"2,0,170",-1,-4,0,0,0,0,63,65,86,60,100,-5.23,12,-41.0,48.0,-930.0,13:58:20.811731,192.168.0.115
646,7,-39,7,83,"2,0,170",-1,-3,0,0,0,0,63,65,86,60,100,-5.15,12,-6.0,28.0,-946.0,13:58:20.913700,192.168.0.115
651,7,-39,7,83,"2,0,170",-1,-1,0,0,0,0,63,65,86,60,100,-5.16,12,7.0,60.0,-1026.0,13:58:21.015805,192.168.0.115
656,7,-39,-8,85,"0,5,179",-1,-1,0,0,0,0,63,65,85,60,100,-5.17,12,-45.0,119.0,-982.0,13:58:21.117514,192.168.0.115
662,7,-39,-8,85,"0,5,179",0,-3,0,0,0,0,63,65,85,60,100,-5.13,13,-17.0,117.0,-961.0,13:58:21.219790,192.168.0.115
668,7,-39,-8,85,"0,5,179",0,-5,0,0,0,0,63,65,85,60,100,-5.1,13,-66.0,83.0,-941.0,13:58:21.321882,192.168.0.115
673,7,-39,-8,85,"0,5,179",-1,-4,0,0,0,0,63,65,85,60,100,-5.08,13,-51.0,102.0,-944.0,13:58:21.423607,192.168.0.115
675,7,-39,-8,85,"0,5,179",-2,-5,0,0,0,0,63,65,84,60,100,-5.2,13,-41.0,138.0,-1061.0,13:58:21.474580,192.168.0.115
680,7,-39,-8,85,"0,5,179",-1,-5,0,0,0,0,64,66,83,60,100,-5.17,13,-65.0,104.0,-1031.0,13:58:21.577575,192.168.0.115
685,7,-39,-8,85,"0,5,179",-1,-6,0,0,0,0,64,66,83,60,100,-5.39,13,-42.0,91.0,-1065.0,13:58:21.678804,192.168.0.115
690,7,-39,-8,85,"0,5,179",-2,-3,0,0,0,0,64,66,83,60,100,-5.35,13,-45.0,84.0,-1050.0,13:58:21.780838,192.168.0.115
695,7,-44,10,79,"-1,0,168",-2,-4,0,0,0,0,64,66,83,60,100,-5.28,13,-37.0,90.0,-966.0,13:58:21.882944,192.168.0.115
700,7,-44,10,79,"-1,0,168",0,-5,0,0,0,0,64,66,82,60,100,-5.19,13,-65.0,90.0,-972.0,13:58:21.984834,192.168.0.115
705,7,-44,10,79,"-1,0,168",-1,-5,0,0,0,0,64,66,82,60,100,-5.23,13,-16.0,112.0,-1045.0,13:58:22.086851,192.168.0.115
710,7,-44,10,79,"-1,0,168",-2,-5,0,0,0,0,64,66,82,60,100,-5.24,14,37.0,59.0,-935.0,13:58:22.189015,192.168.0.115
716,7,-44,10,79,"-1,0,168",-1,-6,0,0,0,0,64,66,81,60,100,-5.17,14,-58.0,79.0,-1021.0,13:58:22.293221,192.168.0.115
720,7,-44,10,79,"-1,0,168",-1,-4,0,0,0,0,64,66,81,60,100,-5.24,14,-2.0,113.0,-941.0,13:58:22.393303,192.168.0.115
725,7,-44,10,79,"-1,0,168",-1,-5,0,0,0,0,64,66,81,60,100,-5.21,14,-28.0,88.0,-1018.0,13:58:22.494512,192.168.0.115
730,7,-42,-9,78,"0,4,176",0,-5,0,0,0,0,64,65,81,60,100,-5.33,14,8.0,72.0,-1104.0,13:58:22.596937,192.168.0.115
735,7,-42,-9,78,"0,4,176",0,-5,0,0,0,0,64,65,81,60,100,-5.12,14,-20.0,58.0,-984.0,13:58:22.698530,192.168.0.115
740,7,-42,-9,78,"0,4,176",0,-4,0,0,0,0,64,65,82,60,100,-5.33,14,-8.0,90.0,-986.0,13:58:22.800666,192.168.0.115
745,7,-42,-9,78,"0,4,176",0,-4,0,0,0,0,64,65,83,60,100,-5.24,14,-38.0,100.0,-909.0,13:58:22.902735,192.168.0.115
751,7,-42,3,78,"-1,0,169",0,-6,0,0,0,0,64,65,82,60,100,-5.09,14,-99.0,128.0,-1030.0,13:58:23.005880,192.168.0.115
756,7,-42,3,78,"-1,0,169",-1,-6,0,0,0,0,64,65,83,60,100,-5.47,14,-51.0,129.0,-1047.0,13:58:23.107074,192.168.0.115
761,7,-42,3,78,"-1,0,169",-2,-8,0,0,0,0,64,65,83,60,100,-5.24,15,-22.0,90.0,-1027.0,13:58:23.209072,192.168.0.115
766,7,-42,3,78,"-1,0,169",-1,-6,0,0,0,0,64,65,83,60,100,-5.33,15,-63.0,69.0,-1011.0,13:58:23.310785,192.168.0.115
771,7,-37,-5,82,"0,3,173",-1,-6,0,0,0,0,64,65,83,60,100,-5.18,15,-67.0,41.0,-937.0,13:58:23.412628,192.168.0.115
776,7,-37,-5,82,"0,3,173",-2,-5,0,1,0,0,64,65,83,60,100,-5.22,15,-67.0,73.0,-993.0,13:58:23.514486,192.168.0.115
781,7,-37,-5,82,"0,3,173",-3,-4,0,1,0,0,64,65,82,60,100,-5.18,15,-33.0,77.0,-976.0,13:58:23.616190,192.168.0.115
787,7,-37,-5,82,"0,3,173",-3,-3,0,0,0,0,64,65,81,60,100,-5.09,15,-47.0,136.0,-1036.0,13:58:23.720090,192.168.0.115
792,7,-40,0,81,"0,1,168",-3,-4,0,0,0,0,64,65,81,60,100,-5.1,15,-31.0,143.0,-976.0,13:58:23.822886,192.168.0.115
798,7,-40,0,81,"0,1,168",-2,-6,0,0,0,0,64,65,81,60,100,-5.22,15,-46.0,86.0,-1014.0,13:58:23.922677,192.168.0.115
803,7,-40,0,81,"0,1,168",-1,-6,0,0,0,0,64,65,81,60,100,-5.13,15,-38.0,117.0,-982.0,13:58:24.024589,192.168.0.115
808,7,-40,0,81,"0,1,168",-1,-5,0,0,0,0,64,65,80,60,100,-5.17,15,-9.0,81.0,-938.0,13:58:24.126750,192.168.0.115
813,7,-40,0,81,"0,1,168",-1,-6,0,0,0,0,64,65,80,60,100,-5.11,16,-40.0,67.0,-1041.0,13:58:24.228512,192.168.0.115
818,7,-40,0,81,"0,1,168",-1,-5,0,0,0,0,64,65,81,60,100,-5.3,16,-22.0,112.0,-1014.0,13:58:24.330570,192.168.0.115
820,7,-40,0,81,"0,1,168",-2,-5,0,0,0,0,64,65,81,60,100,-5.31,16,-10.0,128.0,-973.0,13:58:24.381652,192.168.0.115
825,7,-43,-1,77,"-2,1,172",-2,-5,0,0,0,0,64,65,81,60,100,-5.14,16,-22.0,120.0,-1014.0,13:58:24.483780,192.168.0.115
833,7,-43,-1,77,"-2,1,172",0,-6,0,0,0,0,63,66,81,60,100,-5.27,16,-30.0,100.0,-985.0,13:58:24.636505,192.168.0.115
838,7,-43,-1,77,"-2,1,172",0,-6,0,0,0,0,63,66,82,60,100,-5.23,16,-52.0,96.0,-1005.0,13:58:24.738551,192.168.0.115
843,7,-43,-1,77,"-2,1,172",0,-5,0,0,0,0,63,66,82,60,100,-5.28,16,-45.0,133.0,-967.0,13:58:24.840656,192.168.0.115
848,7,-38,-4,80,"1,2,173",0,-6,0,0,0,0,63,66,82,60,100,-5.31,16,6.0,84.0,-985.0,13:58:24.942935,192.168.0.115
850,7,-38,-4,80,"1,2,173",-1,-6,0,0,0,0,63,66,83,60,100,-5.22,16,-1.0,102.0,-991.0,13:58:24.993665,192.168.0.115
855,7,-38,-4,80,"1,2,173",-1,-5,0,0,0,0,63,66,82,60,100,-5.16,16,-18.0,140.0,-977.0,13:58:25.095480,192.168.0.115
860,7,-38,-4,80,"1,2,173",0,-5,0,0,0,0,63,66,82,60,100,-5.15,17,-29.0,118.0,-942.0,13:58:25.197861,192.168.0.115
865,7,-36,8,81,"0,0,165",0,-6,0,0,0,0,63,66,83,60,100,-5.12,17,-26.0,103.0,-954.0,13:58:25.299924,192.168.0.115
870,7,-36,8,81,"0,0,165",-1,-7,0,0,0,0,63,66,82,60,100,-5.15,17,-42.0,93.0,-1063.0,13:58:25.401558,192.168.0.115
875,7,-36,8,81,"0,0,165",0,-6,0,0,0,0,63,66,81,60,100,-5.23,17,-71.0,134.0,-1000.0,13:58:25.503473,192.168.0.115
880,7,-39,2,79,"-3,1,168",0,-6,0,0,0,0,64,66,81,60,100,-5.38,17,0.0,75.0,-1002.0,13:58:25.605650,192.168.0.115
885,7,-39,2,79,"-3,1,168",-2,-7,0,0,0,0,64,66,81,60,100,-5.23,17,-30.0,136.0,-946.0,13:58:25.707854,192.168.0.115
891,7,-39,2,79,"-3,1,168",-1,-6,0,0,0,0,64,66,81,60,100,-5.21,17,-6.0,126.0,-935.0,13:58:25.809424,192.168.0.115
896,7,-39,2,79,"-3,1,168",0,-6,0,0,0,0,64,66,80,60,100,-5.22,17,-84.0,137.0,-1008.0,13:58:25.911623,192.168.0.115
901,7,-37,3,80,"-1,1,167",0,-6,0,0,0,0,64,66,80,60,100,-5.16,17,-39.0,125.0,-1032.0,13:58:26.013641,192.168.0.115
906,7,-37,3,80,"-1,1,167",0,-6,0,0,0,0,64,66,79,60,100,-5.13,17,34.0,112.0,-1043.0,13:58:26.115481,192.168.0.115
911,7,-37,3,80,"-1,1,167",-1,-6,0,0,0,0,64,66,79,60,100,-5.18,18,28.0,82.0,-1012.0,13:58:26.217801,192.168.0.115
916,7,-37,3,80,"-1,1,167",-1,-6,0,0,0,0,64,66,78,60,100,-5.17,18,-10.0,109.0,-1015.0,13:58:26.319697,192.168.0.115
922,7,-36,0,78,"-2,1,168",0,-4,0,0,0,0,64,66,78,60,100,-5.25,18,-31.0,74.0,-925.0,13:58:26.422167,192.168.0.115
927,7,-36,0,78,"-2,1,168",0,-5,0,0,0,0,64,66,78,60,100,-5.4,18,-45.0,79.0,-1052.0,13:58:26.523710,192.168.0.115
932,7,-36,0,78,"-2,1,168",0,-7,0,0,0,0,64,66,79,60,100,-5.4,18,-14.0,63.0,-976.0,13:58:26.626299,192.168.0.115
937,7,-36,0,78,"-2,1,168",-1,-5,0,0,0,0,64,66,79,60,100,-5.34,18,-20.0,140.0,-988.0,13:58:26.726979,192.168.0.115
943,7,-35,1,77,"-2,1,169",-1,-5,0,0,0,0,64,66,79,60,100,-5.21,18,-22.0,132.0,-990.0,13:58:26.831754,192.168.0.115
948,7,-35,1,77,"-2,1,169",-1,-6,0,0,0,0,64,66,79,60,100,-5.18,18,-50.0,87.0,-998.0,13:58:26.931459,192.168.0.115
953,7,-35,1,77,"-2,1,169",-1,-6,0,0,0,0,64,66,79,60,100,-5.29,18,-42.0,105.0,-1048.0,13:58:27.033580,192.168.0.115
958,7,-38,0,75,"-1,1,170",-1,-7,0,0,0,0,64,66,79,60,100,-5.31,18,-61.0,140.0,-953.0,13:58:27.135492,192.168.0.115
963,7,-38,0,75,"-1,1,170",-1,-6,0,0,0,0,64,66,79,60,100,-5.08,19,26.0,94.0,-1020.0,13:58:27.237552,192.168.0.115
968,7,-38,0,75,"-1,1,170",-1,-5,0,0,0,0,64,66,79,60,100,-5.28,19,-15.0,126.0,-1016.0,13:58:27.339727,192.168.0.115
973,7,-38,0,75,"-1,1,170",-1,-6,0,0,0,0,64,66,79,60,100,-5.34,19,-5.0,132.0,-1012.0,13:58:27.441575,192.168.0.115
978,7,-35,2,78,"0,0,167",0,-7,0,0,0,0,64,66,79,60,100,-5.35,19,-13.0,117.0,-999.0,13:58:27.545606,192.168.0.115
983,7,-35,2,78,"0,0,167",0,-6,0,0,0,0,64,66,80,60,100,-5.24,19,-33.0,146.0,-947.0,13:58:27.645913,192.168.0.115
988,7,-35,2,78,"0,0,167",0,-5,0,0,0,0,64,66,80,60,100,-5.31,19,15.0,118.0,-1052.0,13:58:27.747651,192.168.0.115
993,7,-35,2,78,"0,0,167",0,-6,0,0,0,0,64,66,80,60,100,-5.2,19,-95.0,68.0,-981.0,13:58:27.849533,192.168.0.115
998,7,-34,4,79,"0,0,166",0,-7,0,0,0,0,64,66,80,60,100,-5.19,19,-48.0,128.0,-986.0,13:58:27.951416,192.168.0.115
1003,7,-34,4,79,"0,0,166",-1,-5,0,0,0,0,64,66,80,60,100,-5.39,19,-60.0,146.0,-1089.0,13:58:28.053364,192.168.0.115
1005,7,-34,4,79,"0,0,166",-2,-6,0,0,0,0,64,66,80,60,100,-5.42,19,-30.0,117.0,-1017.0,13:58:28.104495,192.168.0.115
1010,7,-34,4,79,"0,0,166",-3,-5,0,0,0,0,64,66,81,60,100,-5.25,20,-12.0,89.0,-999.0,13:58:28.206474,192.168.0.115
1015,7,-38,0,76,"-4,2,168",-2,-6,0,0,0,0,64,66,80,60,100,-5.26,20,44.0,72.0,-1051.0,13:58:28.308488,192.168.0.115
1020,7,-38,0,76,"-4,2,168",-1,-5,0,0,0,0,64,66,80,60,100,-5.3,20,-26.0,86.0,-1050.0,13:58:28.410555,192.168.0.115
1025,7,-38,0,76,"-4,2,168",0,-5,0,0,0,0,64,66,80,60,100,-5.13,20,-7.0,87.0,-1019.0,13:58:28.513066,192.168.0.115
1030,7,-35,9,79,"2,0,165",0,-5,0,0,0,0,64,66,80,60,100,-5.2,20,25.0,89.0,-981.0,13:58:28.614077,192.168.0.115
1035,7,-35,9,79,"2,0,165",0,-5,0,0,0,0,64,66,80,60,100,-5.26,20,-30.0,55.0,-1038.0,13:58:28.716586,192.168.0.115
1040,7,-35,9,79,"2,0,165",1,-5,0,0,0,0,64,66,81,60,100,-5.34,20,-51.0,134.0,-1047.0,13:58:28.818533,192.168.0.115
1045,7,-35,9,79,"2,0,165",0,-4,0,0,0,0,64,66,81,60,100,-5.34,20,-8.0,114.0,-998.0,13:58:28.920569,192.168.0.115
1050,7,-39,-1,77,"-3,2,173",0,-4,0,0,0,0,64,66,81,60,100,-5.26,20,-32.0,123.0,-1000.0,13:58:29.022466,192.168.0.115
1055,7,-39,-1,77,"-3,2,173",0,-6,0,0,0,0,64,66,82,60,100,-5.22,20,7.0,96.0,-980.0,13:58:29.124298,192.168.0.115
1060,7,-39,-1,77,"-3,2,173",0,-6,0,0,0,0,64,66,83,60,100,-5.22,21,-11.0,97.0,-1017.0,13:58:29.226587,192.168.0.115
1065,7,-39,-1,77,"-3,2,173",0,-7,0,0,0,0,64,66,83,60,100,-5.34,21,-22.0,121.0,-976.0,13:58:29.328657,192.168.0.115
1072,7,-38,1,77,"-3,2,173",0,-5,0,0,0,0,64,66,83,60,100,-5.03,21,2.0,103.0,-950.0,13:58:29.430462,192.168.0.115
1077,7,-38,1,77,"-3,2,173",0,-6,0,0,0,0,64,66,84,60,100,-5.14,21,12.0,100.0,-1022.0,13:58:29.532557,192.168.0.115
1082,7,-38,1,77,"-3,2,173",0,-6,0,0,0,0,63,66,84,60,100,-5.13,21,51.0,80.0,-930.0,13:58:29.634185,192.168.0.115
1087,7,-38,1,77,"-3,2,173",0,-6,0,0,0,0,63,66,84,60,100,-5.29,21,-1.0,60.0,-1006.0,13:58:29.736473,192.168.0.115
1092,7,-38,2,79,"-4,2,170",2,-5,0,0,0,0,63,66,84,60,100,-5.28,21,-34.0,126.0,-920.0,13:58:29.838297,192.168.0.115
1097,7,-38,2,79,"-4,2,170",1,-4,0,0,0,0,63,66,83,60,100,-5.07,21,-27.0,83.0,-982.0,13:58:29.940255,192.168.0.115
1102,7,-38,2,79,"-4,2,170",0,-4,0,0,0,0,63,66,83,60,100,-5.12,21,-8.0,99.0,-1034.0,13:58:30.042430,192.168.0.115
1107,7,-38,2,79,"-4,2,170",0,-5,0,0,0,0,63,66,83,60,100,-5.19,21,4.0,110.0,-1012.0,13:58:30.144648,192.168.0.115
1112,7,-36,3,80,"-6,2,170",0,-5,0,0,0,0,63,66,83,60,100,-5.21,22,-7.0,128.0,-988.0,13:58:30.246591,192.168.0.115
1117,7,-36,3,80,"-6,2,170",1,-4,0,0,0,0,63,66,82,60,100,-5.28,22,-19.0,94.0,-1062.0,13:58:30.348501,192.168.0.115
1122,7,-36,3,80,"-6,2,170",1,-6,0,0,0,0,63,66,83,60,100,-5.4,22,15.0,122.0,-1014.0,13:58:30.450561,192.168.0.115
1128,7,-34,4,80,"-2,1,171",0,-6,0,0,0,0,63,66,83,60,100,-5.1,22,21.0,95.0,-952.0,13:58:30.552613,192.168.0.115
1133,7,-34,4,80,"-2,1,171",0,-6,0,0,0,0,64,66,82,60,100,-5.11,22,57.0,85.0,-1003.0,13:58:30.654402,192.168.0.115
1138,7,-34,4,80,"-2,1,171",0,-6,0,0,0,0,64,66,82,60,100,-5.21,22,-37.0,75.0,-1081.0,13:58:30.756331,192.168.0.115
1143,7,-34,4,80,"-2,1,171",1,-5,0,0,0,0,64,66,82,60,100,-5.05,22,-49.0,88.0,-951.0,13:58:30.858486,192.168.0.115
1148,7,-30,9,80,"-2,1,166",0,-6,0,0,0,0,64,66,80,60,100,-5.07,22,-24.0,88.0,-994.0,13:58:30.960453,192.168.0.115
1153,7,-30,9,80,"-2,1,166",0,-6,0,0,0,0,64,66,80,60,100,-5.18,22,-60.0,76.0,-1051.0,13:58:31.062006,192.168.0.115
1158,7,-30,9,80,"-2,1,166",-1,-5,0,1,0,0,64,66,80,60,100,-5.26,22,-23.0,54.0,-1028.0,13:58:31.164427,192.168.0.115
1163,7,-30,9,80,"-2,1,166",-1,-2,0,1,0,0,64,66,80,60,100,-5.34,23,-24.0,43.0,-1010.0,13:58:31.266336,192.168.0.115
1168,7,-27,6,80,"0,2,168",-1,-2,0,1,0,0,64,66,80,60,100,-5.1,23,-10.0,72.0,-1001.0,13:58:31.368451,192.168.0.115
1173,7,-27,6,80,"0,2,168",-2,-4,0,1,0,0,64,66,80,60,100,-5.07,23,34.0,72.0,-989.0,13:58:31.470266,192.168.0.115
1178,7,-27,6,80,"0,2,168",-2,-3,0,0,0,0,64,66,80,60,100,-5.09,23,53.0,82.0,-952.0,13:58:31.572435,192.168.0.115
1183,7,-27,6,80,"0,2,168",0,-2,0,0,0,0,64,67,80,60,100,-5.2,23,7.0,53.0,-975.0,13:58:31.674000,192.168.0.115
1188,7,-38,7,75,"-2,1,173",1,-2,0,0,0,0,64,67,79,60,100,-5.21,23,-7.0,15.0,-1056.0,13:58:31.776416,192.168.0.115
1190,7,-38,7,75,"-2,1,173",1,-3,0,0,0,0,64,67,79,60,100,-5.27,23,-72.0,31.0,-1027.0,13:58:31.827632,192.168.0.115
1195,7,-38,7,75,"-2,1,173",0,-2,0,0,0,0,64,67,79,60,100,-5.1,23,-60.0,37.0,-1003.0,13:58:31.929336,192.168.0.115
1201,7,-38,7,75,"-2,1,173",-1,-1,0,1,1,0,64,67,80,60,100,-5.19,23,0.0,38.0,-1044.0,13:58:32.035370,192.168.0.115
1205,7,-33,8,78,"-3,3,174",-2,0,0,0,0,0,64,67,80,60,100,-5.25,23,21.0,70.0,-981.0,13:58:32.133318,192.168.0.115
1210,7,-33,8,78,"-3,3,174",0,-1,-1,0,0,0,64,67,80,60,100,-5.27,24,-38.0,43.0,-1012.0,13:58:32.235369,192.168.0.115
1215,7,-33,8,78,"-3,3,174",0,-1,-1,0,0,0,64,67,81,60,100,-5.28,24,23.0,63.0,-894.0,13:58:32.337717,192.168.0.115
1220,7,-33,8,78,"-3,3,174",0,-2,-1,0,0,0,64,67,81,60,100,-5.31,24,-39.0,12.0,-1014.0,13:58:32.439217,192.168.0.115
1225,7,-33,8,78,"-3,3,174",0,-2,0,0,0,0,64,67,82,60,100,-5.3,24,-18.0,52.0,-959.0,13:58:32.541329,192.168.0.115
1231,7,-33,8,78,"-3,3,174",0,-2,0,0,0,0,64,66,81,60,100,-5.29,24,-1.0,33.0,-1020.0,13:58:32.644127,192.168.0.115
1237,7,-33,8,78,"-3,3,174",0,-2,0,0,0,0,64,66,80,60,100,-5.21,24,-10.0,65.0,-1012.0,13:58:32.745303,192.168.0.115
1241,7,-38,9,79,"-2,4,176",0,-1,0,0,0,0,64,66,80,60,100,-5.12,24,16.0,62.0,-989.0,13:58:32.847318,192.168.0.115
1247,7,-38,9,79,"-2,4,176",0,-2,-1,0,0,0,64,66,80,60,100,-5.1,24,-30.0,62.0,-1040.0,13:58:32.949354,192.168.0.115
1252,7,-38,9,79,"-2,4,176",0,-2,-4,0,0,0,64,66,80,60,100,-5.09,24,-63.0,54.0,-1002.0,13:58:33.051470,192.168.0.115
1257,7,-38,9,79,"-2,4,176",0,-2,-7,0,0,0,64,66,83,60,100,-5.26,24,-10.0,44.0,-983.0,13:58:33.153207,192.168.0.115
1262,7,-36,15,79,"-1,2,174",-2,-3,-8,0,0,0,64,66,82,60,100,-5.53,25,-30.0,63.0,-1051.0,13:58:33.255377,192.168.0.115
1267,7,-36,15,79,"-1,2,174",-1,-3,-7,0,0,0,64,66,83,60,100,-5.36,25,6.0,75.0,-964.0,13:58:33.357708,192.168.0.115
1272,7,-36,15,79,"-1,2,174",-1,-4,-3,0,0,0,64,66,83,60,100,-5.24,25,-52.0,91.0,-992.0,13:58:33.460284,192.168.0.115
1277,7,-36,15,79,"-1,2,174",-1,-5,0,0,0,0,64,66,83,60,100,-4.96,25,25.0,44.0,-1000.0,13:58:33.562937,192.168.0.115
1282,7,-36,15,79,"-1,2,174",-1,-4,1,0,0,0,65,67,84,60,100,-5.1,25,-29.0,87.0,-1003.0,13:58:33.664774,192.168.0.115
1287,7,-36,15,79,"-1,2,174",0,-3,1,0,0,0,65,67,84,60,100,-5.14,25,10.0,65.0,-1039.0,13:58:33.767351,192.168.0.115
1292,7,-36,15,79,"-1,2,174",0,-3,1,0,0,0,65,67,85,60,100,-5.1,25,-4.0,45.0,-998.0,13:58:33.869599,192.168.0.115
1298,7,-36,15,79,"-1,2,174",0,-2,1,0,0,0,65,67,86,60,100,-5.04,25,17.0,64.0,-1000.0,13:58:33.969322,192.168.0.115
1303,7,-36,15,79,"-1,2,174",0,-3,1,0,0,0,65,67,86,60,100,-5.24,25,17.0,86.0,-944.0,13:58:34.071438,192.168.0.115
1308,7,-36,15,79,"-1,2,174",1,-3,1,0,0,0,65,67,86,70,100,-4.98,25,38.0,89.0,-996.0,13:58:34.173298,192.168.0.115
1313,7,-36,15,79,"-1,2,174",2,-5,0,0,-1,0,65,67,86,70,100,-5.05,26,33.0,101.0,-943.0,13:58:34.276620,192.168.0.115
1318,7,-36,15,79,"-1,2,174",2,-5,0,0,-1,0,65,67,85,60,100,-4.96,26,9.0,117.0,-962.0,13:58:34.377252,192.168.0.115
1323,7,-36,9,84,"-2,1,174",1,-6,0,0,0,0,65,67,85,60,100,-5.18,26,-25.0,72.0,-992.0,13:58:34.479306,192.168.0.115
1328,7,-36,9,84,"-2,1,174",0,-5,0,0,0,0,65,67,84,60,100,-4.98,26,-47.0,82.0,-1012.0,13:58:34.582876,192.168.0.115
1333,7,-36,9,84,"-2,1,174",0,-5,0,0,0,0,65,67,84,60,100,-5.16,26,6.0,95.0,-1034.0,13:58:34.683075,192.168.0.115
1338,7,-33,6,82,"-3,2,170",0,-6,0,0,0,0,65,67,83,60,100,-4.97,26,18.0,69.0,-980.0,13:58:34.786291,192.168.0.115
1343,7,-33,6,82,"-3,2,170",0,-5,0,0,0,0,65,67,83,60,100,-5.07,26,37.0,97.0,-945.0,13:58:34.887320,192.168.0.115
1348,7,-33,6,82,"-3,2,170",0,-4,1,0,0,0,65,67,82,60,100,-5.12,26,-5.0,116.0,-937.0,13:58:34.989268,192.168.0.115
1353,7,-33,6,82,"-3,2,170",0,-4,0,0,0,0,65,67,82,60,100,-5.19,26,-32.0,77.0,-1059.0,13:58:35.091256,192.168.0.115
1358,7,-40,5,76,"-6,1,171",1,-6,0,0,0,0,65,67,82,60,100,-5.25,26,-40.0,101.0,-1025.0,13:58:35.193334,192.168.0.115
1360,7,-40,5,76,"-6,1,171",0,-5,0,0,0,0,65,67,81,60,100,-5.08,27,-20.0,42.0,-957.0,13:58:35.244564,192.168.0.115
1365,7,-40,5,76,"-6,1,171",0,-5,0,0,0,0,65,67,80,60,100,-5.27,27,9.0,86.0,-990.0,13:58:35.346244,192.168.0.115
1370,7,-40,5,76,"-6,1,171",-1,-2,0,0,0,0,65,67,79,60,100,-5.12,27,-22.0,138.0,-1049.0,13:58:35.448381,192.168.0.115
1375,7,-38,5,76,"-6,2,169",0,-2,0,0,0,0,65,67,79,60,100,-5.24,27,-64.0,101.0,-1060.0,13:58:35.550280,192.168.0.115
1380,7,-38,5,76,"-6,2,169",0,-6,0,0,0,0,65,67,79,60,100,-5.13,27,0.0,106.0,-1019.0,13:58:35.653367,192.168.0.115
1385,7,-38,5,76,"-6,2,169",0,-6,0,0,0,0,65,67,79,60,100,-5.08,27,-23.0,160.0,-1028.0,13:58:35.754265,192.168.0.115
1390,7,-38,5,76,"-6,2,169",-1,-6,0,0,0,0,65,67,79,60,100,-5.16,27,-21.0,118.0,-1000.0,13:58:35.856314,192.168.0.115
1395,7,-37,1,76,"-3,3,175",-2,-7,0,0,0,0,65,67,79,60,100,-5.12,27,0.0,99.0,-966.0,13:58:35.958553,192.168.0.115
1400,7,-37,1,76,"-3,3,175",-1,-6,0,0,0,0,65,67,79,60,100,-5.12,27,-28.0,133.0,-987.0,13:58:36.070768,192.168.0.115
1405,7,-37,1,76,"-3,3,175",0,-7,0,0,0,0,65,67,79,60,100,-5.07,28,-26.0,106.0,-964.0,13:58:36.162641,192.168.0.115
1411,7,-37,1,76,"-3,3,175",0,-6,0,0,0,0,65,67,78,60,100,-5.16,28,19.0,92.0,-1027.0,13:58:36.264343,192.168.0.115
1417,7,-37,1,76,"-3,3,175",-1,-6,0,0,0,0,65,67,78,60,100,-5.01,28,23.0,69.0,-937.0,13:58:36.366413,192.168.0.115
1422,7,-37,1,76,"-3,3,175",0,-5,0,0,0,0,65,67,78,60,100,-5.08,28,0.0,101.0,-1028.0,13:58:36.468368,192.168.0.115
1427,7,-37,1,76,"-3,3,175",0,-5,0,0,0,0,65,67,78,60,100,-5.18,28,-3.0,117.0,-1015.0,13:58:36.570220,192.168.0.115
1432,7,-39,7,76,"-2,0,165",1,-4,0,0,0,0,65,67,78,60,100,-5.17,28,6.0,47.0,-985.0,13:58:36.673400,192.168.0.115
1437,7,-39,7,76,"-2,0,165",0,-4,0,0,0,0,65,67,78,60,100,-5.34,28,3.0,62.0,-1012.0,13:58:36.773867,192.168.0.115
1442,7,-39,7,76,"-2,0,165",0,-4,0,0,0,0,65,67,78,60,100,-5.14,28,14.0,78.0,-1002.0,13:58:36.877049,192.168.0.115
1448,7,-39,7,76,"-2,0,165",0,-4,0,0,0,0,65,67,79,60,100,-5.25,28,0.0,88.0,-956.0,13:58:36.979151,192.168.0.115
1453,7,-39,7,76,"-2,0,165",0,-4,0,0,0,0,65,67,79,60,100,-5.27,28,14.0,91.0,-1010.0,13:58:37.081222,192.168.0.115
1458,7,-39,7,76,"-2,0,165",1,-3,0,0,0,0,65,67,79,60,100,-5.35,29,-17.0,116.0,-955.0,13:58:37.183542,192.168.0.115
1463,7,-39,7,76,"-2,0,165",1,-4,0,0,0,0,65,67,80,60,100,-5.27,29,-17.0,86.0,-975.0,13:58:37.285190,192.168.0.115
1468,7,-39,7,76,"-2,0,165",0,-5,0,0,0,0,65,67,80,60,100,-5.27,29,12.0,93.0,-993.0,13:58:37.387120,192.168.0.115
1473,7,-31,9,80,"1,0,167",0,-6,0,0,0,0,65,67,80,60,100,-5.13,29,-10.0,80.0,-931.0,13:58:37.489258,192.168.0.115
1478,7,-31,9,80,"1,0,167",0,-5,0,0,0,0,65,67,79,60,100,-5.19,29,-11.0,88.0,-945.0,13:58:37.592778,192.168.0.115
1483,7,-31,9,80,"1,0,167",0,-5,0,0,0,0,65,67,79,60,100,-5.16,29,-49.0,83.0,-1047.0,13:58:37.693320,192.168.0.115
1488,7,-38,3,76,"-4,2,171",-1,-5,-1,0,0,0,65,67,79,60,100,-5.21,29,-55.0,39.0,-1012.0,13:58:37.795216,192.168.0.115
1493,7,-38,3,76,"-4,2,171",-1,-4,-3,0,0,0,65,67,79,60,100,-5.44,29,-34.0,63.0,-1032.0,13:58:37.896991,192.168.0.115
1498,7,-38,3,76,"-4,2,171",-1,-4,-2,0,0,0,65,67,78,60,100,-5.35,29,3.0,57.0,-991.0,13:58:37.998947,192.168.0.115
1503,7,-38,3,76,"-4,2,171",-2,-4,0,0,0,0,65,67,78,60,100,-5.34,29,-23.0,97.0,-972.0,13:58:38.101147,192.168.0.115
1508,7,-38,3,76,"-4,2,171",-1,-4,0,0,0,0,65,67,78,60,100,-5.14,30,-22.0,122.0,-969.0,13:58:38.203217,192.168.0.115
1513,7,-38,3,76,"-4,2,171",0,-5,0,0,0,0,65,67,79,60,100,-5.29,30,-1.0,73.0,-1031.0,13:58:38.305017,192.168.0.115
1518,7,-38,3,76,"-4,2,171",0,-4,0,0,0,0,65,67,79,60,100,-5.21,30,-6.0,67.0,-999.0,13:58:38.407229,192.168.0.115
1520,7,-38,3,76,"-4,2,171",0,-3,0,0,0,0,65,67,79,60,100,-5.27,30,-33.0,77.0,-959.0,13:58:38.458139,192.168.0.115
1525,7,-38,3,76,"-4,2,171",0,-3,0,0,0,0,65,67,79,60,100,-5.23,30,-39.0,121.0,-1067.0,13:58:38.560126,192.168.0.115
1533,7,-38,3,76,"-4,2,171",0,-4,0,0,0,0,65,67,80,60,100,-5.23,30,-4.0,81.0,-1046.0,13:58:38.713051,192.168.0.115
1535,7,-38,3,76,"-4,2,171",0,-5,0,0,0,0,65,67,79,60,100,-5.27,30,-19.0,67.0,-1032.0,13:58:38.764136,192.168.0.115
1540,7,-38,3,76,"-4,2,171",0,-3,0,0,0,0,65,67,80,60,100,-5.32,30,-22.0,62.0,-973.0,13:58:38.866300,192.168.0.115
1545,7,-37,3,78,"0,3,175",0,-3,0,0,0,0,65,67,80,60,100,-5.31,30,-50.0,122.0,-1042.0,13:58:38.968525,192.168.0.115
1550,7,-37,3,78,"0,3,175",0,-4,0,0,0,0,65,67,80,60,100,-5.38,30,43.0,37.0,-990.0,13:58:39.070567,192.168.0.115
1555,7,-37,3,78,"0,3,175",0,-4,0,0,0,0,65,67,81,60,100,-5.32,31,-32.0,87.0,-1004.0,13:58:39.172128,192.168.0.115
1560,7,-39,8,76,"-3,2,171",0,-3,0,0,0,0,65,67,81,60,100,-5.19,31,23.0,83.0,-1017.0,13:58:39.274090,192.168.0.115
1565,7,-39,8,76,"-3,2,171",0,-4,0,0,0,0,65,67,82,60,100,-5.17,31,66.0,92.0,-1003.0,13:58:39.376298,192.168.0.115
1570,7,-39,8,76,"-3,2,171",1,-3,0,0,0,0,65,67,82,60,100,-5.03,31,46.0,84.0,-875.0,13:58:39.478257,192.168.0.115
1576,7,-39,8,76,"-3,2,171",2,-4,0,0,0,0,65,67,83,60,100,-5.3,31,-67.0,70.0,-931.0,13:58:39.580111,192.168.0.115
1581,7,-36,10,78,"-1,1,171",0,-4,0,0,0,0,65,67,83,60,100,-5.29,31,-34.0,92.0,-1007.0,13:58:39.682369,192.168.0.115
1587,7,-36,10,78,"-1,1,171",-1,-3,0,0,0,0,65,67,83,60,100,-5.29,31,-54.0,72.0,-1005.0,13:58:39.784064,192.168.0.115
1591,7,-36,10,78,"-1,1,171",-1,-5,0,0,0,0,65,67,83,60,100,-5.29,31,-5.0,81.0,-952.0,13:58:39.886002,192.168.0.115
1596,7,-36,10,78,"-1,1,171",0,-5,0,0,0,0,65,67,83,60,100,-5.25,31,-47.0,119.0,-1051.0,13:58:39.988988,192.168.0.115
1602,7,-33,14,79,"-3,2,168",0,-4,0,0,0,0,65,67,82,60,100,-5.07,31,-8.0,72.0,-1017.0,13:58:40.090183,192.168.0.115
1607,7,-33,14,79,"-3,2,168",-1,-2,0,0,0,0,65,67,81,60,100,-5.2,32,6.0,121.0,-953.0,13:58:40.191926,192.168.0.115
1612,7,-33,14,79,"-3,2,168",0,-4,-1,0,0,0,65,67,81,60,100,-5.22,32,-39.0,52.0,-1040.0,13:58:40.293988,192.168.0.115
1617,7,-33,14,79,"-3,2,168",0,-4,0,0,0,0,65,67,81,60,100,-5.04,32,-6.0,33.0,-954.0,13:58:40.397145,192.168.0.115
1622,7,-35,7,79,"-2,2,172",-1,-2,-1,0,0,0,65,67,80,60,100,-5.3,32,-33.0,111.0,-981.0,13:58:40.498082,192.168.0.115
1627,7,-35,7,79,"-2,2,172",0,-4,-5,0,0,0,65,67,80,60,100,-5.27,32,-44.0,67.0,-1011.0,13:58:40.599980,192.168.0.115
1632,7,-35,7,79,"-2,2,172",0,-5,-7,0,0,0,65,67,80,60,100,-5.3,32,-30.0,21.0,-983.0,13:58:40.702189,192.168.0.115
1637,7,-37,8,77,"-2,2,173",-1,-4,-5,0,0,0,65,67,80,60,100,-5.32,32,-42.0,17.0,-1016.0,13:58:40.804164,192.168.0.115
1643,7,-37,8,77,"-2,2,173",-2,-2,0,1,0,0,65,67,79,60,100,-5.24,32,-110.0,89.0,-1049.0,13:58:40.906316,192.168.0.115
1648,7,-37,8,77,"-2,2,173",-2,-1,0,1,0,0,65,67,79,60,100,-5.21,32,-39.0,70.0,-995.0,13:58:41.007667,192.168.0.115
1653,7,-37,8,77,"-2,2,173",-2,-1,1,0,0,0,65,67,79,60,100,-5.15,32,-1.0,55.0,-1046.0,13:58:41.110198,192.168.0.115
1658,7,-38,12,75,"-2,7,169",-2,-1,0,0,0,0,65,67,80,60,100,-5.14,33,-43.0,57.0,-937.0,13:58:41.211963,192.168.0.115
1663,7,-38,12,75,"-2,7,169",-1,-2,0,0,0,0,65,67,80,60,100,-5.14,33,-68.0,63.0,-1022.0,13:58:41.314041,192.168.0.115
1668,7,-38,12,75,"-2,7,169",-1,-3,-4,0,0,0,65,67,81,60,100,-5.12,33,-37.0,45.0,-1009.0,13:58:41.416020,192.168.0.115
1673,7,-38,12,75,"-2,7,169",-2,-3,-6,0,0,0,65,67,81,60,100,-5.24,33,-53.0,43.0,-989.0,13:58:41.517932,192.168.0.115
1678,7,-38,12,75,"-2,7,169",-2,-3,-5,0,0,0,65,67,81,60,100,-5.04,33,-65.0,19.0,-908.0,13:58:41.622026,192.168.0.115
1683,7,-38,12,75,"-2,7,169",-3,0,0,1,0,0,65,67,81,60,100,-5.38,33,-60.0,70.0,-974.0,13:58:41.724108,192.168.0.115
1688,7,-38,12,75,"-2,7,169",-4,-2,1,0,0,0,65,67,81,60,100,-5.05,33,-48.0,49.0,-1009.0,13:58:41.824089,192.168.0.115
1693,7,-38,12,75,"-2,7,169",-3,-2,1,0,0,0,65,67,81,60,100,-5.19,33,-9.0,90.0,-1010.0,13:58:41.925990,192.168.0.115
1698,7,-38,12,75,"-2,7,169",-2,-2,0,0,-1,0,65,67,82,60,100,-5.36,33,-53.0,133.0,-1059.0,13:58:42.028200,192.168.0.115
1700,7,-38,12,75,"-2,7,169",-1,-6,0,0,-1,0,65,67,83,60,100,-5.29,33,-43.0,73.0,-989.0,13:58:42.079191,192.168.0.115
1705,7,-38,12,75,"-2,7,169",-1,-6,0,0,0,0,65,67,84,60,100,-5.18,34,-56.0,69.0,-941.0,13:58:42.181005,192.168.0.115
1710,7,-38,12,75,"-2,7,169",-2,-5,0,0,0,0,65,67,84,60,100,-5.17,34,-73.0,87.0,-1016.0,13:58:42.283037,192.168.0.115
1715,7,-38,12,75,"-2,7,169",-3,-5,1,0,0,0,65,67,85,60,100,-5.1,34,-28.0,106.0,-941.0,13:58:42.384955,192.168.0.115
1720,7,-38,12,75,"-2,7,169",-3,-5,1,0,0,0,65,67,85,60,100,-4.99,34,2.0,97.0,-982.0,13:58:42.487083,192.168.0.115
1725,7,-38,12,75,"-2,7,169",-1,-5,0,0,-1,0,65,67,84,60,100,-5.16,34,-11.0,67.0,-944.0,13:58:42.588937,192.168.0.115
1731,7,-38,12,75,"-2,7,169",-1,-7,0,0,-1,0,65,68,85,60,100,-5.08,34,-20.0,74.0,-948.0,13:58:42.692529,192.168.0.115
1736,7,-38,12,75,"-2,7,169",-1,-7,0,0,0,0,65,68,85,60,100,-5.09,34,8.0,68.0,-999.0,13:58:42.793015,192.168.0.115
1741,7,-38,12,75,"-2,7,169",-1,-5,0,0,0,0,65,68,84,60,100,-5.04,34,-47.0,63.0,-1001.0,13:58:42.895034,192.168.0.115
1746,7,-38,12,75,"-2,7,169",-1,-5,0,0,0,0,65,68,84,60,100,-5.03,34,-6.0,115.0,-957.0,13:58:42.997126,192.168.0.115
1751,7,-38,12,75,"-2,7,169",-2,-6,0,0,0,0,65,68,83,60,100,-5.2,34,-45.0,101.0,-954.0,13:58:43.098902,192.168.0.115
1756,7,-38,12,75,"-2,7,169",-2,-7,0,0,0,0,65,68,83,60,100,-5.09,35,-28.0,125.0,-947.0,13:58:43.201098,192.168.0.115
1762,7,-38,12,75,"-2,7,169",-1,-7,0,0,0,0,65,68,83,60,100,-5.18,35,-46.0,95.0,-1010.0,13:58:43.302924,192.168.0.115
1767,7,-38,12,75,"-2,7,169",-2,-6,0,0,0,0,65,68,82,60,100,-5.32,35,-40.0,94.0,-1016.0,13:58:43.406295,192.168.0.115
1772,7,-38,12,75,"-2,7,169",-1,-6,0,0,0,0,65,68,82,60,100,-5.18,35,-5.0,65.0,-918.0,13:58:43.507111,192.168.0.115
1777,7,-38,12,75,"-2,7,169",-1,-6,0,0,0,0,65,68,82,60,100,-5.16,35,-30.0,82.0,-964.0,13:58:43.608432,192.168.0.115
1782,7,-38,12,75,"-2,7,169",-1,-5,0,0,0,0,66,68,81,60,100,-5.17,35,-93.0,133.0,-1019.0,13:58:43.710996,192.168.0.115
1787,7,-38,12,75,"-2,7,169",-2,-5,0,0,0,0,66,68,80,60,100,-5.14,35,-33.0,116.0,-972.0,13:58:43.812470,192.168.0.115
1792,7,-38,12,75,"-2,7,169",-1,-6,0,0,0,0,66,68,82,60,100,-5.18,35,-79.0,81.0,-996.0,13:58:43.914865,192.168.0.115
1797,7,-38,12,75,"-2,7,169",-2,-4,0,0,0,0,66,68,80,60,100,-5.29,35,-64.0,89.0,-991.0,13:58:44.016908,192.168.0.115
1803,7,-38,12,75,"-2,7,169",-2,-5,0,0,0,0,66,68,81,60,100,-5.36,35,-25.0,102.0,-1015.0,13:58:44.119112,192.168.0.115
1808,7,-38,12,75,"-2,7,169",-2,-5,0,0,0,0,66,68,81,60,100,-5.31,36,-71.0,1.0,-1007.0,13:58:44.222076,192.168.0.115
1813,7,-38,12,75,"-2,7,169",-3,-2,0,0,1,0,66,68,81,60,100,-5.33,36,1.0,80.0,-958.0,13:58:44.322857,192.168.0.115
1818,7,-38,12,75,"-2,7,169",-1,-3,0,0,0,0,66,68,82,60,100,-5.23,36,-59.0,91.0,-1001.0,13:58:44.424890,192.168.0.115
1823,7,-38,12,75,"-2,7,169",0,-2,0,0,0,0,66,68,81,60,100,-5.25,36,-92.0,105.0,-1040.0,13:58:44.526867,192.168.0.115
1828,7,-38,12,75,"-2,7,169",-2,-3,0,0,0,0,66,68,82,60,100,-5.53,36,-30.0,103.0,-968.0,13:58:44.628810,192.168.0.115
1833,7,-38,12,75,"-2,7,169",-3,-4,0,0,0,0,66,68,82,60,100,-5.27,36,-69.0,77.0,-1002.0,13:58:44.731037,192.168.0.115
1838,7,-38,12,75,"-2,7,169",-2,-5,0,0,0,0,66,68,82,60,100,-5.39,36,-18.0,109.0,-954.0,13:58:44.832983,192.168.0.115
1843,7,-40,3,77,"-4,2,175",-1,-4,0,0,0,0,66,68,82,60,100,-5.19,36,2.0,92.0,-967.0,13:58:44.935213,192.168.0.115
1848,7,-40,3,77,"-4,2,175",-1,-5,0,0,0,0,66,68,81,60,100,-5.3,36,-64.0,96.0,-989.0,13:58:45.037026,192.168.0.115
1853,7,-40,3,77,"-4,2,175",0,-4,0,0,0,0,66,68,81,60,100,-5.29,36,-37.0,74.0,-1000.0,13:58:45.138984,192.168.0.115
1858,7,-40,3,77,"-4,2,175",-1,-4,0,0,0,0,66,68,81,60,100,-5.22,37,-47.0,76.0,-997.0,13:58:45.240868,192.168.0.115
1863,7,-36,10,79,"0,1,170",-2,-4,0,0,0,0,66,68,81,60,100,-5.29,37,-28.0,86.0,-993.0,13:58:45.342968,192.168.0.115
1868,7,-36,10,79,"0,1,170",-1,-3,0,0,0,0,66,68,81,60,100,-5.32,37,-8.0,75.0,-1002.0,13:58:45.444828,192.168.0.115
1870,7,-36,10,79,"0,1,170",0,-3,0,0,0,0,66,68,82,60,100,-5.27,37,-21.0,54.0,-973.0,13:58:45.495955,192.168.0.115
1875,7,-36,10,79,"0,1,170",0,-3,0,0,0,0,66,68,81,60,100,-5.24,37,29.0,60.0,-1013.0,13:58:45.635726,192.168.0.115
1884,7,-34,8,79,"0,1,172",0,-3,0,0,0,0,66,68,81,60,100,-5.15,37,20.0,55.0,-975.0,13:58:45.750729,192.168.0.115
1885,7,-34,8,79,"0,1,172",1,-3,0,0,0,0,66,68,81,60,100,-5.33,37,-49.0,52.0,-1005.0,13:58:45.801710,192.168.0.115
1890,7,-34,8,79,"0,1,172",1,-3,0,0,0,0,66,68,81,60,100,-5.18,37,-20.0,47.0,-969.0,13:58:45.904121,192.168.0.115
1895,7,-32,14,78,"-1,0,170",0,-2,0,0,0,0,66,68,80,60,100,-5.15,37,-3.0,40.0,-985.0,13:58:46.005343,192.168.0.115
1900,7,-32,14,78,"-1,0,170",0,-2,0,0,0,0,66,68,79,60,100,-5.11,37,8.0,95.0,-1025.0,13:58:46.107842,192.168.0.115
1905,7,-32,14,78,"-1,0,170",0,-1,0,0,0,0,66,68,79,60,100,-5.35,38,16.0,65.0,-1025.0,13:58:46.210063,192.168.0.115
1910,7,-32,14,78,"-1,0,170",1,-3,0,0,0,0,66,68,79,60,100,-5.26,38,-29.0,36.0,-1014.0,13:58:46.312094,192.168.0.115
1916,7,-26,11,79,"0,2,174",1,-2,0,0,0,0,66,68,78,60,100,-5.22,38,-9.0,20.0,-989.0,13:58:46.413982,192.168.0.115
1921,7,-26,11,79,"0,2,174",0,-1,0,0,0,0,66,68,78,60,100,-5.18,38,25.0,35.0,-1036.0,13:58:46.515838,192.168.0.115
1926,7,-26,11,79,"0,2,174",0,-1,0,0,0,0,66,68,78,60,100,-5.08,38,-21.0,51.0,-984.0,13:58:46.618532,192.168.0.115
1932,7,-26,11,79,"0,2,174",0,-1,0,0,0,0,66,68,78,60,100,-5.17,38,-12.0,52.0,-1026.0,13:58:46.721177,192.168.0.115
1937,7,-24,12,78,"-1,2,174",0,-1,-1,0,0,0,66,68,78,60,100,-5.19,38,-6.0,-1.0,-976.0,13:58:46.821935,192.168.0.115
1942,7,-24,12,78,"-1,2,174",0,-1,-1,0,0,0,66,68,77,60,100,-5.21,38,-48.0,84.0,-967.0,13:58:46.923933,192.168.0.115
1947,7,-24,12,78,"-1,2,174",0,-2,0,1,0,0,66,68,77,60,100,-5.16,38,-53.0,70.0,-1021.0,13:58:47.025840,192.168.0.115
1953,7,-24,12,78,"-1,2,174",-1,-1,0,1,0,0,66,68,77,60,100,-5.24,38,-35.0,73.0,-1017.0,13:58:47.131279,192.168.0.115
1957,7,-24,11,78,"0,4,178",-2,-3,0,1,0,0,66,68,78,60,100,-5.05,39,0.0,81.0,-998.0,13:58:47.229716,192.168.0.115
1963,7,-24,11,78,"0,4,178",-2,-3,0,0,0,0,66,68,78,60,100,-5.3,39,-1.0,115.0,-1019.0,13:58:47.331823,192.168.0.115
1968,7,-24,11,78,"0,4,178",-1,-3,0,0,0,0,66,68,78,60,100,-5.12,39,73.0,64.0,-1024.0,13:58:47.433947,192.168.0.115
1973,7,-24,11,78,"0,4,178",0,-4,0,0,-1,0,66,68,78,60,100,-5.23,39,26.0,104.0,-969.0,13:58:47.535649,192.168.0.115
1978,7,-28,15,76,"1,2,172",1,-6,0,0,-1,0,66,68,79,60,100,-5.22,39,-19.0,112.0,-988.0,13:58:47.637901,192.168.0.115
1983,7,-28,15,76,"1,2,172",2,-6,0,0,-1,0,66,69,80,60,100,-5.28,39,-15.0,142.0,-943.0,13:58:47.739732,192.168.0.115
1988,7,-28,15,76,"1,2,172",1,-6,0,0,-1,0,66,69,80,60,100,-5.3,39,-2.0,103.0,-979.0,13:58:47.841793,192.168.0.115
1993,7,-31,10,76,"-3,2,172",0,-7,0,0,-1,0,66,69,80,60,100,-5.23,39,2.0,119.0,-1003.0,13:58:47.944863,192.168.0.115
1998,7,-31,10,76,"-3,2,172",0,-7,0,0,-1,0,66,69,80,60,100,-5.17,39,11.0,141.0,-955.0,13:58:48.046610,192.168.0.115
2003,7,-31,10,76,"-3,2,172",0,-8,0,0,-1,0,66,69,80,60,100,-5.23,39,20.0,105.0,-949.0,13:58:48.148988,192.168.0.115
2008,7,-31,10,76,"-3,2,172",0,-8,0,0,-1,0,66,69,81,60,100,-5.11,40,-56.0,107.0,-995.0,13:58:48.250923,192.168.0.115
2013,7,-31,6,77,"-2,2,169",0,-7,0,0,0,0,66,69,81,60,100,-5.22,40,-42.0,125.0,-967.0,13:58:48.352900,192.168.0.115
2018,7,-31,6,77,"-2,2,169",0,-7,0,0,0,0,66,69,81,60,100,-5.13,40,-28.0,130.0,-967.0,13:58:48.454876,192.168.0.115
2023,7,-31,6,77,"-2,2,169",-1,-6,0,0,0,0,66,69,81,60,100,-5.23,40,-46.0,111.0,-1076.0,13:58:48.556737,192.168.0.115
2028,7,-31,6,77,"-2,2,169",-1,-8,0,1,0,0,66,69,81,60,100,-5.12,40,-9.0,132.0,-974.0,13:58:48.658500,192.168.0.115
2033,7,-32,3,78,"-3,2,167",-2,-8,0,1,0,0,66,68,81,60,100,-5.17,40,-28.0,114.0,-968.0,13:58:48.761006,192.168.0.115
2038,7,-32,3,78,"-3,2,167",-2,-7,0,0,0,0,66,68,81,60,100,-5.22,40,-17.0,163.0,-1008.0,13:58:48.862829,192.168.0.115
2043,7,-32,3,78,"-3,2,167",-2,-6,0,0,0,0,66,68,80,60,100,-5.1,40,-51.0,124.0,-980.0,13:58:48.965633,192.168.0.115
2045,7,-32,3,78,"-3,2,167",-1,-7,0,0,0,0,66,68,80,60,100,-5.17,40,-16.0,120.0,-995.0,13:58:49.015297,192.168.0.115
2050,7,-32,3,78,"-3,2,167",-1,-8,0,0,0,0,66,68,80,60,100,-5.12,40,-23.0,129.0,-989.0,13:58:49.117442,192.168.0.115
2055,7,-32,3,78,"-3,2,167",-2,-7,0,0,0,0,66,68,80,60,100,-5.21,41,-6.0,146.0,-953.0,13:58:49.219353,192.168.0.115
2060,7,-32,3,78,"-3,2,167",-1,-6,0,0,0,0,66,68,80,60,100,-5.03,41,-71.0,132.0,-994.0,13:58:49.321707,192.168.0.115
2065,7,-32,3,78,"-3,2,167",-1,-6,0,0,0,0,66,68,80,60,100,-5.11,41,-35.0,147.0,-1031.0,13:58:49.423868,192.168.0.115
2070,7,-32,3,78,"-3,2,167",-3,-6,0,0,0,0,66,68,80,60,100,-5.08,41,-42.0,118.0,-959.0,13:58:49.525764,192.168.0.115
2075,7,-32,3,78,"-3,2,167",-3,-7,0,0,0,0,66,68,81,60,100,-5.2,41,-36.0,118.0,-996.0,13:58:49.628096,192.168.0.115
2080,7,-32,3,78,"-3,2,167",-2,-7,0,0,0,0,66,69,81,60,100,-5.07,41,-82.0,62.0,-1005.0,13:58:49.729767,192.168.0.115
2086,7,-32,3,78,"-3,2,167",-2,-6,0,0,0,0,66,69,80,60,100,-5.28,41,-40.0,93.0,-1007.0,13:58:49.832008,192.168.0.115
2091,7,-32,3,78,"-3,2,167",-4,-6,0,0,0,0,66,69,81,60,100,-5.3,41,-41.0,118.0,-994.0,13:58:49.934060,192.168.0.115
2096,7,-32,3,78,"-3,2,167",-2,-5,0,0,0,0,66,69,80,60,100,-5.2,41,-41.0,115.0,-1040.0,13:58:50.035661,192.168.0.115
2101,7,-32,3,78,"-3,2,167",-2,-6,0,0,0,0,66,69,80,60,100,-5.28,41,-33.0,117.0,-943.0,13:58:50.137455,192.168.0.115
2106,7,-32,3,78,"-3,2,167",-2,-7,0,0,0,0,66,69,81,60,100,-5.17,42,-30.0,111.0,-923.0,13:58:50.239813,192.168.0.115
2111,7,-32,3,78,"-3,2,167",-1,-6,0,0,0,0,66,69,81,60,100,-5.16,42,-11.0,116.0,-1021.0,13:58:50.341795,192.168.0.115
2117,7,-32,3,78,"-3,2,167",-1,-5,0,0,0,0,66,69,81,60,100,-5.07,42,-69.0,94.0,-934.0,13:58:50.443717,192.168.0.115
2122,7,-32,3,78,"-3,2,167",0,-6,0,0,0,0,66,69,81,60,100,-5.09,42,-55.0,79.0,-965.0,13:58:50.545849,192.168.0.115
2127,7,-32,3,78,"-3,2,167",-1,-6,0,0,0,0,66,69,82,60,100,-5.43,42,-39.0,91.0,-1009.0,13:58:50.647864,192.168.0.115
2132,7,-32,3,78,"-3,2,167",-3,-6,0,0,0,0,67,68,82,60,100,-5.21,42,-38.0,108.0,-955.0,13:58:50.749778,192.168.0.115
2138,7,-32,3,78,"-3,2,167",-3,-5,0,0,0,0,67,68,82,60,100,-4.99,42,-43.0,105.0,-960.0,13:58:50.851627,192.168.0.115
2143,7,-32,3,78,"-3,2,167",-2,-4,0,0,0,0,67,68,82,60,100,-5.24,42,-53.0,95.0,-1051.0,13:58:50.953764,192.168.0.115
2148,7,-32,3,78,"-3,2,167",-2,-5,0,0,0,0,67,68,82,60,100,-5.27,42,-32.0,98.0,-1087.0,13:58:51.055659,192.168.0.115
2153,7,-32,3,78,"-3,2,167",-2,-4,0,0,0,0,67,68,83,60,100,-5.12,42,-2.0,114.0,-997.0,13:58:51.157843,192.168.0.115
2158,7,-32,3,78,"-3,2,167",-2,-5,0,0,0,0,67,68,83,60,100,-5.17,43,-19.0,73.0,-1004.0,13:58:51.259831,192.168.0.115
2163,7,-32,3,78,"-3,2,167",0,-5,0,0,0,0,67,68,83,60,100,-5.13,43,2.0,43.0,-963.0,13:58:51.361688,192.168.0.115
2168,7,-32,3,78,"-3,2,167",0,-3,0,0,1,0,67,68,83,60,100,-5.37,43,-9.0,113.0,-1000.0,13:58:51.464106,192.168.0.115
2173,7,-32,3,78,"-3,2,167",0,-3,0,0,0,0,67,68,83,60,100,-5.12,43,-3.0,43.0,-945.0,13:58:51.567477,192.168.0.115
2178,7,-32,3,78,"-3,2,167",0,-3,0,-1,0,0,67,68,82,60,100,-5.27,43,-7.0,87.0,-1006.0,13:58:51.667848,192.168.0.115
2183,7,-32,3,78,"-3,2,167",1,-2,0,0,0,0,66,68,82,60,100,-5.25,43,43.0,29.0,-979.0,13:58:51.769816,192.168.0.115
2188,7,-32,3,78,"-3,2,167",0,-3,0,0,0,0,66,68,81,60,100,-5.17,43,4.0,57.0,-1028.0,13:58:51.871706,192.168.0.115
2193,7,-32,3,78,"-3,2,167",1,-3,0,0,0,0,66,68,81,60,100,-5.44,43,-9.0,114.0,-1018.0,13:58:51.973415,192.168.0.115
2198,7,-34,7,81,"-1,1,175",0,-2,0,0,0,0,66,68,81,60,100,-5.46,43,-13.0,94.0,-1021.0,13:58:52.075813,192.168.0.115
2203,7,-34,7,81,"-1,1,175",0,-5,0,0,0,0,66,68,81,60,100,-5.41,43,-10.0,78.0,-953.0,13:58:52.177562,192.168.0.115
2205,7,-34,7,81,"-1,1,175",0,-5,0,0,0,0,66,68,82,60,100,-5.4,44,-8.0,46.0,-1034.0,13:58:52.228963,192.168.0.115
2210,7,-34,7,81,"-1,1,175",0,-5,0,0,0,0,66,68,82,60,100,-5.38,44,-65.0,72.0,-1005.0,13:58:52.330679,192.168.0.115
2215,7,-31,13,79,"-2,2,172",0,-2,0,0,0,0,66,68,82,60,100,-5.41,44,-10.0,121.0,-1009.0,13:58:52.432415,192.168.0.115
2220,7,-31,13,79,"-2,2,172",-2,-2,0,0,0,0,66,68,82,60,100,-5.42,44,-9.0,91.0,-964.0,13:58:52.534715,192.168.0.115
2225,7,-31,13,79,"-2,2,172",0,-4,0,0,0,0,66,68,82,60,100,-5.32,44,-16.0,66.0,-1020.0,13:58:52.636558,192.168.0.115
2230,7,-31,11,79,"0,2,172",0,-4,0,0,0,0,66,69,82,60,100,-5.46,44,-38.0,69.0,-986.0,13:58:52.739174,192.168.0.115
2235,7,-31,11,79,"0,2,172",0,-4,0,0,0,0,66,69,82,60,100,-5.37,44,6.0,46.0,-984.0,13:58:52.840749,192.168.0.115
2240,7,-31,11,79,"0,2,172",-1,-4,0,0,0,0,66,69,81,60,100,-5.44,44,-40.0,62.0,-1005.0,13:58:52.942715,192.168.0.115
2246,7,-31,11,79,"0,2,172",0,-3,0,0,0,0,66,69,81,60,100,-5.4,44,-27.0,103.0,-1021.0,13:58:53.044593,192.168.0.115
2250,7,-34,10,78,"-3,2,172",-1,-2,0,0,0,0,66,69,80,60,100,-5.31,44,-29.0,61.0,-944.0,13:58:53.146815,192.168.0.115
2256,7,-34,10,78,"-3,2,172",-1,-4,0,0,0,0,66,69,79,60,100,-5.61,45,-18.0,93.0,-1104.0,13:58:53.248976,192.168.0.115
2261,7,-34,10,78,"-3,2,172",-2,-3,0,0,0,0,66,69,80,60,100,-5.54,45,-36.0,93.0,-969.0,13:58:53.350754,192.168.0.115
2267,7,-34,10,78,"-3,2,172",-1,-3,0,0,0,0,66,69,79,60,100,-5.49,45,-90.0,134.0,-1048.0,13:58:53.452599,192.168.0.115
2272,7,-34,12,77,"-2,3,172",-1,-4,0,0,0,0,66,69,79,60,100,-5.5,45,-14.0,97.0,-1011.0,13:58:53.554391,192.168.0.115
2277,7,-34,12,77,"-2,3,172",-2,-3,0,0,0,0,66,69,79,60,100,-5.54,45,31.0,44.0,-1062.0,13:58:53.656225,192.168.0.115
2282,7,-34,12,77,"-2,3,172",-2,-4,0,0,0,0,66,69,79,60,100,-5.33,45,62.0,60.0,-1017.0,13:58:53.758691,192.168.0.115
2287,7,-34,12,77,"-2,3,172",0,-4,0,0,0,0,66,69,80,60,100,-5.24,45,38.0,72.0,-1066.0,13:58:53.860542,192.168.0.115
2292,7,-36,6,76,"-1,3,175",2,-3,0,-1,0,0,66,69,80,60,100,-5.15,45,33.0,80.0,-1007.0,13:58:53.962667,192.168.0.115
2297,7,-36,6,76,"-1,3,175",2,-4,0,0,0,0,66,69,81,60,100,-5.25,45,6.0,141.0,-964.0,13:58:54.064313,192.168.0.115
2302,7,-36,6,76,"-1,3,175",0,-5,0,0,0,0,66,69,81,60,100,-5.11,45,-9.0,74.0,-961.0,13:58:54.166792,192.168.0.115
2308,7,-36,6,76,"-1,3,175",0,-4,0,0,0,0,66,69,81,60,100,-5.38,46,31.0,56.0,-1024.0,13:58:54.268510,192.168.0.115
2313,7,-32,14,77,"-3,1,170",1,-5,0,0,0,0,66,69,81,60,100,-5.44,46,77.0,52.0,-983.0,13:58:54.370491,192.168.0.115
2318,7,-32,14,77,"-3,1,170",2,-4,0,0,0,0,66,69,81,60,100,-5.36,46,15.0,60.0,-950.0,13:58:54.476638,192.168.0.115
2323,7,-32,14,77,"-3,1,170",1,-4,0,0,0,0,66,69,80,60,100,-5.33,46,17.0,93.0,-950.0,13:58:54.574512,192.168.0.115
2328,7,-30,12,78,"-3,1,170",2,-5,0,0,0,0,66,69,80,60,100,-5.28,46,-6.0,126.0,-946.0,13:58:54.676461,192.168.0.115
2333,7,-30,12,78,"-3,1,170",0,-5,0,0,0,0,66,68,80,60,100,-5.24,46,-51.0,138.0,-983.0,13:58:54.778534,192.168.0.115
2338,7,-30,12,78,"-3,1,170",0,-6,0,0,0,0,66,68,80,60,100,-5.19,46,10.0,120.0,-1018.0,13:58:54.880811,192.168.0.115
2343,7,-30,12,78,"-3,1,170",0,-6,0,0,0,0,66,68,79,60,100,-5.28,46,-13.0,109.0,-1005.0,13:58:54.984109,192.168.0.115
2348,7,-24,11,80,"0,2,169",0,-6,0,0,0,0,66,68,79,60,100,-5.39,46,-27.0,116.0,-923.0,13:58:55.084654,192.168.0.115
2353,7,-24,11,80,"0,2,169",0,-6,0,0,0,0,66,68,79,60,100,-5.31,46,-15.0,109.0,-964.0,13:58:55.186457,192.168.0.115
2355,7,-24,11,80,"0,2,169",-1,-6,0,0,0,0,66,68,79,60,100,-5.27,47,-55.0,80.0,-1073.0,13:58:55.237520,192.168.0.115
2360,7,-24,11,80,"0,2,169",0,-6,0,0,0,0,66,68,79,60,100,-5.36,47,-19.0,91.0,-1007.0,13:58:55.339512,192.168.0.115
2365,7,-30,6,76,"-3,3,169",-1,-6,-1,0,0,0,66,68,78,60,100,-5.43,47,-12.0,11.0,-954.0,13:58:55.441959,192.168.0.115
2370,7,-30,6,76,"-3,3,169",-1,-3,-1,0,0,0,66,68,78,60,100,-5.37,47,-23.0,73.0,-1036.0,13:58:55.543560,192.168.0.115
2375,7,-30,6,76,"-3,3,169",-2,-5,0,1,0,0,66,68,79,60,100,-5.41,47,-44.0,100.0,-1041.0,13:58:55.645804,192.168.0.115
2381,7,-30,6,76,"-3,3,169",-2,-5,0,0,0,0,66,68,79,60,100,-5.39,47,-97.0,129.0,-1038.0,13:58:55.751306,192.168.0.115
2385,7,-30,1,78,"1,3,172",-2,-5,0,0,0,0,66,68,79,60,100,-5.19,47,-44.0,125.0,-1015.0,13:58:55.849629,192.168.0.115
2390,7,-30,1,78,"1,3,172",-3,-6,0,1,0,0,66,68,80,60,100,-5.4,47,10.0,90.0,-1002.0,13:58:55.951718,192.168.0.115
2395,7,-30,1,78,"1,3,172",-3,-5,0,0,0,0,66,68,79,60,100,-5.37,47,-54.0,142.0,-1045.0,13:58:56.054331,192.168.0.115
2400,7,-42,-6,70,"-5,5,178",-2,-5,0,0,0,0,66,68,80,60,100,-5.47,47,-52.0,78.0,-965.0,13:58:56.155707,192.168.0.115
2405,7,-42,-6,70,"-5,5,178",-2,-5,0,0,0,0,66,68,80,60,100,-5.5,48,-8.0,84.0,-956.0,13:58:56.257563,192.168.0.115
2410,7,-42,-6,70,"-5,5,178",-3,-6,0,0,0,0,66,68,80,60,100,-5.5,48,-17.0,89.0,-988.0,13:58:56.359552,192.168.0.115
2415,7,-42,-6,70,"-5,5,178",-2,-5,0,0,0,0,66,68,80,60,100,-5.2,48,-71.0,76.0,-905.0,13:58:56.461711,192.168.0.115
2421,7,-38,3,78,"0,2,172",0,-4,0,0,0,0,66,68,80,60,100,-5.2,48,-46.0,105.0,-1012.0,13:58:56.563581,192.168.0.115
2426,7,-38,3,78,"0,2,172",-1,-5,0,0,0,0,66,68,80,60,100,-5.42,48,-27.0,90.0,-947.0,13:58:56.665569,192.168.0.115
2431,7,-38,3,78,"0,2,172",-3,-5,0,0,0,0,66,68,80,60,100,-5.4,48,-7.0,113.0,-967.0,13:58:56.769503,192.168.0.115
2436,7,-38,3,78,"0,2,172",-1,-5,0,0,0,0,66,68,80,60,100,-5.39,48,-48.0,118.0,-1039.0,13:58:56.869518,192.168.0.115
2441,7,-40,11,75,"-2,1,168",-2,-6,0,0,0,0,66,68,80,60,100,-5.41,48,-17.0,97.0,-971.0,13:58:56.971638,192.168.0.115
2447,7,-40,11,75,"-2,1,168",-2,-5,0,0,0,0,66,68,80,60,100,-5.24,48,-19.0,97.0,-975.0,13:58:57.073602,192.168.0.115
2452,7,-40,11,75,"-2,1,168",-2,-6,0,0,0,0,66,68,81,60,100,-5.16,49,-30.0,125.0,-1045.0,13:58:57.175852,192.168.0.115
2457,7,-40,11,75,"-2,1,168",-2,-5,0,0,0,0,66,68,81,60,100,-5.28,49,0.0,91.0,-979.0,13:58:57.277571,192.168.0.115
2463,7,-40,11,75,"-2,1,168",-1,-5,0,0,0,0,66,68,81,60,100,-5.44,49,-38.0,104.0,-993.0,13:58:57.379490,192.168.0.115
2467,7,-40,11,75,"-2,1,168",0,-6,0,0,0,0,66,68,82,60,100,-5.28,49,-40.0,108.0,-950.0,13:58:57.481642,192.168.0.115
2472,7,-40,11,75,"-2,1,168",-1,-5,0,0,0,0,66,68,83,60,100,-5.28,49,-58.0,132.0,-988.0,13:58:57.583583,192.168.0.115
2477,7,-40,11,75,"-2,1,168",-2,-6,0,0,0,0,66,68,84,60,100,-5.23,49,-37.0,107.0,-952.0,13:58:57.685958,192.168.0.115
2483,7,-40,11,75,"-2,1,168",-2,-7,0,0,0,0,67,69,83,60,100,-5.26,49,-88.0,123.0,-931.0,13:58:57.787562,192.168.0.115
2488,7,-40,11,75,"-2,1,168",-3,-7,0,0,0,0,67,69,84,60,100,-5.34,49,-35.0,142.0,-994.0,13:58:57.890903,192.168.0.115
2493,7,-40,11,75,"-2,1,168",-4,-7,0,0,0,0,67,69,84,60,100,-5.33,49,-20.0,109.0,-984.0,13:58:57.991382,192.168.0.115
2498,7,-41,10,80,"0,0,167",-2,-7,0,0,0,0,67,69,84,60,100,-5.47,49,-48.0,75.0,-1069.0,13:58:58.093365,192.168.0.115
2503,7,-41,10,80,"0,0,167",-1,-6,0,0,0,0,67,69,84,60,100,-5.2,50,-72.0,103.0,-994.0,13:58:58.195591,192.168.0.115
2508,7,-41,10,80,"0,0,167",-3,-4,0,0,0,0,67,69,85,60,100,-5.25,50,-28.0,79.0,-932.0,13:58:58.297496,192.168.0.115
2513,7,-41,10,80,"0,0,167",-4,-3,0,0,0,0,67,69,84,60,100,-5.14,50,-16.0,103.0,-971.0,13:58:58.399524,192.168.0.115
2518,7,-41,10,80,"0,0,167",-2,-5,0,0,0,0,67,69,84,60,100,-5.36,50,11.0,100.0,-1009.0,13:58:58.501542,192.168.0.115
2523,7,-41,10,80,"0,0,167",0,-6,0,0,0,0,67,69,83,60,100,-5.44,50,-45.0,82.0,-1050.0,13:58:58.603389,192.168.0.115
2528,7,-41,10,80,"0,0,167",0,-5,0,0,0,0,67,69,83,60,100,-5.33,50,-10.0,66.0,-982.0,13:58:58.708088,192.168.0.115
2533,7,-41,10,80,"0,0,167",0,-5,0,0,0,0,66,69,83,60,100,-5.38,50,-47.0,76.0,-1031.0,13:58:58.810599,192.168.0.115
2538,7,-41,10,80,"0,0,167",0,-4,0,0,0,0,66,69,83,60,100,-5.3,50,-33.0,77.0,-983.0,13:58:58.911172,192.168.0.115
2543,7,-41,10,80,"0,0,167",-1,-3,0,0,1,0,66,69,83,60,100,-5.34,50,-40.0,69.0,-978.0,13:58:59.012803,192.168.0.115
2545,7,-41,10,80,"0,0,167",-1,-2,0,0,0,0,66,69,83,60,100,-5.26,50,-19.0,141.0,-966.0,13:58:59.062165,192.168.0.115
2550,7,-41,10,80,"0,0,167",-1,-3,0,0,0,0,66,69,83,60,100,-5.35,51,-37.0,92.0,-1009.0,13:58:59.164471,192.168.0.115
2555,7,-41,10,80,"0,0,167",-1,-5,0,0,0,0,66,69,83,60,100,-5.27,51,-22.0,54.0,-983.0,13:58:59.266473,192.168.0.115
2560,7,-41,10,80,"0,0,167",-2,-4,0,0,0,0,66,69,83,60,100,-5.33,51,-46.0,74.0,-982.0,13:58:59.368419,192.168.0.115
2565,7,-41,10,80,"0,0,167",-2,-4,0,0,0,0,66,69,82,60,100,-5.27,51,-34.0,80.0,-1028.0,13:58:59.470479,192.168.0.115
2570,7,-39,11,80,"0,1,171",-1,-4,0,0,0,0,66,69,83,60,100,-5.2,51,-70.0,88.0,-1018.0,13:58:59.572706,192.168.0.115
2575,7,-39,11,80,"0,1,171",-2,-3,0,0,0,0,66,69,83,60,100,-5.45,51,-22.0,115.0,-1030.0,13:58:59.675113,192.168.0.115
2580,7,-39,11,80,"0,1,171",-1,-3,0,0,0,0,66,69,82,60,100,-5.4,51,-14.0,115.0,-1051.0,13:58:59.777433,192.168.0.115
2585,7,-39,11,80,"0,1,171",-1,-6,0,0,0,0,66,69,82,60,100,-5.4,51,-58.0,122.0,-981.0,13:58:59.879875,192.168.0.115
2591,7,-32,5,85,"4,3,175",-1,-7,0,0,0,0,66,69,83,60,100,-5.23,51,-7.0,81.0,-955.0,13:58:59.982214,192.168.0.115
2596,7,-32,5,85,"4,3,175",0,-6,0,0,0,0,66,69,83,60,100,-5.37,51,-33.0,101.0,-1030.0,13:59:00.084992,192.168.0.115
2601,7,-32,5,85,"4,3,175",-1,-6,0,0,0,0,66,69,82,60,100,-5.28,52,-59.0,128.0,-960.0,13:59:00.187068,192.168.0.115
2606,7,-32,5,85,"4,3,175",-2,-6,0,0,0,0,66,69,82,60,100,-5.35,52,-47.0,108.0,-1037.0,13:59:00.286500,192.168.0.115
2612,7,-37,13,79,"0,0,166",-1,-6,0,0,0,0,66,69,82,60,100,-5.36,52,-49.0,86.0,-1016.0,13:59:00.388318,192.168.0.115
2617,7,-37,13,79,"0,0,166",-1,-6,0,0,0,0,66,69,81,60,100,-5.32,52,-65.0,101.0,-1041.0,13:59:00.490422,192.168.0.115
2622,7,-37,13,79,"0,0,166",-2,-5,0,0,0,0,66,69,81,60,100,-5.43,52,-37.0,63.0,-949.0,13:59:00.592514,192.168.0.115
2627,7,-36,9,79,"0,1,168",-3,-3,0,0,0,0,66,69,80,60,100,-5.46,52,-2.0,76.0,-996.0,13:59:00.694481,192.168.0.115
