,mid,x,y,z,mpry,pitch,roll,yaw,vgx,vgy,vgz,templ,temph,tof,h,bat,baro,time,agx,agy,agz,timestamp,address
3,-1,-100,-100,-100,"0,0,0",0,0,0,0,0,0,63,66,10,0,100,-6.32,0,-1.0,-2.0,-998.0,13:58:08.012750,192.168.0.114
8,-1,-100,-100,-100,"0,0,0",0,0,0,0,0,0,63,66,10,0,100,-6.35,0,-2.0,-3.0,-998.0,13:58:08.114673,192.168.0.114
13,-1,-100,-100,-100,"0,0,0",0,0,0,0,0,0,63,66,10,0,100,-6.35,0,2.0,0.0,-996.0,13:58:08.217014,192.168.0.114
18,-1,-100,-100,-100,"0,0,0",0,0,0,0,0,0,64,66,10,0,100,-6.35,0,-7.0,0.0,-999.0,13:58:08.318967,192.168.0.114
20,-1,-100,-100,-100,"0,0,0",0,0,0,0,0,0,64,66,10,0,100,-6.35,0,4.0,3.0,-1001.0,13:58:08.371839,192.168.0.114
25,-1,-100,-100,-100,"0,0,0",0,0,0,0,0,0,64,66,10,0,100,-6.35,0,9.0,-29.0,-1011.0,13:58:08.473968,192.168.0.114
30,-1,-100,-100,-100,"0,0,0",0,0,0,0,0,0,64,66,10,0,100,-6.35,0,-13.0,2.0,-1112.0,13:58:08.576165,192.168.0.114
36,-1,-100,-100,-100,"0,0,0",0,0,0,0,0,0,64,66,10,0,100,-6.35,0,-18.0,12.0,-1268.0,13:58:08.676050,192.168.0.114
41,-1,-100,-100,-100,"0,0,0",0,0,1,0,0,2,64,66,10,0,100,-6.35,0,-26.0,3.0,-1354.0,13:58:08.778098,192.168.0.114
46,-1,-100,-100,-100,"0,0,0",0,0,0,0,0,6,64,66,14,0,100,-6.25,0,-45.0,9.0,-1143.0,13:58:08.880042,192.168.0.114
51,-1,-100,-100,-100,"0,0,0",0,0,0,0,0,7,64,66,23,0,100,-6.0,0,-21.0,-4.0,-1029.0,13:58:08.981682,192.168.0.114
56,-1,-100,-100,-100,"0,0,0",0,0,0,0,0,8,64,66,32,10,100,-5.82,0,-8.0,-2.0,-974.0,13:58:09.084060,192.168.0.114
61,-1,-100,-100,-100,"0,0,0",0,0,0,0,0,7,64,66,39,20,100,-5.86,0,-7.0,14.0,-934.0,13:58:09.190739,192.168.0.114
66,-1,-100,-100,-100,"0,0,0",0,0,0,0,0,7,64,66,48,20,100,-5.66,1,-9.0,27.0,-847.0,13:58:09.287702,192.168.0.114
71,-1,-100,-100,-100,"0,0,0",-1,0,0,0,0,5,64,66,53,30,100,-5.59,1,24.0,61.0,-870.0,13:58:09.389814,192.168.0.114
75,-1,-100,-100,-100,"0,0,0",-1,0,0,0,-1,4,64,66,59,30,100,-5.53,1,-10.0,64.0,-865.0,13:58:09.492225,192.168.0.114
81,-1,-100,-100,-100,"0,0,0",-2,-3,0,0,-1,3,64,66,64,40,100,-5.53,1,37.0,11.0,-914.0,13:58:09.596289,192.168.0.114
86,-1,-100,-100,-100,"0,0,0",-1,-5,0,0,-1,2,64,66,66,40,100,-5.5,1,2.0,37.0,-999.0,13:58:09.696251,192.168.0.114
91,-1,-100,-100,-100,"0,0,0",0,-4,1,0,0,1,64,66,69,40,100,-5.43,1,9.0,29.0,-972.0,13:58:09.797815,192.168.0.114
96,-1,-100,-100,-100,"0,0,0",-1,-4,0,0,0,1,64,66,72,40,100,-5.44,1,5.0,29.0,-986.0,13:58:09.900204,192.168.0.114
102,-1,-100,-100,-100,"0,0,0",-1,-3,1,0,0,1,64,66,75,50,100,-5.4,1,15.0,12.0,-978.0,13:58:10.002503,192.168.0.114
107,-1,-100,-100,-100,"0,0,0",0,-3,0,0,0,1,64,66,78,50,100,-5.42,1,-36.0,34.0,-989.0,13:58:10.106780,192.168.0.114
112,-1,-100,-100,-100,"0,0,0",0,-2,0,0,0,1,64,66,81,50,100,-5.37,1,-40.0,35.0,-950.0,13:58:10.206315,192.168.0.114
118,-1,-100,-100,-100,"0,0,0",-1,-2,0,0,0,0,64,67,83,50,100,-5.45,2,-24.0,21.0,-979.0,13:58:10.307962,192.168.0.114
123,-1,-100,-100,-100,"0,0,0",-2,-1,1,0,0,0,64,67,84,50,100,-5.32,2,-26.0,16.0,-975.0,13:58:10.411626,192.168.0.114
128,-1,-100,-100,-100,"0,0,0",-2,-1,1,0,0,0,64,67,86,50,100,-5.34,2,-16.0,13.0,-970.0,13:58:10.512415,192.168.0.114
133,-1,-100,-100,-100,"0,0,0",-2,-1,1,0,0,0,64,67,87,60,100,-5.34,2,3.0,30.0,-953.0,13:58:10.613767,192.168.0.114
138,-1,-100,-100,-100,"0,0,0",-2,-1,1,0,0,0,64,67,89,60,100,-5.26,2,13.0,17.0,-963.0,13:58:10.716317,192.168.0.114
143,-1,-100,-100,-100,"0,0,0",-1,-1,1,0,0,0,64,67,90,60,100,-5.3,2,0.0,8.0,-973.0,13:58:10.818047,192.168.0.114
148,-1,-100,-100,-100,"0,0,0",-1,-2,1,0,0,0,64,67,91,60,100,-5.28,2,-21.0,23.0,-973.0,13:58:10.920042,192.168.0.114
150,-1,-100,-100,-100,"0,0,0",-1,-1,1,0,0,0,64,67,91,60,100,-5.24,2,-17.0,23.0,-975.0,13:58:10.970907,192.168.0.114
155,-1,-100,-100,-100,"0,0,0",-1,-1,1,0,0,0,64,67,91,60,100,-5.26,2,-25.0,47.0,-996.0,13:58:11.072990,192.168.0.114
160,-1,-100,-100,-100,"0,0,0",-1,-1,1,0,0,0,64,67,91,60,100,-5.25,2,-14.0,43.0,-976.0,13:58:11.174987,192.168.0.114
166,-1,-100,-100,-100,"0,0,0",-1,-2,1,0,0,0,65,66,91,60,100,-5.37,3,-3.0,21.0,-985.0,13:58:11.276949,192.168.0.114
170,-1,-100,-100,-100,"0,0,0",-1,-2,1,0,0,0,65,66,91,60,100,-5.39,3,-18.0,31.0,-959.0,13:58:11.379047,192.168.0.114
176,-1,-100,-100,-100,"0,0,0",0,-1,1,0,0,0,65,66,91,60,100,-5.26,3,-5.0,27.0,-1016.0,13:58:11.480683,192.168.0.114
181,-1,-100,-100,-100,"0,0,0",0,-1,1,0,0,0,65,66,90,60,100,-5.28,3,-23.0,17.0,-1008.0,13:58:11.582905,192.168.0.114
186,-1,-100,-100,-100,"0,0,0",0,0,1,0,0,0,65,66,89,60,100,-5.29,3,-22.0,30.0,-1004.0,13:58:11.684776,192.168.0.114
191,-1,-100,-100,-100,"0,0,0",0,-1,1,0,0,0,65,66,89,60,100,-5.3,3,4.0,23.0,-992.0,13:58:11.905293,192.168.0.114
196,-1,-100,-100,-100,"0,0,0",-1,-1,1,0,0,0,65,66,88,60,100,-5.35,3,7.0,17.0,-977.0,13:58:11.906252,192.168.0.114
201,-1,-100,-100,-100,"0,0,0",-1,-2,1,0,0,0,65,66,87,60,100,-5.35,3,4.0,24.0,-973.0,13:58:12.123911,192.168.0.114
206,-1,-100,-100,-100,"0,0,0",0,-2,1,0,0,0,65,66,87,60,100,-5.24,3,10.0,13.0,-1022.0,13:58:12.124885,192.168.0.114
211,-1,-100,-100,-100,"0,0,0",0,-1,1,0,0,0,65,66,87,60,100,-5.25,3,-18.0,51.0,-974.0,13:58:12.330183,192.168.0.114
216,-1,-100,-100,-100,"0,0,0",0,-1,1,0,0,0,64,67,86,60,100,-5.33,4,6.0,35.0,-995.0,13:58:12.331306,192.168.0.114
221,-1,-100,-100,-100,"0,0,0",0,-1,1,0,0,0,64,67,85,60,100,-5.32,4,20.0,31.0,-987.0,13:58:12.399232,192.168.0.114
227,-1,-100,-100,-100,"0,0,0",0,-3,1,0,0,0,64,67,85,60,100,-5.4,4,-12.0,15.0,-1005.0,13:58:12.500815,192.168.0.114
232,-1,-100,-100,-100,"0,0,0",0,-2,0,0,0,0,64,67,84,60,100,-5.33,4,-11.0,43.0,-1007.0,13:58:12.738440,192.168.0.114
237,-1,-100,-100,-100,"0,0,0",0,-1,0,0,0,0,64,67,84,60,100,-5.4,4,-27.0,45.0,-1017.0,13:58:12.739398,192.168.0.114
244,-1,-100,-100,-100,"0,0,0",0,-1,0,0,0,0,64,67,83,60,100,-5.37,4,-1.0,30.0,-992.0,13:58:12.943284,192.168.0.114
248,-1,-100,-100,-100,"0,0,0",-1,-2,0,0,0,0,64,67,82,60,100,-5.42,4,-21.0,29.0,-990.0,13:58:12.943943,192.168.0.114
253,-1,-100,-100,-100,"0,0,0",0,-2,0,0,0,0,64,67,81,60,100,-5.35,4,-4.0,55.0,-998.0,13:58:13.149795,192.168.0.114
258,-1,-100,-100,-100,"0,0,0",-1,-2,1,0,0,0,64,67,81,60,100,-5.34,4,15.0,30.0,-967.0,13:58:13.150601,192.168.0.114
262,-1,-100,-100,-100,"0,0,0",0,-3,1,0,0,0,64,67,81,60,100,-5.41,4,-1.0,29.0,-1026.0,13:58:13.355564,192.168.0.114
268,-1,-100,-100,-100,"0,0,0",0,-2,0,0,0,0,64,66,81,60,100,-5.41,5,6.0,12.0,-1014.0,13:58:13.356910,192.168.0.114
273,-1,-100,-100,-100,"0,0,0",0,-2,0,0,0,0,64,66,81,60,100,-5.33,5,-15.0,33.0,-987.0,13:58:13.561200,192.168.0.114
275,-1,-100,-100,-100,"0,0,0",0,-1,0,0,0,0,64,66,80,60,100,-5.39,5,-2.0,20.0,-1013.0,13:58:13.561309,192.168.0.114
280,-1,-100,-100,-100,"0,0,0",0,-1,1,0,0,0,64,66,80,60,100,-5.37,5,-16.0,39.0,-989.0,13:58:13.571351,192.168.0.114
285,-1,-100,-100,-100,"0,0,0",0,-1,1,0,0,0,64,66,80,60,100,-5.47,5,0.0,24.0,-1033.0,13:58:13.768315,192.168.0.114
291,-1,-100,-100,-100,"0,0,0",-1,-1,0,0,0,0,64,66,80,50,100,-5.44,5,4.0,28.0,-1014.0,13:58:13.776007,192.168.0.114
295,-1,-100,-100,-100,"0,0,0",0,-2,0,0,0,0,64,66,80,50,100,-5.53,5,7.0,15.0,-964.0,13:58:13.974144,192.168.0.114
301,-1,-100,-100,-100,"0,0,0",0,-1,0,0,0,0,64,66,80,50,100,-5.46,5,-7.0,40.0,-1017.0,13:58:13.979420,192.168.0.114
306,-1,-100,-100,-100,"0,0,0",-1,-1,1,0,0,0,64,66,80,50,100,-5.48,5,27.0,34.0,-1004.0,13:58:14.081148,192.168.0.114
311,-1,-100,-100,-100,"0,0,0",-2,-1,1,0,0,0,64,66,80,60,100,-5.51,5,26.0,58.0,-1032.0,13:58:14.183567,192.168.0.114
316,-1,-100,-100,-100,"0,0,0",0,-2,0,0,0,0,63,66,81,60,100,-5.57,6,4.0,44.0,-966.0,13:58:14.285751,192.168.0.114
321,-1,-100,-100,-100,"0,0,0",0,-3,0,0,0,0,63,66,81,60,100,-5.35,6,-35.0,54.0,-1026.0,13:58:14.387882,192.168.0.114
326,-1,-100,-100,-100,"0,0,0",0,-3,0,0,0,0,63,66,81,60,100,-5.48,6,-7.0,51.0,-985.0,13:58:14.491409,192.168.0.114
331,-1,-100,-100,-100,"0,0,0",0,-2,0,0,0,0,63,66,81,60,100,-5.58,6,0.0,49.0,-971.0,13:58:14.592024,192.168.0.114
336,-1,-100,-100,-100,"0,0,0",-1,-2,0,0,0,0,63,66,81,60,100,-5.37,6,11.0,49.0,-960.0,13:58:14.694160,192.168.0.114
341,-1,-100,-100,-100,"0,0,0",0,-2,0,0,0,0,63,66,81,60,100,-5.46,6,-46.0,50.0,-989.0,13:58:14.795697,192.168.0.114
346,-1,-100,-100,-100,"0,0,0",0,-3,0,0,0,0,63,66,80,60,100,-5.48,6,-12.0,39.0,-990.0,13:58:14.898751,192.168.0.114
351,-1,-100,-100,-100,"0,0,0",0,-3,0,0,0,0,63,66,80,60,100,-5.46,6,-7.0,28.0,-1029.0,13:58:14.999853,192.168.0.114
357,-1,-100,-100,-100,"0,0,0",-2,-3,1,0,0,0,63,66,81,60,100,-5.47,6,29.0,10.0,-1001.0,13:58:15.102069,192.168.0.114
362,-1,-100,-100,-100,"0,0,0",-1,-3,0,0,0,0,63,66,81,60,100,-5.57,6,-36.0,40.0,-1028.0,13:58:15.203859,192.168.0.114
367,-1,-100,-100,-100,"0,0,0",-2,-2,0,0,0,0,65,66,82,60,100,-5.4,7,19.0,61.0,-982.0,13:58:15.305821,192.168.0.114
373,-1,-100,-100,-100,"0,0,0",-2,-2,0,0,0,0,65,66,81,60,100,-5.35,7,-1.0,45.0,-977.0,13:58:15.407784,192.168.0.114
378,-1,-100,-100,-100,"0,0,0",-1,-4,0,0,0,0,65,66,82,60,100,-5.46,7,6.0,16.0,-984.0,13:58:15.509905,192.168.0.114
383,-1,-100,-100,-100,"0,0,0",-1,-4,0,0,0,0,65,66,81,60,100,-5.46,7,0.0,51.0,-965.0,13:58:15.611798,192.168.0.114
388,-1,-100,-100,-100,"0,0,0",-1,-3,0,0,0,0,65,66,81,60,100,-5.43,7,-8.0,30.0,-936.0,13:58:15.713812,192.168.0.114
393,-1,-100,-100,-100,"0,0,0",-1,-3,0,0,0,0,65,66,80,60,100,-5.35,7,-34.0,32.0,-985.0,13:58:15.816434,192.168.0.114
397,-1,-100,-100,-100,"0,0,0",-1,-2,0,0,0,0,65,66,79,50,100,-5.41,7,7.0,36.0,-1032.0,13:58:15.917765,192.168.0.114
403,-1,-100,-100,-100,"0,0,0",-1,-2,0,0,0,0,65,66,78,50,100,-5.49,7,-28.0,40.0,-1061.0,13:58:16.020532,192.168.0.114
405,-1,-100,-100,-100,"0,0,0",-2,-2,0,0,0,0,65,66,78,50,100,-5.58,7,7.0,39.0,-997.0,13:58:16.070833,192.168.0.114
410,-1,-100,-100,-100,"0,0,0",-1,-3,0,0,0,0,65,66,77,50,100,-5.46,7,19.0,34.0,-1007.0,13:58:16.172697,192.168.0.114
415,-1,-100,-100,-100,"0,0,0",0,-3,0,0,0,0,65,67,78,50,100,-5.5,8,0.0,37.0,-1020.0,13:58:16.274866,192.168.0.114
421,-1,-100,-100,-100,"0,0,0",0,-3,0,0,0,0,65,67,77,50,100,-5.52,8,0.0,28.0,-1031.0,13:58:16.377685,192.168.0.114
426,-1,-100,-100,-100,"0,0,0",-1,-3,0,0,0,0,65,67,77,50,100,-5.51,8,-21.0,48.0,-1042.0,13:58:16.480452,192.168.0.114
431,-1,-100,-100,-100,"0,0,0",-1,-2,1,0,0,0,65,67,79,50,100,-5.55,8,-19.0,45.0,-1028.0,13:58:16.580778,192.168.0.114
436,-1,-100,-100,-100,"0,0,0",-1,-2,1,0,0,0,65,67,79,50,100,-5.52,8,-7.0,38.0,-1013.0,13:58:16.682909,192.168.0.114
441,-1,-100,-100,-100,"0,0,0",-1,-3,1,0,0,0,65,67,80,50,100,-5.48,8,-17.0,35.0,-987.0,13:58:16.784712,192.168.0.114
446,-1,-100,-100,-100,"0,0,0",0,-2,1,0,0,0,65,67,81,50,100,-5.57,8,-25.0,32.0,-1007.0,13:58:16.886399,192.168.0.114
451,-1,-100,-100,-100,"0,0,0",-1,-2,1,0,0,0,65,67,82,60,100,-5.55,8,-17.0,19.0,-977.0,13:58:16.988436,192.168.0.114
456,-1,-100,-100,-100,"0,0,0",-1,-1,1,0,0,0,65,67,82,60,100,-5.59,8,-8.0,9.0,-976.0,13:58:17.090767,192.168.0.114
461,-1,-100,-100,-100,"0,0,0",-1,-1,1,0,0,0,65,67,83,60,100,-5.53,8,-11.0,24.0,-990.0,13:58:17.192546,192.168.0.114
466,-1,-100,-100,-100,"0,0,0",-1,-1,1,0,0,0,65,67,83,60,100,-5.5,9,7.0,12.0,-976.0,13:58:17.294583,192.168.0.114
471,-1,-100,-100,-100,"0,0,0",-1,-1,1,0,0,0,65,67,84,60,100,-5.52,9,-17.0,20.0,-987.0,13:58:17.396590,192.168.0.114
476,-1,-100,-100,-100,"0,0,0",0,-1,1,0,0,0,65,67,84,60,100,-5.59,9,6.0,16.0,-992.0,13:58:17.498631,192.168.0.114
481,-1,-100,-100,-100,"0,0,0",-1,-1,1,0,0,0,65,67,85,60,100,-5.53,9,-15.0,27.0,-975.0,13:58:17.600657,192.168.0.114
486,-1,-100,-100,-100,"0,0,0",-1,-1,1,0,0,0,65,67,85,60,100,-5.57,9,-8.0,29.0,-1012.0,13:58:17.702695,192.168.0.114
491,-1,-100,-100,-100,"0,0,0",0,-1,1,0,0,0,65,67,85,60,100,-5.46,9,-3.0,23.0,-983.0,13:58:17.804631,192.168.0.114
497,-1,-100,-100,-100,"0,0,0",-1,-1,1,0,0,0,65,67,84,60,100,-5.46,9,8.0,8.0,-975.0,13:58:17.906823,192.168.0.114
502,-1,-100,-100,-100,"0,0,0",0,-1,1,0,0,0,65,67,85,60,100,-5.49,9,2.0,9.0,-996.0,13:58:18.008426,192.168.0.114
507,-1,-100,-100,-100,"0,0,0",0,-1,1,0,0,0,65,67,84,60,100,-5.53,9,-20.0,40.0,-1003.0,13:58:18.110488,192.168.0.114
512,-1,-100,-100,-100,"0,0,0",0,-1,1,0,0,0,65,67,84,60,100,-5.51,9,-1.0,10.0,-995.0,13:58:18.212636,192.168.0.114
517,-1,-100,-100,-100,"0,0,0",0,-1,1,0,0,0,65,67,84,60,100,-5.54,10,-13.0,19.0,-998.0,13:58:18.314406,192.168.0.114
522,-1,-100,-100,-100,"0,0,0",0,-1,1,0,0,0,65,67,84,60,100,-5.45,10,6.0,28.0,-990.0,13:58:18.416665,192.168.0.114
528,-1,-100,-100,-100,"0,0,0",0,-1,1,0,0,0,65,67,84,60,100,-5.47,10,-11.0,14.0,-978.0,13:58:18.518699,192.168.0.114
530,-1,-100,-100,-100,"0,0,0",0,-1,1,0,0,0,65,67,83,60,100,-5.38,10,9.0,35.0,-999.0,13:58:18.569297,192.168.0.114
535,-1,-100,-100,-100,"0,0,0",0,-1,1,0,0,0,65,67,83,60,100,-5.46,10,-2.0,46.0,-1007.0,13:58:18.671829,192.168.0.114
540,-1,-100,-100,-100,"0,0,0",0,-1,1,0,0,0,65,67,83,60,100,-5.43,10,-10.0,47.0,-981.0,13:58:18.774803,192.168.0.114
546,-1,-100,-100,-100,"0,0,0",0,-2,1,0,0,0,65,67,83,60,100,-5.51,10,11.0,30.0,-1019.0,13:58:18.875625,192.168.0.114
551,-1,-100,-100,-100,"0,0,0",-1,-2,1,0,0,0,65,67,82,60,100,-5.47,10,43.0,39.0,-1062.0,13:58:18.977461,192.168.0.114
556,-1,-100,-100,-100,"0,0,0",0,-3,1,0,0,0,65,67,82,60,100,-5.44,10,0.0,50.0,-1018.0,13:58:19.079775,192.168.0.114
561,-1,-100,-100,-100,"0,0,0",0,-3,1,0,0,0,65,67,82,60,100,-5.58,10,4.0,36.0,-1010.0,13:58:19.181375,192.168.0.114
566,-1,-100,-100,-100,"0,0,0",0,-3,0,0,0,0,65,67,82,60,100,-5.5,11,1.0,16.0,-975.0,13:58:19.283824,192.168.0.114
571,-1,-100,-100,-100,"0,0,0",0,-3,0,0,0,0,65,67,82,60,100,-5.45,11,-18.0,15.0,-1001.0,13:58:19.385377,192.168.0.114
576,-1,-100,-100,-100,"0,0,0",-1,-2,0,0,0,0,65,67,82,60,100,-5.51,11,-20.0,25.0,-1007.0,13:58:19.487479,192.168.0.114
581,-1,-100,-100,-100,"0,0,0",-1,-2,0,0,0,0,65,67,82,60,100,-5.47,11,-11.0,28.0,-980.0,13:58:19.589664,192.168.0.114
586,-1,-100,-100,-100,"0,0,0",-2,-2,0,0,0,0,65,67,81,60,100,-5.45,11,-23.0,16.0,-989.0,13:58:19.691875,192.168.0.114
591,-1,-100,-100,-100,"0,0,0",-1,-2,0,0,0,0,65,67,82,60,100,-5.45,11,-18.0,26.0,-1015.0,13:58:19.793801,192.168.0.114
596,-1,-100,-100,-100,"0,0,0",-1,-1,1,0,0,0,65,67,81,60,100,-5.53,11,-9.0,14.0,-1008.0,13:58:19.895637,192.168.0.114
601,-1,-100,-100,-100,"0,0,0",-1,-1,1,0,0,0,65,67,82,60,100,-5.39,11,-1.0,54.0,-1017.0,13:58:19.997476,192.168.0.114
606,-1,-100,-100,-100,"0,0,0",-2,-2,1,0,0,0,65,67,82,60,100,-5.47,11,0.0,24.0,-957.0,13:58:20.101052,192.168.0.114
611,-1,-100,-100,-100,"0,0,0",-1,-2,1,0,0,0,65,67,81,60,100,-5.64,11,12.0,20.0,-978.0,13:58:20.201616,192.168.0.114
616,-1,-100,-100,-100,"0,0,0",0,-2,1,0,0,0,65,67,81,60,100,-5.52,12,6.0,39.0,-998.0,13:58:20.303265,192.168.0.114
621,-1,-100,-100,-100,"0,0,0",0,-1,1,0,0,0,65,67,81,60,100,-5.47,12,10.0,33.0,-990.0,13:58:20.405677,192.168.0.114
627,-1,-100,-100,-100,"0,0,0",0,-1,1,0,0,0,65,67,81,60,100,-5.5,12,-12.0,2.0,-1007.0,13:58:20.507714,192.168.0.114
632,-1,-100,-100,-100,"0,0,0",0,-2,1,0,0,0,65,67,81,60,100,-5.44,12,-9.0,13.0,-969.0,13:58:20.610654,192.168.0.114
637,-1,-100,-100,-100,"0,0,0",0,-1,1,0,0,0,65,67,81,60,100,-5.54,12,-22.0,40.0,-1004.0,13:58:20.711794,192.168.0.114
642,-1,-100,-100,-100,"0,0,0",-1,-1,1,0,0,0,65,67,82,60,100,-5.38,12,-10.0,51.0,-986.0,13:58:20.813654,192.168.0.114
647,-1,-100,-100,-100,"0,0,0",-1,-3,1,0,0,0,65,67,81,60,100,-5.39,12,-24.0,38.0,-1013.0,13:58:20.915877,192.168.0.114
652,-1,-100,-100,-100,"0,0,0",-1,-3,1,0,0,0,65,67,82,60,100,-5.46,12,-23.0,36.0,-1000.0,13:58:21.017669,192.168.0.114
657,-1,-100,-100,-100,"0,0,0",-2,-3,1,0,0,0,65,67,82,60,100,-5.51,12,-26.0,29.0,-1033.0,13:58:21.119489,192.168.0.114
660,-1,-100,-100,-100,"0,0,0",-1,-2,1,0,0,0,65,67,82,60,100,-5.6,12,-18.0,44.0,-986.0,13:58:21.171916,192.168.0.114
665,-1,-100,-100,-100,"0,0,0",-1,-2,1,0,0,0,65,68,82,60,100,-5.45,13,-25.0,23.0,-1005.0,13:58:21.274964,192.168.0.114
671,-1,-100,-100,-100,"0,0,0",-2,-3,1,0,0,0,65,68,82,60,100,-5.5,13,-17.0,32.0,-1004.0,13:58:21.380445,192.168.0.114
676,-1,-100,-100,-100,"0,0,0",-2,-2,1,0,0,0,65,68,82,60,100,-5.37,13,-13.0,47.0,-992.0,13:58:21.476323,192.168.0.114
681,-1,-100,-100,-100,"0,0,0",-2,-2,1,0,0,0,65,68,82,60,100,-5.52,13,0.0,13.0,-1002.0,13:58:21.578675,192.168.0.114
686,-1,-100,-100,-100,"0,0,0",-2,-3,1,0,0,0,65,68,83,60,100,-5.48,13,15.0,30.0,-998.0,13:58:21.684084,192.168.0.114
691,-1,-100,-100,-100,"0,0,0",-1,-2,0,0,0,0,65,68,82,60,100,-5.4,13,-2.0,36.0,-1001.0,13:58:21.782558,192.168.0.114
696,-1,-100,-100,-100,"0,0,0",0,-2,0,0,0,0,65,68,82,60,100,-5.44,13,-12.0,1.0,-981.0,13:58:21.884492,192.168.0.114
701,-1,-100,-100,-100,"0,0,0",0,-1,0,0,0,0,65,68,82,60,100,-5.54,13,-16.0,36.0,-1020.0,13:58:21.986543,192.168.0.114
706,-1,-100,-100,-100,"0,0,0",-1,-1,1,0,0,0,65,68,82,60,100,-5.55,13,41.0,21.0,-1014.0,13:58:22.088580,192.168.0.114
711,-1,-100,-100,-100,"0,0,0",-1,-2,1,0,0,0,65,68,83,60,100,-5.48,13,28.0,-1.0,-977.0,13:58:22.190340,192.168.0.114
715,-1,-100,-100,-100,"0,0,0",0,-2,0,-1,0,0,65,66,82,60,100,-5.52,14,-11.0,21.0,-974.0,13:58:22.292983,192.168.0.114
721,-1,-100,-100,-100,"0,0,0",0,-1,0,0,0,0,65,66,82,60,100,-5.43,14,-2.0,13.0,-1005.0,13:58:22.395028,192.168.0.114
726,-1,-100,-100,-100,"0,0,0",0,0,1,0,0,0,65,66,82,60,100,-5.46,14,14.0,47.0,-1004.0,13:58:22.496266,192.168.0.114
731,-1,-100,-100,-100,"0,0,0",0,-2,1,0,0,0,65,66,82,60,100,-5.53,14,17.0,23.0,-1003.0,13:58:22.598800,192.168.0.114
736,-1,-100,-100,-100,"0,0,0",0,-2,1,0,0,0,65,66,82,60,100,-5.5,14,20.0,20.0,-1043.0,13:58:22.701543,192.168.0.114
741,-1,-100,-100,-100,"0,0,0",0,-2,1,-1,0,0,65,66,82,60,100,-5.41,14,23.0,10.0,-1009.0,13:58:22.802521,192.168.0.114
746,-1,-100,-100,-100,"0,0,0",0,0,1,-1,0,0,65,66,82,60,100,-5.47,14,16.0,23.0,-997.0,13:58:22.904669,192.168.0.114
752,-1,-100,-100,-100,"0,0,0",0,0,1,0,0,0,65,66,82,60,100,-5.41,14,14.0,9.0,-990.0,13:58:23.006785,192.168.0.114
757,-1,-100,-100,-100,"0,0,0",0,0,1,0,0,0,65,66,82,60,100,-5.47,14,12.0,25.0,-1007.0,13:58:23.108386,192.168.0.114
762,-1,-100,-100,-100,"0,0,0",0,-1,1,0,0,0,65,66,82,60,100,-5.4,14,24.0,18.0,-1006.0,13:58:23.210618,192.168.0.114
767,-1,-100,-100,-100,"0,0,0",0,-1,0,0,0,0,65,67,82,60,100,-5.42,15,7.0,8.0,-982.0,13:58:23.312462,192.168.0.114
772,-1,-100,-100,-100,"0,0,0",1,-1,0,0,0,0,65,67,82,60,100,-5.41,15,6.0,30.0,-986.0,13:58:23.414536,192.168.0.114
777,-1,-100,-100,-100,"0,0,0",1,0,1,0,0,0,65,67,82,60,100,-5.42,15,24.0,16.0,-1000.0,13:58:23.516272,192.168.0.114
782,-1,-100,-100,-100,"0,0,0",0,-1,1,0,0,0,65,67,83,60,100,-5.42,15,36.0,4.0,-1020.0,13:58:23.619202,192.168.0.114
785,-1,-100,-100,-100,"0,0,0",0,-1,0,0,0,0,65,67,83,60,100,-5.39,15,22.0,-1.0,-981.0,13:58:23.669571,192.168.0.114
790,-1,-100,-100,-100,"0,0,0",1,-1,0,0,0,0,65,67,83,60,100,-5.47,15,22.0,-8.0,-959.0,13:58:23.771569,192.168.0.114
795,-1,-100,-100,-100,"0,0,0",1,-1,1,0,0,0,65,67,82,60,100,-5.43,15,25.0,6.0,-1014.0,13:58:23.873622,192.168.0.114
800,-1,-100,-100,-100,"0,0,0",0,-1,1,0,0,0,65,67,82,60,100,-5.37,15,35.0,-13.0,-992.0,13:58:23.975546,192.168.0.114
805,-1,-100,-100,-100,"0,0,0",0,-1,1,0,0,0,65,67,82,60,100,-5.35,15,33.0,0.0,-991.0,13:58:24.077521,192.168.0.114
810,-1,-100,-100,-100,"0,0,0",0,-1,1,0,0,0,65,67,82,60,100,-5.41,15,40.0,7.0,-1015.0,13:58:24.179636,192.168.0.114
815,-1,-100,-100,-100,"0,0,0",0,0,0,0,0,0,65,67,82,60,100,-5.4,16,5.0,22.0,-989.0,13:58:24.281611,192.168.0.114
821,-1,-100,-100,-100,"0,0,0",0,0,0,0,0,0,65,67,82,60,100,-5.44,16,4.0,9.0,-1011.0,13:58:24.383963,192.168.0.114
826,-1,-100,-100,-100,"0,0,0",0,-1,1,0,0,0,65,67,82,60,100,-5.53,16,-10.0,56.0,-1018.0,13:58:24.485557,192.168.0.114
830,-1,-100,-100,-100,"0,0,0",0,-1,1,0,0,0,65,67,82,60,100,-5.44,16,8.0,36.0,-1001.0,13:58:24.587847,192.168.0.114
835,-1,-100,-100,-100,"0,0,0",-1,-2,1,0,0,0,65,67,82,60,100,-5.51,16,37.0,-1.0,-1005.0,13:58:24.689361,192.168.0.114
840,-1,-100,-100,-100,"0,0,0",-1,-2,1,0,0,0,65,67,83,60,100,-5.53,16,12.0,56.0,-966.0,13:58:24.791674,192.168.0.114
845,-1,-100,-100,-100,"0,0,0",0,-2,1,0,0,0,65,67,83,60,100,-5.48,16,22.0,28.0,-994.0,13:58:24.893707,192.168.0.114
851,-1,-100,-100,-100,"0,0,0",0,-2,0,0,0,0,65,67,83,60,100,-5.47,16,-10.0,-1.0,-1001.0,13:58:24.995642,192.168.0.114
856,-1,-100,-100,-100,"0,0,0",0,-2,0,0,0,0,65,67,83,60,100,-5.52,16,-9.0,21.0,-1019.0,13:58:25.097371,192.168.0.114
861,-1,-100,-100,-100,"0,0,0",-1,-2,1,0,0,0,65,67,82,60,100,-5.39,16,14.0,33.0,-1037.0,13:58:25.199649,192.168.0.114
866,-1,-100,-100,-100,"0,0,0",-1,-2,1,0,0,0,66,66,82,60,100,-5.48,17,-6.0,32.0,-989.0,13:58:25.301570,192.168.0.114
871,-1,-100,-100,-100,"0,0,0",0,-3,0,0,0,0,66,66,83,60,100,-5.46,17,7.0,7.0,-994.0,13:58:25.404670,192.168.0.114
876,-1,-100,-100,-100,"0,0,0",0,-3,1,0,0,0,66,66,82,60,100,-5.44,17,-10.0,32.0,-1017.0,13:58:25.505239,192.168.0.114
881,-1,-100,-100,-100,"0,0,0",0,-2,1,0,0,0,66,66,83,60,100,-5.45,17,-11.0,27.0,-980.0,13:58:25.607243,192.168.0.114
886,-1,-100,-100,-100,"0,0,0",-1,-2,1,0,0,0,66,66,82,60,100,-5.46,17,-18.0,45.0,-999.0,13:58:25.709738,192.168.0.114
892,-1,-100,-100,-100,"0,0,0",-1,-2,1,0,0,0,66,66,82,60,100,-5.55,17,3.0,46.0,-1007.0,13:58:25.811191,192.168.0.114
897,-1,-100,-100,-100,"0,0,0",-1,-3,1,0,0,0,66,66,82,60,100,-5.5,17,-1.0,20.0,-986.0,13:58:25.913516,192.168.0.114
902,-1,-100,-100,-100,"0,0,0",-1,-3,1,0,0,0,66,66,82,60,100,-5.51,17,0.0,48.0,-1010.0,13:58:26.015574,192.168.0.114
907,-1,-100,-100,-100,"0,0,0",-1,-2,1,0,0,0,66,66,81,60,100,-5.45,17,-23.0,41.0,-995.0,13:58:26.117619,192.168.0.114
912,-1,-100,-100,-100,"0,0,0",-1,-2,1,0,0,0,66,66,81,60,100,-5.46,17,2.0,26.0,-985.0,13:58:26.219856,192.168.0.114
917,-1,-100,-100,-100,"0,0,0",-1,-2,1,0,0,0,65,67,81,60,100,-5.39,18,1.0,28.0,-1010.0,13:58:26.321348,192.168.0.114
923,-1,-100,-100,-100,"0,0,0",-1,-2,1,0,0,0,65,67,80,60,100,-5.42,18,-6.0,33.0,-1035.0,13:58:26.423268,192.168.0.114
928,-1,-100,-100,-100,"0,0,0",-1,-2,1,0,0,0,65,67,79,50,100,-5.49,18,-5.0,45.0,-1007.0,13:58:26.538627,192.168.0.114
933,-1,-100,-100,-100,"0,0,0",-1,-2,1,0,0,0,65,67,79,50,100,-5.5,18,9.0,43.0,-1024.0,13:58:26.627407,192.168.0.114
938,-1,-100,-100,-100,"0,0,0",-1,-3,1,0,0,0,65,67,79,50,100,-5.48,18,14.0,35.0,-1037.0,13:58:26.728834,192.168.0.114
940,-1,-100,-100,-100,"0,0,0",0,-3,1,0,0,0,65,67,79,50,100,-5.49,18,-5.0,41.0,-1007.0,13:58:26.782252,192.168.0.114
945,-1,-100,-100,-100,"0,0,0",0,-3,1,0,0,0,65,67,78,50,100,-5.56,18,1.0,47.0,-976.0,13:58:26.882039,192.168.0.114
950,-1,-100,-100,-100,"0,0,0",0,-3,1,0,0,0,65,67,79,50,100,-5.5,18,12.0,49.0,-1001.0,13:58:26.984533,192.168.0.114
955,-1,-100,-100,-100,"0,0,0",0,-3,1,0,0,0,65,67,79,50,100,-5.46,18,4.0,46.0,-1009.0,13:58:27.086410,192.168.0.114
960,-1,-100,-100,-100,"0,0,0",0,-3,1,0,0,0,65,67,79,50,100,-5.51,18,14.0,25.0,-995.0,13:58:27.188532,192.168.0.114
965,-1,-100,-100,-100,"0,0,0",0,-3,1,0,0,0,66,67,79,50,100,-5.53,19,13.0,37.0,-1006.0,13:58:27.290454,192.168.0.114
970,-1,-100,-100,-100,"0,0,0",0,-2,1,0,0,0,66,67,79,50,100,-5.6,19,-14.0,49.0,-967.0,13:58:27.392441,192.168.0.114
975,-1,-100,-100,-100,"0,0,0",0,-3,1,0,0,0,66,67,79,50,100,-5.48,19,26.0,32.0,-1010.0,13:58:27.494569,192.168.0.114
980,-1,-100,-100,-100,"0,0,0",0,-3,1,0,0,0,66,67,78,50,100,-5.47,19,-1.0,31.0,-988.0,13:58:27.596593,192.168.0.114
985,-1,-100,-100,-100,"0,0,0",0,-2,1,0,0,0,66,67,79,50,100,-5.4,19,-4.0,27.0,-1012.0,13:58:27.698455,192.168.0.114
990,-1,-100,-100,-100,"0,0,0",0,-2,0,0,0,0,66,67,79,50,100,-5.35,19,-5.0,20.0,-991.0,13:58:27.800616,192.168.0.114
995,-1,-100,-100,-100,"0,0,0",0,-2,1,0,0,0,66,67,79,50,100,-5.4,19,-1.0,13.0,-1036.0,13:58:27.901851,192.168.0.114
1000,-1,-100,-100,-100,"0,0,0",0,-1,1,0,0,0,66,67,79,50,100,-5.45,19,-13.0,46.0,-990.0,13:58:28.004338,192.168.0.114
1006,-1,-100,-100,-100,"0,0,0",-1,-2,1,0,0,0,66,67,79,50,100,-5.52,19,-24.0,60.0,-961.0,13:58:28.106299,192.168.0.114
1011,-1,-100,-100,-100,"0,0,0",-1,-3,1,0,0,0,66,67,80,50,100,-5.44,19,17.0,24.0,-1012.0,13:58:28.208352,192.168.0.114
1016,-1,-100,-100,-100,"0,0,0",-1,-2,1,0,0,0,65,67,81,50,100,-5.45,20,18.0,29.0,-1005.0,13:58:28.310365,192.168.0.114
1021,-1,-100,-100,-100,"0,0,0",0,-4,0,0,0,0,65,67,80,50,100,-5.51,20,20.0,94.0,-1036.0,13:58:28.412245,192.168.0.114
1026,-1,-100,-100,-100,"0,0,0",0,-4,0,0,0,0,65,67,80,60,100,-5.37,20,-25.0,77.0,-976.0,13:58:28.515157,192.168.0.114
1031,-1,-100,-100,-100,"0,0,0",0,-5,0,0,0,0,65,67,80,60,100,-5.52,20,41.0,54.0,-1002.0,13:58:28.615879,192.168.0.114
1036,-1,-100,-100,-100,"0,0,0",0,-5,0,0,0,0,65,67,80,60,100,-5.54,20,13.0,61.0,-976.0,13:58:28.718683,192.168.0.114
1041,-1,-100,-100,-100,"0,0,0",0,-4,0,0,0,0,65,67,80,60,100,-5.49,20,-27.0,45.0,-1013.0,13:58:28.820617,192.168.0.114
1046,-1,-100,-100,-100,"0,0,0",0,-5,0,0,0,0,65,67,81,60,100,-5.41,20,0.0,64.0,-984.0,13:58:28.922386,192.168.0.114
1051,-1,-100,-100,-100,"0,0,0",0,-4,1,0,0,0,65,67,81,60,100,-5.46,20,26.0,63.0,-1006.0,13:58:29.023933,192.168.0.114
1056,-1,-100,-100,-100,"0,0,0",0,-4,0,0,0,0,65,67,80,60,100,-5.54,20,33.0,67.0,-972.0,13:58:29.126053,192.168.0.114
1061,-1,-100,-100,-100,"0,0,0",0,-4,0,0,0,0,65,67,80,60,100,-5.47,20,19.0,57.0,-991.0,13:58:29.228402,192.168.0.114
1066,-1,-100,-100,-100,"0,0,0",0,-5,0,0,0,0,65,67,80,60,100,-5.56,21,26.0,67.0,-1007.0,13:58:29.330496,192.168.0.114
1073,-1,-100,-100,-100,"0,0,0",0,-5,0,0,0,0,65,67,79,60,100,-5.45,21,-19.0,51.0,-1010.0,13:58:29.432395,192.168.0.114
1078,-1,-100,-100,-100,"0,0,0",0,-4,0,0,0,0,65,67,79,50,100,-5.39,21,4.0,55.0,-998.0,13:58:29.534287,192.168.0.114
1083,-1,-100,-100,-100,"0,0,0",-1,-4,0,0,0,0,65,67,79,50,100,-5.46,21,-6.0,75.0,-988.0,13:58:29.636104,192.168.0.114
1088,-1,-100,-100,-100,"0,0,0",-1,-2,0,0,0,0,65,67,79,50,100,-5.62,21,-55.0,95.0,-1108.0,13:58:29.738073,192.168.0.114
1093,-1,-100,-100,-100,"0,0,0",-2,-5,0,0,0,0,65,67,79,50,100,-5.5,21,-65.0,57.0,-965.0,13:58:29.840399,192.168.0.114
1098,-1,-100,-100,-100,"0,0,0",-3,-5,0,0,0,0,65,67,79,50,100,-5.53,21,-47.0,95.0,-959.0,13:58:29.947121,192.168.0.114
1103,-1,-100,-100,-100,"0,0,0",-3,-6,1,0,0,0,65,67,79,50,100,-5.39,21,3.0,105.0,-1000.0,13:58:30.044472,192.168.0.114
1108,-1,-100,-100,-100,"0,0,0",-2,-7,1,0,0,0,65,67,79,50,100,-5.33,21,-10.0,89.0,-1072.0,13:58:30.146171,192.168.0.114
1113,-1,-100,-100,-100,"0,0,0",-1,-7,1,0,0,0,65,67,79,50,100,-5.53,22,13.0,60.0,-949.0,13:58:30.248900,192.168.0.114
1118,-1,-100,-100,-100,"0,0,0",-1,-6,1,0,0,0,66,68,80,60,100,-5.47,22,-7.0,90.0,-974.0,13:58:30.350328,192.168.0.114
1123,-1,-100,-100,-100,"0,0,0",-1,-6,1,0,0,0,66,68,80,60,100,-5.47,22,-18.0,63.0,-994.0,13:58:30.452365,192.168.0.114
1125,-1,-100,-100,-100,"0,0,0",-1,-5,1,0,0,0,66,68,81,60,100,-5.55,22,-56.0,101.0,-983.0,13:58:30.503420,192.168.0.114
1130,-1,-100,-100,-100,"0,0,0",-2,-5,1,0,0,0,66,68,81,60,100,-5.34,22,-13.0,86.0,-965.0,13:58:30.608077,192.168.0.114
1135,-1,-100,-100,-100,"0,0,0",-2,-6,1,0,0,0,66,68,82,60,100,-5.39,22,4.0,40.0,-975.0,13:58:30.707418,192.168.0.114
1140,-1,-100,-100,-100,"0,0,0",-2,-5,1,0,0,0,66,68,82,60,100,-5.32,22,6.0,56.0,-1003.0,13:58:30.810150,192.168.0.114
1145,-1,-100,-100,-100,"0,0,0",-1,-5,1,0,0,0,66,68,83,60,100,-5.6,22,-24.0,75.0,-975.0,13:58:30.911503,192.168.0.114
1150,-1,-100,-100,-100,"0,0,0",-1,-5,1,0,0,0,66,68,82,60,100,-5.54,22,-28.0,74.0,-1006.0,13:58:31.013377,192.168.0.114
1155,-1,-100,-100,-100,"0,0,0",-1,-4,1,0,0,0,66,68,82,60,100,-5.56,22,15.0,56.0,-1019.0,13:58:31.115441,192.168.0.114
1160,-1,-100,-100,-100,"0,0,0",-1,-4,1,0,0,0,66,68,82,60,100,-5.32,23,2.0,76.0,-998.0,13:58:31.217393,192.168.0.114
1165,-1,-100,-100,-100,"0,0,0",0,-4,1,-1,0,0,65,67,82,60,100,-5.45,23,-3.0,70.0,-985.0,13:58:31.320378,192.168.0.114
1170,-1,-100,-100,-100,"0,0,0",0,-4,1,0,0,0,65,67,82,60,100,-5.56,23,-6.0,72.0,-1018.0,13:58:31.422193,192.168.0.114
1175,-1,-100,-100,-100,"0,0,0",0,-5,1,0,0,0,65,67,81,60,100,-5.37,23,24.0,73.0,-981.0,13:58:31.524797,192.168.0.114
1180,-1,-100,-100,-100,"0,0,0",0,-4,1,0,0,0,65,67,81,60,100,-5.55,23,0.0,73.0,-995.0,13:58:31.626111,192.168.0.114
1185,-1,-100,-100,-100,"0,0,0",0,-4,1,0,0,0,65,67,81,60,100,-5.5,23,14.0,55.0,-990.0,13:58:31.728104,192.168.0.114
1191,-1,-100,-100,-100,"0,0,0",0,-4,1,0,0,0,65,67,81,60,100,-5.43,23,1.0,63.0,-1021.0,13:58:31.832843,192.168.0.114
1196,-1,-100,-100,-100,"0,0,0",0,-3,1,0,0,0,65,67,81,60,100,-5.53,23,-9.0,56.0,-984.0,13:58:31.932254,192.168.0.114
1200,-1,-100,-100,-100,"0,0,0",-1,-3,1,0,0,0,65,67,81,60,100,-5.45,23,35.0,50.0,-1005.0,13:58:32.035044,192.168.0.114
1206,-1,-100,-100,-100,"0,0,0",-1,-3,1,0,0,0,65,67,81,60,100,-5.56,23,18.0,37.0,-1002.0,13:58:32.136392,192.168.0.114
1211,-1,-100,-100,-100,"0,0,0",0,-5,1,0,0,0,65,67,81,60,100,-5.52,24,-14.0,84.0,-1008.0,13:58:32.238253,192.168.0.114
1216,-1,-100,-100,-100,"0,0,0",0,-4,0,0,0,0,65,67,80,60,100,-5.5,24,-7.0,48.0,-1015.0,13:58:32.340087,192.168.0.114
1221,-1,-100,-100,-100,"0,0,0",-1,-3,1,0,1,0,65,67,81,60,100,-5.41,24,-27.0,62.0,-1025.0,13:58:32.442038,192.168.0.114
1226,-1,-100,-100,-100,"0,0,0",-1,-3,1,0,1,0,65,67,82,60,100,-5.52,24,-21.0,31.0,-958.0,13:58:32.544178,192.168.0.114
1232,-1,-100,-100,-100,"0,0,0",-1,-3,1,0,1,0,65,67,82,60,100,-5.5,24,-34.0,49.0,-974.0,13:58:32.646302,192.168.0.114
1238,-1,-100,-100,-100,"0,0,0",-1,-3,1,0,1,0,65,67,81,60,100,-5.5,24,-28.0,44.0,-999.0,13:58:32.748523,192.168.0.114
1242,-1,-100,-100,-100,"0,0,0",-1,-2,1,0,1,0,65,67,81,60,100,-5.49,24,-21.0,53.0,-1011.0,13:58:32.850201,192.168.0.114
1248,-1,-100,-100,-100,"0,0,0",-1,-2,1,0,0,0,65,67,81,60,100,-5.51,24,19.0,24.0,-1013.0,13:58:32.952229,192.168.0.114
1253,-1,-100,-100,-100,"0,0,0",-1,-2,1,0,0,0,65,67,81,60,100,-5.5,24,8.0,40.0,-999.0,13:58:33.054338,192.168.0.114
1258,-1,-100,-100,-100,"0,0,0",-1,-2,1,0,1,0,65,67,81,60,100,-5.49,24,16.0,28.0,-993.0,13:58:33.156238,192.168.0.114
1263,-1,-100,-100,-100,"0,0,0",0,-2,1,0,1,0,65,67,80,60,100,-5.55,25,5.0,55.0,-994.0,13:58:33.258357,192.168.0.114
1268,-1,-100,-100,-100,"0,0,0",0,-1,1,0,0,0,66,68,80,60,100,-5.44,25,24.0,61.0,-995.0,13:58:33.360328,192.168.0.114
1273,-1,-100,-100,-100,"0,0,0",0,-2,1,0,0,0,66,68,80,50,100,-5.57,25,-22.0,70.0,-1016.0,13:58:33.461796,192.168.0.114
1278,-1,-100,-100,-100,"0,0,0",0,-3,1,0,0,0,66,68,80,50,100,-5.55,25,26.0,35.0,-999.0,13:58:33.564036,192.168.0.114
1283,-1,-100,-100,-100,"0,0,0",0,-3,1,0,0,0,66,68,80,50,100,-5.5,25,10.0,41.0,-1031.0,13:58:33.666031,192.168.0.114
1288,-1,-100,-100,-100,"0,0,0",0,-3,1,0,0,0,66,68,80,50,100,-5.53,25,-14.0,22.0,-946.0,13:58:33.767964,192.168.0.114
1293,-1,-100,-100,-100,"0,0,0",0,-2,1,0,0,0,66,68,80,50,100,-5.6,25,-1.0,43.0,-994.0,13:58:33.869804,192.168.0.114
1295,-1,-100,-100,-100,"0,0,0",0,-2,1,0,0,0,66,68,80,50,100,-5.56,25,2.0,24.0,-1015.0,13:58:33.921270,192.168.0.114
1300,-1,-100,-100,-100,"0,0,0",-1,-2,1,0,0,0,66,68,79,50,100,-5.39,25,-38.0,48.0,-962.0,13:58:34.023201,192.168.0.114
1305,-1,-100,-100,-100,"0,0,0",-1,-3,1,0,0,0,66,68,79,50,100,-5.51,25,-7.0,46.0,-981.0,13:58:34.125249,192.168.0.114
1310,-1,-100,-100,-100,"0,0,0",-2,-3,1,0,0,0,66,68,79,50,100,-5.41,26,34.0,45.0,-977.0,13:58:34.227428,192.168.0.114
1316,-1,-100,-100,-100,"0,0,0",0,-2,1,0,0,0,66,67,79,50,100,-5.42,26,0.0,48.0,-1019.0,13:58:34.338144,192.168.0.114
1320,-1,-100,-100,-100,"0,0,0",1,-1,1,0,0,0,66,67,79,50,100,-5.49,26,7.0,71.0,-1018.0,13:58:34.431353,192.168.0.114
1325,-1,-100,-100,-100,"0,0,0",0,-3,1,0,0,0,66,67,79,50,100,-5.44,26,-2.0,59.0,-981.0,13:58:34.533502,192.168.0.114
1330,-1,-100,-100,-100,"0,0,0",0,-3,1,0,0,0,66,67,79,50,100,-5.32,26,25.0,37.0,-1005.0,13:58:34.635609,192.168.0.114
1335,-1,-100,-100,-100,"0,0,0",0,-4,1,0,0,0,66,67,80,50,100,-5.48,26,31.0,42.0,-990.0,13:58:34.737154,192.168.0.114
1340,-1,-100,-100,-100,"0,0,0",0,-4,1,0,0,0,66,67,80,50,100,-5.49,26,18.0,47.0,-989.0,13:58:34.839329,192.168.0.114
1345,-1,-100,-100,-100,"0,0,0",0,-4,0,0,0,0,66,67,81,50,100,-5.54,26,6.0,47.0,-1062.0,13:58:34.941220,192.168.0.114
1350,-1,-100,-100,-100,"0,0,0",0,-3,0,0,0,0,66,67,82,60,100,-5.48,26,-1.0,33.0,-991.0,13:58:35.043082,192.168.0.114
1355,-1,-100,-100,-100,"0,0,0",0,-2,0,0,0,0,66,67,82,60,100,-5.36,26,0.0,72.0,-979.0,13:58:35.145055,192.168.0.114
1361,-1,-100,-100,-100,"0,0,0",0,-3,0,0,0,0,66,67,82,60,100,-5.48,27,3.0,44.0,-1007.0,13:58:35.247217,192.168.0.114
1366,-1,-100,-100,-100,"0,0,0",0,-3,1,0,0,0,66,68,83,60,100,-5.38,27,-6.0,61.0,-960.0,13:58:35.350161,192.168.0.114
1371,-1,-100,-100,-100,"0,0,0",0,-3,1,0,0,0,66,68,83,60,100,-5.52,27,31.0,51.0,-987.0,13:58:35.451314,192.168.0.114
1376,-1,-100,-100,-100,"0,0,0",0,-3,0,0,0,0,66,68,83,60,100,-5.53,27,31.0,46.0,-964.0,13:58:35.552949,192.168.0.114
1381,-1,-100,-100,-100,"0,0,0",0,-3,0,0,0,0,66,68,82,60,100,-5.54,27,0.0,62.0,-1007.0,13:58:35.655112,192.168.0.114
1386,-1,-100,-100,-100,"0,0,0",0,-3,0,0,0,0,66,68,82,60,100,-5.43,27,-15.0,39.0,-999.0,13:58:35.758528,192.168.0.114
1391,-1,-100,-100,-100,"0,0,0",0,-3,0,0,0,0,66,68,82,60,100,-5.51,27,-24.0,49.0,-1003.0,13:58:35.859204,192.168.0.114
1396,-1,-100,-100,-100,"0,0,0",-1,-3,0,0,0,0,66,68,83,60,100,-5.56,27,-28.0,49.0,-985.0,13:58:35.961172,192.168.0.114
1401,-1,-100,-100,-100,"0,0,0",-2,-3,0,0,0,0,66,68,82,60,100,-5.58,27,-49.0,66.0,-1004.0,13:58:36.071043,192.168.0.114
1406,-1,-100,-100,-100,"0,0,0",-2,-3,0,0,0,0,66,68,82,60,100,-5.49,27,-12.0,36.0,-1004.0,13:58:36.165258,192.168.0.114
1412,-1,-100,-100,-100,"0,0,0",-2,-3,0,0,0,0,66,68,82,60,100,-5.53,28,-26.0,58.0,-977.0,13:58:36.267151,192.168.0.114
1418,-1,-100,-100,-100,"0,0,0",-2,-3,0,0,0,0,65,67,82,60,100,-5.44,28,10.0,66.0,-1014.0,13:58:36.368943,192.168.0.114
1423,-1,-100,-100,-100,"0,0,0",-2,-4,0,0,0,0,65,67,82,60,100,-5.35,28,-5.0,71.0,-990.0,13:58:36.471206,192.168.0.114
1428,-1,-100,-100,-100,"0,0,0",-1,-4,0,0,0,0,65,67,82,60,100,-5.65,28,2.0,66.0,-1006.0,13:58:36.573147,192.168.0.114
1433,-1,-100,-100,-100,"0,0,0",-1,-4,0,0,0,0,65,67,82,60,100,-5.47,28,-51.0,94.0,-983.0,13:58:36.675254,192.168.0.114
1438,-1,-100,-100,-100,"0,0,0",-1,-4,0,0,0,0,65,67,81,60,100,-5.57,28,-52.0,45.0,-1011.0,13:58:36.776719,192.168.0.114
1443,-1,-100,-100,-100,"0,0,0",-2,-4,0,0,0,0,65,67,81,60,100,-5.39,28,-19.0,123.0,-1009.0,13:58:36.879849,192.168.0.114
1445,-1,-100,-100,-100,"0,0,0",-2,-5,0,0,0,0,65,67,81,60,100,-5.41,28,-6.0,87.0,-1001.0,13:58:36.931357,192.168.0.114
1451,-1,-100,-100,-100,"0,0,0",-1,-5,0,0,0,0,65,67,80,60,100,-5.54,28,-13.0,91.0,-1011.0,13:58:37.038422,192.168.0.114
1455,-1,-100,-100,-100,"0,0,0",-1,-6,1,0,0,0,65,67,80,60,100,-5.38,28,-21.0,78.0,-985.0,13:58:37.135523,192.168.0.114
1460,-1,-100,-100,-100,"0,0,0",-1,-6,1,0,0,0,65,67,80,60,100,-5.47,29,-1.0,90.0,-1005.0,13:58:37.237091,192.168.0.114
1465,-1,-100,-100,-100,"0,0,0",-1,-6,1,0,0,0,66,67,80,50,100,-5.58,29,-3.0,59.0,-1017.0,13:58:37.339082,192.168.0.114
1470,-1,-100,-100,-100,"0,0,0",0,-6,1,-1,0,0,66,67,79,50,100,-5.62,29,58.0,90.0,-1000.0,13:58:37.441116,192.168.0.114
1475,-1,-100,-100,-100,"0,0,0",0,-5,1,0,0,0,66,67,80,50,100,-5.62,29,31.0,49.0,-987.0,13:58:37.543133,192.168.0.114
1480,-1,-100,-100,-100,"0,0,0",0,-4,1,0,0,0,66,67,79,50,100,-5.62,29,-4.0,51.0,-1032.0,13:58:37.645145,192.168.0.114
1485,-1,-100,-100,-100,"0,0,0",-1,-4,0,0,0,0,66,67,80,50,100,-5.59,29,-11.0,64.0,-1003.0,13:58:37.747169,192.168.0.114
1490,-1,-100,-100,-100,"0,0,0",-2,-3,0,0,0,0,66,67,80,50,100,-5.59,29,-32.0,50.0,-1023.0,13:58:37.849156,192.168.0.114
1495,-1,-100,-100,-100,"0,0,0",-1,-2,0,0,1,0,66,67,80,60,100,-5.8,29,-18.0,30.0,-949.0,13:58:37.951023,192.168.0.114
1500,-1,-100,-100,-100,"0,0,0",-2,-3,0,0,0,0,66,67,81,60,100,-5.45,29,-44.0,63.0,-997.0,13:58:38.052988,192.168.0.114
1505,-1,-100,-100,-100,"0,0,0",-1,-2,0,0,0,0,66,67,80,60,100,-5.6,29,7.0,45.0,-946.0,13:58:38.156256,192.168.0.114
1510,-1,-100,-100,-100,"0,0,0",-1,-3,0,0,0,0,66,67,80,60,100,-5.46,30,-5.0,43.0,-1019.0,13:58:38.258688,192.168.0.114
1515,-1,-100,-100,-100,"0,0,0",-1,-3,0,0,0,0,66,67,80,60,100,-5.49,30,-37.0,32.0,-1009.0,13:58:38.359153,192.168.0.114
1521,-1,-100,-100,-100,"0,0,0",-1,-2,0,0,1,0,66,67,80,60,100,-5.65,30,-18.0,30.0,-988.0,13:58:38.461115,192.168.0.114
1526,-1,-100,-100,-100,"0,0,0",-1,-1,1,0,1,0,66,67,80,60,100,-5.53,30,-28.0,59.0,-980.0,13:58:38.562896,192.168.0.114
1530,-1,-100,-100,-100,"0,0,0",-2,-1,1,0,0,0,66,67,80,60,100,-5.5,30,-35.0,50.0,-1020.0,13:58:38.664877,192.168.0.114
1536,-1,-100,-100,-100,"0,0,0",-1,-2,1,0,0,0,66,67,81,60,100,-5.49,30,-40.0,55.0,-1029.0,13:58:38.767973,192.168.0.114
1541,-1,-100,-100,-100,"0,0,0",-1,-3,1,0,0,0,66,67,80,60,100,-5.53,30,-25.0,47.0,-996.0,13:58:38.868786,192.168.0.114
1546,-1,-100,-100,-100,"0,0,0",-2,-2,1,0,0,0,66,67,80,60,100,-5.5,30,6.0,55.0,-983.0,13:58:38.970927,192.168.0.114
1551,-1,-100,-100,-100,"0,0,0",-2,-2,1,0,0,0,66,67,80,60,100,-5.53,30,22.0,38.0,-947.0,13:58:39.073043,192.168.0.114
1556,-1,-100,-100,-100,"0,0,0",-1,-2,1,0,0,0,66,67,80,60,100,-5.67,30,38.0,18.0,-1042.0,13:58:39.175163,192.168.0.114
1561,-1,-100,-100,-100,"0,0,0",0,-2,1,-1,0,0,66,67,79,50,100,-5.69,31,0.0,66.0,-1053.0,13:58:39.276997,192.168.0.114
1566,-1,-100,-100,-100,"0,0,0",0,-1,1,-1,0,0,67,68,79,50,100,-5.6,31,20.0,81.0,-977.0,13:58:39.378926,192.168.0.114
1571,-1,-100,-100,-100,"0,0,0",0,-3,1,0,0,0,67,68,79,50,100,-5.58,31,13.0,40.0,-1045.0,13:58:39.482103,192.168.0.114
1577,-1,-100,-100,-100,"0,0,0",0,-3,1,0,0,0,67,68,79,50,100,-5.53,31,6.0,18.0,-1015.0,13:58:39.583181,192.168.0.114
1582,-1,-100,-100,-100,"0,0,0",0,-3,1,0,0,0,67,68,80,50,100,-5.59,31,5.0,75.0,-1023.0,13:58:39.684855,192.168.0.114
1588,-1,-100,-100,-100,"0,0,0",0,-3,0,0,0,0,67,68,80,50,100,-5.5,31,8.0,55.0,-1009.0,13:58:39.788170,192.168.0.114
1592,-1,-100,-100,-100,"0,0,0",0,-4,0,0,0,0,67,68,81,60,100,-5.51,31,-23.0,92.0,-998.0,13:58:39.888802,192.168.0.114
1597,-1,-100,-100,-100,"0,0,0",1,-4,0,0,0,0,67,68,82,60,100,-5.48,31,-8.0,78.0,-914.0,13:58:39.993642,192.168.0.114
1603,-1,-100,-100,-100,"0,0,0",0,-4,0,0,0,0,67,68,82,60,100,-5.51,31,-25.0,48.0,-999.0,13:58:40.092906,192.168.0.114
1608,-1,-100,-100,-100,"0,0,0",0,-4,0,0,0,0,67,68,82,60,100,-5.47,31,-4.0,66.0,-990.0,13:58:40.194761,192.168.0.114
1613,-1,-100,-100,-100,"0,0,0",-1,-4,0,0,0,0,67,68,82,60,100,-5.56,32,-17.0,48.0,-1001.0,13:58:40.296982,192.168.0.114
1618,-1,-100,-100,-100,"0,0,0",0,-4,0,0,0,0,66,68,83,60,100,-5.62,32,-11.0,64.0,-964.0,13:58:40.399019,192.168.0.114
1623,-1,-100,-100,-100,"0,0,0",0,-4,0,0,0,0,66,68,83,60,100,-5.59,32,-15.0,23.0,-1002.0,13:58:40.500756,192.168.0.114
1628,-1,-100,-100,-100,"0,0,0",-1,-3,1,0,0,0,66,68,82,60,100,-5.5,32,-13.0,63.0,-977.0,13:58:40.603390,192.168.0.114
1633,-1,-100,-100,-100,"0,0,0",-1,-2,1,0,0,0,66,68,83,60,100,-5.57,32,-20.0,101.0,-1003.0,13:58:40.704901,192.168.0.114
1638,-1,-100,-100,-100,"0,0,0",0,-4,0,0,0,0,66,68,82,60,100,-5.58,32,-24.0,53.0,-972.0,13:58:40.806985,192.168.0.114
1640,-1,-100,-100,-100,"0,0,0",0,-5,0,0,0,0,66,68,82,60,100,-5.35,32,-14.0,47.0,-1038.0,13:58:40.858012,192.168.0.114
1645,-1,-100,-100,-100,"0,0,0",-1,-4,1,0,0,0,66,68,82,60,100,-5.5,32,-26.0,46.0,-995.0,13:58:40.960257,192.168.0.114
1650,-1,-100,-100,-100,"0,0,0",-1,-3,1,0,0,0,66,68,81,60,100,-5.36,32,32.0,24.0,-980.0,13:58:41.062012,192.168.0.114
1655,-1,-100,-100,-100,"0,0,0",-1,-3,1,0,0,0,66,68,81,60,100,-5.64,32,11.0,21.0,-1019.0,13:58:41.164085,192.168.0.114
1660,-1,-100,-100,-100,"0,0,0",0,-3,1,0,0,0,66,68,81,60,100,-5.61,33,9.0,16.0,-1000.0,13:58:41.265755,192.168.0.114
1665,-1,-100,-100,-100,"0,0,0",0,-2,1,0,0,0,66,68,80,50,100,-5.59,33,-29.0,49.0,-1034.0,13:58:41.370203,192.168.0.114
1670,-1,-100,-100,-100,"0,0,0",0,-1,1,0,0,0,66,68,79,50,100,-5.68,33,23.0,50.0,-983.0,13:58:41.469993,192.168.0.114
1675,-1,-100,-100,-100,"0,0,0",0,-1,1,0,0,0,66,68,80,50,100,-5.64,33,2.0,76.0,-1006.0,13:58:41.572054,192.168.0.114
1680,-1,-100,-100,-100,"0,0,0",0,-2,1,0,0,0,66,68,79,50,100,-5.68,33,20.0,38.0,-1077.0,13:58:41.674115,192.168.0.114
1685,-1,-100,-100,-100,"0,0,0",0,-3,0,0,0,0,66,68,80,50,100,-5.49,33,-2.0,44.0,-1005.0,13:58:41.776068,192.168.0.114
1690,-1,-100,-100,-100,"0,0,0",1,-2,1,0,0,0,66,68,81,60,100,-5.53,33,29.0,42.0,-969.0,13:58:41.879973,192.168.0.114
1695,-1,-100,-100,-100,"0,0,0",0,-1,1,0,0,0,66,68,81,60,100,-5.53,33,58.0,-6.0,-1002.0,13:58:41.980272,192.168.0.114
1701,-1,-100,-100,-100,"0,0,0",0,-2,1,0,0,0,66,68,81,60,100,-5.59,33,15.0,51.0,-966.0,13:58:42.081788,192.168.0.114
1706,-1,-100,-100,-100,"0,0,0",1,-2,1,0,0,0,66,68,81,60,100,-5.62,33,34.0,30.0,-983.0,13:58:42.184058,192.168.0.114
1711,-1,-100,-100,-100,"0,0,0",1,-2,0,0,0,0,66,68,82,60,100,-5.61,34,16.0,31.0,-1018.0,13:58:42.286012,192.168.0.114
1716,-1,-100,-100,-100,"0,0,0",1,-1,0,0,0,0,67,67,82,60,100,-5.62,34,0.0,40.0,-971.0,13:58:42.388016,192.168.0.114
1721,-1,-100,-100,-100,"0,0,0",0,-1,0,0,0,0,67,67,81,60,100,-5.7,34,-10.0,47.0,-1037.0,13:58:42.489962,192.168.0.114
1726,-1,-100,-100,-100,"0,0,0",0,-1,0,0,0,0,67,67,81,60,100,-5.57,34,19.0,94.0,-986.0,13:58:42.591912,192.168.0.114
1732,-1,-100,-100,-100,"0,0,0",0,-2,0,0,0,0,67,67,81,60,100,-5.53,34,-48.0,77.0,-930.0,13:58:42.694120,192.168.0.114
1737,-1,-100,-100,-100,"0,0,0",0,-5,0,0,0,0,67,67,81,60,100,-5.42,34,-68.0,42.0,-958.0,13:58:42.796034,192.168.0.114
1742,-1,-100,-100,-100,"0,0,0",0,-3,0,0,0,0,67,67,81,60,100,-5.31,34,-3.0,86.0,-1063.0,13:58:42.897948,192.168.0.114
1747,-1,-100,-100,-100,"0,0,0",-1,-3,0,0,0,0,67,67,80,50,100,-5.6,34,-9.0,108.0,-1095.0,13:58:42.999993,192.168.0.114
1752,-1,-100,-100,-100,"0,0,0",-1,-3,0,0,0,0,67,67,80,50,100,-5.64,34,-11.0,105.0,-940.0,13:58:43.101656,192.168.0.114
1757,-1,-100,-100,-100,"0,0,0",-1,-5,0,0,0,0,67,67,81,50,100,-5.43,34,9.0,45.0,-1032.0,13:58:43.204272,192.168.0.114
1763,-1,-100,-100,-100,"0,0,0",-1,-6,1,0,0,0,67,67,82,60,100,-5.39,35,5.0,18.0,-1058.0,13:58:43.305939,192.168.0.114
1768,-1,-100,-100,-100,"0,0,0",0,-6,1,0,0,0,67,68,83,60,100,-5.53,35,0.0,9.0,-977.0,13:58:43.407852,192.168.0.114
1773,-1,-100,-100,-100,"0,0,0",0,-3,1,0,0,0,67,68,84,60,100,-5.55,35,29.0,26.0,-964.0,13:58:43.509893,192.168.0.114
1778,-1,-100,-100,-100,"0,0,0",0,-2,0,0,0,0,67,68,84,60,100,-5.5,35,49.0,22.0,-984.0,13:58:43.611304,192.168.0.114
1783,-1,-100,-100,-100,"0,0,0",0,-1,1,0,0,0,67,68,85,60,100,-5.47,35,-11.0,37.0,-990.0,13:58:43.714049,192.168.0.114
1788,-1,-100,-100,-100,"0,0,0",1,-2,1,0,0,0,67,68,85,60,100,-5.41,35,15.0,48.0,-994.0,13:58:43.815498,192.168.0.114
1793,-1,-100,-100,-100,"0,0,0",0,-2,1,0,0,0,67,68,85,60,100,-5.5,35,9.0,38.0,-965.0,13:58:43.917889,192.168.0.114
1798,-1,-100,-100,-100,"0,0,0",1,-2,1,0,0,0,67,68,85,60,100,-5.45,35,34.0,67.0,-1034.0,13:58:44.019717,192.168.0.114
1800,-1,-100,-100,-100,"0,0,0",0,-1,0,0,0,0,67,68,85,60,100,-5.14,35,-1.0,119.0,-947.0,13:58:44.070984,192.168.0.114
1805,-1,-100,-100,-100,"0,0,0",0,-4,0,0,0,0,67,68,85,60,100,-5.36,35,-6.0,54.0,-988.0,13:58:44.173137,192.168.0.114
1810,-1,-100,-100,-100,"0,0,0",1,-5,0,0,0,0,67,68,85,60,100,-5.43,36,-24.0,8.0,-954.0,13:58:44.275044,192.168.0.114
1815,-1,-100,-100,-100,"0,0,0",0,-5,0,0,0,0,66,68,83,60,100,-5.53,36,-7.0,81.0,-1104.0,13:58:44.376866,192.168.0.114
1820,-1,-100,-100,-100,"0,0,0",-1,-3,0,0,0,0,66,68,83,60,100,-5.39,36,9.0,62.0,-964.0,13:58:44.479020,192.168.0.114
1825,-1,-100,-100,-100,"0,0,0",0,-3,1,0,0,0,66,68,82,60,100,-5.47,36,20.0,43.0,-1014.0,13:58:44.580557,192.168.0.114
1830,-1,-100,-100,-100,"0,0,0",0,-3,0,0,0,0,66,68,81,60,100,-5.49,36,-16.0,65.0,-1014.0,13:58:44.682709,192.168.0.114
1835,-1,-100,-100,-100,"0,0,0",0,-2,1,0,0,0,66,68,81,60,100,-5.54,36,6.0,62.0,-1062.0,13:58:44.784918,192.168.0.114
1840,-1,-100,-100,-100,"0,0,0",0,-3,1,0,0,0,66,68,81,60,100,-5.39,36,11.0,65.0,-990.0,13:58:44.886947,192.168.0.114
1845,-1,-100,-100,-100,"0,0,0",0,-4,1,0,0,0,66,68,82,60,100,-5.47,36,61.0,52.0,-1048.0,13:58:44.989529,192.168.0.114
1850,-1,-100,-100,-100,"0,0,0",0,-3,0,0,0,0,66,68,81,60,100,-5.38,36,-59.0,80.0,-935.0,13:58:45.090849,192.168.0.114
1855,-1,-100,-100,-100,"0,0,0",1,-3,0,0,0,0,66,68,82,60,100,-5.57,36,-67.0,68.0,-1027.0,13:58:45.192911,192.168.0.114
1860,-1,-100,-100,-100,"0,0,0",0,-3,0,0,0,0,66,68,82,60,100,-5.54,37,-9.0,74.0,-906.0,13:58:45.295045,192.168.0.114
1865,-1,-100,-100,-100,"0,0,0",-1,-4,1,0,0,0,67,69,82,60,100,-5.51,37,15.0,86.0,-971.0,13:58:45.396818,192.168.0.114
1871,-1,-100,-100,-100,"0,0,0",0,-5,1,0,0,0,67,69,82,60,100,-5.46,37,-3.0,55.0,-1000.0,13:58:45.498688,192.168.0.114
1878,-1,-100,-100,-100,"0,0,0",-1,-5,1,0,0,0,67,69,82,60,100,-5.43,37,-16.0,64.0,-977.0,13:58:45.636535,192.168.0.114
1881,-1,-100,-100,-100,"0,0,0",0,-5,1,0,0,0,67,69,83,60,100,-5.45,37,4.0,32.0,-1018.0,13:58:45.742726,192.168.0.114
1886,-1,-100,-100,-100,"0,0,0",-1,-5,1,0,0,0,67,69,82,60,100,-5.34,37,-27.0,64.0,-1006.0,13:58:45.804770,192.168.0.114
1891,-1,-100,-100,-100,"0,0,0",0,-3,1,0,0,0,67,69,82,60,100,-5.46,37,44.0,59.0,-1021.0,13:58:45.906983,192.168.0.114
1896,-1,-100,-100,-100,"0,0,0",0,-2,2,0,0,0,67,69,82,60,100,-5.53,37,7.0,73.0,-968.0,13:58:46.008318,192.168.0.114
1901,-1,-100,-100,-100,"0,0,0",0,-3,1,0,0,0,67,69,82,60,100,-5.63,37,-20.0,67.0,-978.0,13:58:46.110766,192.168.0.114
1906,-1,-100,-100,-100,"0,0,0",0,-3,1,0,0,0,67,69,82,60,100,-5.5,37,14.0,80.0,-939.0,13:58:46.212923,192.168.0.114
1911,-1,-100,-100,-100,"0,0,0",0,-3,1,0,0,0,67,69,82,60,100,-5.41,38,-15.0,85.0,-1021.0,13:58:46.314786,192.168.0.114
1917,-1,-100,-100,-100,"0,0,0",0,-4,1,0,0,0,66,68,82,60,100,-5.44,38,-9.0,73.0,-1020.0,13:58:46.416762,192.168.0.114
1922,-1,-100,-100,-100,"0,0,0",0,-4,1,0,0,0,66,68,81,60,100,-5.33,38,22.0,51.0,-988.0,13:58:46.518839,192.168.0.114
1927,-1,-100,-100,-100,"0,0,0",0,-4,1,0,0,0,66,68,80,60,100,-5.47,38,-6.0,48.0,-972.0,13:58:46.620919,192.168.0.114
1933,-1,-100,-100,-100,"0,0,0",0,-3,1,0,0,0,66,68,81,60,100,-5.57,38,2.0,46.0,-1010.0,13:58:46.722805,192.168.0.114
1938,-1,-100,-100,-100,"0,0,0",0,-3,0,0,0,0,66,68,81,60,100,-5.5,38,-31.0,46.0,-992.0,13:58:46.824836,192.168.0.114
1943,-1,-100,-100,-100,"0,0,0",0,-3,0,0,0,0,66,68,80,60,100,-5.49,38,-8.0,46.0,-972.0,13:58:46.927178,192.168.0.114
1948,-1,-100,-100,-100,"0,0,0",0,-3,1,0,0,0,66,68,81,60,100,-5.57,38,-51.0,82.0,-997.0,13:58:47.030094,192.168.0.114
1952,-1,-100,-100,-100,"0,0,0",-1,-3,1,0,0,0,66,68,81,60,100,-5.35,38,-14.0,54.0,-971.0,13:58:47.131010,192.168.0.114
1958,-1,-100,-100,-100,"0,0,0",-1,-3,1,0,0,0,66,68,80,60,100,-5.53,38,0.0,60.0,-1039.0,13:58:47.232802,192.168.0.114
1960,-1,-100,-100,-100,"0,0,0",-1,-3,1,0,0,0,66,68,80,50,100,-5.54,39,-20.0,51.0,-1000.0,13:58:47.284352,192.168.0.114
1965,-1,-100,-100,-100,"0,0,0",0,-3,1,0,0,0,67,69,80,50,100,-5.5,39,0.0,55.0,-1050.0,13:58:47.386829,192.168.0.114
1970,-1,-100,-100,-100,"0,0,0",0,-3,1,0,0,0,67,69,79,50,100,-5.54,39,-7.0,81.0,-974.0,13:58:47.491594,192.168.0.114
1975,-1,-100,-100,-100,"0,0,0",-1,-4,1,0,0,0,67,69,79,50,100,-5.57,39,-12.0,50.0,-981.0,13:58:47.591831,192.168.0.114
1980,-1,-100,-100,-100,"0,0,0",0,-3,0,0,0,0,67,69,79,50,100,-5.73,39,-2.0,50.0,-1011.0,13:58:47.694182,192.168.0.114
1985,-1,-100,-100,-100,"0,0,0",-1,-3,0,0,0,0,67,69,78,50,100,-5.59,39,-59.0,53.0,-1000.0,13:58:47.796525,192.168.0.114
1990,-1,-100,-100,-100,"0,0,0",-2,-3,1,0,0,0,67,69,79,50,100,-5.61,39,-49.0,52.0,-995.0,13:58:47.895646,192.168.0.114
1995,-1,-100,-100,-100,"0,0,0",-1,-3,1,0,0,0,67,69,79,50,100,-5.48,39,-5.0,78.0,-1093.0,13:58:47.997973,192.168.0.114
2000,-1,-100,-100,-100,"0,0,0",0,-5,0,0,0,0,67,69,78,50,100,-5.56,39,-16.0,108.0,-980.0,13:58:48.099962,192.168.0.114
2005,-1,-100,-100,-100,"0,0,0",-1,-4,0,0,0,0,67,69,78,50,100,-5.64,39,-22.0,40.0,-979.0,13:58:48.201925,192.168.0.114
2010,-1,-100,-100,-100,"0,0,0",-1,-4,1,0,0,0,67,69,79,50,100,-5.64,40,-34.0,56.0,-1034.0,13:58:48.304343,192.168.0.114
2015,-1,-100,-100,-100,"0,0,0",-2,-3,1,0,0,0,67,69,78,50,100,-5.49,40,18.0,92.0,-992.0,13:58:48.405773,192.168.0.114
2020,-1,-100,-100,-100,"0,0,0",-2,-4,1,0,0,0,67,69,79,50,100,-5.48,40,32.0,71.0,-955.0,13:58:48.507972,192.168.0.114
2025,-1,-100,-100,-100,"0,0,0",0,-4,1,0,0,0,67,69,78,50,100,-5.6,40,23.0,81.0,-1007.0,13:58:48.610109,192.168.0.114
2031,-1,-100,-100,-100,"0,0,0",0,-3,1,0,0,0,67,69,78,50,100,-5.62,40,22.0,67.0,-994.0,13:58:48.718351,192.168.0.114
2035,-1,-100,-100,-100,"0,0,0",1,-4,1,0,0,0,67,69,79,50,100,-5.58,40,15.0,65.0,-948.0,13:58:48.814876,192.168.0.114
2040,-1,-100,-100,-100,"0,0,0",0,-4,1,0,0,0,67,69,78,50,100,-5.63,40,-10.0,78.0,-1046.0,13:58:48.915730,192.168.0.114
2046,-1,-100,-100,-100,"0,0,0",1,-4,0,0,0,0,67,69,78,50,100,-5.69,40,-35.0,103.0,-961.0,13:58:49.017249,192.168.0.114
2051,-1,-100,-100,-100,"0,0,0",1,-4,0,0,0,0,67,69,78,50,100,-5.34,40,-34.0,78.0,-1024.0,13:58:49.119280,192.168.0.114
2056,-1,-100,-100,-100,"0,0,0",0,-4,0,0,0,0,67,69,79,50,100,-5.57,40,-26.0,91.0,-929.0,13:58:49.221152,192.168.0.114
2061,-1,-100,-100,-100,"0,0,0",-1,-4,0,0,0,0,67,69,79,50,100,-5.69,41,40.0,61.0,-1016.0,13:58:49.323566,192.168.0.114
2066,-1,-100,-100,-100,"0,0,0",0,-6,1,0,0,0,67,69,79,50,100,-5.4,41,7.0,69.0,-997.0,13:58:49.425902,192.168.0.114
2071,-1,-100,-100,-100,"0,0,0",0,-6,1,0,0,0,67,69,79,50,100,-5.48,41,-19.0,70.0,-989.0,13:58:49.527692,192.168.0.114
2076,-1,-100,-100,-100,"0,0,0",0,-5,1,0,0,0,67,69,79,50,100,-5.55,41,15.0,64.0,-1028.0,13:58:49.629589,192.168.0.114
2081,-1,-100,-100,-100,"0,0,0",0,-4,1,0,0,0,67,69,79,50,100,-5.57,41,33.0,58.0,-1000.0,13:58:49.731774,192.168.0.114
2087,-1,-100,-100,-100,"0,0,0",0,-3,1,0,0,0,67,69,79,50,100,-5.56,41,36.0,73.0,-1016.0,13:58:49.833835,192.168.0.114
2092,-1,-100,-100,-100,"0,0,0",1,-3,0,0,0,0,67,69,78,50,100,-5.53,41,8.0,62.0,-956.0,13:58:49.935947,192.168.0.114
2097,-1,-100,-100,-100,"0,0,0",1,-3,0,0,0,0,67,69,79,50,100,-5.67,41,-54.0,51.0,-1049.0,13:58:50.037739,192.168.0.114
2102,-1,-100,-100,-100,"0,0,0",0,-3,1,0,0,0,67,69,78,50,100,-5.53,41,-3.0,97.0,-957.0,13:58:50.139597,192.168.0.114
2107,-1,-100,-100,-100,"0,0,0",0,-4,1,0,0,0,67,69,78,50,100,-5.47,42,0.0,74.0,-991.0,13:58:50.241583,192.168.0.114
2112,-1,-100,-100,-100,"0,0,0",0,-4,1,0,0,0,67,69,78,50,100,-5.66,42,11.0,97.0,-978.0,13:58:50.343907,192.168.0.114
2118,-1,-100,-100,-100,"0,0,0",0,-5,1,0,0,0,66,68,79,50,100,-5.53,42,28.0,58.0,-987.0,13:58:50.445496,192.168.0.114
2123,-1,-100,-100,-100,"0,0,0",0,-4,0,0,0,0,66,68,78,50,100,-5.71,42,-2.0,74.0,-1007.0,13:58:50.547515,192.168.0.114
2128,-1,-100,-100,-100,"0,0,0",0,-4,0,0,0,0,66,68,78,50,100,-5.57,42,-7.0,143.0,-1025.0,13:58:50.649835,192.168.0.114
2133,-1,-100,-100,-100,"0,0,0",0,-5,0,0,0,0,66,68,79,50,100,-5.52,42,12.0,68.0,-984.0,13:58:50.751729,192.168.0.114
2135,-1,-100,-100,-100,"0,0,0",0,-5,0,0,0,0,66,68,79,50,100,-5.56,42,-23.0,45.0,-999.0,13:58:50.804119,192.168.0.114
2140,-1,-100,-100,-100,"0,0,0",0,-4,1,0,0,0,66,68,79,60,100,-5.64,42,-7.0,90.0,-1009.0,13:58:50.904643,192.168.0.114
2145,-1,-100,-100,-100,"0,0,0",0,-4,1,0,0,0,66,68,79,60,100,-5.47,42,29.0,50.0,-949.0,13:58:51.006766,192.168.0.114
2150,-1,-100,-100,-100,"0,0,0",0,-3,1,0,0,0,66,68,80,60,100,-5.58,42,-10.0,95.0,-978.0,13:58:51.108800,192.168.0.114
2155,-1,-100,-100,-100,"0,0,0",0,-3,0,0,0,0,66,68,80,60,100,-5.61,43,-11.0,69.0,-973.0,13:58:51.211395,192.168.0.114
2160,-1,-100,-100,-100,"0,0,0",0,-3,0,0,0,0,66,68,79,60,100,-5.55,43,-29.0,54.0,-1053.0,13:58:51.312990,192.168.0.114
2165,-1,-100,-100,-100,"0,0,0",0,-3,0,0,0,0,67,69,80,60,100,-5.73,43,-40.0,111.0,-1032.0,13:58:51.414902,192.168.0.114
2170,-1,-100,-100,-100,"0,0,0",-1,-4,1,0,0,0,67,69,80,60,100,-5.4,43,-1.0,100.0,-910.0,13:58:51.516666,192.168.0.114
2175,-1,-100,-100,-100,"0,0,0",-1,-6,1,0,0,0,67,69,80,60,100,-5.43,43,30.0,56.0,-996.0,13:58:51.619407,192.168.0.114
2180,-1,-100,-100,-100,"0,0,0",0,-5,1,0,0,0,67,69,81,60,100,-5.62,43,24.0,51.0,-982.0,13:58:51.720529,192.168.0.114
2185,-1,-100,-100,-100,"0,0,0",0,-3,1,0,0,0,67,69,80,60,100,-5.62,43,16.0,64.0,-1007.0,13:58:51.823567,192.168.0.114
2190,-1,-100,-100,-100,"0,0,0",0,-3,1,0,0,0,67,69,79,60,100,-5.51,43,-5.0,48.0,-999.0,13:58:51.924291,192.168.0.114
2195,-1,-100,-100,-100,"0,0,0",1,-2,1,0,0,0,67,69,80,50,100,-5.64,43,-8.0,47.0,-995.0,13:58:52.030020,192.168.0.114
2200,-1,-100,-100,-100,"0,0,0",0,-2,1,0,0,0,67,69,79,50,100,-5.61,43,-6.0,67.0,-982.0,13:58:52.128534,192.168.0.114
2206,-1,-100,-100,-100,"0,0,0",0,-2,1,0,0,0,67,69,79,50,100,-5.64,44,6.0,63.0,-980.0,13:58:52.230411,192.168.0.114
2211,-1,-100,-100,-100,"0,0,0",0,-3,1,0,0,0,67,69,79,50,100,-5.55,44,-6.0,70.0,-1007.0,13:58:52.332524,192.168.0.114
2216,-1,-100,-100,-100,"0,0,0",0,-3,1,0,0,0,67,68,79,50,100,-5.78,44,20.0,90.0,-1023.0,13:58:52.434626,192.168.0.114
2221,-1,-100,-100,-100,"0,0,0",1,-4,1,0,0,0,67,68,79,50,100,-5.64,44,10.0,59.0,-998.0,13:58:52.536570,192.168.0.114
2226,-1,-100,-100,-100,"0,0,0",1,-4,1,0,0,0,67,68,80,60,100,-5.66,44,1.0,50.0,-1007.0,13:58:52.638378,192.168.0.114
2231,-1,-100,-100,-100,"0,0,0",0,-3,1,0,0,0,67,68,80,60,100,-5.74,44,-9.0,70.0,-983.0,13:58:52.740705,192.168.0.114
2236,-1,-100,-100,-100,"0,0,0",0,-3,1,0,0,0,67,68,81,60,100,-5.77,44,-13.0,53.0,-960.0,13:58:52.842671,192.168.0.114
2241,-1,-100,-100,-100,"0,0,0",0,-3,1,0,0,0,67,68,80,60,100,-5.59,44,36.0,46.0,-997.0,13:58:52.944469,192.168.0.114
2247,-1,-100,-100,-100,"0,0,0",0,-3,1,0,0,0,67,68,81,60,100,-5.73,44,3.0,40.0,-1007.0,13:58:53.046866,192.168.0.114
2251,-1,-100,-100,-100,"0,0,0",0,-2,1,0,0,0,67,68,81,60,100,-5.68,44,-3.0,31.0,-1002.0,13:58:53.148460,192.168.0.114
2257,-1,-100,-100,-100,"0,0,0",0,-2,1,0,0,0,67,68,81,60,100,-5.72,45,-2.0,53.0,-1003.0,13:58:53.251196,192.168.0.114
2262,-1,-100,-100,-100,"0,0,0",0,-2,1,0,0,0,67,68,82,60,100,-5.66,45,2.0,43.0,-1001.0,13:58:53.353437,192.168.0.114
2268,-1,-100,-100,-100,"0,0,0",0,-2,1,0,0,0,67,68,81,60,100,-5.71,45,16.0,62.0,-983.0,13:58:53.455288,192.168.0.114
2273,-1,-100,-100,-100,"0,0,0",0,-3,1,0,0,0,67,68,82,60,100,-5.68,45,-11.0,64.0,-1016.0,13:58:53.556244,192.168.0.114
2278,-1,-100,-100,-100,"0,0,0",0,-3,1,0,0,0,67,68,82,60,100,-5.67,45,19.0,50.0,-995.0,13:58:53.658640,192.168.0.114
2283,-1,-100,-100,-100,"0,0,0",0,-2,1,0,0,0,67,68,82,60,100,-5.63,45,24.0,34.0,-984.0,13:58:53.760448,192.168.0.114
2288,-1,-100,-100,-100,"0,0,0",0,-2,1,0,0,0,67,68,83,60,100,-5.61,45,33.0,46.0,-948.0,13:58:53.862326,192.168.0.114
2293,-1,-100,-100,-100,"0,0,0",1,-2,1,0,0,0,67,68,83,60,100,-5.66,45,10.0,14.0,-1023.0,13:58:53.964482,192.168.0.114
2298,-1,-100,-100,-100,"0,0,0",1,-2,1,0,0,0,67,68,83,60,100,-5.64,45,14.0,46.0,-973.0,13:58:54.066281,192.168.0.114
2303,-1,-100,-100,-100,"0,0,0",0,-2,1,0,0,0,67,68,83,60,100,-5.61,45,-7.0,84.0,-1024.0,13:58:54.168631,192.168.0.114
2305,-1,-100,-100,-100,"0,0,0",0,-2,0,0,0,0,67,68,82,60,100,-5.72,46,11.0,66.0,-1032.0,13:58:54.219616,192.168.0.114
2310,-1,-100,-100,-100,"0,0,0",0,-3,1,0,0,0,67,68,82,60,100,-5.67,46,26.0,72.0,-1011.0,13:58:54.321602,192.168.0.114
2315,-1,-100,-100,-100,"0,0,0",0,-4,1,0,0,0,66,69,82,60,100,-5.74,46,9.0,68.0,-943.0,13:58:54.423628,192.168.0.114
2320,-1,-100,-100,-100,"0,0,0",0,-4,1,0,0,0,66,69,81,60,100,-5.72,46,28.0,55.0,-1011.0,13:58:54.528780,192.168.0.114
2325,-1,-100,-100,-100,"0,0,0",0,-4,0,0,0,0,66,69,81,60,100,-5.78,46,-12.0,49.0,-988.0,13:58:54.627619,192.168.0.114
2330,-1,-100,-100,-100,"0,0,0",0,-3,0,0,0,0,66,69,81,60,100,-5.68,46,-5.0,76.0,-1005.0,13:58:54.729393,192.168.0.114
2335,-1,-100,-100,-100,"0,0,0",0,-4,0,0,0,0,66,69,80,60,100,-5.69,46,6.0,79.0,-994.0,13:58:54.831519,192.168.0.114
2340,-1,-100,-100,-100,"0,0,0",0,-5,0,0,0,0,66,69,80,60,100,-5.6,46,-31.0,50.0,-1034.0,13:58:54.933558,192.168.0.114
2345,-1,-100,-100,-100,"0,0,0",0,-4,0,0,0,0,66,69,80,60,100,-5.69,46,-14.0,96.0,-984.0,13:58:55.036757,192.168.0.114
2350,-1,-100,-100,-100,"0,0,0",0,-4,0,0,0,0,66,69,80,60,100,-5.69,46,-6.0,70.0,-1011.0,13:58:55.137631,192.168.0.114
2356,-1,-100,-100,-100,"0,0,0",0,-4,1,0,0,0,66,69,80,60,100,-5.59,47,8.0,98.0,-980.0,13:58:55.239959,192.168.0.114
2361,-1,-100,-100,-100,"0,0,0",0,-4,0,0,0,0,66,69,80,60,100,-5.56,47,11.0,61.0,-955.0,13:58:55.341654,192.168.0.114
2366,-1,-100,-100,-100,"0,0,0",0,-4,0,0,0,0,67,68,80,60,100,-5.65,47,8.0,55.0,-995.0,13:58:55.443323,192.168.0.114
2371,-1,-100,-100,-100,"0,0,0",0,-4,0,0,0,0,67,68,79,50,100,-5.78,47,-56.0,62.0,-1050.0,13:58:55.545619,192.168.0.114
2376,-1,-100,-100,-100,"0,0,0",0,-3,0,0,0,0,67,68,79,50,100,-5.61,47,-43.0,76.0,-976.0,13:58:55.647722,192.168.0.114
2380,-1,-100,-100,-100,"0,0,0",-1,-4,0,0,0,0,67,68,79,50,100,-5.59,47,-18.0,35.0,-974.0,13:58:55.751126,192.168.0.114
2386,-1,-100,-100,-100,"0,0,0",-2,-4,0,0,0,0,67,68,79,50,100,-5.63,47,-7.0,62.0,-1042.0,13:58:55.852312,192.168.0.114
2391,-1,-100,-100,-100,"0,0,0",-2,-3,0,0,0,0,67,68,79,50,100,-5.63,47,2.0,51.0,-1000.0,13:58:55.953688,192.168.0.114
2396,-1,-100,-100,-100,"0,0,0",-1,-2,0,0,0,0,67,68,79,50,100,-5.64,47,-24.0,49.0,-1029.0,13:58:56.055620,192.168.0.114
2401,-1,-100,-100,-100,"0,0,0",0,-2,0,0,0,0,67,68,79,50,100,-5.61,47,-29.0,28.0,-973.0,13:58:56.157738,192.168.0.114
2406,-1,-100,-100,-100,"0,0,0",-1,-2,0,0,0,0,67,68,80,50,100,-5.64,48,-34.0,27.0,-1001.0,13:58:56.259380,192.168.0.114
2411,-1,-100,-100,-100,"0,0,0",-1,-1,1,0,0,0,67,68,80,50,100,-5.64,48,-31.0,54.0,-1003.0,13:58:56.361607,192.168.0.114
2416,-1,-100,-100,-100,"0,0,0",-1,-2,1,0,0,0,66,69,81,50,100,-5.57,48,-47.0,47.0,-995.0,13:58:56.463699,192.168.0.114
2422,-1,-100,-100,-100,"0,0,0",-2,-1,1,0,0,0,66,69,81,60,100,-5.71,48,-15.0,56.0,-1006.0,13:58:56.565707,192.168.0.114
2427,-1,-100,-100,-100,"0,0,0",-2,-2,1,0,0,0,66,69,82,60,100,-5.57,48,16.0,64.0,-1001.0,13:58:56.667624,192.168.0.114
2432,-1,-100,-100,-100,"0,0,0",-1,-3,0,0,0,0,66,69,82,60,100,-5.76,48,5.0,78.0,-979.0,13:58:56.769760,192.168.0.114
2437,-1,-100,-100,-100,"0,0,0",0,-4,0,0,0,0,66,69,82,60,100,-5.75,48,-22.0,43.0,-976.0,13:58:56.871627,192.168.0.114
2442,-1,-100,-100,-100,"0,0,0",0,-3,0,0,0,0,66,69,82,60,100,-5.63,48,-37.0,67.0,-977.0,13:58:56.973401,192.168.0.114
2448,-1,-100,-100,-100,"0,0,0",0,-3,0,0,0,0,66,69,82,60,100,-5.63,48,0.0,58.0,-980.0,13:58:57.075488,192.168.0.114
2453,-1,-100,-100,-100,"0,0,0",0,-3,0,0,0,0,66,69,82,60,100,-5.6,48,-19.0,44.0,-991.0,13:58:57.177383,192.168.0.114
2458,-1,-100,-100,-100,"0,0,0",0,-3,1,0,0,0,66,69,82,60,100,-5.61,49,23.0,25.0,-989.0,13:58:57.279567,192.168.0.114
2460,-1,-100,-100,-100,"0,0,0",0,-3,1,0,0,0,66,69,81,60,100,-5.65,49,-13.0,57.0,-1012.0,13:58:57.330789,192.168.0.114
2468,-1,-100,-100,-100,"0,0,0",0,-1,1,0,0,0,67,69,82,60,100,-5.64,49,11.0,36.0,-1009.0,13:58:57.483313,192.168.0.114
2473,-1,-100,-100,-100,"0,0,0",0,-2,1,0,0,0,67,69,81,60,100,-5.69,49,26.0,46.0,-1017.0,13:58:57.586006,192.168.0.114
2478,-1,-100,-100,-100,"0,0,0",1,-3,1,0,0,0,67,69,82,60,100,-5.64,49,9.0,66.0,-992.0,13:58:57.687496,192.168.0.114
2480,-1,-100,-100,-100,"0,0,0",1,-2,0,0,0,0,67,69,81,60,100,-5.59,49,-8.0,25.0,-1022.0,13:58:57.740101,192.168.0.114
2485,-1,-100,-100,-100,"0,0,0",0,-2,0,0,0,0,67,69,82,60,100,-5.64,49,7.0,62.0,-1010.0,13:58:57.841284,192.168.0.114
2490,-1,-100,-100,-100,"0,0,0",0,-2,0,0,0,0,67,69,82,60,100,-5.73,49,19.0,38.0,-1004.0,13:58:57.943464,192.168.0.114
2495,-1,-100,-100,-100,"0,0,0",0,-1,1,0,0,0,67,69,81,60,100,-5.56,49,-29.0,32.0,-996.0,13:58:58.045971,192.168.0.114
2500,-1,-100,-100,-100,"0,0,0",0,-2,0,0,0,0,67,69,81,60,100,-5.58,49,7.0,17.0,-1003.0,13:58:58.147434,192.168.0.114
2505,-1,-100,-100,-100,"0,0,0",0,-1,0,0,0,0,67,69,82,60,100,-5.62,50,18.0,32.0,-986.0,13:58:58.249570,192.168.0.114
2510,-1,-100,-100,-100,"0,0,0",0,0,1,0,0,0,67,69,82,60,100,-5.64,50,-14.0,1.0,-985.0,13:58:58.351605,192.168.0.114
2515,-1,-100,-100,-100,"0,0,0",0,0,1,0,0,0,67,69,82,60,100,-5.58,50,13.0,30.0,-992.0,13:58:58.453513,192.168.0.114
2520,-1,-100,-100,-100,"0,0,0",0,-1,1,0,0,0,67,69,82,60,100,-5.52,50,-2.0,29.0,-988.0,13:58:58.555090,192.168.0.114
2525,-1,-100,-100,-100,"0,0,0",0,-2,1,0,0,0,67,69,83,60,100,-5.65,50,-10.0,37.0,-989.0,13:58:58.657424,192.168.0.114
2530,-1,-100,-100,-100,"0,0,0",0,-1,1,0,0,0,67,69,82,60,100,-5.62,50,10.0,24.0,-960.0,13:58:58.760619,192.168.0.114
2535,-1,-100,-100,-100,"0,0,0",0,-1,1,0,0,0,67,69,83,60,100,-5.67,50,18.0,74.0,-999.0,13:58:58.861511,192.168.0.114
2540,-1,-100,-100,-100,"0,0,0",0,-1,1,0,0,0,67,69,83,60,100,-5.69,50,21.0,55.0,-991.0,13:58:58.963687,192.168.0.114
2546,-1,-100,-100,-100,"0,0,0",1,-2,1,0,0,0,67,69,83,60,100,-5.49,50,-25.0,53.0,-991.0,13:58:59.066563,192.168.0.114
2551,-1,-100,-100,-100,"0,0,0",1,-3,1,0,0,0,67,69,83,60,100,-5.54,50,-20.0,42.0,-968.0,13:58:59.167543,192.168.0.114
2556,-1,-100,-100,-100,"0,0,0",0,-2,1,0,0,0,67,69,82,60,100,-5.48,51,-14.0,60.0,-996.0,13:58:59.269478,192.168.0.114
2561,-1,-100,-100,-100,"0,0,0",0,-2,1,0,0,0,67,69,82,60,100,-5.6,51,25.0,30.0,-997.0,13:58:59.371482,192.168.0.114
2566,-1,-100,-100,-100,"0,0,0",0,-3,1,0,0,0,67,70,82,60,100,-5.56,51,18.0,21.0,-994.0,13:58:59.473660,192.168.0.114
2571,-1,-100,-100,-100,"0,0,0",0,-2,1,0,0,0,67,70,81,60,100,-5.51,51,10.0,40.0,-1039.0,13:58:59.575310,192.168.0.114
