,mid,x,y,z,mpry,pitch,roll,yaw,vgx,vgy,vgz,templ,temph,tof,h,bat,baro,time,agx,agy,agz,timestamp,address
0,-1,-100,-100,-100,"0,0,0",0,0,0,0,0,0,69,73,10,0,90,9.12,0,-5.0,4.0,-999.0,16:41:23.800376,192.168.0.113
4,-1,-100,-100,-100,"0,0,0",0,0,0,0,0,0,69,73,10,0,90,9.09,0,-3.0,5.0,-1000.0,16:41:23.854092,192.168.0.113
9,-1,-100,-100,-100,"0,0,0",0,0,0,0,0,0,69,73,10,0,90,9.12,0,-4.0,5.0,-1002.0,16:41:23.953593,192.168.0.113
14,-1,-100,-100,-100,"0,0,0",0,0,0,0,0,0,69,73,10,0,90,9.13,0,-4.0,6.0,-1001.0,16:41:24.064325,192.168.0.113
19,-1,-100,-100,-100,"0,0,0",0,0,0,0,0,0,69,73,10,0,90,9.18,0,-4.0,5.0,-999.0,16:41:24.157341,192.168.0.113
24,-1,-100,-100,-100,"0,0,0",0,0,0,0,0,0,69,73,10,0,90,9.07,0,-3.0,5.0,-1001.0,16:41:24.260339,192.168.0.113
29,-1,-100,-100,-100,"0,0,0",0,0,0,0,0,0,71,74,10,0,90,9.1,0,-4.0,5.0,-998.0,16:41:24.361348,192.168.0.113
34,-1,-100,-100,-100,"0,0,0",0,0,0,0,0,0,71,74,10,0,90,9.09,0,-4.0,3.0,-998.0,16:41:24.463384,192.168.0.113
39,-1,-100,-100,-100,"0,0,0",0,0,0,0,0,0,71,74,10,0,90,9.1,0,-4.0,5.0,-999.0,16:41:24.565364,192.168.0.113
44,-1,-100,-100,-100,"0,0,0",0,0,0,0,0,0,71,74,10,0,90,9.09,0,-4.0,5.0,-1000.0,16:41:24.727332,192.168.0.113
49,-1,-100,-100,-100,"0,0,0",0,0,0,0,0,0,71,74,10,0,90,9.13,0,-4.0,5.0,-998.0,16:41:24.790137,192.168.0.113
54,-1,-100,-100,-100,"0,0,0",0,0,0,0,0,0,71,74,10,0,90,9.09,0,-5.0,6.0,-999.0,16:41:24.875848,192.168.0.113
60,-1,-100,-100,-100,"0,0,0",0,0,0,0,0,0,71,74,10,0,90,9.16,0,-4.0,4.0,-1002.0,16:41:24.974472,192.168.0.113
64,-1,-100,-100,-100,"0,0,0",0,0,0,0,0,0,71,74,10,0,90,9.09,0,-5.0,6.0,-999.0,16:41:25.085151,192.168.0.113
70,-1,-100,-100,-100,"0,0,0",0,0,0,0,0,0,71,74,10,0,90,9.06,0,-5.0,5.0,-1001.0,16:41:25.181534,192.168.0.113
75,-1,-100,-100,-100,"0,0,0",0,0,0,0,0,0,71,74,10,0,90,9.08,0,-5.0,4.0,-1001.0,16:41:25.280470,192.168.0.113
80,-1,-100,-100,-100,"0,0,0",0,0,0,0,0,0,73,76,10,0,90,9.06,0,-6.0,5.0,-998.0,16:41:25.382489,192.168.0.113
85,-1,-100,-100,-100,"0,0,0",0,0,0,0,0,0,73,76,10,0,90,9.1,0,-4.0,4.0,-1001.0,16:41:25.484214,192.168.0.113
90,-1,-100,-100,-100,"0,0,0",0,0,0,0,0,0,73,76,10,0,90,9.12,0,-4.0,5.0,-1000.0,16:41:25.586256,192.168.0.113
95,-1,-100,-100,-100,"0,0,0",0,0,0,0,0,0,73,76,10,0,90,9.11,0,-5.0,5.0,-998.0,16:41:25.688327,192.168.0.113
100,-1,-100,-100,-100,"0,0,0",0,0,0,0,0,0,73,76,10,0,90,9.08,0,-4.0,3.0,-999.0,16:41:25.790374,192.168.0.113
105,-1,-100,-100,-100,"0,0,0",0,0,0,0,0,0,73,76,10,0,90,9.08,0,-4.0,5.0,-1002.0,16:41:25.892487,192.168.0.113
110,-1,-100,-100,-100,"0,0,0",0,0,0,0,0,0,73,76,10,0,90,9.08,0,-4.0,2.0,-1000.0,16:41:25.995188,192.168.0.113
115,-1,-100,-100,-100,"0,0,0",0,0,0,0,0,0,73,76,10,0,90,9.06,0,-4.0,5.0,-997.0,16:41:26.100595,192.168.0.113
120,-1,-100,-100,-100,"0,0,0",0,0,0,0,0,0,73,76,10,0,90,9.05,0,-4.0,4.0,-1000.0,16:41:26.204474,192.168.0.113
125,-1,-100,-100,-100,"0,0,0",0,0,0,0,0,0,73,76,10,0,90,9.08,0,-4.0,5.0,-1001.0,16:41:26.302357,192.168.0.113
130,-1,-100,-100,-100,"0,0,0",0,0,0,0,0,0,74,77,10,0,90,9.11,0,-4.0,5.0,-1000.0,16:41:26.412291,192.168.0.113
135,-1,-100,-100,-100,"0,0,0",0,0,0,0,0,0,74,77,10,0,90,9.15,0,-4.0,5.0,-999.0,16:41:26.506387,192.168.0.113
140,-1,-100,-100,-100,"0,0,0",0,0,0,0,0,0,74,77,10,0,90,9.13,0,-4.0,5.0,-998.0,16:41:26.609732,192.168.0.113
145,-1,-100,-100,-100,"0,0,0",0,0,0,0,0,0,74,77,10,0,90,9.11,0,-3.0,6.0,-1001.0,16:41:26.710708,192.168.0.113
150,-1,-100,-100,-100,"0,0,0",0,0,0,0,0,0,74,77,10,0,90,9.11,0,-5.0,4.0,-998.0,16:41:26.814212,192.168.0.113
155,-1,-100,-100,-100,"0,0,0",0,0,0,0,0,0,74,77,10,0,90,9.11,0,-5.0,4.0,-998.0,16:41:26.914623,192.168.0.113
160,-1,-100,-100,-100,"0,0,0",0,0,0,0,0,0,74,77,10,0,90,9.12,0,-3.0,5.0,-1001.0,16:41:27.019214,192.168.0.113
165,-1,-100,-100,-100,"0,0,0",0,0,0,0,0,0,74,77,10,0,90,9.14,0,-5.0,6.0,-1002.0,16:41:27.118249,192.168.0.113
169,-1,-100,-100,-100,"0,0,0",0,0,0,0,0,0,74,77,10,0,90,9.09,0,-4.0,3.0,-997.0,16:41:27.173001,192.168.0.113
174,-1,-100,-100,-100,"0,0,0",0,0,0,0,0,0,74,77,10,0,90,9.05,0,-5.0,5.0,-999.0,16:41:27.274510,192.168.0.113
178,-1,-100,-100,-100,"0,0,0",0,0,0,0,0,0,74,77,10,0,90,9.08,0,-4.0,5.0,-1000.0,16:41:27.376383,192.168.0.113
184,-1,-100,-100,-100,"0,0,0",0,0,0,0,0,0,74,77,10,0,90,9.1,0,-6.0,5.0,-999.0,16:41:27.475509,192.168.0.113
190,-1,-100,-100,-100,"0,0,0",0,0,0,0,0,0,74,77,10,0,90,9.06,0,-4.0,3.0,-1001.0,16:41:27.577921,192.168.0.113
195,-1,-100,-100,-100,"0,0,0",0,0,0,0,0,0,74,77,10,0,90,9.05,0,-3.0,5.0,-999.0,16:41:27.680876,192.168.0.113
199,-1,-100,-100,-100,"0,0,0",0,0,0,0,0,0,74,77,10,0,90,9.09,0,-4.0,5.0,-1000.0,16:41:27.782483,192.168.0.113
205,-1,-100,-100,-100,"0,0,0",0,0,0,0,0,0,74,77,10,0,90,9.11,0,-4.0,6.0,-999.0,16:41:27.884525,192.168.0.113
210,-1,-100,-100,-100,"0,0,0",0,0,0,0,0,0,74,77,10,0,90,9.07,0,-5.0,5.0,-1000.0,16:41:27.986930,192.168.0.113
215,-1,-100,-100,-100,"0,0,0",0,0,0,0,0,0,74,77,10,0,90,9.09,0,-3.0,5.0,-1001.0,16:41:28.087446,192.168.0.113
218,-1,-100,-100,-100,"0,0,0",0,0,0,0,0,0,74,77,10,0,90,9.13,0,-4.0,4.0,-999.0,16:41:28.190902,192.168.0.113
225,-1,-100,-100,-100,"0,0,0",0,0,0,0,0,0,74,77,10,0,90,9.06,0,-4.0,3.0,-1000.0,16:41:28.291299,192.168.0.113
230,-1,-100,-100,-100,"0,0,0",0,0,0,0,0,0,74,77,10,0,90,9.1,0,-4.0,7.0,-998.0,16:41:28.394163,192.168.0.113
235,-1,-100,-100,-100,"0,0,0",0,0,0,0,0,0,74,77,10,0,90,9.07,0,-6.0,5.0,-1001.0,16:41:28.497392,192.168.0.113
240,-1,-100,-100,-100,"0,0,0",0,0,0,0,0,0,74,77,10,0,90,9.06,0,-4.0,5.0,-999.0,16:41:28.597568,192.168.0.113
245,-1,-100,-100,-100,"0,0,0",0,0,0,0,0,0,74,77,10,0,90,9.09,0,-4.0,4.0,-999.0,16:41:28.702424,192.168.0.113
250,-1,-100,-100,-100,"0,0,0",0,0,0,0,0,0,74,77,10,0,90,9.11,0,-6.0,5.0,-997.0,16:41:28.801541,192.168.0.113
255,-1,-100,-100,-100,"0,0,0",0,0,0,0,0,0,74,77,10,0,90,9.07,0,-5.0,4.0,-1001.0,16:41:28.914291,192.168.0.113
259,-1,-100,-100,-100,"0,0,0",0,0,0,0,0,0,74,77,10,0,90,9.07,0,-3.0,5.0,-998.0,16:41:29.012079,192.168.0.113
265,-1,-100,-100,-100,"0,0,0",0,0,0,0,0,0,74,77,10,0,90,9.07,0,-4.0,4.0,-1000.0,16:41:29.113990,192.168.0.113
269,-1,-100,-100,-100,"0,0,0",0,0,0,0,0,0,74,77,10,0,90,9.13,0,-4.0,4.0,-999.0,16:41:29.210597,192.168.0.113
275,-1,-100,-100,-100,"0,0,0",0,0,0,0,0,0,74,77,10,0,90,9.07,0,-4.0,4.0,-999.0,16:41:29.311048,192.168.0.113
280,-1,-100,-100,-100,"0,0,0",0,0,0,0,0,0,75,78,10,0,90,9.04,0,-5.0,5.0,-999.0,16:41:29.417447,192.168.0.113
285,-1,-100,-100,-100,"0,0,0",0,0,0,0,0,0,75,78,10,0,90,9.04,0,-4.0,5.0,-1001.0,16:41:29.522891,192.168.0.113
290,-1,-100,-100,-100,"0,0,0",0,0,0,0,0,0,75,78,10,0,90,9.13,0,-4.0,6.0,-999.0,16:41:29.617093,192.168.0.113
295,-1,-100,-100,-100,"0,0,0",0,0,0,0,0,0,75,78,10,0,90,9.08,0,-5.0,7.0,-998.0,16:41:29.719309,192.168.0.113
300,-1,-100,-100,-100,"0,0,0",0,0,0,0,0,0,75,78,10,0,90,9.13,0,-5.0,5.0,-1001.0,16:41:29.821510,192.168.0.113
305,-1,-100,-100,-100,"0,0,0",0,0,0,0,0,0,75,78,10,0,90,9.09,0,-5.0,4.0,-1000.0,16:41:29.923308,192.168.0.113
310,-1,-100,-100,-100,"0,0,0",0,0,0,0,0,0,75,78,10,0,90,9.13,0,-4.0,4.0,-1001.0,16:41:30.025316,192.168.0.113
315,-1,-100,-100,-100,"0,0,0",0,0,0,0,0,0,75,78,10,0,90,9.15,0,-3.0,6.0,-998.0,16:41:30.127403,192.168.0.113
320,-1,-100,-100,-100,"0,0,0",0,0,0,0,0,0,75,78,10,0,90,9.07,0,-3.0,4.0,-1001.0,16:41:30.233357,192.168.0.113
325,-1,-100,-100,-100,"0,0,0",0,0,0,0,0,0,75,78,10,0,90,9.08,0,-5.0,3.0,-1001.0,16:41:30.338218,192.168.0.113
330,-1,-100,-100,-100,"0,0,0",0,0,0,0,0,0,75,79,10,0,90,9.08,0,-5.0,4.0,-1000.0,16:41:30.441783,192.168.0.113
335,-1,-100,-100,-100,"0,0,0",0,0,0,0,0,0,75,79,10,0,90,9.1,0,-5.0,5.0,-999.0,16:41:30.544639,192.168.0.113
340,-1,-100,-100,-100,"0,0,0",0,0,0,0,0,0,75,79,10,0,90,9.09,0,-5.0,6.0,-1000.0,16:41:30.637191,192.168.0.113
345,-1,-100,-100,-100,"0,0,0",0,0,0,0,0,0,75,79,10,0,90,9.12,0,-3.0,3.0,-1000.0,16:41:30.687918,192.168.0.113
350,-1,-100,-100,-100,"0,0,0",0,0,0,0,0,0,75,79,10,0,90,9.09,0,-4.0,4.0,-999.0,16:41:30.790017,192.168.0.113
355,-1,-100,-100,-100,"0,0,0",0,0,0,0,0,0,75,79,10,0,90,9.06,0,-5.0,6.0,-999.0,16:41:30.892002,192.168.0.113
360,-1,-100,-100,-100,"0,0,0",0,0,0,0,0,0,75,79,10,0,90,9.05,0,-4.0,4.0,-1000.0,16:41:30.993934,192.168.0.113
365,-1,-100,-100,-100,"0,0,0",0,0,0,0,0,0,75,79,10,0,90,9.04,0,-4.0,5.0,-1003.0,16:41:31.096454,192.168.0.113
370,-1,-100,-100,-100,"0,0,0",0,0,0,0,0,0,75,79,10,0,90,9.07,0,-3.0,6.0,-998.0,16:41:31.207923,192.168.0.113
375,-1,-100,-100,-100,"0,0,0",0,0,0,0,0,0,75,79,10,0,90,9.03,0,-4.0,5.0,-1000.0,16:41:31.301142,192.168.0.113
380,-1,-100,-100,-100,"0,0,0",0,0,0,0,0,0,75,78,10,0,90,9.09,0,-5.0,4.0,-998.0,16:41:31.416731,192.168.0.113
384,-1,-100,-100,-100,"0,0,0",0,0,0,0,0,0,75,78,10,0,90,9.02,0,-3.0,4.0,-999.0,16:41:31.508367,192.168.0.113
389,-1,-100,-100,-100,"0,0,0",0,0,0,0,0,0,75,78,10,0,90,9.08,0,-3.0,6.0,-1000.0,16:41:31.610487,192.168.0.113
395,-1,-100,-100,-100,"0,0,0",0,0,0,0,0,0,75,78,10,0,90,9.13,0,-5.0,5.0,-1000.0,16:41:31.709002,192.168.0.113
400,-1,-100,-100,-100,"0,0,0",0,0,0,0,0,0,75,78,10,0,90,9.06,0,-3.0,4.0,-1001.0,16:41:31.810953,192.168.0.113
405,-1,-100,-100,-100,"0,0,0",0,0,0,0,0,0,75,78,10,0,90,9.04,0,-6.0,6.0,-999.0,16:41:31.912857,192.168.0.113
410,-1,-100,-100,-100,"0,0,0",0,0,0,0,0,0,75,78,10,0,90,9.07,0,-4.0,5.0,-1002.0,16:41:32.014890,192.168.0.113
415,-1,-100,-100,-100,"0,0,0",0,0,0,0,0,0,75,78,10,0,90,9.04,0,-3.0,4.0,-999.0,16:41:32.116930,192.168.0.113
420,-1,-100,-100,-100,"0,0,0",0,0,0,0,0,0,75,78,10,0,90,9.03,0,-4.0,5.0,-996.0,16:41:32.219353,192.168.0.113
425,-1,-100,-100,-100,"0,0,0",0,0,0,0,0,0,75,78,10,0,90,9.02,0,-4.0,5.0,-997.0,16:41:32.321039,192.168.0.113
430,-1,-100,-100,-100,"0,0,0",0,0,0,0,0,0,75,78,10,0,90,9.04,0,-4.0,4.0,-999.0,16:41:32.423001,192.168.0.113
435,-1,-100,-100,-100,"0,0,0",0,0,0,0,0,0,75,78,10,0,90,9.05,0,-3.0,4.0,-1000.0,16:41:32.525083,192.168.0.113
440,-1,-100,-100,-100,"0,0,0",0,0,0,0,0,0,75,78,10,0,90,9.02,0,-5.0,5.0,-997.0,16:41:32.627065,192.168.0.113
445,-1,-100,-100,-100,"0,0,0",0,0,0,0,0,0,75,78,10,0,90,9.04,0,-5.0,5.0,-1000.0,16:41:32.738155,192.168.0.113
450,-1,-100,-100,-100,"0,0,0",0,0,0,0,0,0,75,78,10,0,90,8.98,0,-4.0,5.0,-1000.0,16:41:32.831017,192.168.0.113
455,-1,-100,-100,-100,"0,0,0",0,0,0,0,0,0,75,78,10,0,90,9.02,0,-4.0,5.0,-999.0,16:41:32.933789,192.168.0.113
460,-1,-100,-100,-100,"0,0,0",0,0,0,0,0,0,75,78,10,0,90,9.06,0,-5.0,5.0,-1000.0,16:41:33.036286,192.168.0.113
465,-1,-100,-100,-100,"0,0,0",0,0,0,0,0,0,75,78,10,0,90,9.06,0,-5.0,4.0,-1001.0,16:41:33.138815,192.168.0.113
469,-1,-100,-100,-100,"0,0,0",0,0,0,0,0,0,75,78,10,0,90,9.08,0,-4.0,4.0,-1001.0,16:41:33.242625,192.168.0.113
475,-1,-100,-100,-100,"0,0,0",0,0,0,0,0,0,75,78,10,0,90,9.04,0,-4.0,5.0,-1001.0,16:41:33.340730,192.168.0.113
480,-1,-100,-100,-100,"0,0,0",0,0,0,0,0,0,76,79,10,0,90,9.04,0,-5.0,3.0,-997.0,16:41:33.443279,192.168.0.113
485,-1,-100,-100,-100,"0,0,0",0,0,0,0,0,0,76,79,10,0,90,9.03,0,-4.0,5.0,-999.0,16:41:33.544928,192.168.0.113
490,-1,-100,-100,-100,"0,0,0",0,0,0,0,0,0,76,79,10,0,90,9.04,0,-5.0,7.0,-1000.0,16:41:33.647050,192.168.0.113
495,-1,-100,-100,-100,"0,0,0",0,0,0,0,0,0,76,79,10,0,90,9.04,0,-5.0,6.0,-1001.0,16:41:33.748996,192.168.0.113
500,-1,-100,-100,-100,"0,0,0",0,0,0,0,0,0,76,79,10,0,90,8.99,0,-4.0,5.0,-1002.0,16:41:33.851175,192.168.0.113
505,-1,-100,-100,-100,"0,0,0",0,0,0,0,0,0,76,79,10,0,90,9.03,0,-4.0,6.0,-1001.0,16:41:33.953095,192.168.0.113
510,-1,-100,-100,-100,"0,0,0",0,0,0,0,0,0,76,79,10,0,90,8.99,0,-3.0,4.0,-998.0,16:41:34.003731,192.168.0.113
515,-1,-100,-100,-100,"0,0,0",0,0,0,0,0,0,76,79,10,0,90,9.06,0,-4.0,3.0,-1001.0,16:41:34.106921,192.168.0.113
520,-1,-100,-100,-100,"0,0,0",0,0,0,0,0,0,76,79,10,0,90,9.04,0,-3.0,5.0,-1000.0,16:41:34.211793,192.168.0.113
525,-1,-100,-100,-100,"0,0,0",0,0,0,0,0,0,76,79,10,0,90,9.06,0,-5.0,7.0,-999.0,16:41:34.309957,192.168.0.113
529,-1,-100,-100,-100,"0,0,0",0,0,0,0,0,0,76,79,10,0,90,9.04,0,-4.0,6.0,-999.0,16:41:34.411705,192.168.0.113
535,-1,-100,-100,-100,"0,0,0",0,0,0,0,0,0,76,79,10,0,90,9.03,0,-4.0,4.0,-999.0,16:41:34.513936,192.168.0.113
540,-1,-100,-100,-100,"0,0,0",0,0,0,0,0,0,76,79,10,0,90,9.06,0,-4.0,4.0,-998.0,16:41:34.616046,192.168.0.113
545,-1,-100,-100,-100,"0,0,0",0,0,0,0,0,0,76,79,10,0,90,9.05,0,-4.0,6.0,-1001.0,16:41:34.717685,192.168.0.113
550,-1,-100,-100,-100,"0,0,0",0,0,0,0,0,0,76,79,10,0,90,9.06,0,-5.0,6.0,-999.0,16:41:34.819894,192.168.0.113
555,-1,-100,-100,-100,"0,0,0",0,0,0,0,0,0,76,79,10,0,90,8.99,0,-5.0,6.0,-998.0,16:41:34.926054,192.168.0.113
560,-1,-100,-100,-100,"0,0,0",0,0,0,0,0,0,76,79,10,0,90,9.03,0,-5.0,4.0,-1000.0,16:41:35.023938,192.168.0.113
565,-1,-100,-100,-100,"0,0,0",0,0,0,0,0,0,76,79,10,0,90,9.02,0,-4.0,6.0,-1000.0,16:41:35.125536,192.168.0.113
570,-1,-100,-100,-100,"0,0,0",0,0,0,0,0,0,76,79,10,0,90,9.04,0,-4.0,3.0,-1001.0,16:41:35.228437,192.168.0.113
575,-1,-100,-100,-100,"0,0,0",0,0,0,0,0,0,76,79,10,0,90,9.07,0,-3.0,4.0,-998.0,16:41:35.329760,192.168.0.113
580,-1,-100,-100,-100,"0,0,0",0,0,0,0,0,0,76,79,10,0,90,9.04,0,-3.0,3.0,-1001.0,16:41:35.436361,192.168.0.113
585,-1,-100,-100,-100,"0,0,0",0,0,0,0,0,0,76,79,10,0,90,9.01,0,-4.0,4.0,-1000.0,16:41:35.538539,192.168.0.113
590,-1,-100,-100,-100,"0,0,0",0,0,0,0,0,0,76,79,10,0,90,9.05,0,-3.0,5.0,-1000.0,16:41:35.638714,192.168.0.113
595,-1,-100,-100,-100,"0,0,0",0,0,0,0,0,0,76,79,10,0,90,9.05,0,-5.0,4.0,-1002.0,16:41:35.760602,192.168.0.113
600,-1,-100,-100,-100,"0,0,0",0,0,0,0,0,0,76,79,10,0,90,8.99,0,-4.0,4.0,-1000.0,16:41:35.839715,192.168.0.113
604,-1,-100,-100,-100,"0,0,0",0,0,0,0,0,0,76,79,10,0,90,9.04,0,-6.0,3.0,-998.0,16:41:35.945514,192.168.0.113
610,-1,-100,-100,-100,"0,0,0",0,0,0,0,0,0,76,79,10,0,90,8.99,0,-4.0,6.0,-998.0,16:41:36.044377,192.168.0.113
614,-1,-100,-100,-100,"0,0,0",0,0,0,0,0,0,76,79,10,0,90,9.01,0,-3.0,4.0,-1002.0,16:41:36.148537,192.168.0.113
619,-1,-100,-100,-100,"0,0,0",0,0,0,0,0,0,76,79,10,0,90,9.0,0,-5.0,5.0,-1001.0,16:41:36.258247,192.168.0.113
625,-1,-100,-100,-100,"0,0,0",0,0,0,0,0,0,76,79,10,0,90,9.04,0,-5.0,5.0,-998.0,16:41:36.349736,192.168.0.113
630,-1,-100,-100,-100,"0,0,0",0,0,0,0,0,0,76,79,10,0,90,8.98,0,-4.0,4.0,-999.0,16:41:36.451638,192.168.0.113
635,-1,-100,-100,-100,"0,0,0",0,0,0,0,0,0,76,79,10,0,90,9.02,0,-4.0,4.0,-1000.0,16:41:36.553753,192.168.0.113
640,-1,-100,-100,-100,"0,0,0",0,0,0,0,0,0,76,79,10,0,90,9.02,0,-5.0,4.0,-998.0,16:41:36.656366,192.168.0.113
645,-1,-100,-100,-100,"0,0,0",0,0,0,0,0,0,76,79,10,0,90,8.98,0,-4.0,4.0,-998.0,16:41:36.791790,192.168.0.113
648,-1,-100,-100,-100,"0,0,0",0,0,0,0,0,0,76,79,10,0,90,8.97,0,-4.0,5.0,-1000.0,16:41:37.073372,192.168.0.113
654,-1,-100,-100,-100,"0,0,0",0,0,0,0,0,0,76,79,10,0,90,9.01,0,-4.0,5.0,-1001.0,16:41:37.326256,192.168.0.113
657,-1,-100,-100,-100,"0,0,0",0,0,0,0,0,0,76,79,10,0,90,8.99,0,-4.0,4.0,-1001.0,16:41:37.450293,192.168.0.113
661,-1,-100,-100,-100,"0,0,0",0,0,0,0,0,0,76,79,10,0,90,8.97,0,-3.0,5.0,-1000.0,16:41:37.715505,192.168.0.113
673,-1,-100,-100,-100,"0,0,0",0,0,0,0,0,0,76,79,10,0,90,9.02,0,-6.0,5.0,-1001.0,16:41:37.877555,192.168.0.113
674,-1,-100,-100,-100,"0,0,0",0,0,0,0,0,0,76,79,10,0,90,8.97,0,-3.0,4.0,-1002.0,16:41:37.885785,192.168.0.113
675,-1,-100,-100,-100,"0,0,0",0,0,0,0,0,0,76,79,10,0,90,8.98,0,-5.0,5.0,-998.0,16:41:37.900106,192.168.0.113
681,-1,-100,-100,-100,"0,0,0",0,0,0,0,0,0,76,79,10,0,90,9.02,0,-3.0,6.0,-1000.0,16:41:37.933684,192.168.0.113
682,-1,-100,-100,-100,"0,0,0",0,0,0,0,0,0,76,79,10,0,90,9.02,0,-5.0,5.0,-999.0,16:41:37.933788,192.168.0.113
683,-1,-100,-100,-100,"0,0,0",0,0,0,0,0,0,76,79,10,0,90,9.01,0,-4.0,4.0,-999.0,16:41:37.933876,192.168.0.113
687,-1,-100,-100,-100,"0,0,0",0,0,0,0,0,0,76,79,10,0,90,8.98,0,-4.0,3.0,-1000.0,16:41:38.015731,192.168.0.113
688,-1,-100,-100,-100,"0,0,0",0,0,0,0,0,0,76,79,10,0,90,9.01,0,-3.0,5.0,-998.0,16:41:38.015901,192.168.0.113
694,-1,-100,-100,-100,"0,0,0",0,0,0,0,0,0,76,79,10,0,90,9.01,0,-4.0,5.0,-999.0,16:41:38.081947,192.168.0.113
718,-1,-100,-100,-100,"0,0,0",0,0,0,0,0,0,76,79,10,0,90,9.01,0,-5.0,5.0,-1000.0,16:41:38.365962,192.168.0.113
719,-1,-100,-100,-100,"0,0,0",0,0,0,0,0,0,76,79,10,0,90,8.99,0,-5.0,4.0,-1000.0,16:41:38.378259,192.168.0.113
720,-1,-100,-100,-100,"0,0,0",0,0,0,0,0,0,76,79,10,0,90,9.01,0,-6.0,4.0,-1000.0,16:41:38.383943,192.168.0.113
727,-1,-100,-100,-100,"0,0,0",0,0,0,0,0,0,77,79,10,0,90,9.0,0,-4.0,5.0,-999.0,16:41:38.551992,192.168.0.113
729,-1,-100,-100,-100,"0,0,0",0,0,0,0,0,0,77,79,10,0,90,9.01,0,-4.0,4.0,-999.0,16:41:38.578381,192.168.0.113
734,-1,-100,-100,-100,"0,0,0",0,0,0,0,0,0,77,79,10,0,90,9.02,0,-4.0,4.0,-1000.0,16:41:38.671491,192.168.0.113
745,-1,-100,-100,-100,"0,0,0",0,0,0,0,0,0,77,79,10,0,90,9.01,0,-5.0,4.0,-1001.0,16:41:38.873583,192.168.0.113
748,-1,-100,-100,-100,"0,0,0",0,0,0,0,0,0,77,79,10,0,90,9.02,0,-5.0,5.0,-998.0,16:41:38.986777,192.168.0.113
752,-1,-100,-100,-100,"0,0,0",0,0,0,0,0,0,77,79,10,0,90,9.03,0,-3.0,4.0,-1000.0,16:41:39.070399,192.168.0.113
755,-1,-100,-100,-100,"0,0,0",0,0,0,0,0,0,77,79,10,0,90,9.03,0,-4.0,5.0,-1002.0,16:41:39.123379,192.168.0.113
763,-1,-100,-100,-100,"0,0,0",0,0,0,0,0,0,77,79,10,0,90,9.01,0,-4.0,4.0,-1000.0,16:41:39.194365,192.168.0.113
765,-1,-100,-100,-100,"0,0,0",0,0,0,0,0,0,77,79,10,0,90,9.01,0,-4.0,4.0,-1000.0,16:41:39.255490,192.168.0.113
772,-1,-100,-100,-100,"0,0,0",0,0,0,0,0,0,77,79,10,0,90,8.96,0,-6.0,5.0,-1001.0,16:41:39.437221,192.168.0.113
775,-1,-100,-100,-100,"0,0,0",0,0,0,0,0,0,77,80,10,0,90,8.99,0,-5.0,6.0,-999.0,16:41:39.479273,192.168.0.113
779,-1,-100,-100,-100,"0,0,0",0,0,0,0,0,0,77,80,10,0,90,9.0,0,-3.0,6.0,-1000.0,16:41:39.554001,192.168.0.113
784,-1,-100,-100,-100,"0,0,0",0,0,0,0,0,0,77,80,10,0,90,8.98,0,-4.0,5.0,-1000.0,16:41:39.666682,192.168.0.113
791,-1,-100,-100,-100,"0,0,0",0,0,0,0,0,0,77,80,10,0,90,8.96,0,-4.0,5.0,-998.0,16:41:39.824266,192.168.0.113
794,-1,-100,-100,-100,"0,0,0",0,0,0,0,0,0,77,80,10,0,90,8.95,0,-5.0,4.0,-1000.0,16:41:39.860975,192.168.0.113
802,-1,-100,-100,-100,"0,0,0",0,0,0,0,0,0,77,80,10,0,90,8.99,0,-5.0,5.0,-999.0,16:41:39.972981,192.168.0.113
808,-1,-100,-100,-100,"0,0,0",0,0,0,0,0,0,77,80,10,0,89,8.98,0,-5.0,4.0,-1000.0,16:41:40.087090,192.168.0.113
820,-1,-100,-100,-100,"0,0,0",0,0,0,0,0,0,77,80,10,0,89,8.97,0,-5.0,6.0,-1001.0,16:41:40.398809,192.168.0.113
821,-1,-100,-100,-100,"0,0,0",0,0,0,0,0,0,77,80,10,0,89,9.01,0,-6.0,5.0,-998.0,16:41:40.420033,192.168.0.113
822,-1,-100,-100,-100,"0,0,0",0,0,0,0,0,0,77,80,10,0,89,9.03,0,-6.0,6.0,-1000.0,16:41:40.420454,192.168.0.113
825,-1,-100,-100,-100,"0,0,0",0,0,0,0,0,0,77,80,10,0,89,9.02,0,-4.0,3.0,-1002.0,16:41:40.503591,192.168.0.113
830,-1,-100,-100,-100,"0,0,0",0,0,0,0,0,0,77,80,10,0,89,8.96,0,-5.0,4.0,-1001.0,16:41:40.593588,192.168.0.113
838,-1,-100,-100,-100,"0,0,0",0,0,0,0,0,0,77,80,10,0,89,8.96,0,-4.0,5.0,-998.0,16:41:40.697243,192.168.0.113
841,-1,-100,-100,-100,"0,0,0",0,0,0,0,0,0,77,80,10,0,89,9.03,0,-5.0,5.0,-997.0,16:41:40.748323,192.168.0.113
847,-1,-100,-100,-100,"0,0,0",0,0,0,0,0,0,77,80,10,0,89,8.99,0,-5.0,4.0,-999.0,16:41:40.848659,192.168.0.113
850,-1,-100,-100,-100,"0,0,0",0,0,0,0,0,0,77,80,10,0,89,8.98,0,-4.0,4.0,-1001.0,16:41:40.952543,192.168.0.113
858,-1,-100,-100,-100,"0,0,0",0,0,0,0,0,0,77,80,10,0,89,8.96,0,-4.0,4.0,-997.0,16:41:41.063924,192.168.0.113
861,-1,-100,-100,-100,"0,0,0",0,0,0,0,0,0,77,80,10,0,89,8.94,0,-5.0,4.0,-1001.0,16:41:41.154709,192.168.0.113
867,-1,-100,-100,-100,"0,0,0",0,0,0,0,0,0,77,80,10,0,89,8.99,0,-4.0,5.0,-999.0,16:41:41.261401,192.168.0.113
870,-1,-100,-100,-100,"0,0,0",0,0,0,0,0,0,77,80,10,0,89,8.99,0,-4.0,5.0,-999.0,16:41:41.360299,192.168.0.113
878,-1,-100,-100,-100,"0,0,0",0,0,0,0,0,0,77,80,10,0,89,8.97,0,-3.0,4.0,-998.0,16:41:41.460925,192.168.0.113
883,-1,-100,-100,-100,"0,0,0",0,0,0,0,0,0,77,80,10,0,89,8.97,0,-5.0,3.0,-999.0,16:41:41.562434,192.168.0.113
887,-1,-100,-100,-100,"0,0,0",0,0,0,0,0,0,77,80,10,0,89,8.93,0,-4.0,5.0,-1002.0,16:41:41.670002,192.168.0.113
893,-1,-100,-100,-100,"0,0,0",0,0,0,0,0,0,77,80,10,0,89,8.95,0,-6.0,4.0,-1001.0,16:41:41.776880,192.168.0.113
898,-1,-100,-100,-100,"0,0,0",0,0,0,0,0,0,77,80,10,0,89,8.98,0,-4.0,4.0,-1001.0,16:41:41.868320,192.168.0.113
902,-1,-100,-100,-100,"0,0,0",0,0,0,0,0,0,77,80,10,0,89,8.97,0,-4.0,5.0,-999.0,16:41:42.008540,192.168.0.113
909,-1,-100,-100,-100,"0,0,0",0,0,0,0,0,0,77,80,10,0,89,8.96,0,-5.0,4.0,-998.0,16:41:42.112989,192.168.0.113
912,-1,-100,-100,-100,"0,0,0",0,0,0,0,0,0,77,80,10,0,89,8.96,0,-4.0,4.0,-1000.0,16:41:42.181591,192.168.0.113
917,-1,-100,-100,-100,"0,0,0",0,0,0,0,0,0,77,80,10,0,89,8.99,0,-5.0,5.0,-997.0,16:41:42.291063,192.168.0.113
924,-1,-100,-100,-100,"0,0,0",0,0,0,0,0,0,77,80,10,0,89,8.93,0,-4.0,4.0,-999.0,16:41:42.415891,192.168.0.113
929,-1,-100,-100,-100,"0,0,0",0,0,0,0,0,0,77,80,10,0,89,8.95,0,-5.0,5.0,-997.0,16:41:42.550413,192.168.0.113
931,-1,-100,-100,-100,"0,0,0",0,0,0,0,0,0,77,80,10,0,89,8.96,0,-4.0,6.0,-998.0,16:41:42.589297,192.168.0.113
938,-1,-100,-100,-100,"0,0,0",0,0,0,0,0,0,77,80,10,0,89,8.97,0,-5.0,6.0,-1001.0,16:41:42.703323,192.168.0.113
943,-1,-100,-100,-100,"0,0,0",0,0,0,0,0,0,77,80,10,0,89,8.9,0,-3.0,4.0,-999.0,16:41:42.796518,192.168.0.113
948,-1,-100,-100,-100,"0,0,0",0,0,0,0,0,0,77,80,10,0,89,8.88,0,-3.0,5.0,-999.0,16:41:42.895789,192.168.0.113
953,-1,-100,-100,-100,"0,0,0",0,0,0,0,0,0,77,80,10,0,89,8.91,0,-5.0,5.0,-1001.0,16:41:43.000713,192.168.0.113
962,-1,-100,-100,-100,"0,0,0",0,0,0,0,0,0,77,80,10,0,89,8.89,0,-5.0,6.0,-1000.0,16:41:43.156919,192.168.0.113
963,-1,-100,-100,-100,"0,0,0",0,0,0,0,0,0,77,80,10,0,89,8.97,0,-3.0,5.0,-1000.0,16:41:43.201220,192.168.0.113
967,-1,-100,-100,-100,"0,0,0",0,0,0,0,0,0,77,80,10,0,89,8.97,0,-4.0,5.0,-999.0,16:41:43.257484,192.168.0.113
971,-1,-100,-100,-100,"0,0,0",0,0,0,0,0,0,77,80,10,0,89,8.93,0,-3.0,4.0,-998.0,16:41:43.359109,192.168.0.113
978,-1,-100,-100,-100,"0,0,0",0,0,0,0,0,0,77,80,10,0,89,8.93,0,-4.0,3.0,-996.0,16:41:43.519558,192.168.0.113
983,-1,-100,-100,-100,"0,0,0",0,0,0,0,0,0,77,80,10,0,89,8.9,0,-4.0,5.0,-1001.0,16:41:43.610066,192.168.0.113
988,-1,-100,-100,-100,"0,0,0",0,0,0,0,0,0,77,80,10,0,89,8.94,0,-4.0,4.0,-997.0,16:41:43.711260,192.168.0.113
993,-1,-100,-100,-100,"0,0,0",0,0,0,0,0,0,77,80,10,0,89,8.92,0,-4.0,6.0,-999.0,16:41:43.815539,192.168.0.113
998,-1,-100,-100,-100,"0,0,0",0,0,0,0,0,0,77,80,10,0,89,8.88,0,-5.0,4.0,-1003.0,16:41:43.864212,192.168.0.113
1002,-1,-100,-100,-100,"0,0,0",0,0,0,0,0,0,77,80,10,0,89,8.92,0,-4.0,6.0,-1002.0,16:41:43.967311,192.168.0.113
1007,-1,-100,-100,-100,"0,0,0",0,0,0,0,0,0,77,80,10,0,89,8.94,0,-4.0,6.0,-1000.0,16:41:44.077734,192.168.0.113
1012,-1,-100,-100,-100,"0,0,0",0,0,0,0,0,0,77,80,10,0,89,8.9,0,-4.0,5.0,-1002.0,16:41:44.174590,192.168.0.113
1018,-1,-100,-100,-100,"0,0,0",0,0,0,0,0,0,77,80,10,0,89,8.89,0,-6.0,5.0,-1000.0,16:41:44.282050,192.168.0.113
1023,-1,-100,-100,-100,"0,0,0",0,0,0,0,0,0,77,80,10,0,89,8.9,0,-3.0,5.0,-1000.0,16:41:44.374144,192.168.0.113
1028,-1,-100,-100,-100,"0,0,0",0,0,0,0,0,0,78,80,10,0,89,8.9,0,-3.0,6.0,-1001.0,16:41:44.477070,192.168.0.113
1033,-1,-100,-100,-100,"0,0,0",0,0,0,0,0,0,78,80,10,0,89,8.93,0,-3.0,4.0,-1001.0,16:41:44.581167,192.168.0.113
1038,-1,-100,-100,-100,"0,0,0",0,0,0,0,0,0,78,80,10,0,89,8.94,0,-4.0,8.0,-999.0,16:41:44.681911,192.168.0.113
1043,-1,-100,-100,-100,"0,0,0",0,0,0,0,0,0,78,80,10,0,89,8.95,0,-6.0,5.0,-1000.0,16:41:44.783157,192.168.0.113
1048,-1,-100,-100,-100,"0,0,0",0,0,0,0,0,0,78,80,10,0,89,8.9,0,-3.0,6.0,-1001.0,16:41:44.884343,192.168.0.113
1053,-1,-100,-100,-100,"0,0,0",0,0,0,0,0,0,78,80,10,0,89,8.91,0,-5.0,5.0,-1000.0,16:41:44.987683,192.168.0.113
1058,-1,-100,-100,-100,"0,0,0",0,0,0,0,0,0,78,80,10,0,89,8.91,0,-5.0,5.0,-1001.0,16:41:45.090071,192.168.0.113
1063,-1,-100,-100,-100,"0,0,0",0,0,0,0,0,0,78,80,10,0,89,8.85,0,-5.0,5.0,-1001.0,16:41:45.191131,192.168.0.113
1068,-1,-100,-100,-100,"0,0,0",0,0,0,0,0,0,78,80,10,0,89,8.88,0,-4.0,6.0,-1001.0,16:41:45.292274,192.168.0.113
1073,-1,-100,-100,-100,"0,0,0",0,0,0,0,0,0,78,80,10,0,89,8.93,0,-5.0,4.0,-999.0,16:41:45.407493,192.168.0.113
1078,-1,-100,-100,-100,"0,0,0",0,0,0,0,0,0,77,79,10,0,89,8.92,0,-3.0,5.0,-1000.0,16:41:45.497473,192.168.0.113
1083,-1,-100,-100,-100,"0,0,0",0,0,0,0,0,0,77,79,10,0,89,8.9,0,-5.0,5.0,-1001.0,16:41:45.614220,192.168.0.113
1088,-1,-100,-100,-100,"0,0,0",0,0,0,0,0,0,77,79,10,0,89,8.89,0,-5.0,4.0,-1001.0,16:41:45.700276,192.168.0.113
1093,-1,-100,-100,-100,"0,0,0",0,0,0,0,0,0,77,79,10,0,89,8.9,0,-4.0,3.0,-1002.0,16:41:45.814850,192.168.0.113
1098,-1,-100,-100,-100,"0,0,0",0,0,0,0,0,0,77,79,10,0,89,8.9,0,-4.0,6.0,-1000.0,16:41:45.916507,192.168.0.113
1103,-1,-100,-100,-100,"0,0,0",0,0,0,0,0,0,77,79,10,0,89,8.88,0,-5.0,7.0,-1000.0,16:41:46.010008,192.168.0.113
1108,-1,-100,-100,-100,"0,0,0",0,0,0,0,0,0,77,79,10,0,89,8.95,0,-4.0,4.0,-1001.0,16:41:46.118899,192.168.0.113
1113,-1,-100,-100,-100,"0,0,0",0,0,0,0,0,0,77,79,10,0,89,8.85,0,-4.0,5.0,-1000.0,16:41:46.209902,192.168.0.113
1118,-1,-100,-100,-100,"0,0,0",0,0,0,0,0,0,77,79,10,0,89,8.85,0,-6.0,5.0,-1001.0,16:41:46.313601,192.168.0.113
1123,-1,-100,-100,-100,"0,0,0",0,0,0,0,0,0,77,79,10,0,89,8.88,0,-3.0,5.0,-997.0,16:41:46.414743,192.168.0.113
1128,-1,-100,-100,-100,"0,0,0",0,0,0,0,0,0,77,80,10,0,89,8.87,0,-5.0,5.0,-999.0,16:41:46.518904,192.168.0.113
1133,-1,-100,-100,-100,"0,0,0",0,0,0,0,0,0,77,80,10,0,89,8.91,0,-5.0,5.0,-999.0,16:41:46.621297,192.168.0.113
1138,-1,-100,-100,-100,"0,0,0",0,0,0,0,0,0,77,80,10,0,89,8.94,0,-4.0,5.0,-1000.0,16:41:46.720069,192.168.0.113
1143,-1,-100,-100,-100,"0,0,0",0,0,0,0,0,0,77,80,10,0,89,8.92,0,-6.0,5.0,-999.0,16:41:46.822300,192.168.0.113
1148,-1,-100,-100,-100,"0,0,0",0,0,0,0,0,0,77,80,10,0,89,8.91,0,-4.0,4.0,-1000.0,16:41:46.924373,192.168.0.113
1153,-1,-100,-100,-100,"0,0,0",0,0,0,0,0,0,77,80,10,0,89,8.9,0,-5.0,4.0,-998.0,16:41:47.026247,192.168.0.113
1158,-1,-100,-100,-100,"0,0,0",0,0,0,0,0,0,77,80,10,0,89,8.9,0,-4.0,4.0,-1000.0,16:41:47.128869,192.168.0.113
1163,-1,-100,-100,-100,"0,0,0",0,0,0,0,0,0,77,80,10,0,89,8.89,0,-4.0,5.0,-1000.0,16:41:47.182025,192.168.0.113
1168,-1,-100,-100,-100,"0,0,0",0,0,0,0,0,0,77,80,10,0,89,8.89,0,-5.0,5.0,-999.0,16:41:47.282735,192.168.0.113
1172,-1,-100,-100,-100,"0,0,0",0,0,0,0,0,0,77,80,10,0,89,8.94,0,-4.0,3.0,-1000.0,16:41:47.383262,192.168.0.113
1178,-1,-100,-100,-100,"0,0,0",0,0,0,0,0,0,77,80,10,0,89,8.96,0,-5.0,6.0,-998.0,16:41:47.485763,192.168.0.113
1182,-1,-100,-100,-100,"0,0,0",0,0,0,0,0,0,77,80,10,0,89,8.9,0,-6.0,5.0,-998.0,16:41:47.587075,192.168.0.113
1187,-1,-100,-100,-100,"0,0,0",0,0,0,0,0,0,77,80,10,0,89,8.93,0,-4.0,4.0,-1000.0,16:41:47.689065,192.168.0.113
1193,-1,-100,-100,-100,"0,0,0",0,0,0,0,0,0,77,80,10,0,89,8.93,0,-5.0,6.0,-1000.0,16:41:47.792500,192.168.0.113
1198,-1,-100,-100,-100,"0,0,0",0,0,0,0,0,0,77,80,10,0,89,8.94,0,-6.0,6.0,-998.0,16:41:47.894251,192.168.0.113
1203,-1,-100,-100,-100,"0,0,0",0,0,0,0,0,0,77,80,10,0,89,8.89,0,-7.0,4.0,-999.0,16:41:48.003364,192.168.0.113
1208,-1,-100,-100,-100,"0,0,0",0,0,0,0,0,0,77,80,10,0,89,8.98,0,-4.0,3.0,-1001.0,16:41:48.098000,192.168.0.113
1213,-1,-100,-100,-100,"0,0,0",0,0,0,0,0,0,77,80,10,0,89,8.96,0,-4.0,5.0,-1000.0,16:41:48.200243,192.168.0.113
1219,-1,-100,-100,-100,"0,0,0",0,0,0,0,0,0,77,80,10,0,89,8.91,0,-6.0,4.0,-1000.0,16:41:48.323210,192.168.0.113
1223,-1,-100,-100,-100,"0,0,0",0,0,0,0,0,0,77,80,10,0,89,8.96,0,-4.0,4.0,-998.0,16:41:48.407422,192.168.0.113
1229,-1,-100,-100,-100,"0,0,0",0,0,0,0,0,0,77,81,10,0,89,8.94,0,-4.0,4.0,-1001.0,16:41:48.525891,192.168.0.113
1233,-1,-100,-100,-100,"0,0,0",0,0,0,0,0,0,77,81,10,0,89,8.9,0,-4.0,4.0,-999.0,16:41:48.614935,192.168.0.113
1238,-1,-100,-100,-100,"0,0,0",0,0,0,0,0,0,77,81,10,0,89,8.91,0,-5.0,5.0,-1001.0,16:41:48.710933,192.168.0.113
1243,-1,-100,-100,-100,"0,0,0",0,0,0,0,0,0,77,81,10,0,89,8.94,0,-5.0,4.0,-999.0,16:41:48.820340,192.168.0.113
1248,-1,-100,-100,-100,"0,0,0",0,0,0,0,0,0,77,81,10,0,89,8.93,0,-5.0,4.0,-1001.0,16:41:48.921240,192.168.0.113
1253,-1,-100,-100,-100,"0,0,0",0,0,0,0,0,0,77,81,10,0,89,8.94,0,-5.0,3.0,-999.0,16:41:49.020614,192.168.0.113
1259,-1,-100,-100,-100,"0,0,0",0,0,0,0,0,0,77,81,10,0,89,8.96,0,-4.0,6.0,-1000.0,16:41:49.158033,192.168.0.113
1263,-1,-100,-100,-100,"0,0,0",0,0,0,0,0,0,77,81,10,0,89,8.92,0,-3.0,6.0,-1000.0,16:41:49.220537,192.168.0.113
1266,-1,-100,-100,-100,"0,0,0",0,0,0,0,0,0,77,81,10,0,89,8.91,0,-5.0,5.0,-1000.0,16:41:49.323545,192.168.0.113
1273,-1,-100,-100,-100,"0,0,0",0,0,0,0,0,0,77,81,10,0,89,8.89,0,-5.0,5.0,-1002.0,16:41:49.426920,192.168.0.113
1278,-1,-100,-100,-100,"0,0,0",0,0,0,0,0,0,77,81,10,0,89,8.95,0,-5.0,5.0,-1001.0,16:41:49.530840,192.168.0.113
1285,-1,-100,-100,-100,"0,0,0",0,0,0,0,0,0,77,81,10,0,89,8.92,0,-6.0,6.0,-999.0,16:41:49.682461,192.168.0.113
1287,-1,-100,-100,-100,"0,0,0",0,0,0,0,0,0,77,81,10,0,89,8.92,0,-3.0,5.0,-1000.0,16:41:49.731525,192.168.0.113
1293,-1,-100,-100,-100,"0,0,0",0,0,0,0,0,0,77,81,10,0,89,8.94,0,-6.0,5.0,-999.0,16:41:49.833031,192.168.0.113
1298,-1,-100,-100,-100,"0,0,0",0,0,0,0,0,0,77,81,10,0,89,8.97,0,-6.0,6.0,-1000.0,16:41:49.935717,192.168.0.113
1303,-1,-100,-100,-100,"0,0,0",0,0,0,0,0,0,77,81,10,0,89,8.94,0,-3.0,5.0,-1002.0,16:41:50.039238,192.168.0.113
1308,-1,-100,-100,-100,"0,0,0",0,0,0,0,0,0,77,81,10,0,89,8.93,0,-5.0,6.0,-999.0,16:41:50.140618,192.168.0.113
1313,-1,-100,-100,-100,"0,0,0",0,0,0,0,0,0,77,81,10,0,89,8.96,0,-5.0,6.0,-1000.0,16:41:50.193359,192.168.0.113
1317,-1,-100,-100,-100,"0,0,0",0,0,0,0,0,0,77,81,10,0,89,8.92,0,-4.0,4.0,-998.0,16:41:50.292172,192.168.0.113
1323,-1,-100,-100,-100,"0,0,0",0,0,0,0,0,0,77,81,10,0,89,8.87,0,-3.0,6.0,-1002.0,16:41:50.393178,192.168.0.113
1328,-1,-100,-100,-100,"0,0,0",0,0,0,0,0,0,78,80,10,0,89,9.02,0,-4.0,6.0,-999.0,16:41:50.494882,192.168.0.113
1333,-1,-100,-100,-100,"0,0,0",0,0,0,0,0,0,78,80,10,0,89,8.97,0,-5.0,5.0,-997.0,16:41:50.597467,192.168.0.113
1338,-1,-100,-100,-100,"0,0,0",0,0,0,0,0,0,78,80,10,0,89,8.92,0,-5.0,6.0,-1001.0,16:41:50.705626,192.168.0.113
1342,-1,-100,-100,-100,"0,0,0",0,0,0,0,0,0,78,80,10,0,89,8.94,0,-4.0,5.0,-999.0,16:41:50.816081,192.168.0.113
1346,-1,-100,-100,-100,"0,0,0",0,0,0,0,0,0,78,80,10,0,89,8.93,0,-4.0,5.0,-1001.0,16:41:50.924255,192.168.0.113
1352,-1,-100,-100,-100,"0,0,0",0,0,0,0,0,0,78,80,10,0,89,8.92,0,-5.0,6.0,-999.0,16:41:51.006976,192.168.0.113
1358,-1,-100,-100,-100,"0,0,0",0,0,0,0,0,0,78,80,10,0,89,9.01,0,-4.0,6.0,-998.0,16:41:51.107568,192.168.0.113
1363,-1,-100,-100,-100,"0,0,0",0,0,0,0,0,0,78,80,10,0,89,8.95,0,-6.0,5.0,-1002.0,16:41:51.228691,192.168.0.113
1368,-1,-100,-100,-100,"0,0,0",0,0,0,0,0,0,78,80,10,0,89,8.99,0,-5.0,4.0,-998.0,16:41:51.311931,192.168.0.113
1373,-1,-100,-100,-100,"0,0,0",0,0,0,0,0,0,78,80,10,0,89,8.94,0,-4.0,4.0,-998.0,16:41:51.414491,192.168.0.113
1378,-1,-100,-100,-100,"0,0,0",0,0,0,0,0,0,78,81,10,0,89,8.89,0,-6.0,5.0,-1000.0,16:41:51.515446,192.168.0.113
1383,-1,-100,-100,-100,"0,0,0",0,0,0,0,0,0,78,81,10,0,89,8.91,0,-4.0,5.0,-999.0,16:41:51.617048,192.168.0.113
1388,-1,-100,-100,-100,"0,0,0",0,0,0,0,0,0,78,81,10,0,89,8.86,0,-4.0,5.0,-998.0,16:41:51.719209,192.168.0.113
1393,-1,-100,-100,-100,"0,0,0",0,0,0,0,0,0,78,81,10,0,89,8.86,0,-5.0,5.0,-1000.0,16:41:51.821015,192.168.0.113
1398,-1,-100,-100,-100,"0,0,0",0,0,0,0,0,0,78,81,10,0,89,8.91,0,-4.0,5.0,-1000.0,16:41:51.923208,192.168.0.113
1403,-1,-100,-100,-100,"0,0,0",0,0,0,0,0,0,78,81,10,0,89,8.93,0,-5.0,4.0,-998.0,16:41:52.024758,192.168.0.113
1408,-1,-100,-100,-100,"0,0,0",0,0,0,0,0,0,78,81,10,0,89,8.86,0,-3.0,4.0,-999.0,16:41:52.127019,192.168.0.113
1413,-1,-100,-100,-100,"0,0,0",0,0,0,0,0,0,78,81,10,0,89,8.88,0,-6.0,5.0,-999.0,16:41:52.228821,192.168.0.113
1418,-1,-100,-100,-100,"0,0,0",0,0,0,0,0,0,78,81,10,0,89,8.93,0,-4.0,6.0,-998.0,16:41:52.330924,192.168.0.113
1423,-1,-100,-100,-100,"0,0,0",0,0,0,0,0,0,78,81,10,0,89,8.93,0,-4.0,6.0,-997.0,16:41:52.433174,192.168.0.113
1428,-1,-100,-100,-100,"0,0,0",0,0,0,0,0,0,77,81,10,0,89,8.91,0,-6.0,6.0,-1000.0,16:41:52.534748,192.168.0.113
1433,-1,-100,-100,-100,"0,0,0",0,0,0,0,0,0,77,81,10,0,89,8.91,0,-4.0,4.0,-1000.0,16:41:52.636732,192.168.0.113
1438,-1,-100,-100,-100,"0,0,0",0,0,0,0,0,0,77,81,10,0,89,8.92,0,-4.0,5.0,-998.0,16:41:52.739167,192.168.0.113
1443,-1,-100,-100,-100,"0,0,0",0,0,0,0,0,0,77,81,10,0,89,8.9,0,-4.0,5.0,-998.0,16:41:52.840820,192.168.0.113
1448,-1,-100,-100,-100,"0,0,0",0,0,0,0,0,0,77,81,10,0,89,8.9,0,-6.0,4.0,-997.0,16:41:52.943086,192.168.0.113
1453,-1,-100,-100,-100,"0,0,0",0,0,0,0,0,0,77,81,10,0,89,8.89,0,-4.0,4.0,-1000.0,16:41:53.045246,192.168.0.113
1458,-1,-100,-100,-100,"0,0,0",0,0,0,0,0,0,77,81,10,0,89,8.82,0,-5.0,4.0,-1002.0,16:41:53.147033,192.168.0.113
1463,-1,-100,-100,-100,"0,0,0",0,0,0,0,0,0,77,81,10,0,89,8.9,0,-5.0,5.0,-998.0,16:41:53.248859,192.168.0.113
1468,-1,-100,-100,-100,"0,0,0",0,0,0,0,0,0,77,81,10,0,89,8.87,0,-5.0,6.0,-1000.0,16:41:53.350940,192.168.0.113
1473,-1,-100,-100,-100,"0,0,0",0,0,0,0,0,0,77,81,10,0,89,8.87,0,-5.0,4.0,-999.0,16:41:53.452711,192.168.0.113
1478,-1,-100,-100,-100,"0,0,0",0,0,0,0,0,0,78,80,10,0,89,8.9,0,-5.0,4.0,-999.0,16:41:53.554769,192.168.0.113
1483,-1,-100,-100,-100,"0,0,0",0,0,0,0,0,0,78,80,10,0,89,8.86,0,-5.0,5.0,-999.0,16:41:53.659854,192.168.0.113
1488,-1,-100,-100,-100,"0,0,0",0,0,0,0,0,0,78,80,10,0,89,8.87,0,-4.0,4.0,-999.0,16:41:53.762434,192.168.0.113
1492,-1,-100,-100,-100,"0,0,0",0,0,0,0,0,0,78,80,10,0,89,8.89,0,-4.0,5.0,-998.0,16:41:53.812062,192.168.0.113
1498,-1,-100,-100,-100,"0,0,0",0,0,0,0,0,0,78,80,10,0,89,8.9,0,-5.0,6.0,-999.0,16:41:53.913800,192.168.0.113
1503,-1,-100,-100,-100,"0,0,0",0,0,0,0,0,0,78,80,10,0,89,8.84,0,-3.0,3.0,-998.0,16:41:54.015736,192.168.0.113
1508,-1,-100,-100,-100,"0,0,0",0,0,0,0,0,0,78,80,10,0,89,8.88,0,-5.0,4.0,-1002.0,16:41:54.116761,192.168.0.113
1513,-1,-100,-100,-100,"0,0,0",0,0,0,0,0,0,78,80,10,0,89,8.86,0,-4.0,5.0,-1000.0,16:41:54.218813,192.168.0.113
1518,-1,-100,-100,-100,"0,0,0",0,0,0,0,0,0,78,80,10,0,89,8.93,0,-5.0,5.0,-1001.0,16:41:54.324028,192.168.0.113
1523,-1,-100,-100,-100,"0,0,0",0,0,0,0,0,0,78,80,10,0,89,8.9,0,-5.0,5.0,-999.0,16:41:54.422622,192.168.0.113
1528,-1,-100,-100,-100,"0,0,0",0,0,0,0,0,0,77,80,10,0,89,8.9,0,-3.0,4.0,-999.0,16:41:54.524539,192.168.0.113
1533,-1,-100,-100,-100,"0,0,0",0,0,0,0,0,0,77,80,10,0,89,8.86,0,-4.0,4.0,-998.0,16:41:54.626650,192.168.0.113
1538,-1,-100,-100,-100,"0,0,0",0,0,0,0,0,0,77,80,10,0,89,8.89,0,-5.0,6.0,-998.0,16:41:54.728659,192.168.0.113
1543,-1,-100,-100,-100,"0,0,0",0,0,0,0,0,0,77,80,10,0,89,8.88,0,-3.0,5.0,-999.0,16:41:54.830783,192.168.0.113
1548,-1,-100,-100,-100,"0,0,0",0,0,0,0,0,0,77,80,10,0,89,8.83,0,-3.0,6.0,-999.0,16:41:54.932931,192.168.0.113
1553,-1,-100,-100,-100,"0,0,0",0,0,0,0,0,0,77,80,10,0,89,8.86,0,-5.0,4.0,-999.0,16:41:55.034677,192.168.0.113
1558,-1,-100,-100,-100,"0,0,0",0,0,0,0,0,0,77,80,10,0,89,8.9,0,-3.0,4.0,-1002.0,16:41:55.137258,192.168.0.113
1563,-1,-100,-100,-100,"0,0,0",0,0,0,0,0,0,77,80,10,0,89,8.89,0,-5.0,6.0,-1000.0,16:41:55.238587,192.168.0.113
1568,-1,-100,-100,-100,"0,0,0",0,0,0,0,0,0,77,80,10,0,89,8.86,0,-4.0,6.0,-1002.0,16:41:55.344675,192.168.0.113
1573,-1,-100,-100,-100,"0,0,0",0,0,0,0,0,0,77,80,10,0,89,8.85,0,-5.0,5.0,-997.0,16:41:55.442558,192.168.0.113
1578,-1,-100,-100,-100,"0,0,0",0,0,0,0,0,0,77,81,10,0,89,8.86,0,-4.0,4.0,-1000.0,16:41:55.544864,192.168.0.113
1583,-1,-100,-100,-100,"0,0,0",0,0,0,0,0,0,77,81,10,0,89,8.85,0,-5.0,5.0,-997.0,16:41:55.646499,192.168.0.113
1588,-1,-100,-100,-100,"0,0,0",0,0,0,0,0,0,77,81,10,0,89,8.82,0,-4.0,5.0,-999.0,16:41:55.762422,192.168.0.113
1593,-1,-100,-100,-100,"0,0,0",0,0,0,0,0,0,77,81,10,0,89,8.85,0,-3.0,6.0,-999.0,16:41:55.850844,192.168.0.113
1598,-1,-100,-100,-100,"0,0,0",0,0,0,0,0,0,77,81,10,0,89,8.9,0,-5.0,6.0,-1000.0,16:41:55.952746,192.168.0.113
1603,-1,-100,-100,-100,"0,0,0",0,0,0,0,0,0,77,81,10,0,89,8.89,0,-4.0,6.0,-1001.0,16:41:56.054812,192.168.0.113
1608,-1,-100,-100,-100,"0,0,0",0,0,0,0,0,0,77,81,10,0,89,8.87,0,-5.0,6.0,-1001.0,16:41:56.160362,192.168.0.113
1613,-1,-100,-100,-100,"0,0,0",0,0,0,0,0,0,77,81,10,0,89,8.86,0,-4.0,5.0,-997.0,16:41:56.258561,192.168.0.113
1618,-1,-100,-100,-100,"0,0,0",0,0,0,0,0,0,77,81,10,0,89,8.87,0,-2.0,5.0,-997.0,16:41:56.360605,192.168.0.113
1623,-1,-100,-100,-100,"0,0,0",0,0,0,0,0,0,77,81,10,0,89,8.84,0,-5.0,5.0,-1001.0,16:41:56.463428,192.168.0.113
1628,-1,-100,-100,-100,"0,0,0",0,0,0,0,0,0,77,80,10,0,89,8.83,0,-3.0,4.0,-999.0,16:41:56.566237,192.168.0.113
1633,-1,-100,-100,-100,"0,0,0",0,0,0,0,0,0,77,80,10,0,89,8.9,0,-4.0,6.0,-1001.0,16:41:56.666720,192.168.0.113
1638,-1,-100,-100,-100,"0,0,0",0,0,0,0,0,0,77,80,10,0,89,8.88,0,-2.0,4.0,-1001.0,16:41:56.768665,192.168.0.113
1643,-1,-100,-100,-100,"0,0,0",0,0,0,0,0,0,77,80,10,0,89,8.88,0,2.0,-1.0,-1002.0,16:41:56.871195,192.168.0.113
1648,-1,-100,-100,-100,"0,0,0",0,0,0,0,0,0,77,80,10,0,89,8.88,0,-28.0,-18.0,-1002.0,16:41:56.972700,192.168.0.113
1653,-1,-100,-100,-100,"0,0,0",0,0,0,0,0,0,77,80,10,10,89,8.88,0,44.0,-4.0,-971.0,16:41:57.078661,192.168.0.113
1658,-1,-100,-100,-100,"0,0,0",0,0,0,0,0,1,77,80,10,10,89,8.88,0,27.0,7.0,-1117.0,16:41:57.176904,192.168.0.113
1663,-1,-100,-100,-100,"0,0,0",0,0,0,0,0,3,77,80,10,10,89,8.88,0,44.0,3.0,-1324.0,16:41:57.227548,192.168.0.113
1668,-1,-100,-100,-100,"0,0,0",0,0,0,0,0,7,77,80,10,20,89,8.88,0,21.0,10.0,-1291.0,16:41:57.329373,192.168.0.113
1673,-1,-100,-100,-100,"0,0,0",1,0,0,0,0,8,77,80,16,30,89,8.88,0,-18.0,8.0,-1095.0,16:41:57.431414,192.168.0.113
1678,-1,-100,-100,-100,"0,0,0",0,0,0,0,0,9,77,80,24,30,89,9.19,0,-2.0,8.0,-981.0,16:41:57.533190,192.168.0.113
1683,-1,-100,-100,-100,"0,0,0",0,0,0,0,0,8,77,80,31,40,89,9.25,0,0.0,7.0,-943.0,16:41:57.636463,192.168.0.113
1688,-1,-100,-100,-100,"0,0,0",0,0,0,0,0,8,77,80,36,50,89,9.36,1,-14.0,37.0,-909.0,16:41:57.738630,192.168.0.113
1693,-1,-100,-100,-100,"0,0,0",0,0,0,0,0,6,77,80,42,60,89,9.45,1,-27.0,3.0,-849.0,16:41:57.839793,192.168.0.113
1698,-1,-100,-100,-100,"0,0,0",0,0,0,0,0,5,77,80,47,70,89,9.48,1,-25.0,36.0,-892.0,16:41:57.941978,192.168.0.113
1703,-1,-100,-100,-100,"0,0,0",0,0,0,0,0,4,77,80,50,70,89,9.47,1,-48.0,9.0,-853.0,16:41:58.044532,192.168.0.113
1708,-1,-100,-100,-100,"0,0,0",0,0,0,0,0,2,77,80,51,70,89,9.47,1,9.0,3.0,-852.0,16:41:58.150480,192.168.0.113
1713,-1,-100,-100,-100,"0,0,0",0,0,0,0,0,1,77,80,51,80,89,9.48,1,-11.0,10.0,-887.0,16:41:58.247360,192.168.0.113
1718,-1,-100,-100,-100,"0,0,0",0,0,0,0,0,0,77,80,50,80,89,9.45,1,-29.0,39.0,-931.0,16:41:58.349692,192.168.0.113
1723,-1,-100,-100,-100,"0,0,0",0,0,0,0,0,0,77,80,49,80,89,9.43,1,11.0,-5.0,-938.0,16:41:58.451857,192.168.0.113
1728,-1,-100,-100,-100,"0,0,0",0,0,0,0,0,0,77,81,47,80,89,9.47,1,23.0,-12.0,-936.0,16:41:58.553402,192.168.0.113
1733,-1,-100,-100,-100,"0,0,0",0,0,0,0,0,0,77,81,44,80,89,9.43,1,10.0,0.0,-942.0,16:41:58.655602,192.168.0.113
1738,-1,-100,-100,-100,"0,0,0",0,0,0,0,0,0,77,81,42,70,89,9.4,2,11.0,9.0,-983.0,16:41:58.757389,192.168.0.113
1743,-1,-100,-100,-100,"0,0,0",0,0,0,0,0,0,77,81,40,70,89,9.36,2,-6.0,21.0,-1000.0,16:41:58.859506,192.168.0.113
1748,-1,-100,-100,-100,"0,0,0",0,0,0,0,0,0,77,81,37,70,89,9.39,2,2.0,0.0,-1019.0,16:41:58.961467,192.168.0.113
1753,-1,-100,-100,-100,"0,0,0",0,0,0,0,0,0,77,81,36,70,88,9.37,2,16.0,18.0,-1021.0,16:41:59.063631,192.168.0.113
1758,-1,-100,-100,-100,"0,0,0",0,0,0,0,0,0,77,81,34,70,88,9.44,2,30.0,-14.0,-1045.0,16:41:59.166516,192.168.0.113
1763,-1,-100,-100,-100,"0,0,0",1,0,0,0,0,0,77,81,32,70,88,9.44,2,32.0,10.0,-1046.0,16:41:59.268516,192.168.0.113
1768,-1,-100,-100,-100,"0,0,0",1,-1,0,0,0,0,77,81,31,70,88,9.2,2,18.0,19.0,-1020.0,16:41:59.370390,192.168.0.113
1773,-1,-100,-100,-100,"0,0,0",0,0,0,0,0,0,77,81,30,70,88,9.32,2,35.0,1.0,-1028.0,16:41:59.472681,192.168.0.113
1778,-1,-100,-100,-100,"0,0,0",1,0,0,0,0,0,77,81,28,60,88,9.39,2,8.0,8.0,-1038.0,16:41:59.574156,192.168.0.113
1783,-1,-100,-100,-100,"0,0,0",0,0,0,0,0,0,77,81,28,60,88,9.52,2,12.0,3.0,-1039.0,16:41:59.676367,192.168.0.113
1788,-1,-100,-100,-100,"0,0,0",0,0,0,0,0,1,77,81,28,60,88,9.47,3,-18.0,13.0,-979.0,16:41:59.778326,192.168.0.113
1793,-1,-100,-100,-100,"0,0,0",0,0,0,0,0,1,77,81,27,60,88,9.16,3,18.0,26.0,-1012.0,16:41:59.880619,192.168.0.113
1798,-1,-100,-100,-100,"0,0,0",0,-1,0,0,0,1,77,81,27,60,88,9.34,3,30.0,8.0,-1000.0,16:41:59.982233,192.168.0.113
1803,-1,-100,-100,-100,"0,0,0",0,-1,0,0,0,0,77,81,27,60,88,9.3,3,6.0,12.0,-1048.0,16:42:00.084466,192.168.0.113
1808,-1,-100,-100,-100,"0,0,0",0,-1,0,0,0,1,77,81,28,60,88,9.29,3,21.0,-12.0,-1041.0,16:42:00.186843,192.168.0.113
1813,-1,-100,-100,-100,"0,0,0",0,-1,0,0,0,1,77,81,29,50,88,9.32,3,0.0,-6.0,-1050.0,16:42:00.288251,192.168.0.113
1818,-1,-100,-100,-100,"0,0,0",1,0,0,0,0,1,77,81,31,50,88,9.37,3,9.0,5.0,-1059.0,16:42:00.390376,192.168.0.113
1823,-1,-100,-100,-100,"0,0,0",1,0,0,0,0,2,77,81,33,50,88,9.38,3,27.0,0.0,-1023.0,16:42:00.492989,192.168.0.113
1828,-1,-100,-100,-100,"0,0,0",1,0,0,0,0,2,77,80,35,50,88,9.38,3,-10.0,37.0,-1016.0,16:42:00.594995,192.168.0.113
1833,-1,-100,-100,-100,"0,0,0",0,0,0,0,0,2,77,80,38,50,88,9.45,3,24.0,-13.0,-1012.0,16:42:00.705210,192.168.0.113
1839,-1,-100,-100,-100,"0,0,0",0,0,0,0,0,2,77,80,40,50,88,9.34,4,31.0,-10.0,-1032.0,16:42:00.813965,192.168.0.113
1843,-1,-100,-100,-100,"0,0,0",0,0,0,0,0,2,77,80,43,50,88,9.41,4,51.0,-14.0,-1012.0,16:42:00.905493,192.168.0.113
1848,-1,-100,-100,-100,"0,0,0",0,0,0,0,0,2,77,80,46,50,88,9.4,4,17.0,20.0,-1022.0,16:42:01.002384,192.168.0.113
1853,-1,-100,-100,-100,"0,0,0",0,0,0,0,0,2,77,80,49,50,88,9.55,4,11.0,13.0,-1031.0,16:42:01.104452,192.168.0.113
1858,-1,-100,-100,-100,"0,0,0",0,0,0,0,0,2,77,80,53,50,88,9.51,4,0.0,11.0,-1026.0,16:42:01.206483,192.168.0.113
1863,-1,-100,-100,-100,"0,0,0",0,0,0,0,0,3,77,80,57,50,88,9.62,4,5.0,10.0,-1009.0,16:42:01.308116,192.168.0.113
1867,-1,-100,-100,-100,"0,0,0",0,0,0,0,0,3,77,80,62,50,88,9.66,4,-5.0,5.0,-1018.0,16:42:01.359717,192.168.0.113
1872,-1,-100,-100,-100,"0,0,0",0,0,0,0,0,3,77,80,66,50,88,9.65,4,2.0,11.0,-1003.0,16:42:01.461467,192.168.0.113
1877,-1,-100,-100,-100,"0,0,0",0,0,0,0,0,3,77,80,70,50,88,9.73,4,15.0,5.0,-993.0,16:42:01.563277,192.168.0.113
1882,-1,-100,-100,-100,"0,0,0",0,0,0,0,0,3,77,80,75,60,88,9.78,4,7.0,3.0,-998.0,16:42:01.665512,192.168.0.113
1888,-1,-100,-100,-100,"0,0,0",0,0,0,0,0,2,77,80,81,60,88,9.82,5,13.0,0.0,-997.0,16:42:01.767268,192.168.0.113
1893,-1,-100,-100,-100,"0,0,0",0,0,0,0,0,2,77,80,85,60,88,9.82,5,7.0,7.0,-991.0,16:42:01.869202,192.168.0.113
1898,-1,-100,-100,-100,"0,0,0",0,0,0,0,0,2,77,80,89,60,88,9.91,5,10.0,-5.0,-995.0,16:42:01.971450,192.168.0.113
1903,-1,-100,-100,-100,"0,0,0",0,0,0,0,0,2,77,80,94,60,88,9.92,5,10.0,16.0,-1012.0,16:42:02.074235,192.168.0.113
1908,-1,-100,-100,-100,"0,0,0",0,0,0,0,0,2,77,80,99,60,88,9.9,5,-9.0,2.0,-997.0,16:42:02.176827,192.168.0.113
1913,-1,-100,-100,-100,"0,0,0",0,0,0,0,0,2,77,80,104,60,88,9.94,5,23.0,-15.0,-1005.0,16:42:02.278507,192.168.0.113
1918,-1,-100,-100,-100,"0,0,0",0,0,0,0,0,2,77,80,108,60,88,10.02,5,14.0,26.0,-1011.0,16:42:02.379083,192.168.0.113
1923,-1,-100,-100,-100,"0,0,0",0,0,0,0,0,2,77,80,112,60,88,10.03,5,22.0,-9.0,-1009.0,16:42:02.482011,192.168.0.113
1928,-1,-100,-100,-100,"0,0,0",0,0,0,0,0,2,77,80,120,70,88,10.13,5,30.0,-9.0,-857.0,16:42:02.585109,192.168.0.113
1933,-1,-100,-100,-100,"0,0,0",0,0,0,0,0,1,77,80,123,70,88,10.07,5,-25.0,9.0,-817.0,16:42:02.686456,192.168.0.113
1938,-1,-100,-100,-100,"0,0,0",0,0,0,0,0,0,77,80,125,70,88,10.1,6,19.0,15.0,-879.0,16:42:02.788841,192.168.0.113
1943,-1,-100,-100,-100,"0,0,0",0,0,0,0,0,-1,77,80,125,70,88,10.15,6,0.0,3.0,-903.0,16:42:02.891293,192.168.0.113
1948,-1,-100,-100,-100,"0,0,0",0,0,0,0,0,-2,77,80,124,70,88,10.07,6,3.0,-7.0,-918.0,16:42:02.993515,192.168.0.113
1953,-1,-100,-100,-100,"0,0,0",0,0,0,0,0,-3,77,80,123,70,88,10.1,6,-4.0,21.0,-960.0,16:42:03.096632,192.168.0.113
1958,-1,-100,-100,-100,"0,0,0",0,0,0,0,0,-3,77,80,121,70,88,10.12,6,-8.0,21.0,-974.0,16:42:03.195631,192.168.0.113
1963,-1,-100,-100,-100,"0,0,0",0,0,0,0,0,-3,77,80,118,70,88,10.07,6,-7.0,22.0,-995.0,16:42:03.306091,192.168.0.113
1968,-1,-100,-100,-100,"0,0,0",0,0,0,0,0,-3,77,80,116,70,88,10.05,6,-4.0,8.0,-1003.0,16:42:03.399354,192.168.0.113
1973,-1,-100,-100,-100,"0,0,0",0,0,0,0,0,-3,77,80,114,60,88,10.09,6,14.0,-5.0,-1003.0,16:42:03.502713,192.168.0.113
1978,-1,-100,-100,-100,"0,0,0",0,0,0,0,0,-3,77,80,112,60,88,10.03,6,-31.0,0.0,-1001.0,16:42:03.603088,192.168.0.113
1983,-1,-100,-100,-100,"0,0,0",0,0,0,0,0,-2,77,80,109,60,88,9.96,6,18.0,-8.0,-1012.0,16:42:03.705054,192.168.0.113
1988,-1,-100,-100,-100,"0,0,0",0,0,0,0,0,-2,77,80,107,60,88,10.0,7,8.0,3.0,-1088.0,16:42:03.807246,192.168.0.113
1993,-1,-100,-100,-100,"0,0,0",0,0,0,0,0,-1,77,80,106,60,88,9.92,7,12.0,0.0,-1040.0,16:42:03.909235,192.168.0.113
1998,-1,-100,-100,-100,"0,0,0",0,0,0,0,0,-1,77,80,105,60,88,9.85,7,5.0,13.0,-1037.0,16:42:04.011183,192.168.0.113
2003,-1,-100,-100,-100,"0,0,0",0,0,0,0,0,-1,77,80,105,50,88,9.87,7,-6.0,14.0,-1007.0,16:42:04.113129,192.168.0.113
2008,-1,-100,-100,-100,"0,0,0",0,0,0,0,0,0,77,80,105,50,88,9.92,7,3.0,1.0,-988.0,16:42:04.215385,192.168.0.113
2013,-1,-100,-100,-100,"0,0,0",0,0,0,0,0,0,77,80,104,50,88,9.98,7,13.0,-16.0,-1007.0,16:42:04.316981,192.168.0.113
2018,-1,-100,-100,-100,"0,0,0",0,0,0,0,0,0,77,80,105,50,88,9.92,7,2.0,9.0,-1024.0,16:42:04.419185,192.168.0.113
2023,-1,-100,-100,-100,"0,0,0",0,0,0,0,0,0,77,80,105,60,88,9.95,7,2.0,3.0,-1004.0,16:42:04.522432,192.168.0.113
2028,-1,-100,-100,-100,"0,0,0",0,0,0,0,0,0,77,80,105,60,88,10.02,7,14.0,-9.0,-1003.0,16:42:04.623285,192.168.0.113
2033,-1,-100,-100,-100,"0,0,0",0,0,0,0,0,0,77,80,106,60,88,10.01,7,11.0,0.0,-1004.0,16:42:04.725177,192.168.0.113
2038,-1,-100,-100,-100,"0,0,0",0,0,0,0,0,0,77,80,106,60,88,9.96,8,-15.0,27.0,-1009.0,16:42:04.827151,192.168.0.113
2043,-1,-100,-100,-100,"0,0,0",0,0,0,0,0,0,77,80,106,60,88,10.0,8,-2.0,-8.0,-994.0,16:42:04.932966,192.168.0.113
2047,-1,-100,-100,-100,"0,0,0",0,0,0,0,0,0,77,80,106,60,88,10.03,8,9.0,7.0,-992.0,16:42:04.980234,192.168.0.113
2052,-1,-100,-100,-100,"0,0,0",0,0,0,0,0,0,77,80,106,60,88,9.93,8,11.0,-1.0,-1021.0,16:42:05.082815,192.168.0.113
2058,-1,-100,-100,-100,"0,0,0",0,0,0,0,0,0,77,80,105,60,88,9.97,8,-4.0,0.0,-1003.0,16:42:05.184067,192.168.0.113
2063,-1,-100,-100,-100,"0,0,0",0,0,0,0,0,0,77,80,105,60,88,9.94,8,-10.0,-9.0,-995.0,16:42:05.285974,192.168.0.113
2067,-1,-100,-100,-100,"0,0,0",0,0,0,0,0,0,77,80,105,60,88,9.98,8,13.0,-2.0,-1006.0,16:42:05.388260,192.168.0.113
2073,-1,-100,-100,-100,"0,0,0",0,0,0,0,0,0,77,80,105,60,88,10.02,8,14.0,1.0,-1015.0,16:42:05.504833,192.168.0.113
2078,-1,-100,-100,-100,"0,0,0",0,0,0,0,0,0,76,79,105,60,88,9.95,8,0.0,-2.0,-1003.0,16:42:05.592017,192.168.0.113
2083,-1,-100,-100,-100,"0,0,0",0,0,0,0,0,0,76,79,104,60,88,9.95,8,5.0,-6.0,-999.0,16:42:05.695330,192.168.0.113
2088,-1,-100,-100,-100,"0,0,0",0,0,0,0,0,0,76,79,105,60,88,9.98,9,-6.0,11.0,-1012.0,16:42:05.846836,192.168.0.113
2093,-1,-100,-100,-100,"0,0,0",0,0,0,0,0,0,76,79,105,60,88,9.94,9,-2.0,-2.0,-1006.0,16:42:05.980577,192.168.0.113
2098,-1,-100,-100,-100,"0,0,0",0,0,0,0,0,0,76,79,105,60,88,9.91,9,13.0,7.0,-1009.0,16:42:06.055848,192.168.0.113
2103,-1,-100,-100,-100,"0,0,0",0,0,0,0,0,0,76,79,105,60,88,9.95,9,-7.0,12.0,-1014.0,16:42:06.280882,192.168.0.113
2108,-1,-100,-100,-100,"0,0,0",0,0,0,0,0,0,76,79,105,60,88,9.96,9,-7.0,-7.0,-1011.0,16:42:06.281264,192.168.0.113
2113,-1,-100,-100,-100,"0,0,0",0,0,0,0,0,0,76,79,104,60,88,9.98,9,1.0,-14.0,-986.0,16:42:06.347946,192.168.0.113
2118,-1,-100,-100,-100,"0,0,0",0,0,0,0,0,0,76,79,104,60,88,9.99,9,1.0,-14.0,-992.0,16:42:06.482483,192.168.0.113
2123,-1,-100,-100,-100,"0,0,0",0,0,0,0,0,0,76,79,104,60,88,9.92,9,14.0,-4.0,-1015.0,16:42:06.712931,192.168.0.113
2128,-1,-100,-100,-100,"0,0,0",0,0,0,0,0,0,77,79,103,60,88,9.87,9,2.0,7.0,-998.0,16:42:06.733865,192.168.0.113
2133,-1,-100,-100,-100,"0,0,0",0,0,0,0,0,0,77,79,103,60,88,9.89,9,-11.0,6.0,-990.0,16:42:06.734077,192.168.0.113
2138,-1,-100,-100,-100,"0,0,0",0,0,0,0,0,0,77,79,103,60,88,9.89,10,-7.0,30.0,-1010.0,16:42:06.947588,192.168.0.113
2143,-1,-100,-100,-100,"0,0,0",0,0,0,0,0,0,77,79,103,50,88,9.94,10,2.0,0.0,-1001.0,16:42:06.948064,192.168.0.113
2148,-1,-100,-100,-100,"0,0,0",0,0,0,0,0,0,77,79,103,50,88,9.85,10,-6.0,4.0,-1002.0,16:42:07.024334,192.168.0.113
2153,-1,-100,-100,-100,"0,0,0",0,0,0,0,0,0,77,79,103,50,88,9.86,10,-9.0,4.0,-994.0,16:42:07.160756,192.168.0.113
2158,-1,-100,-100,-100,"0,0,0",0,0,0,0,0,0,77,79,103,50,88,9.88,10,0.0,0.0,-993.0,16:42:07.227758,192.168.0.113
2163,-1,-100,-100,-100,"0,0,0",0,0,0,0,0,0,77,79,104,50,88,9.93,10,-12.0,0.0,-1005.0,16:42:07.334563,192.168.0.113
2168,-1,-100,-100,-100,"0,0,0",0,0,0,0,0,0,77,79,102,50,88,9.9,10,-7.0,11.0,-989.0,16:42:07.437844,192.168.0.113
2173,-1,-100,-100,-100,"0,0,0",0,0,0,0,0,0,77,79,103,50,88,9.91,10,-8.0,-7.0,-991.0,16:42:07.530682,192.168.0.113
2178,-1,-100,-100,-100,"0,0,0",0,0,0,0,0,0,77,79,104,50,88,9.91,10,-10.0,2.0,-1009.0,16:42:07.658889,192.168.0.113
2183,-1,-100,-100,-100,"0,0,0",0,0,0,0,0,0,77,79,103,50,88,9.94,10,0.0,-12.0,-989.0,16:42:07.747398,192.168.0.113
2188,-1,-100,-100,-100,"0,0,0",0,0,0,0,0,0,77,79,103,50,88,9.85,11,-17.0,18.0,-992.0,16:42:07.856431,192.168.0.113
2193,-1,-100,-100,-100,"0,0,0",0,0,0,0,0,0,77,79,103,50,88,9.97,11,-36.0,-4.0,-1006.0,16:42:08.348097,192.168.0.113
2197,-1,-100,-100,-100,"0,0,0",0,0,0,0,0,0,77,79,102,50,88,9.92,11,9.0,15.0,-1008.0,16:42:08.373946,192.168.0.113
2202,-1,-100,-100,-100,"0,0,0",0,0,0,0,0,0,77,79,103,50,88,9.93,11,0.0,5.0,-987.0,16:42:08.374224,192.168.0.113
2207,-1,-100,-100,-100,"0,0,0",0,0,0,0,0,0,77,79,102,50,88,9.94,11,0.0,-6.0,-992.0,16:42:08.374541,192.168.0.113
2212,-1,-100,-100,-100,"0,0,0",0,0,0,0,0,0,77,79,102,50,88,9.91,11,10.0,4.0,-995.0,16:42:08.374852,192.168.0.113
2217,-1,-100,-100,-100,"0,0,0",0,0,0,0,0,0,77,79,102,50,88,9.97,11,-9.0,10.0,-995.0,16:42:08.409522,192.168.0.113
2222,-1,-100,-100,-100,"0,0,0",0,0,0,0,0,0,77,79,102,50,88,9.89,11,-2.0,-9.0,-981.0,16:42:08.506811,192.168.0.113
2228,-1,-100,-100,-100,"0,0,0",0,0,0,0,0,0,76,79,102,50,88,9.89,11,5.0,2.0,-1000.0,16:42:08.665916,192.168.0.113
2232,-1,-100,-100,-100,"0,0,0",0,0,0,0,0,0,76,79,102,50,88,9.85,12,-2.0,3.0,-1009.0,16:42:08.707013,192.168.0.113
2237,-1,-100,-100,-100,"0,0,0",0,0,0,0,0,0,76,79,102,50,88,9.94,12,-2.0,-12.0,-994.0,16:42:08.874110,192.168.0.113
2243,-1,-100,-100,-100,"0,0,0",0,0,0,0,0,0,76,79,101,50,88,9.93,12,-7.0,-6.0,-988.0,16:42:09.054545,192.168.0.113
2248,-1,-100,-100,-100,"0,0,0",0,0,0,0,0,0,76,79,102,50,88,9.94,12,-6.0,5.0,-999.0,16:42:09.081392,192.168.0.113
2253,-1,-100,-100,-100,"0,0,0",0,0,0,0,0,0,76,79,101,50,88,9.85,12,-1.0,3.0,-1000.0,16:42:09.137859,192.168.0.113
2258,-1,-100,-100,-100,"0,0,0",0,0,0,0,0,0,76,79,101,50,88,9.94,12,-22.0,0.0,-1000.0,16:42:09.215090,192.168.0.113
2263,-1,-100,-100,-100,"0,0,0",0,0,0,0,0,0,76,79,100,50,88,9.94,12,-2.0,13.0,-1006.0,16:42:09.353656,192.168.0.113
2268,-1,-100,-100,-100,"0,0,0",1,0,0,0,0,0,76,79,101,50,88,9.89,12,-8.0,12.0,-1011.0,16:42:09.453461,192.168.0.113
2273,-1,-100,-100,-100,"0,0,0",1,0,0,0,0,0,76,79,101,50,88,9.91,12,-5.0,15.0,-1014.0,16:42:09.529701,192.168.0.113
2278,-1,-100,-100,-100,"0,0,0",0,0,0,0,0,0,76,78,100,50,88,9.88,12,10.0,-10.0,-992.0,16:42:09.622829,192.168.0.113
2283,-1,-100,-100,-100,"0,0,0",0,0,0,0,0,0,76,78,101,50,88,9.84,13,13.0,1.0,-1003.0,16:42:09.820382,192.168.0.113
2288,-1,-100,-100,-100,"0,0,0",0,0,0,0,0,0,76,78,101,50,88,9.92,13,1.0,15.0,-1013.0,16:42:09.903342,192.168.0.113
2293,-1,-100,-100,-100,"0,0,0",0,0,0,0,0,0,76,78,101,50,88,9.85,13,9.0,10.0,-1006.0,16:42:09.932519,192.168.0.113
2298,-1,-100,-100,-100,"0,0,0",0,0,0,0,0,0,76,78,101,50,88,9.82,13,-11.0,1.0,-984.0,16:42:10.108698,192.168.0.113
2303,-1,-100,-100,-100,"0,0,0",0,0,0,0,0,0,76,78,102,50,88,9.85,13,-6.0,40.0,-1028.0,16:42:10.197554,192.168.0.113
2308,-1,-100,-100,-100,"0,0,0",0,0,0,0,0,0,76,78,103,50,88,9.8,13,8.0,0.0,-1003.0,16:42:10.238461,192.168.0.113
2313,-1,-100,-100,-100,"0,0,0",0,0,0,0,0,0,76,78,103,50,88,9.86,13,19.0,-3.0,-988.0,16:42:10.403632,192.168.0.113
2318,-1,-100,-100,-100,"0,0,0",0,0,0,0,0,0,76,78,102,50,88,9.87,13,17.0,-3.0,-1004.0,16:42:10.492088,192.168.0.113
2323,-1,-100,-100,-100,"0,0,0",0,0,0,0,0,0,76,78,102,50,88,9.87,13,-8.0,7.0,-994.0,16:42:10.610545,192.168.0.113
2328,-1,-100,-100,-100,"0,0,0",0,0,0,0,0,0,75,79,103,50,88,9.87,13,0.0,12.0,-1002.0,16:42:10.657775,192.168.0.113
2333,-1,-100,-100,-100,"0,0,0",0,0,0,0,0,0,75,79,102,50,88,9.87,14,6.0,5.0,-999.0,16:42:10.813844,192.168.0.113
2338,-1,-100,-100,-100,"0,0,0",0,0,0,0,0,0,75,79,103,50,88,9.83,14,8.0,6.0,-996.0,16:42:10.879815,192.168.0.113
2343,-1,-100,-100,-100,"0,0,0",0,0,0,0,0,0,75,79,103,50,88,9.9,14,13.0,-2.0,-1000.0,16:42:10.962357,192.168.0.113
2348,-1,-100,-100,-100,"0,0,0",0,0,0,0,0,0,75,79,102,50,88,9.89,14,11.0,0.0,-1003.0,16:42:11.053805,192.168.0.113
2353,-1,-100,-100,-100,"0,0,0",0,0,0,0,0,0,75,79,102,50,88,9.86,14,4.0,-3.0,-993.0,16:42:11.155521,192.168.0.113
2358,-1,-100,-100,-100,"0,0,0",0,0,0,0,0,0,75,79,103,50,88,9.93,14,27.0,-12.0,-986.0,16:42:11.278040,192.168.0.113
2363,-1,-100,-100,-100,"0,0,0",0,0,0,0,0,0,75,79,102,50,88,9.9,14,8.0,1.0,-998.0,16:42:11.360601,192.168.0.113
2368,-1,-100,-100,-100,"0,0,0",0,0,0,0,0,0,75,79,103,50,88,9.92,14,-10.0,22.0,-1003.0,16:42:11.458961,192.168.0.113
2373,-1,-100,-100,-100,"0,0,0",0,0,0,0,0,0,75,79,104,50,88,9.87,14,1.0,-7.0,-985.0,16:42:11.563901,192.168.0.113
2378,-1,-100,-100,-100,"0,0,0",0,0,0,0,0,0,76,79,104,50,88,9.91,14,29.0,-11.0,-1005.0,16:42:11.662797,192.168.0.113
2383,-1,-100,-100,-100,"0,0,0",0,0,0,0,0,0,76,79,103,50,88,9.86,15,-9.0,23.0,-987.0,16:42:11.773212,192.168.0.113
2388,-1,-100,-100,-100,"0,0,0",0,0,0,0,0,0,76,79,103,50,88,9.92,15,-5.0,7.0,-997.0,16:42:11.898549,192.168.0.113
2393,-1,-100,-100,-100,"0,0,0",0,0,0,0,0,0,76,79,103,50,88,9.88,15,-3.0,-6.0,-1001.0,16:42:11.972698,192.168.0.113
2398,-1,-100,-100,-100,"0,0,0",0,0,0,0,0,0,76,79,103,50,88,9.87,15,-10.0,-1.0,-985.0,16:42:12.087630,192.168.0.113
2403,-1,-100,-100,-100,"0,0,0",0,0,0,0,0,0,76,79,103,50,88,9.99,15,-19.0,19.0,-1027.0,16:42:12.179547,192.168.0.113
2408,-1,-100,-100,-100,"0,0,0",0,0,0,0,0,0,76,79,102,50,88,9.94,15,-48.0,36.0,-998.0,16:42:12.302289,192.168.0.113
2412,-1,-100,-100,-100,"0,0,0",0,0,0,0,0,0,76,79,103,50,88,9.89,15,-2.0,12.0,-998.0,16:42:12.343760,192.168.0.113
2417,-1,-100,-100,-100,"0,0,0",0,0,0,0,0,0,76,79,102,50,88,9.92,15,9.0,1.0,-997.0,16:42:12.553670,192.168.0.113
2422,-1,-100,-100,-100,"0,0,0",0,0,0,0,0,0,76,79,102,50,88,9.95,15,2.0,3.0,-994.0,16:42:12.640726,192.168.0.113
2427,-1,-100,-100,-100,"0,0,0",0,0,0,0,0,0,75,78,102,50,88,9.85,15,1.0,11.0,-1004.0,16:42:12.646061,192.168.0.113
2433,-1,-100,-100,-100,"0,0,0",0,0,0,0,0,0,75,78,102,50,88,9.88,16,2.0,30.0,-1022.0,16:42:12.754639,192.168.0.113
2438,-1,-100,-100,-100,"0,0,0",0,0,0,0,0,0,75,78,103,50,88,9.89,16,0.0,23.0,-997.0,16:42:12.924738,192.168.0.113
2443,-1,-100,-100,-100,"0,0,0",0,0,0,0,0,0,75,78,102,50,88,9.84,16,2.0,19.0,-1007.0,16:42:12.940278,192.168.0.113
2448,-1,-100,-100,-100,"0,0,0",0,0,0,0,0,0,75,78,102,50,88,9.84,16,15.0,-11.0,-1024.0,16:42:13.053606,192.168.0.113
2453,-1,-100,-100,-100,"0,0,0",0,0,0,0,0,0,75,78,101,50,88,9.96,16,24.0,19.0,-999.0,16:42:13.145465,192.168.0.113
2458,-1,-100,-100,-100,"0,0,0",0,0,0,0,0,0,75,78,102,50,88,9.87,16,16.0,-9.0,-968.0,16:42:13.304220,192.168.0.113
2463,-1,-100,-100,-100,"0,0,0",0,0,0,0,0,0,75,78,102,50,88,9.93,16,-17.0,8.0,-1001.0,16:42:13.355152,192.168.0.113
2468,-1,-100,-100,-100,"0,0,0",0,0,0,0,0,0,75,78,101,50,88,9.9,16,-1.0,13.0,-998.0,16:42:13.461752,192.168.0.113
2473,-1,-100,-100,-100,"0,0,0",0,0,0,0,0,0,75,78,102,50,88,9.88,16,0.0,15.0,-999.0,16:42:13.558395,192.168.0.113
2478,-1,-100,-100,-100,"0,0,0",0,0,0,0,0,0,75,78,102,50,88,9.9,16,-11.0,22.0,-1011.0,16:42:13.656752,192.168.0.113
2483,-1,-100,-100,-100,"0,0,0",0,0,0,0,0,0,75,78,102,50,88,9.83,17,24.0,7.0,-1009.0,16:42:13.762987,192.168.0.113
2488,-1,-100,-100,-100,"0,0,0",0,0,0,0,0,0,75,78,101,50,88,9.85,17,4.0,8.0,-1029.0,16:42:13.886813,192.168.0.113
2493,-1,-100,-100,-100,"0,0,0",0,0,0,0,0,0,75,78,101,50,88,9.81,17,15.0,-23.0,-993.0,16:42:13.972832,192.168.0.113
2498,-1,-100,-100,-100,"0,0,0",0,0,0,0,0,0,75,78,102,50,88,9.82,17,-7.0,23.0,-1028.0,16:42:14.086683,192.168.0.113
2503,-1,-100,-100,-100,"0,0,0",0,0,0,0,0,0,75,78,102,50,88,9.8,17,14.0,9.0,-1006.0,16:42:14.298003,192.168.0.113
2508,-1,-100,-100,-100,"0,0,0",0,0,0,0,0,0,75,78,101,50,88,9.8,17,39.0,-11.0,-972.0,16:42:14.298603,192.168.0.113
2513,-1,-100,-100,-100,"0,0,0",0,0,0,0,0,0,75,78,102,50,88,9.78,17,11.0,-6.0,-1002.0,16:42:14.383919,192.168.0.113
2518,-1,-100,-100,-100,"0,0,0",0,0,0,0,0,0,75,78,101,50,88,9.81,17,0.0,3.0,-1010.0,16:42:14.489493,192.168.0.113
2523,-1,-100,-100,-100,"0,0,0",0,0,0,0,0,0,75,78,102,50,88,9.82,17,5.0,-1.0,-1009.0,16:42:14.576743,192.168.0.113
2528,-1,-100,-100,-100,"0,0,0",0,0,0,0,0,0,76,78,102,50,88,9.78,17,-14.0,0.0,-999.0,16:42:14.724429,192.168.0.113
2533,-1,-100,-100,-100,"0,0,0",0,0,0,0,0,0,76,78,102,50,88,9.83,18,-4.0,-10.0,-1003.0,16:42:14.793566,192.168.0.113
2538,-1,-100,-100,-100,"0,0,0",0,0,0,0,0,0,76,78,102,50,88,9.84,18,-1.0,0.0,-995.0,16:42:15.007435,192.168.0.113
2543,-1,-100,-100,-100,"0,0,0",0,0,0,0,0,0,76,78,102,50,88,9.79,18,14.0,-7.0,-1015.0,16:42:15.049247,192.168.0.113
2548,-1,-100,-100,-100,"0,0,0",0,0,0,0,0,0,76,78,102,50,88,9.79,18,-31.0,6.0,-993.0,16:42:15.116495,192.168.0.113
2553,-1,-100,-100,-100,"0,0,0",0,0,0,0,0,0,76,78,102,50,88,9.83,18,-25.0,16.0,-1004.0,16:42:15.215374,192.168.0.113
2558,-1,-100,-100,-100,"0,0,0",0,0,0,0,0,0,76,78,102,50,88,9.82,18,0.0,21.0,-1009.0,16:42:15.343990,192.168.0.113
2563,-1,-100,-100,-100,"0,0,0",0,0,0,0,0,0,76,78,102,50,88,9.85,18,8.0,16.0,-1003.0,16:42:15.394327,192.168.0.113
2568,-1,-100,-100,-100,"0,0,0",1,0,0,0,0,0,76,78,102,50,88,9.91,18,27.0,-23.0,-988.0,16:42:15.897378,192.168.0.113
2573,-1,-100,-100,-100,"0,0,0",1,0,0,0,0,0,76,78,102,50,88,9.87,18,-23.0,7.0,-998.0,16:42:15.897858,192.168.0.113
2578,-1,-100,-100,-100,"0,0,0",0,0,0,0,0,0,76,78,103,50,88,9.84,18,0.0,8.0,-999.0,16:42:15.908631,192.168.0.113
2583,-1,-100,-100,-100,"0,0,0",0,0,0,0,0,0,76,78,103,50,88,9.84,19,-9.0,8.0,-1005.0,16:42:15.909049,192.168.0.113
2588,-1,-100,-100,-100,"0,0,0",0,0,0,0,0,0,76,78,104,50,88,9.8,19,-4.0,2.0,-996.0,16:42:15.909435,192.168.0.113
2592,-1,-100,-100,-100,"0,0,0",0,0,0,0,0,0,76,78,104,50,88,9.84,19,7.0,-8.0,-997.0,16:42:15.961446,192.168.0.113
2597,-1,-100,-100,-100,"0,0,0",0,0,0,0,0,0,76,78,104,60,88,9.83,19,5.0,3.0,-986.0,16:42:16.060958,192.168.0.113
2602,-1,-100,-100,-100,"0,0,0",0,0,0,0,0,0,76,78,103,60,88,9.81,19,-27.0,35.0,-982.0,16:42:16.152970,192.168.0.113
2608,-1,-100,-100,-100,"0,0,0",0,0,0,0,0,0,76,78,104,60,88,9.8,19,4.0,3.0,-981.0,16:42:16.296766,192.168.0.113
2613,-1,-100,-100,-100,"0,0,0",0,0,0,0,0,0,76,78,103,60,88,9.89,19,-3.0,0.0,-1008.0,16:42:16.417369,192.168.0.113
2618,-1,-100,-100,-100,"0,0,0",0,0,0,0,0,0,76,78,104,50,88,9.86,19,15.0,3.0,-1018.0,16:42:16.577056,192.168.0.113
2623,-1,-100,-100,-100,"0,0,0",0,0,0,0,0,0,76,78,103,50,88,9.88,19,2.0,7.0,-995.0,16:42:16.577695,192.168.0.113
2628,-1,-100,-100,-100,"0,0,0",0,0,0,0,0,0,75,78,102,50,88,9.88,19,0.0,-1.0,-996.0,16:42:16.721606,192.168.0.113
2633,-1,-100,-100,-100,"0,0,0",0,0,0,0,0,0,75,78,103,50,88,9.91,20,6.0,-4.0,-993.0,16:42:16.761743,192.168.0.113
2638,-1,-100,-100,-100,"0,0,0",0,0,0,0,0,0,75,78,103,50,88,9.83,20,10.0,11.0,-1017.0,16:42:16.901567,192.168.0.113
2643,-1,-100,-100,-100,"0,0,0",0,0,0,0,0,0,75,78,102,50,88,9.85,20,-19.0,30.0,-1020.0,16:42:16.967953,192.168.0.113
2648,-1,-100,-100,-100,"0,0,0",0,0,0,0,0,0,75,78,103,50,88,9.89,20,21.0,0.0,-1006.0,16:42:17.134719,192.168.0.113
2653,-1,-100,-100,-100,"0,0,0",0,0,0,0,0,0,75,78,102,50,88,9.85,20,-3.0,24.0,-1007.0,16:42:17.400932,192.168.0.113
2658,-1,-100,-100,-100,"0,0,0",0,0,0,0,0,0,75,78,102,50,88,9.83,20,8.0,4.0,-992.0,16:42:17.402834,192.168.0.113
2663,-1,-100,-100,-100,"0,0,0",0,0,0,0,0,0,75,78,102,50,88,9.8,20,-7.0,30.0,-1002.0,16:42:17.407878,192.168.0.113
2668,-1,-100,-100,-100,"0,0,0",0,0,0,0,0,0,75,78,103,50,88,9.86,20,32.0,-3.0,-999.0,16:42:17.477179,192.168.0.113
2673,-1,-100,-100,-100,"0,0,0",0,0,0,0,0,0,75,78,103,50,88,9.79,20,-13.0,22.0,-996.0,16:42:17.607097,192.168.0.113
2678,-1,-100,-100,-100,"0,0,0",0,0,0,0,0,0,75,78,103,50,88,9.85,20,17.0,-8.0,-998.0,16:42:17.713312,192.168.0.113
2683,-1,-100,-100,-100,"0,0,0",0,0,0,0,0,0,75,78,102,50,88,9.84,21,-15.0,7.0,-1002.0,16:42:17.798414,192.168.0.113
