,mid,x,y,z,mpry,pitch,roll,yaw,vgx,vgy,vgz,templ,temph,tof,h,bat,baro,time,agx,agy,agz,timestamp,address
3,-1,-100,-100,-100,"0,0,0",0,0,0,0,0,0,67,71,6553,0,72,9.95,0,6.0,-5.0,-999.0,16:41:23.849735,192.168.0.111
8,-1,-100,-100,-100,"0,0,0",0,0,0,0,0,0,67,71,6553,0,72,9.9,0,5.0,-5.0,-1002.0,16:41:23.951956,192.168.0.111
13,-1,-100,-100,-100,"0,0,0",0,0,0,0,0,0,67,71,6553,0,72,9.93,0,6.0,-5.0,-1000.0,16:41:24.064041,192.168.0.111
18,-1,-100,-100,-100,"0,0,0",0,0,0,0,0,0,67,71,6553,0,72,9.93,0,4.0,-5.0,-998.0,16:41:24.155864,192.168.0.111
23,-1,-100,-100,-100,"0,0,0",0,0,0,0,0,0,67,71,6553,0,72,9.91,0,5.0,-5.0,-1000.0,16:41:24.257676,192.168.0.111
28,-1,-100,-100,-100,"0,0,0",0,0,0,0,0,0,67,71,6553,0,72,9.92,0,5.0,-3.0,-1000.0,16:41:24.359642,192.168.0.111
33,-1,-100,-100,-100,"0,0,0",0,0,0,0,0,0,67,71,6553,0,72,9.97,0,4.0,-4.0,-1001.0,16:41:24.461559,192.168.0.111
38,-1,-100,-100,-100,"0,0,0",0,0,0,0,0,0,67,71,6553,0,72,9.94,0,5.0,-5.0,-1002.0,16:41:24.563658,192.168.0.111
43,-1,-100,-100,-100,"0,0,0",0,0,0,0,0,0,67,71,6553,0,72,9.95,0,4.0,-4.0,-1003.0,16:41:24.726211,192.168.0.111
47,-1,-100,-100,-100,"0,0,0",0,0,0,0,0,0,67,71,6553,0,72,9.91,0,5.0,-4.0,-1003.0,16:41:24.773846,192.168.0.111
53,-1,-100,-100,-100,"0,0,0",0,0,0,0,0,0,67,71,6553,0,72,9.92,0,6.0,-5.0,-1000.0,16:41:24.874660,192.168.0.111
59,-1,-100,-100,-100,"0,0,0",0,0,0,0,0,0,71,73,6553,0,72,9.9,0,3.0,-7.0,-998.0,16:41:24.971684,192.168.0.111
65,-1,-100,-100,-100,"0,0,0",0,0,0,0,0,0,71,73,6553,0,72,9.84,0,4.0,-4.0,-999.0,16:41:25.091748,192.168.0.111
68,-1,-100,-100,-100,"0,0,0",0,0,0,0,0,0,71,73,6553,0,72,9.9,0,7.0,-3.0,-1000.0,16:41:25.178317,192.168.0.111
74,-1,-100,-100,-100,"0,0,0",0,0,0,0,0,0,71,73,6553,0,72,9.86,0,5.0,-4.0,-998.0,16:41:25.278739,192.168.0.111
79,-1,-100,-100,-100,"0,0,0",0,0,0,0,0,0,71,73,6553,0,72,9.9,0,5.0,-3.0,-1000.0,16:41:25.379678,192.168.0.111
84,-1,-100,-100,-100,"0,0,0",0,0,0,0,0,0,71,73,6553,0,72,9.85,0,5.0,-4.0,-1000.0,16:41:25.481530,192.168.0.111
89,-1,-100,-100,-100,"0,0,0",0,0,0,0,0,0,71,73,6553,0,72,9.87,0,4.0,-4.0,-1000.0,16:41:25.583760,192.168.0.111
94,-1,-100,-100,-100,"0,0,0",0,0,0,0,0,0,71,73,6553,0,72,9.85,0,3.0,-5.0,-999.0,16:41:25.685424,192.168.0.111
99,-1,-100,-100,-100,"0,0,0",0,0,0,0,0,0,71,73,6553,0,72,9.91,0,6.0,-4.0,-1001.0,16:41:25.787598,192.168.0.111
104,-1,-100,-100,-100,"0,0,0",0,0,0,0,0,0,71,73,6553,0,72,9.9,0,5.0,-4.0,-998.0,16:41:25.889592,192.168.0.111
109,-1,-100,-100,-100,"0,0,0",0,0,0,0,0,0,71,74,6553,0,72,9.9,0,5.0,-4.0,-999.0,16:41:25.991705,192.168.0.111
114,-1,-100,-100,-100,"0,0,0",0,0,0,0,0,0,71,74,6553,0,72,9.86,0,5.0,-5.0,-1001.0,16:41:26.093732,192.168.0.111
119,-1,-100,-100,-100,"0,0,0",0,0,0,0,0,0,71,74,6553,0,72,9.85,0,5.0,-5.0,-998.0,16:41:26.195784,192.168.0.111
122,-1,-100,-100,-100,"0,0,0",0,0,0,0,0,0,71,74,6553,0,72,9.88,0,4.0,-4.0,-1000.0,16:41:26.246996,192.168.0.111
128,-1,-100,-100,-100,"0,0,0",0,0,0,0,0,0,71,74,6553,0,72,9.9,0,7.0,-3.0,-999.0,16:41:26.352271,192.168.0.111
133,-1,-100,-100,-100,"0,0,0",0,0,0,0,0,0,71,74,6553,0,72,9.99,0,5.0,-5.0,-999.0,16:41:26.450465,192.168.0.111
138,-1,-100,-100,-100,"0,0,0",0,0,0,0,0,0,71,74,6553,0,72,9.89,0,5.0,-5.0,-1002.0,16:41:26.552654,192.168.0.111
143,-1,-100,-100,-100,"0,0,0",0,0,0,0,0,0,71,74,6553,0,72,9.91,0,4.0,-5.0,-999.0,16:41:26.654853,192.168.0.111
148,-1,-100,-100,-100,"0,0,0",0,0,0,0,0,0,71,74,6553,0,72,9.94,0,6.0,-4.0,-998.0,16:41:26.756620,192.168.0.111
153,-1,-100,-100,-100,"0,0,0",0,0,0,0,0,0,71,74,6553,0,72,9.91,0,4.0,-5.0,-999.0,16:41:26.858819,192.168.0.111
158,-1,-100,-100,-100,"0,0,0",0,0,0,0,0,0,72,74,6553,0,72,9.9,0,5.0,-4.0,-1002.0,16:41:26.964408,192.168.0.111
163,-1,-100,-100,-100,"0,0,0",0,0,0,0,0,0,72,74,6553,0,72,9.92,0,4.0,-4.0,-998.0,16:41:27.075789,192.168.0.111
168,-1,-100,-100,-100,"0,0,0",0,0,0,0,0,0,72,74,6553,0,72,9.88,0,3.0,-5.0,-999.0,16:41:27.170242,192.168.0.111
173,-1,-100,-100,-100,"0,0,0",0,0,0,0,0,0,72,74,6553,0,72,9.9,0,5.0,-5.0,-998.0,16:41:27.269499,192.168.0.111
179,-1,-100,-100,-100,"0,0,0",0,0,0,0,0,0,72,74,6553,0,72,9.94,0,2.0,-4.0,-1000.0,16:41:27.376995,192.168.0.111
183,-1,-100,-100,-100,"0,0,0",0,0,0,0,0,0,72,74,6553,0,72,9.92,0,6.0,-4.0,-1002.0,16:41:27.470534,192.168.0.111
189,-1,-100,-100,-100,"0,0,0",0,0,0,0,0,0,72,74,6553,0,72,9.87,0,4.0,-5.0,-998.0,16:41:27.573758,192.168.0.111
194,-1,-100,-100,-100,"0,0,0",0,0,0,0,0,0,72,74,6553,0,72,9.8,0,5.0,-4.0,-998.0,16:41:27.680643,192.168.0.111
198,-1,-100,-100,-100,"0,0,0",0,0,0,0,0,0,72,74,6553,0,72,9.84,0,5.0,-6.0,-1000.0,16:41:27.780453,192.168.0.111
204,-1,-100,-100,-100,"0,0,0",0,0,0,0,0,0,72,74,6553,0,72,9.85,0,5.0,-6.0,-998.0,16:41:27.879635,192.168.0.111
209,-1,-100,-100,-100,"0,0,0",0,0,0,0,0,0,71,74,6553,0,72,9.87,0,6.0,-4.0,-1001.0,16:41:27.981012,192.168.0.111
213,-1,-100,-100,-100,"0,0,0",0,0,0,0,0,0,71,74,6553,0,72,9.85,0,5.0,-4.0,-1003.0,16:41:28.082979,192.168.0.111
217,-1,-100,-100,-100,"0,0,0",0,0,0,0,0,0,71,74,6553,0,72,9.87,0,4.0,-5.0,-998.0,16:41:28.189340,192.168.0.111
224,-1,-100,-100,-100,"0,0,0",0,0,0,0,0,0,71,74,6553,0,72,9.9,0,5.0,-5.0,-1000.0,16:41:28.286543,192.168.0.111
229,-1,-100,-100,-100,"0,0,0",0,0,0,0,0,0,71,74,6553,0,72,9.85,0,6.0,-5.0,-998.0,16:41:28.388824,192.168.0.111
234,-1,-100,-100,-100,"0,0,0",0,0,0,0,0,0,71,74,6553,0,72,9.86,0,5.0,-5.0,-1000.0,16:41:28.490655,192.168.0.111
239,-1,-100,-100,-100,"0,0,0",0,0,0,0,0,0,71,74,6553,0,72,9.86,0,7.0,-4.0,-1001.0,16:41:28.592581,192.168.0.111
244,-1,-100,-100,-100,"0,0,0",0,0,0,0,0,0,71,74,6553,0,72,9.83,0,6.0,-3.0,-1001.0,16:41:28.695517,192.168.0.111
249,-1,-100,-100,-100,"0,0,0",0,0,0,0,0,0,71,74,6553,0,72,9.92,0,5.0,-4.0,-998.0,16:41:28.796620,192.168.0.111
254,-1,-100,-100,-100,"0,0,0",0,0,0,0,0,0,71,74,6553,0,72,9.88,0,5.0,-3.0,-1000.0,16:41:28.909675,192.168.0.111
260,-1,-100,-100,-100,"0,0,0",0,0,0,0,0,0,72,75,6553,0,72,9.87,0,5.0,-4.0,-1000.0,16:41:29.014677,192.168.0.111
264,-1,-100,-100,-100,"0,0,0",0,0,0,0,0,0,72,75,6553,0,72,9.85,0,5.0,-4.0,-998.0,16:41:29.112983,192.168.0.111
270,-1,-100,-100,-100,"0,0,0",0,0,0,0,0,0,72,75,6553,0,72,9.83,0,5.0,-6.0,-1000.0,16:41:29.223649,192.168.0.111
274,-1,-100,-100,-100,"0,0,0",0,0,0,0,0,0,72,75,6553,0,72,9.88,0,3.0,-2.0,-1001.0,16:41:29.306512,192.168.0.111
279,-1,-100,-100,-100,"0,0,0",0,0,0,0,0,0,72,75,6553,0,72,9.89,0,5.0,-4.0,-1000.0,16:41:29.414743,192.168.0.111
283,-1,-100,-100,-100,"0,0,0",0,0,0,0,0,0,72,75,6553,0,72,9.88,0,4.0,-5.0,-998.0,16:41:29.459765,192.168.0.111
288,-1,-100,-100,-100,"0,0,0",0,0,0,0,0,0,72,75,6553,0,72,9.91,0,5.0,-5.0,-1001.0,16:41:29.563549,192.168.0.111
293,-1,-100,-100,-100,"0,0,0",0,0,0,0,0,0,72,75,6553,0,72,9.85,0,5.0,-3.0,-1001.0,16:41:29.664567,192.168.0.111
298,-1,-100,-100,-100,"0,0,0",0,0,0,0,0,0,72,75,6553,0,72,9.93,0,3.0,-6.0,-1000.0,16:41:29.770943,192.168.0.111
303,-1,-100,-100,-100,"0,0,0",0,0,0,0,0,0,72,75,6553,0,72,9.89,0,5.0,-5.0,-998.0,16:41:29.890538,192.168.0.111
308,-1,-100,-100,-100,"0,0,0",0,0,0,0,0,0,72,75,6553,0,72,9.87,0,3.0,-4.0,-1000.0,16:41:29.969656,192.168.0.111
314,-1,-100,-100,-100,"0,0,0",0,0,0,0,0,0,72,75,6553,0,72,9.9,0,3.0,-4.0,-1002.0,16:41:30.083116,192.168.0.111
319,-1,-100,-100,-100,"0,0,0",0,0,0,0,0,0,72,75,6553,0,72,9.88,0,4.0,-4.0,-1002.0,16:41:30.180889,192.168.0.111
323,-1,-100,-100,-100,"0,0,0",0,0,0,0,0,0,72,75,6553,0,72,9.85,0,7.0,-5.0,-1001.0,16:41:30.285455,192.168.0.111
328,-1,-100,-100,-100,"0,0,0",0,0,0,0,0,0,72,75,6553,0,72,9.85,0,4.0,-3.0,-1003.0,16:41:30.379435,192.168.0.111
334,-1,-100,-100,-100,"0,0,0",0,0,0,0,0,0,72,75,6553,0,72,9.88,0,6.0,-4.0,-1001.0,16:41:30.479141,192.168.0.111
338,-1,-100,-100,-100,"0,0,0",0,0,0,0,0,0,72,75,6553,0,72,9.87,0,5.0,-6.0,-1000.0,16:41:30.582415,192.168.0.111
343,-1,-100,-100,-100,"0,0,0",0,0,0,0,0,0,72,75,6553,0,72,9.86,0,4.0,-5.0,-1000.0,16:41:30.683202,192.168.0.111
348,-1,-100,-100,-100,"0,0,0",0,0,0,0,0,0,72,75,6553,0,72,9.88,0,6.0,-5.0,-1000.0,16:41:30.788477,192.168.0.111
354,-1,-100,-100,-100,"0,0,0",0,0,0,0,0,0,72,75,6553,0,72,9.88,0,4.0,-5.0,-1000.0,16:41:30.887105,192.168.0.111
359,-1,-100,-100,-100,"0,0,0",0,0,0,0,0,0,72,74,6553,0,72,9.85,0,5.0,-5.0,-999.0,16:41:30.989215,192.168.0.111
364,-1,-100,-100,-100,"0,0,0",0,0,0,0,0,0,72,74,6553,0,72,9.83,0,4.0,-5.0,-998.0,16:41:31.091529,192.168.0.111
369,-1,-100,-100,-100,"0,0,0",0,0,0,0,0,0,72,74,6553,0,72,9.83,0,4.0,-3.0,-1000.0,16:41:31.193733,192.168.0.111
374,-1,-100,-100,-100,"0,0,0",0,0,0,0,0,0,72,74,6553,0,72,9.87,0,5.0,-6.0,-999.0,16:41:31.295271,192.168.0.111
379,-1,-100,-100,-100,"0,0,0",0,0,0,0,0,0,72,74,6553,0,72,9.87,0,4.0,-3.0,-999.0,16:41:31.398081,192.168.0.111
385,-1,-100,-100,-100,"0,0,0",0,0,0,0,0,0,72,74,6553,0,72,9.81,0,5.0,-6.0,-997.0,16:41:31.521034,192.168.0.111
390,-1,-100,-100,-100,"0,0,0",0,0,0,0,0,0,72,74,6553,0,72,9.86,0,4.0,-4.0,-999.0,16:41:31.614235,192.168.0.111
394,-1,-100,-100,-100,"0,0,0",0,0,0,0,0,0,72,74,6553,0,72,9.83,0,5.0,-5.0,-999.0,16:41:31.706726,192.168.0.111
399,-1,-100,-100,-100,"0,0,0",0,0,0,0,0,0,72,74,6553,0,72,9.86,0,5.0,-3.0,-1000.0,16:41:31.805435,192.168.0.111
403,-1,-100,-100,-100,"0,0,0",0,0,0,0,0,0,72,74,6553,0,72,9.84,0,4.0,-5.0,-999.0,16:41:31.910119,192.168.0.111
409,-1,-100,-100,-100,"0,0,0",0,0,0,0,0,0,72,75,6553,0,72,9.83,0,5.0,-5.0,-998.0,16:41:32.013304,192.168.0.111
413,-1,-100,-100,-100,"0,0,0",0,0,0,0,0,0,72,75,6553,0,72,9.82,0,4.0,-6.0,-1000.0,16:41:32.111993,192.168.0.111
419,-1,-100,-100,-100,"0,0,0",0,0,0,0,0,0,72,75,6553,0,72,9.82,0,4.0,-5.0,-998.0,16:41:32.215848,192.168.0.111
424,-1,-100,-100,-100,"0,0,0",0,0,0,0,0,0,72,75,6553,0,72,9.85,0,5.0,-4.0,-999.0,16:41:32.315284,192.168.0.111
429,-1,-100,-100,-100,"0,0,0",0,0,0,0,0,0,72,75,6553,0,72,9.81,0,4.0,-3.0,-999.0,16:41:32.417126,192.168.0.111
434,-1,-100,-100,-100,"0,0,0",0,0,0,0,0,0,72,75,6553,0,72,9.83,0,4.0,-4.0,-998.0,16:41:32.519086,192.168.0.111
439,-1,-100,-100,-100,"0,0,0",0,0,0,0,0,0,72,75,6553,0,72,9.85,0,6.0,-5.0,-999.0,16:41:32.621243,192.168.0.111
444,-1,-100,-100,-100,"0,0,0",0,0,0,0,0,0,72,75,6553,0,72,9.86,0,3.0,-5.0,-1001.0,16:41:32.723129,192.168.0.111
448,-1,-100,-100,-100,"0,0,0",0,0,0,0,0,0,72,75,6553,0,72,9.83,0,4.0,-5.0,-1002.0,16:41:32.775736,192.168.0.111
454,-1,-100,-100,-100,"0,0,0",0,0,0,0,0,0,72,75,6553,0,72,9.84,0,5.0,-5.0,-998.0,16:41:32.877042,192.168.0.111
459,-1,-100,-100,-100,"0,0,0",0,0,0,0,0,0,74,76,6553,0,72,9.82,0,5.0,-3.0,-999.0,16:41:32.983610,192.168.0.111
464,-1,-100,-100,-100,"0,0,0",0,0,0,0,0,0,74,76,6553,0,72,9.81,0,3.0,-4.0,-1000.0,16:41:33.080853,192.168.0.111
470,-1,-100,-100,-100,"0,0,0",0,0,0,0,0,0,74,76,6553,0,72,9.78,0,4.0,-4.0,-1001.0,16:41:33.242839,192.168.0.111
474,-1,-100,-100,-100,"0,0,0",0,0,0,0,0,0,74,76,6553,0,72,9.8,0,4.0,-5.0,-1000.0,16:41:33.336267,192.168.0.111
479,-1,-100,-100,-100,"0,0,0",0,0,0,0,0,0,74,76,6553,0,72,9.86,0,4.0,-3.0,-1002.0,16:41:33.386084,192.168.0.111
484,-1,-100,-100,-100,"0,0,0",0,0,0,0,0,0,74,76,6553,0,72,9.8,0,4.0,-4.0,-999.0,16:41:33.488336,192.168.0.111
489,-1,-100,-100,-100,"0,0,0",0,0,0,0,0,0,74,76,6553,0,72,9.79,0,5.0,-6.0,-999.0,16:41:33.589969,192.168.0.111
494,-1,-100,-100,-100,"0,0,0",0,0,0,0,0,0,74,76,6553,0,72,9.79,0,4.0,-4.0,-999.0,16:41:33.692299,192.168.0.111
499,-1,-100,-100,-100,"0,0,0",0,0,0,0,0,0,74,76,6553,0,72,9.78,0,3.0,-5.0,-1001.0,16:41:33.794474,192.168.0.111
504,-1,-100,-100,-100,"0,0,0",0,0,0,0,0,0,74,76,6553,0,72,9.84,0,5.0,-3.0,-999.0,16:41:33.896099,192.168.0.111
509,-1,-100,-100,-100,"0,0,0",0,0,0,0,0,0,73,75,6553,0,72,9.81,0,5.0,-5.0,-997.0,16:41:33.998407,192.168.0.111
514,-1,-100,-100,-100,"0,0,0",0,0,0,0,0,0,73,75,6553,0,72,9.85,0,5.0,-5.0,-1001.0,16:41:34.104014,192.168.0.111
519,-1,-100,-100,-100,"0,0,0",0,0,0,0,0,0,73,75,6553,0,72,9.84,0,4.0,-4.0,-1000.0,16:41:34.206385,192.168.0.111
524,-1,-100,-100,-100,"0,0,0",0,0,0,0,0,0,73,75,6553,0,72,9.88,0,5.0,-3.0,-1000.0,16:41:34.305628,192.168.0.111
528,-1,-100,-100,-100,"0,0,0",0,0,0,0,0,0,73,75,6553,0,72,9.78,0,5.0,-4.0,-1002.0,16:41:34.411280,192.168.0.111
534,-1,-100,-100,-100,"0,0,0",0,0,0,0,0,0,73,75,6553,0,72,9.87,0,4.0,-5.0,-1001.0,16:41:34.509380,192.168.0.111
539,-1,-100,-100,-100,"0,0,0",0,0,0,0,0,0,73,75,6553,0,72,9.84,0,4.0,-5.0,-999.0,16:41:34.610153,192.168.0.111
544,-1,-100,-100,-100,"0,0,0",0,0,0,0,0,0,73,75,6553,0,72,9.8,0,4.0,-6.0,-1000.0,16:41:34.712395,192.168.0.111
549,-1,-100,-100,-100,"0,0,0",0,0,0,0,0,0,73,75,6553,0,72,9.85,0,3.0,-5.0,-998.0,16:41:34.814160,192.168.0.111
554,-1,-100,-100,-100,"0,0,0",0,0,0,0,0,0,73,75,6553,0,72,9.79,0,5.0,-5.0,-999.0,16:41:34.925767,192.168.0.111
559,-1,-100,-100,-100,"0,0,0",0,0,0,0,0,0,73,75,6553,0,72,9.85,0,5.0,-3.0,-998.0,16:41:35.018432,192.168.0.111
564,-1,-100,-100,-100,"0,0,0",0,0,0,0,0,0,73,75,6553,0,72,9.85,0,3.0,-4.0,-1000.0,16:41:35.120034,192.168.0.111
569,-1,-100,-100,-100,"0,0,0",0,0,0,0,0,0,73,75,6553,0,72,9.83,0,4.0,-4.0,-999.0,16:41:35.221959,192.168.0.111
574,-1,-100,-100,-100,"0,0,0",0,0,0,0,0,0,73,75,6553,0,72,9.82,0,4.0,-3.0,-999.0,16:41:35.324589,192.168.0.111
579,-1,-100,-100,-100,"0,0,0",0,0,0,0,0,0,73,75,6553,0,72,9.85,0,4.0,-5.0,-998.0,16:41:35.426146,192.168.0.111
584,-1,-100,-100,-100,"0,0,0",0,0,0,0,0,0,73,75,6553,0,72,9.83,0,5.0,-4.0,-1001.0,16:41:35.528225,192.168.0.111
589,-1,-100,-100,-100,"0,0,0",0,0,0,0,0,0,73,75,6553,0,72,9.83,0,6.0,-5.0,-998.0,16:41:35.634079,192.168.0.111
594,-1,-100,-100,-100,"0,0,0",0,0,0,0,0,0,73,75,6553,0,72,9.84,0,3.0,-5.0,-999.0,16:41:35.732450,192.168.0.111
599,-1,-100,-100,-100,"0,0,0",0,0,0,0,0,0,73,75,6553,0,72,9.81,0,5.0,-4.0,-1001.0,16:41:35.834590,192.168.0.111
605,-1,-100,-100,-100,"0,0,0",0,0,0,0,0,0,73,75,6553,0,72,9.77,0,5.0,-4.0,-998.0,16:41:35.948953,192.168.0.111
609,-1,-100,-100,-100,"0,0,0",0,0,0,0,0,0,73,76,6553,0,72,9.82,0,4.0,-5.0,-1003.0,16:41:36.038249,192.168.0.111
615,-1,-100,-100,-100,"0,0,0",0,0,0,0,0,0,73,76,6553,0,72,9.8,0,5.0,-2.0,-1001.0,16:41:36.156347,192.168.0.111
620,-1,-100,-100,-100,"0,0,0",0,0,0,0,0,0,73,76,6553,0,72,9.83,0,4.0,-5.0,-1000.0,16:41:36.281089,192.168.0.111
624,-1,-100,-100,-100,"0,0,0",0,0,0,0,0,0,73,76,6553,0,72,9.83,0,6.0,-5.0,-1002.0,16:41:36.343998,192.168.0.111
629,-1,-100,-100,-100,"0,0,0",0,0,0,0,0,0,73,76,6553,0,72,9.86,0,3.0,-4.0,-1001.0,16:41:36.396456,192.168.0.111
634,-1,-100,-100,-100,"0,0,0",0,0,0,0,0,0,73,76,6553,0,72,9.82,0,4.0,-4.0,-996.0,16:41:36.497173,192.168.0.111
638,-1,-100,-100,-100,"0,0,0",0,0,0,0,0,0,73,76,6553,0,72,9.84,0,5.0,-6.0,-999.0,16:41:36.606955,192.168.0.111
643,-1,-100,-100,-100,"0,0,0",0,0,0,0,0,0,73,76,6553,0,72,9.76,0,5.0,-4.0,-999.0,16:41:36.726602,192.168.0.111
649,-1,-100,-100,-100,"0,0,0",0,0,0,0,0,0,73,76,6553,0,72,9.79,0,6.0,-6.0,-998.0,16:41:37.073734,192.168.0.111
650,-1,-100,-100,-100,"0,0,0",0,0,0,0,0,0,73,76,6553,0,72,9.81,0,5.0,-4.0,-997.0,16:41:37.191920,192.168.0.111
665,-1,-100,-100,-100,"0,0,0",0,0,0,0,0,0,73,77,6553,0,72,9.78,0,4.0,-5.0,-999.0,16:41:37.834370,192.168.0.111
666,-1,-100,-100,-100,"0,0,0",0,0,0,0,0,0,73,77,6553,0,72,9.78,0,4.0,-4.0,-999.0,16:41:37.848907,192.168.0.111
667,-1,-100,-100,-100,"0,0,0",0,0,0,0,0,0,73,77,6553,0,72,9.85,0,5.0,-5.0,-1000.0,16:41:37.849208,192.168.0.111
668,-1,-100,-100,-100,"0,0,0",0,0,0,0,0,0,73,77,6553,0,72,9.76,0,5.0,-5.0,-999.0,16:41:37.849409,192.168.0.111
670,-1,-100,-100,-100,"0,0,0",0,0,0,0,0,0,73,77,6553,0,72,9.75,0,6.0,-4.0,-1001.0,16:41:37.859363,192.168.0.111
678,-1,-100,-100,-100,"0,0,0",0,0,0,0,0,0,73,77,6553,0,72,9.78,0,5.0,-5.0,-999.0,16:41:37.931228,192.168.0.111
680,-1,-100,-100,-100,"0,0,0",0,0,0,0,0,0,73,77,6553,0,72,9.72,0,5.0,-5.0,-999.0,16:41:37.931483,192.168.0.111
684,-1,-100,-100,-100,"0,0,0",0,0,0,0,0,0,73,77,6553,0,72,9.87,0,4.0,-4.0,-1000.0,16:41:37.945204,192.168.0.111
692,-1,-100,-100,-100,"0,0,0",0,0,0,0,0,0,73,77,6553,0,72,9.82,0,5.0,-4.0,-1002.0,16:41:38.048920,192.168.0.111
695,-1,-100,-100,-100,"0,0,0",0,0,0,0,0,0,73,77,6553,0,72,9.76,0,6.0,-4.0,-997.0,16:41:38.104968,192.168.0.111
696,-1,-100,-100,-100,"0,0,0",0,0,0,0,0,0,73,77,6553,0,72,9.82,0,5.0,-5.0,-997.0,16:41:38.105318,192.168.0.111
711,-1,-100,-100,-100,"0,0,0",0,0,0,0,0,0,73,77,6553,0,72,9.84,0,4.0,-5.0,-999.0,16:41:38.196347,192.168.0.111
722,-1,-100,-100,-100,"0,0,0",0,0,0,0,0,0,73,77,6553,0,72,9.88,0,4.0,-6.0,-998.0,16:41:38.395145,192.168.0.111
723,-1,-100,-100,-100,"0,0,0",0,0,0,0,0,0,73,77,6553,0,72,9.87,0,4.0,-3.0,-999.0,16:41:38.413791,192.168.0.111
725,-1,-100,-100,-100,"0,0,0",0,0,0,0,0,0,73,77,6553,0,72,9.81,0,5.0,-5.0,-1001.0,16:41:38.503607,192.168.0.111
739,-1,-100,-100,-100,"0,0,0",0,0,0,0,0,0,73,77,6553,0,72,9.85,0,6.0,-5.0,-1002.0,16:41:38.779219,192.168.0.111
742,-1,-100,-100,-100,"0,0,0",0,0,0,0,0,0,73,77,6553,0,72,9.8,0,5.0,-4.0,-999.0,16:41:38.837313,192.168.0.111
743,-1,-100,-100,-100,"0,0,0",0,0,0,0,0,0,73,77,6553,0,72,9.81,0,4.0,-4.0,-1001.0,16:41:38.872598,192.168.0.111
744,-1,-100,-100,-100,"0,0,0",0,0,0,0,0,0,73,77,6553,0,72,9.84,0,6.0,-5.0,-998.0,16:41:38.872799,192.168.0.111
747,-1,-100,-100,-100,"0,0,0",0,0,0,0,0,0,73,77,6553,0,72,9.8,0,5.0,-4.0,-999.0,16:41:38.982983,192.168.0.111
751,-1,-100,-100,-100,"0,0,0",0,0,0,0,0,0,74,76,6553,0,72,9.88,0,5.0,-6.0,-998.0,16:41:39.059948,192.168.0.111
759,-1,-100,-100,-100,"0,0,0",0,0,0,0,0,0,74,76,6553,0,72,9.83,0,4.0,-5.0,-1000.0,16:41:39.155756,192.168.0.111
766,-1,-100,-100,-100,"0,0,0",0,0,0,0,0,0,74,76,6553,0,72,9.88,0,4.0,-4.0,-1000.0,16:41:39.255774,192.168.0.111
770,-1,-100,-100,-100,"0,0,0",0,0,0,0,0,0,74,76,6553,0,72,9.81,0,4.0,-4.0,-1000.0,16:41:39.356039,192.168.0.111
777,-1,-100,-100,-100,"0,0,0",0,0,0,0,0,0,74,76,6553,0,72,9.83,0,5.0,-4.0,-1000.0,16:41:39.495837,192.168.0.111
781,-1,-100,-100,-100,"0,0,0",0,0,0,0,0,0,74,76,6553,0,72,9.82,0,4.0,-6.0,-999.0,16:41:39.571637,192.168.0.111
782,-1,-100,-100,-100,"0,0,0",0,0,0,0,0,0,74,76,6553,0,71,9.81,0,5.0,-5.0,-1002.0,16:41:39.618701,192.168.0.111
786,-1,-100,-100,-100,"0,0,0",0,0,0,0,0,0,74,76,6553,0,71,9.78,0,4.0,-5.0,-998.0,16:41:39.719147,192.168.0.111
790,-1,-100,-100,-100,"0,0,0",0,0,0,0,0,0,74,76,6553,0,71,9.8,0,5.0,-4.0,-999.0,16:41:39.823901,192.168.0.111
799,-1,-100,-100,-100,"0,0,0",0,0,0,0,0,0,74,76,6553,0,71,9.78,0,6.0,-5.0,-999.0,16:41:39.920291,192.168.0.111
804,-1,-100,-100,-100,"0,0,0",0,0,0,0,0,0,74,76,6553,0,71,9.8,0,5.0,-6.0,-998.0,16:41:40.018749,192.168.0.111
809,-1,-100,-100,-100,"0,0,0",0,0,0,0,0,0,74,76,6553,0,71,9.81,0,3.0,-4.0,-998.0,16:41:40.125327,192.168.0.111
814,-1,-100,-100,-100,"0,0,0",0,0,0,0,0,0,74,76,6553,0,71,9.77,0,6.0,-5.0,-997.0,16:41:40.225470,192.168.0.111
817,-1,-100,-100,-100,"0,0,0",0,0,0,0,0,0,74,76,6553,0,71,9.79,0,5.0,-4.0,-1000.0,16:41:40.324705,192.168.0.111
823,-1,-100,-100,-100,"0,0,0",0,0,0,0,0,0,74,76,6553,0,71,9.78,0,3.0,-4.0,-999.0,16:41:40.425955,192.168.0.111
828,-1,-100,-100,-100,"0,0,0",0,0,0,0,0,0,74,76,6553,0,71,9.78,0,5.0,-5.0,-1002.0,16:41:40.552685,192.168.0.111
832,-1,-100,-100,-100,"0,0,0",0,0,0,0,0,0,74,76,6553,0,71,9.72,0,4.0,-3.0,-1000.0,16:41:40.637626,192.168.0.111
840,-1,-100,-100,-100,"0,0,0",0,0,0,0,0,0,74,76,6553,0,71,9.83,0,4.0,-4.0,-1000.0,16:41:40.738898,192.168.0.111
845,-1,-100,-100,-100,"0,0,0",0,0,0,0,0,0,74,76,6553,0,71,9.8,0,4.0,-4.0,-998.0,16:41:40.837235,192.168.0.111
853,-1,-100,-100,-100,"0,0,0",0,0,0,0,0,0,74,76,6553,0,71,9.77,0,4.0,-7.0,-1003.0,16:41:40.965131,192.168.0.111
857,-1,-100,-100,-100,"0,0,0",0,0,0,0,0,0,73,77,6553,0,71,9.84,0,5.0,-6.0,-999.0,16:41:41.050087,192.168.0.111
862,-1,-100,-100,-100,"0,0,0",0,0,0,0,0,0,73,77,6553,0,71,9.76,0,4.0,-4.0,-1002.0,16:41:41.160457,192.168.0.111
868,-1,-100,-100,-100,"0,0,0",0,0,0,0,0,0,73,77,6553,0,71,9.82,0,5.0,-3.0,-1003.0,16:41:41.287752,192.168.0.111
873,-1,-100,-100,-100,"0,0,0",0,0,0,0,0,0,73,77,6553,0,71,9.8,0,4.0,-4.0,-998.0,16:41:41.389077,192.168.0.111
877,-1,-100,-100,-100,"0,0,0",0,0,0,0,0,0,73,77,6553,0,71,9.78,0,5.0,-4.0,-1000.0,16:41:41.455376,192.168.0.111
882,-1,-100,-100,-100,"0,0,0",0,0,0,0,0,0,73,77,6553,0,71,9.76,0,4.0,-5.0,-999.0,16:41:41.551729,192.168.0.111
888,-1,-100,-100,-100,"0,0,0",0,0,0,0,0,0,73,77,6553,0,71,9.82,0,6.0,-4.0,-1000.0,16:41:41.682230,192.168.0.111
892,-1,-100,-100,-100,"0,0,0",0,0,0,0,0,0,73,77,6553,0,71,9.75,0,4.0,-4.0,-1000.0,16:41:41.752555,192.168.0.111
897,-1,-100,-100,-100,"0,0,0",0,0,0,0,0,0,73,77,6553,0,71,9.78,0,6.0,-4.0,-1003.0,16:41:41.856434,192.168.0.111
900,-1,-100,-100,-100,"0,0,0",0,0,0,0,0,0,73,77,6553,0,71,9.79,0,6.0,-4.0,-998.0,16:41:41.964323,192.168.0.111
907,-1,-100,-100,-100,"0,0,0",0,0,0,0,0,0,73,77,6553,0,71,9.75,0,5.0,-5.0,-999.0,16:41:42.057857,192.168.0.111
911,-1,-100,-100,-100,"0,0,0",0,0,0,0,0,0,73,77,6553,0,71,9.82,0,4.0,-4.0,-1003.0,16:41:42.175337,192.168.0.111
916,-1,-100,-100,-100,"0,0,0",0,0,0,0,0,0,73,77,6553,0,71,9.79,0,7.0,-4.0,-1000.0,16:41:42.264389,192.168.0.111
922,-1,-100,-100,-100,"0,0,0",0,0,0,0,0,0,73,77,6553,0,71,9.75,0,6.0,-5.0,-999.0,16:41:42.365995,192.168.0.111
930,-1,-100,-100,-100,"0,0,0",0,0,0,0,0,0,73,77,6553,0,71,9.77,0,6.0,-5.0,-998.0,16:41:42.560893,192.168.0.111
934,-1,-100,-100,-100,"0,0,0",0,0,0,0,0,0,73,77,6553,0,71,9.76,0,4.0,-4.0,-999.0,16:41:42.625732,192.168.0.111
937,-1,-100,-100,-100,"0,0,0",0,0,0,0,0,0,73,77,6553,0,71,9.76,0,5.0,-4.0,-1002.0,16:41:42.679835,192.168.0.111
942,-1,-100,-100,-100,"0,0,0",0,0,0,0,0,0,73,77,6553,0,71,9.7,0,5.0,-4.0,-1000.0,16:41:42.777866,192.168.0.111
945,-1,-100,-100,-100,"0,0,0",0,0,0,0,0,0,73,77,6553,0,71,9.69,0,4.0,-5.0,-997.0,16:41:42.824925,192.168.0.111
950,-1,-100,-100,-100,"0,0,0",0,0,0,0,0,0,73,77,6553,0,71,9.73,0,4.0,-5.0,-999.0,16:41:42.926036,192.168.0.111
956,-1,-100,-100,-100,"0,0,0",0,0,0,0,0,0,74,76,6553,0,71,9.68,0,3.0,-5.0,-1000.0,16:41:43.027455,192.168.0.111
959,-1,-100,-100,-100,"0,0,0",0,0,0,0,0,0,74,76,6553,0,71,9.72,0,6.0,-6.0,-998.0,16:41:43.131356,192.168.0.111
966,-1,-100,-100,-100,"0,0,0",0,0,0,0,0,0,74,76,6553,0,71,9.77,0,4.0,-6.0,-999.0,16:41:43.240273,192.168.0.111
973,-1,-100,-100,-100,"0,0,0",0,0,0,0,0,0,74,76,6553,0,71,9.77,0,3.0,-4.0,-1000.0,16:41:43.389814,192.168.0.111
976,-1,-100,-100,-100,"0,0,0",0,0,0,0,0,0,74,76,6553,0,71,9.73,0,5.0,-3.0,-998.0,16:41:43.446251,192.168.0.111
981,-1,-100,-100,-100,"0,0,0",0,0,0,0,0,0,74,76,6553,0,71,9.78,0,6.0,-4.0,-1000.0,16:41:43.537777,192.168.0.111
987,-1,-100,-100,-100,"0,0,0",0,0,0,0,0,0,74,76,6553,0,71,9.73,0,6.0,-4.0,-999.0,16:41:43.662239,192.168.0.111
991,-1,-100,-100,-100,"0,0,0",0,0,0,0,0,0,74,76,6553,0,71,9.73,0,4.0,-6.0,-999.0,16:41:43.762033,192.168.0.111
996,-1,-100,-100,-100,"0,0,0",0,0,0,0,0,0,74,76,6553,0,71,9.72,0,5.0,-3.0,-1000.0,16:41:43.849470,192.168.0.111
1001,-1,-100,-100,-100,"0,0,0",0,0,0,0,0,0,74,76,6553,0,71,9.73,0,4.0,-4.0,-1000.0,16:41:43.949676,192.168.0.111
1006,-1,-100,-100,-100,"0,0,0",0,0,0,0,0,0,74,77,6553,0,71,9.77,0,5.0,-6.0,-1001.0,16:41:44.050194,192.168.0.111
1011,-1,-100,-100,-100,"0,0,0",0,0,0,0,0,0,74,77,6553,0,71,9.78,0,4.0,-4.0,-1000.0,16:41:44.152173,192.168.0.111
1016,-1,-100,-100,-100,"0,0,0",0,0,0,0,0,0,74,77,6553,0,71,9.74,0,6.0,-5.0,-999.0,16:41:44.256813,192.168.0.111
1021,-1,-100,-100,-100,"0,0,0",0,0,0,0,0,0,74,77,6553,0,71,9.74,0,5.0,-5.0,-997.0,16:41:44.353281,192.168.0.111
1027,-1,-100,-100,-100,"0,0,0",0,0,0,0,0,0,74,77,6553,0,71,9.76,0,4.0,-5.0,-998.0,16:41:44.460231,192.168.0.111
1032,-1,-100,-100,-100,"0,0,0",0,0,0,0,0,0,74,77,6553,0,71,9.73,0,5.0,-4.0,-998.0,16:41:44.557912,192.168.0.111
1037,-1,-100,-100,-100,"0,0,0",0,0,0,0,0,0,74,77,6553,0,71,9.75,0,4.0,-4.0,-1001.0,16:41:44.659319,192.168.0.111
1042,-1,-100,-100,-100,"0,0,0",0,0,0,0,0,0,74,77,6553,0,71,9.7,0,5.0,-3.0,-999.0,16:41:44.763205,192.168.0.111
1047,-1,-100,-100,-100,"0,0,0",0,0,0,0,0,0,74,77,6553,0,71,9.72,0,4.0,-4.0,-999.0,16:41:44.870656,192.168.0.111
1052,-1,-100,-100,-100,"0,0,0",0,0,0,0,0,0,74,77,6553,0,71,9.75,0,5.0,-4.0,-1000.0,16:41:44.981985,192.168.0.111
1057,-1,-100,-100,-100,"0,0,0",0,0,0,0,0,0,75,77,6553,0,71,9.76,0,6.0,-5.0,-998.0,16:41:45.084281,192.168.0.111
1062,-1,-100,-100,-100,"0,0,0",0,0,0,0,0,0,75,77,6553,0,71,9.74,0,4.0,-4.0,-999.0,16:41:45.177523,192.168.0.111
1067,-1,-100,-100,-100,"0,0,0",0,0,0,0,0,0,75,77,6553,0,71,9.74,0,6.0,-4.0,-998.0,16:41:45.282701,192.168.0.111
1072,-1,-100,-100,-100,"0,0,0",0,0,0,0,0,0,75,77,6553,0,71,9.75,0,5.0,-4.0,-1001.0,16:41:45.374190,192.168.0.111
1077,-1,-100,-100,-100,"0,0,0",0,0,0,0,0,0,75,77,6553,0,71,9.75,0,5.0,-3.0,-998.0,16:41:45.478183,192.168.0.111
1082,-1,-100,-100,-100,"0,0,0",0,0,0,0,0,0,75,77,6553,0,71,9.69,0,4.0,-4.0,-1001.0,16:41:45.606536,192.168.0.111
1086,-1,-100,-100,-100,"0,0,0",0,0,0,0,0,0,75,77,6553,0,71,9.7,0,6.0,-4.0,-1001.0,16:41:45.679355,192.168.0.111
1092,-1,-100,-100,-100,"0,0,0",0,0,0,0,0,0,75,77,6553,0,71,9.74,0,3.0,-6.0,-1000.0,16:41:45.783210,192.168.0.111
1097,-1,-100,-100,-100,"0,0,0",0,0,0,0,0,0,75,77,6553,0,71,9.75,0,5.0,-4.0,-1001.0,16:41:45.883511,192.168.0.111
1101,-1,-100,-100,-100,"0,0,0",0,0,0,0,0,0,75,77,6553,0,71,9.74,0,5.0,-5.0,-999.0,16:41:45.989322,192.168.0.111
1107,-1,-100,-100,-100,"0,0,0",0,0,0,0,0,0,75,77,6553,0,71,9.78,0,4.0,-5.0,-1001.0,16:41:46.087210,192.168.0.111
1112,-1,-100,-100,-100,"0,0,0",0,0,0,0,0,0,75,77,6553,0,71,9.72,0,4.0,-5.0,-1001.0,16:41:46.189103,192.168.0.111
1117,-1,-100,-100,-100,"0,0,0",0,0,0,0,0,0,75,77,6553,0,71,9.74,0,4.0,-5.0,-1001.0,16:41:46.291426,192.168.0.111
1122,-1,-100,-100,-100,"0,0,0",0,0,0,0,0,0,75,77,6553,0,71,9.77,0,6.0,-4.0,-1001.0,16:41:46.394264,192.168.0.111
1126,-1,-100,-100,-100,"0,0,0",0,0,0,0,0,0,75,77,6553,0,71,9.75,0,4.0,-5.0,-1000.0,16:41:46.454039,192.168.0.111
1131,-1,-100,-100,-100,"0,0,0",0,0,0,0,0,0,75,77,6553,0,71,9.77,0,6.0,-5.0,-1002.0,16:41:46.546265,192.168.0.111
1135,-1,-100,-100,-100,"0,0,0",0,0,0,0,0,0,75,77,6553,0,71,9.74,0,4.0,-5.0,-1000.0,16:41:46.650083,192.168.0.111
1141,-1,-100,-100,-100,"0,0,0",0,0,0,0,0,0,75,77,6553,0,71,9.74,0,4.0,-5.0,-1002.0,16:41:46.755645,192.168.0.111
1146,-1,-100,-100,-100,"0,0,0",0,0,0,0,0,0,75,77,6553,0,71,9.71,0,6.0,-4.0,-1001.0,16:41:46.853794,192.168.0.111
1151,-1,-100,-100,-100,"0,0,0",0,0,0,0,0,0,75,77,6553,0,71,9.73,0,5.0,-5.0,-999.0,16:41:46.954265,192.168.0.111
1156,-1,-100,-100,-100,"0,0,0",0,0,0,0,0,0,75,77,6553,0,71,9.73,0,4.0,-4.0,-1001.0,16:41:47.056627,192.168.0.111
1161,-1,-100,-100,-100,"0,0,0",0,0,0,0,0,0,75,77,6553,0,71,9.72,0,4.0,-4.0,-1001.0,16:41:47.158494,192.168.0.111
1165,-1,-100,-100,-100,"0,0,0",0,0,0,0,0,0,75,77,6553,0,71,9.82,0,5.0,-4.0,-999.0,16:41:47.261136,192.168.0.111
1171,-1,-100,-100,-100,"0,0,0",0,0,0,0,0,0,75,77,6553,0,71,9.81,0,4.0,-5.0,-1000.0,16:41:47.362305,192.168.0.111
1176,-1,-100,-100,-100,"0,0,0",0,0,0,0,0,0,75,77,6553,0,71,9.74,0,4.0,-4.0,-1000.0,16:41:47.464830,192.168.0.111
1181,-1,-100,-100,-100,"0,0,0",0,0,0,0,0,0,75,77,6553,0,71,9.77,0,5.0,-4.0,-1000.0,16:41:47.570785,192.168.0.111
1186,-1,-100,-100,-100,"0,0,0",0,0,0,0,0,0,75,77,6553,0,71,9.74,0,5.0,-4.0,-1000.0,16:41:47.680799,192.168.0.111
1192,-1,-100,-100,-100,"0,0,0",0,0,0,0,0,0,75,77,6553,0,71,9.71,0,6.0,-4.0,-1000.0,16:41:47.778548,192.168.0.111
1197,-1,-100,-100,-100,"0,0,0",0,0,0,0,0,0,75,77,6553,0,71,9.77,0,5.0,-5.0,-998.0,16:41:47.872560,192.168.0.111
1202,-1,-100,-100,-100,"0,0,0",0,0,0,0,0,0,75,77,6553,0,71,9.77,0,4.0,-3.0,-1000.0,16:41:47.984128,192.168.0.111
1207,-1,-100,-100,-100,"0,0,0",0,0,0,0,0,0,75,77,6553,0,71,9.78,0,6.0,-6.0,-996.0,16:41:48.093075,192.168.0.111
1212,-1,-100,-100,-100,"0,0,0",0,0,0,0,0,0,75,77,6553,0,71,9.73,0,6.0,-4.0,-1004.0,16:41:48.184885,192.168.0.111
1217,-1,-100,-100,-100,"0,0,0",0,0,0,0,0,0,75,77,6553,0,71,9.76,0,6.0,-5.0,-999.0,16:41:48.287741,192.168.0.111
1222,-1,-100,-100,-100,"0,0,0",0,0,0,0,0,0,75,77,6553,0,71,9.78,0,5.0,-3.0,-1001.0,16:41:48.382394,192.168.0.111
1226,-1,-100,-100,-100,"0,0,0",0,0,0,0,0,0,75,77,6553,0,71,9.73,0,5.0,-3.0,-996.0,16:41:48.487881,192.168.0.111
1232,-1,-100,-100,-100,"0,0,0",0,0,0,0,0,0,75,77,6553,0,71,9.76,0,3.0,-3.0,-1000.0,16:41:48.589476,192.168.0.111
1236,-1,-100,-100,-100,"0,0,0",0,0,0,0,0,0,75,77,6553,0,71,9.77,0,6.0,-5.0,-998.0,16:41:48.699258,192.168.0.111
1241,-1,-100,-100,-100,"0,0,0",0,0,0,0,0,0,75,77,6553,0,71,9.8,0,3.0,-4.0,-1000.0,16:41:48.790531,192.168.0.111
1247,-1,-100,-100,-100,"0,0,0",0,0,0,0,0,0,75,77,6553,0,71,9.78,0,5.0,-5.0,-1001.0,16:41:48.892811,192.168.0.111
1252,-1,-100,-100,-100,"0,0,0",0,0,0,0,0,0,75,77,6553,0,71,9.75,0,6.0,-5.0,-1000.0,16:41:49.017175,192.168.0.111
1257,-1,-100,-100,-100,"0,0,0",0,0,0,0,0,0,75,77,6553,0,71,9.79,0,5.0,-5.0,-1000.0,16:41:49.114011,192.168.0.111
1262,-1,-100,-100,-100,"0,0,0",0,0,0,0,0,0,75,77,6553,0,71,9.73,0,4.0,-4.0,-1000.0,16:41:49.199133,192.168.0.111
1270,-1,-100,-100,-100,"0,0,0",0,0,0,0,0,0,75,77,6553,0,71,9.74,0,5.0,-5.0,-1000.0,16:41:49.363287,192.168.0.111
1272,-1,-100,-100,-100,"0,0,0",0,0,0,0,0,0,75,77,6553,0,71,9.77,0,4.0,-6.0,-997.0,16:41:49.418758,192.168.0.111
1276,-1,-100,-100,-100,"0,0,0",0,0,0,0,0,0,75,77,6553,0,71,9.75,0,5.0,-5.0,-1001.0,16:41:49.517849,192.168.0.111
1281,-1,-100,-100,-100,"0,0,0",0,0,0,0,0,0,75,77,6553,0,71,9.75,0,5.0,-5.0,-999.0,16:41:49.561533,192.168.0.111
1286,-1,-100,-100,-100,"0,0,0",0,0,0,0,0,0,75,77,6553,0,71,9.72,0,6.0,-4.0,-1001.0,16:41:49.709694,192.168.0.111
1291,-1,-100,-100,-100,"0,0,0",0,0,0,0,0,0,75,77,6553,0,71,9.75,0,5.0,-3.0,-1000.0,16:41:49.775825,192.168.0.111
1296,-1,-100,-100,-100,"0,0,0",0,0,0,0,0,0,75,77,6553,0,71,9.79,0,3.0,-5.0,-999.0,16:41:49.871058,192.168.0.111
1302,-1,-100,-100,-100,"0,0,0",0,0,0,0,0,0,75,77,6553,0,71,9.76,0,3.0,-4.0,-998.0,16:41:49.998278,192.168.0.111
1306,-1,-100,-100,-100,"0,0,0",0,0,0,0,0,0,75,77,6553,0,71,9.79,0,5.0,-4.0,-998.0,16:41:50.071546,192.168.0.111
1311,-1,-100,-100,-100,"0,0,0",0,0,0,0,0,0,75,77,6553,0,71,9.85,0,5.0,-4.0,-1001.0,16:41:50.180266,192.168.0.111
1316,-1,-100,-100,-100,"0,0,0",0,0,0,0,0,0,75,77,6553,0,71,9.73,0,4.0,-4.0,-998.0,16:41:50.281046,192.168.0.111
1321,-1,-100,-100,-100,"0,0,0",0,0,0,0,0,0,75,77,6553,0,71,9.79,0,5.0,-4.0,-997.0,16:41:50.381269,192.168.0.111
1326,-1,-100,-100,-100,"0,0,0",0,0,0,0,0,0,75,77,6553,0,71,9.76,0,4.0,-5.0,-999.0,16:41:50.480410,192.168.0.111
1331,-1,-100,-100,-100,"0,0,0",0,0,0,0,0,0,75,77,6553,0,71,9.75,0,4.0,-5.0,-999.0,16:41:50.581278,192.168.0.111
1336,-1,-100,-100,-100,"0,0,0",0,0,0,0,0,0,75,77,6553,0,71,9.72,0,4.0,-7.0,-998.0,16:41:50.684898,192.168.0.111
1340,-1,-100,-100,-100,"0,0,0",0,0,0,0,0,0,75,77,6553,0,71,9.74,0,5.0,-6.0,-1001.0,16:41:50.788326,192.168.0.111
1345,-1,-100,-100,-100,"0,0,0",0,0,0,0,0,0,75,77,6553,0,71,9.82,0,6.0,-4.0,-1001.0,16:41:50.902273,192.168.0.111
1350,-1,-100,-100,-100,"0,0,0",0,0,0,0,0,0,75,77,6553,0,71,9.76,0,4.0,-5.0,-1001.0,16:41:50.993863,192.168.0.111
1357,-1,-100,-100,-100,"0,0,0",0,0,0,0,0,0,75,77,6553,0,71,9.77,0,5.0,-3.0,-997.0,16:41:51.091991,192.168.0.111
1362,-1,-100,-100,-100,"0,0,0",0,0,0,0,0,0,75,77,6553,0,71,9.78,0,5.0,-3.0,-1001.0,16:41:51.193278,192.168.0.111
1367,-1,-100,-100,-100,"0,0,0",0,0,0,0,0,0,75,77,6553,0,71,9.76,0,3.0,-7.0,-998.0,16:41:51.296744,192.168.0.111
1372,-1,-100,-100,-100,"0,0,0",0,0,0,0,0,0,75,77,6553,0,71,9.74,0,5.0,-4.0,-997.0,16:41:51.397147,192.168.0.111
1377,-1,-100,-100,-100,"0,0,0",0,0,0,0,0,0,75,77,6553,0,71,9.76,0,5.0,-5.0,-998.0,16:41:51.499772,192.168.0.111
1382,-1,-100,-100,-100,"0,0,0",0,0,0,0,0,0,75,77,6553,0,71,9.76,0,4.0,-5.0,-1002.0,16:41:51.601282,192.168.0.111
1387,-1,-100,-100,-100,"0,0,0",0,0,0,0,0,0,75,77,6553,0,71,9.78,0,5.0,-4.0,-1000.0,16:41:51.703786,192.168.0.111
1392,-1,-100,-100,-100,"0,0,0",0,0,0,0,0,0,75,77,6553,0,71,9.72,0,3.0,-5.0,-1000.0,16:41:51.808513,192.168.0.111
1397,-1,-100,-100,-100,"0,0,0",0,0,0,0,0,0,75,77,6553,0,71,9.68,0,6.0,-5.0,-999.0,16:41:51.915977,192.168.0.111
1402,-1,-100,-100,-100,"0,0,0",0,0,0,0,0,0,75,77,6553,0,71,9.71,0,4.0,-4.0,-999.0,16:41:52.011181,192.168.0.111
1407,-1,-100,-100,-100,"0,0,0",0,0,0,0,0,0,74,77,6553,0,71,9.73,0,6.0,-3.0,-999.0,16:41:52.111249,192.168.0.111
1412,-1,-100,-100,-100,"0,0,0",0,0,0,0,0,0,74,77,6553,0,71,9.75,0,6.0,-6.0,-999.0,16:41:52.214408,192.168.0.111
1417,-1,-100,-100,-100,"0,0,0",0,0,0,0,0,0,74,77,6553,0,71,9.7,0,5.0,-5.0,-999.0,16:41:52.314936,192.168.0.111
1422,-1,-100,-100,-100,"0,0,0",0,0,0,0,0,0,74,77,6553,0,71,9.76,0,6.0,-4.0,-999.0,16:41:52.416716,192.168.0.111
1427,-1,-100,-100,-100,"0,0,0",0,0,0,0,0,0,74,77,6553,0,71,9.78,0,5.0,-3.0,-999.0,16:41:52.519066,192.168.0.111
1432,-1,-100,-100,-100,"0,0,0",0,0,0,0,0,0,74,77,6553,0,71,9.73,0,4.0,-4.0,-1001.0,16:41:52.621168,192.168.0.111
1437,-1,-100,-100,-100,"0,0,0",0,0,0,0,0,0,74,77,6553,0,71,9.78,0,5.0,-4.0,-999.0,16:41:52.723039,192.168.0.111
1441,-1,-100,-100,-100,"0,0,0",0,0,0,0,0,0,74,77,6553,0,71,9.79,0,5.0,-5.0,-997.0,16:41:52.774232,192.168.0.111
1446,-1,-100,-100,-100,"0,0,0",0,0,0,0,0,0,74,77,6553,0,71,9.71,0,5.0,-4.0,-999.0,16:41:52.876245,192.168.0.111
1451,-1,-100,-100,-100,"0,0,0",0,0,0,0,0,0,74,77,6553,0,71,9.8,0,5.0,-5.0,-1001.0,16:41:52.977998,192.168.0.111
1457,-1,-100,-100,-100,"0,0,0",0,0,0,0,0,0,74,78,6553,0,71,9.69,0,4.0,-4.0,-999.0,16:41:53.133212,192.168.0.111
1462,-1,-100,-100,-100,"0,0,0",0,0,0,0,0,0,74,78,6553,0,71,9.68,0,5.0,-5.0,-1000.0,16:41:53.233926,192.168.0.111
1466,-1,-100,-100,-100,"0,0,0",0,0,0,0,0,0,74,78,6553,0,71,9.75,0,5.0,-5.0,-998.0,16:41:53.285029,192.168.0.111
1471,-1,-100,-100,-100,"0,0,0",0,0,0,0,0,0,74,78,6553,0,71,9.71,0,4.0,-5.0,-1000.0,16:41:53.387103,192.168.0.111
1476,-1,-100,-100,-100,"0,0,0",0,0,0,0,0,0,74,78,6553,0,71,9.71,0,4.0,-5.0,-1000.0,16:41:53.488924,192.168.0.111
1481,-1,-100,-100,-100,"0,0,0",0,0,0,0,0,0,74,78,6553,0,70,9.7,0,5.0,-3.0,-1002.0,16:41:53.590855,192.168.0.111
1486,-1,-100,-100,-100,"0,0,0",0,0,0,0,0,0,74,78,6553,0,70,9.7,0,5.0,-3.0,-1000.0,16:41:53.693610,192.168.0.111
1491,-1,-100,-100,-100,"0,0,0",0,0,0,0,0,0,74,78,6553,0,70,9.74,0,4.0,-5.0,-999.0,16:41:53.794862,192.168.0.111
1496,-1,-100,-100,-100,"0,0,0",0,0,0,0,0,0,74,78,6553,0,70,9.71,0,6.0,-4.0,-998.0,16:41:53.897028,192.168.0.111
1501,-1,-100,-100,-100,"0,0,0",0,0,0,0,0,0,74,78,6553,0,70,9.7,0,4.0,-5.0,-1001.0,16:41:53.999335,192.168.0.111
1506,-1,-100,-100,-100,"0,0,0",0,0,0,0,0,0,74,77,6553,0,70,9.72,0,4.0,-6.0,-999.0,16:41:54.100922,192.168.0.111
1512,-1,-100,-100,-100,"0,0,0",0,0,0,0,0,0,74,77,6553,0,70,9.71,0,5.0,-5.0,-996.0,16:41:54.202907,192.168.0.111
1516,-1,-100,-100,-100,"0,0,0",0,0,0,0,0,0,74,77,6553,0,70,9.74,0,5.0,-5.0,-997.0,16:41:54.305173,192.168.0.111
1521,-1,-100,-100,-100,"0,0,0",0,0,0,0,0,0,74,77,6553,0,70,9.73,0,6.0,-4.0,-999.0,16:41:54.408413,192.168.0.111
1526,-1,-100,-100,-100,"0,0,0",0,0,0,0,0,0,74,77,6553,0,70,9.7,0,3.0,-4.0,-1000.0,16:41:54.509005,192.168.0.111
1531,-1,-100,-100,-100,"0,0,0",0,0,0,0,0,0,74,77,6553,0,70,9.69,0,4.0,-3.0,-1001.0,16:41:54.610893,192.168.0.111
1537,-1,-100,-100,-100,"0,0,0",0,0,0,0,0,0,74,77,6553,0,70,9.72,0,4.0,-6.0,-1000.0,16:41:54.712784,192.168.0.111
1542,-1,-100,-100,-100,"0,0,0",0,0,0,0,0,0,74,77,6553,0,70,9.67,0,4.0,-5.0,-1002.0,16:41:54.815752,192.168.0.111
1546,-1,-100,-100,-100,"0,0,0",0,0,0,0,0,0,74,77,6553,0,70,9.74,0,5.0,-4.0,-999.0,16:41:54.917535,192.168.0.111
1552,-1,-100,-100,-100,"0,0,0",0,0,0,0,0,0,74,77,6553,0,70,9.69,0,6.0,-4.0,-1000.0,16:41:55.018840,192.168.0.111
1557,-1,-100,-100,-100,"0,0,0",0,0,0,0,0,0,74,77,6553,0,70,9.68,0,5.0,-4.0,-998.0,16:41:55.121119,192.168.0.111
1562,-1,-100,-100,-100,"0,0,0",0,0,0,0,0,0,74,77,6553,0,70,9.75,0,6.0,-5.0,-998.0,16:41:55.222986,192.168.0.111
1567,-1,-100,-100,-100,"0,0,0",0,0,0,0,0,0,74,77,6553,0,70,9.68,0,5.0,-4.0,-1001.0,16:41:55.324919,192.168.0.111
1572,-1,-100,-100,-100,"0,0,0",0,0,0,0,0,0,74,77,6553,0,70,9.68,0,5.0,-3.0,-999.0,16:41:55.427159,192.168.0.111
1577,-1,-100,-100,-100,"0,0,0",0,0,0,0,0,0,74,77,6553,0,70,9.69,0,4.0,-3.0,-1000.0,16:41:55.531106,192.168.0.111
1582,-1,-100,-100,-100,"0,0,0",0,0,0,0,0,0,74,77,6553,0,70,9.67,0,6.0,-4.0,-1000.0,16:41:55.633586,192.168.0.111
1587,-1,-100,-100,-100,"0,0,0",0,0,0,0,0,0,74,77,6553,0,70,9.6,0,5.0,-4.0,-999.0,16:41:55.733851,192.168.0.111
1592,-1,-100,-100,-100,"0,0,0",0,0,0,0,0,0,74,77,6553,0,70,9.71,0,4.0,-3.0,-1000.0,16:41:55.835065,192.168.0.111
1597,-1,-100,-100,-100,"0,0,0",0,0,0,0,0,0,74,77,6553,0,70,9.69,0,5.0,-3.0,-1000.0,16:41:55.936922,192.168.0.111
1602,-1,-100,-100,-100,"0,0,0",0,0,0,0,0,0,74,77,6553,0,70,9.69,0,6.0,-5.0,-999.0,16:41:56.039004,192.168.0.111
1607,-1,-100,-100,-100,"0,0,0",0,0,0,0,0,0,74,78,6553,0,70,9.66,0,3.0,-3.0,-999.0,16:41:56.140946,192.168.0.111
1612,-1,-100,-100,-100,"0,0,0",0,0,0,0,0,0,74,78,6553,0,70,9.67,0,4.0,-2.0,-998.0,16:41:56.242891,192.168.0.111
1616,-1,-100,-100,-100,"0,0,0",0,0,0,0,0,0,74,78,6553,0,70,9.67,0,5.0,-3.0,-999.0,16:41:56.293702,192.168.0.111
1621,-1,-100,-100,-100,"0,0,0",0,0,0,0,0,0,74,78,6553,0,70,9.66,0,5.0,-5.0,-1001.0,16:41:56.396888,192.168.0.111
1626,-1,-100,-100,-100,"0,0,0",0,0,0,0,0,0,74,78,6553,0,70,9.71,0,6.0,-4.0,-997.0,16:41:56.498520,192.168.0.111
1631,-1,-100,-100,-100,"0,0,0",0,0,0,0,0,0,74,78,6553,0,70,9.68,0,5.0,-5.0,-1000.0,16:41:56.599868,192.168.0.111
1636,-1,-100,-100,-100,"0,0,0",0,0,0,0,0,0,74,78,6553,0,70,9.68,0,2.0,-7.0,-998.0,16:41:56.701725,192.168.0.111
1641,-1,-100,-100,-100,"0,0,0",0,0,0,0,0,0,74,78,6553,0,70,9.68,0,7.0,-11.0,-1002.0,16:41:56.803905,192.168.0.111
1646,-1,-100,-100,-100,"0,0,0",0,0,0,0,0,0,74,78,6553,0,70,9.68,0,-5.0,-23.0,-1010.0,16:41:56.905808,192.168.0.111
1651,-1,-100,-100,-100,"0,0,0",0,0,0,0,0,0,74,78,6553,0,70,9.68,0,15.0,7.0,-1021.0,16:41:57.012013,192.168.0.111
1656,-1,-100,-100,-100,"0,0,0",0,0,1,0,0,0,74,79,10,0,70,9.68,0,7.0,-1.0,-1059.0,16:41:57.114353,192.168.0.111
1661,-1,-100,-100,-100,"0,0,0",0,0,1,0,0,0,74,79,10,0,70,9.68,0,-2.0,5.0,-1223.0,16:41:57.211733,192.168.0.111
1666,-1,-100,-100,-100,"0,0,0",-1,0,1,0,0,2,74,79,10,0,70,9.68,0,4.0,4.0,-1337.0,16:41:57.323025,192.168.0.111
1671,-1,-100,-100,-100,"0,0,0",0,0,1,0,0,5,74,79,12,0,70,9.68,0,-16.0,-1.0,-1180.0,16:41:57.415780,192.168.0.111
1676,-1,-100,-100,-100,"0,0,0",1,0,1,0,0,7,74,79,20,10,70,9.94,0,-15.0,0.0,-1015.0,16:41:57.517993,192.168.0.111
1681,-1,-100,-100,-100,"0,0,0",0,0,1,0,0,8,74,79,29,20,70,9.99,0,18.0,-3.0,-1011.0,16:41:57.619780,192.168.0.111
1687,-1,-100,-100,-100,"0,0,0",1,0,1,0,0,8,74,79,36,20,70,10.1,1,1.0,2.0,-957.0,16:41:57.721607,192.168.0.111
1692,-1,-100,-100,-100,"0,0,0",1,0,1,0,0,8,74,79,43,30,70,10.13,1,-14.0,14.0,-923.0,16:41:57.823550,192.168.0.111
1697,-1,-100,-100,-100,"0,0,0",0,0,1,0,0,7,74,79,50,40,70,10.19,1,-13.0,15.0,-907.0,16:41:57.927643,192.168.0.111
1702,-1,-100,-100,-100,"0,0,0",0,0,1,0,0,6,74,79,56,50,70,10.3,1,1.0,8.0,-884.0,16:41:58.027698,192.168.0.111
1707,-1,-100,-100,-100,"0,0,0",0,0,1,0,0,5,75,78,61,50,70,10.36,1,24.0,-8.0,-882.0,16:41:58.129684,192.168.0.111
1712,-1,-100,-100,-100,"0,0,0",0,0,1,0,0,4,75,78,65,60,70,10.33,1,2.0,0.0,-903.0,16:41:58.231890,192.168.0.111
1717,-1,-100,-100,-100,"0,0,0",0,0,1,0,0,3,75,78,68,60,70,10.42,1,16.0,-9.0,-919.0,16:41:58.333809,192.168.0.111
1722,-1,-100,-100,-100,"0,0,0",0,0,1,0,0,2,75,78,71,60,70,10.44,1,16.0,-7.0,-937.0,16:41:58.435681,192.168.0.111
1727,-1,-100,-100,-100,"0,0,0",0,0,1,0,0,1,75,78,72,70,70,10.43,1,0.0,14.0,-962.0,16:41:58.537800,192.168.0.111
1732,-1,-100,-100,-100,"0,0,0",0,0,1,0,0,1,75,78,73,70,70,10.45,1,20.0,-5.0,-976.0,16:41:58.639695,192.168.0.111
1737,-1,-100,-100,-100,"0,0,0",0,0,1,0,0,0,75,78,74,70,70,10.51,2,12.0,-9.0,-988.0,16:41:58.741831,192.168.0.111
1742,-1,-100,-100,-100,"0,0,0",0,0,1,0,0,0,75,78,75,70,70,10.48,2,5.0,4.0,-1000.0,16:41:58.843806,192.168.0.111
1747,-1,-100,-100,-100,"0,0,0",0,0,1,0,0,0,75,78,75,70,70,10.44,2,-8.0,9.0,-1003.0,16:41:58.946422,192.168.0.111
1752,-1,-100,-100,-100,"0,0,0",0,0,1,0,0,0,75,78,76,70,70,10.39,2,39.0,-4.0,-1006.0,16:41:59.048391,192.168.0.111
1757,-1,-100,-100,-100,"0,0,0",0,0,1,0,0,0,74,78,76,70,70,10.46,2,18.0,-3.0,-994.0,16:41:59.151990,192.168.0.111
1762,-1,-100,-100,-100,"0,0,0",0,0,1,0,0,0,74,78,77,70,70,10.47,2,-4.0,12.0,-993.0,16:41:59.251523,192.168.0.111
1767,-1,-100,-100,-100,"0,0,0",0,0,1,0,0,0,74,78,77,70,70,10.44,2,28.0,-16.0,-1008.0,16:41:59.353829,192.168.0.111
1772,-1,-100,-100,-100,"0,0,0",0,0,1,0,0,0,74,78,78,70,70,10.53,2,12.0,6.0,-995.0,16:41:59.455609,192.168.0.111
1777,-1,-100,-100,-100,"0,0,0",0,0,1,0,0,0,74,78,78,70,70,10.51,2,16.0,-7.0,-1008.0,16:41:59.557398,192.168.0.111
1782,-1,-100,-100,-100,"0,0,0",0,0,1,0,0,0,74,78,79,80,70,10.49,2,16.0,-5.0,-991.0,16:41:59.659628,192.168.0.111
1787,-1,-100,-100,-100,"0,0,0",0,0,1,0,0,0,74,78,79,80,70,10.45,3,7.0,5.0,-1015.0,16:41:59.761696,192.168.0.111
1791,-1,-100,-100,-100,"0,0,0",0,0,1,0,0,0,74,78,80,80,70,10.48,3,-11.0,12.0,-1002.0,16:41:59.812326,192.168.0.111
1796,-1,-100,-100,-100,"0,0,0",0,0,1,0,0,0,74,78,80,80,70,10.44,3,0.0,-3.0,-990.0,16:41:59.914514,192.168.0.111
1801,-1,-100,-100,-100,"0,0,0",0,0,1,0,0,0,74,78,80,80,70,10.46,3,30.0,-17.0,-992.0,16:42:00.016535,192.168.0.111
1806,-1,-100,-100,-100,"0,0,0",0,0,1,0,0,0,75,77,80,80,70,10.49,3,11.0,-9.0,-989.0,16:42:00.118510,192.168.0.111
1811,-1,-100,-100,-100,"0,0,0",0,0,1,0,0,0,75,77,80,80,70,10.45,3,-11.0,17.0,-975.0,16:42:00.220655,192.168.0.111
1816,-1,-100,-100,-100,"0,0,0",0,0,1,0,0,0,75,77,80,80,70,10.41,3,-2.0,11.0,-984.0,16:42:00.322567,192.168.0.111
1821,-1,-100,-100,-100,"0,0,0",0,0,1,0,0,0,75,77,80,80,70,10.42,3,-1.0,8.0,-989.0,16:42:00.424844,192.168.0.111
1826,-1,-100,-100,-100,"0,0,0",0,0,1,0,0,0,75,77,80,80,70,10.48,3,14.0,1.0,-990.0,16:42:00.526389,192.168.0.111
1831,-1,-100,-100,-100,"0,0,0",1,0,1,0,0,0,75,77,80,80,70,10.48,3,1.0,17.0,-1005.0,16:42:00.628507,192.168.0.111
1835,-1,-100,-100,-100,"0,0,0",0,0,1,0,0,0,75,77,80,80,70,10.48,4,-12.0,8.0,-1002.0,16:42:00.730591,192.168.0.111
1841,-1,-100,-100,-100,"0,0,0",0,0,1,0,0,0,75,77,80,80,70,10.47,4,15.0,2.0,-982.0,16:42:00.832481,192.168.0.111
1846,-1,-100,-100,-100,"0,0,0",1,0,1,0,0,0,75,77,80,80,70,10.41,4,20.0,2.0,-985.0,16:42:00.934480,192.168.0.111
1851,-1,-100,-100,-100,"0,0,0",1,0,1,0,0,0,75,77,79,80,70,10.46,4,0.0,8.0,-992.0,16:42:01.036457,192.168.0.111
1857,-1,-100,-100,-100,"0,0,0",1,0,1,0,0,0,75,78,79,80,70,10.43,4,7.0,-1.0,-1014.0,16:42:01.138184,192.168.0.111
1862,-1,-100,-100,-100,"0,0,0",0,0,1,0,0,0,75,78,79,80,70,10.41,4,11.0,-4.0,-995.0,16:42:01.240519,192.168.0.111
1866,-1,-100,-100,-100,"0,0,0",0,0,1,0,0,0,75,78,79,80,70,10.42,4,6.0,0.0,-983.0,16:42:01.342478,192.168.0.111
1871,-1,-100,-100,-100,"0,0,0",1,0,1,0,0,0,75,78,79,80,70,10.43,4,4.0,3.0,-1008.0,16:42:01.445739,192.168.0.111
1876,-1,-100,-100,-100,"0,0,0",1,0,1,0,0,0,75,78,78,80,70,10.51,4,2.0,2.0,-999.0,16:42:01.547577,192.168.0.111
1881,-1,-100,-100,-100,"0,0,0",0,0,1,0,0,0,75,78,78,80,70,10.43,5,10.0,2.0,-991.0,16:42:01.648787,192.168.0.111
1887,-1,-100,-100,-100,"0,0,0",0,0,1,0,0,0,75,78,78,80,70,10.4,5,30.0,-15.0,-978.0,16:42:01.752126,192.168.0.111
1892,-1,-100,-100,-100,"0,0,0",0,0,1,0,0,0,75,78,78,70,70,10.4,5,-21.0,13.0,-990.0,16:42:01.852486,192.168.0.111
1897,-1,-100,-100,-100,"0,0,0",0,0,1,0,0,0,75,78,78,70,70,10.41,5,-17.0,10.0,-995.0,16:42:01.954602,192.168.0.111
1902,-1,-100,-100,-100,"0,0,0",0,0,1,0,0,0,75,78,78,70,70,10.42,5,33.0,-11.0,-1003.0,16:42:02.056462,192.168.0.111
1907,-1,-100,-100,-100,"0,0,0",0,0,1,0,0,0,74,77,79,70,70,10.4,5,5.0,-1.0,-995.0,16:42:02.160062,192.168.0.111
1912,-1,-100,-100,-100,"0,0,0",1,0,1,0,0,0,74,77,78,80,70,10.47,5,-1.0,-3.0,-988.0,16:42:02.260688,192.168.0.111
1917,-1,-100,-100,-100,"0,0,0",1,0,1,0,0,0,74,77,79,80,70,10.49,5,-5.0,5.0,-1003.0,16:42:02.362490,192.168.0.111
1922,-1,-100,-100,-100,"0,0,0",1,0,1,0,0,0,74,77,79,80,70,10.36,5,-28.0,15.0,-995.0,16:42:02.467033,192.168.0.111
1927,-1,-100,-100,-100,"0,0,0",1,0,1,0,0,0,74,77,79,80,70,10.46,5,18.0,-5.0,-999.0,16:42:02.566502,192.168.0.111
1932,-1,-100,-100,-100,"0,0,0",1,0,1,0,0,0,74,77,79,80,70,10.44,6,-5.0,12.0,-1008.0,16:42:02.668633,192.168.0.111
1937,-1,-100,-100,-100,"0,0,0",1,0,1,0,0,0,74,77,79,80,70,10.47,6,8.0,-1.0,-994.0,16:42:02.771980,192.168.0.111
1942,-1,-100,-100,-100,"0,0,0",1,0,1,0,0,0,74,77,80,80,70,10.44,6,12.0,4.0,-995.0,16:42:02.872443,192.168.0.111
1947,-1,-100,-100,-100,"0,0,0",1,0,1,0,0,0,74,77,80,80,70,10.41,6,-15.0,17.0,-989.0,16:42:02.974557,192.168.0.111
1952,-1,-100,-100,-100,"0,0,0",1,0,1,0,0,0,74,77,80,80,70,10.48,6,6.0,3.0,-990.0,16:42:03.076416,192.168.0.111
1957,-1,-100,-100,-100,"0,0,0",1,0,1,0,0,0,74,78,80,80,70,10.47,6,20.0,-6.0,-1005.0,16:42:03.178663,192.168.0.111
1962,-1,-100,-100,-100,"0,0,0",1,0,1,0,0,0,74,78,81,80,70,10.46,6,13.0,-3.0,-999.0,16:42:03.280891,192.168.0.111
1967,-1,-100,-100,-100,"0,0,0",1,0,1,0,0,0,74,78,81,80,70,10.44,6,11.0,-3.0,-987.0,16:42:03.382802,192.168.0.111
1971,-1,-100,-100,-100,"0,0,0",1,0,1,0,0,0,74,78,81,80,70,10.48,6,17.0,-10.0,-978.0,16:42:03.433637,192.168.0.111
1976,-1,-100,-100,-100,"0,0,0",1,0,1,0,0,0,74,78,82,80,70,10.41,6,-17.0,26.0,-992.0,16:42:03.535691,192.168.0.111
1981,-1,-100,-100,-100,"0,0,0",1,0,1,0,0,0,74,78,82,80,70,10.48,7,0.0,-6.0,-991.0,16:42:03.637456,192.168.0.111
1986,-1,-100,-100,-100,"0,0,0",1,0,1,0,0,0,74,78,82,80,70,10.47,7,7.0,-2.0,-987.0,16:42:03.739504,192.168.0.111
1991,-1,-100,-100,-100,"0,0,0",1,0,1,0,0,0,74,78,82,80,70,10.47,7,24.0,-15.0,-979.0,16:42:03.841292,192.168.0.111
1996,-1,-100,-100,-100,"0,0,0",1,0,1,0,0,0,74,78,83,80,70,10.44,7,-10.0,10.0,-986.0,16:42:03.944373,192.168.0.111
2001,-1,-100,-100,-100,"0,0,0",1,0,1,0,0,0,74,78,83,80,70,10.45,7,-4.0,6.0,-990.0,16:42:04.046670,192.168.0.111
2006,-1,-100,-100,-100,"0,0,0",1,0,1,0,0,0,74,78,83,80,70,10.43,7,12.0,3.0,-993.0,16:42:04.147665,192.168.0.111
2011,-1,-100,-100,-100,"0,0,0",1,0,1,0,0,0,74,78,83,80,70,10.5,7,5.0,2.0,-997.0,16:42:04.249317,192.168.0.111
2015,-1,-100,-100,-100,"0,0,0",1,0,1,0,0,0,74,78,83,80,70,10.41,7,31.0,-4.0,-997.0,16:42:04.352797,192.168.0.111
2021,-1,-100,-100,-100,"0,0,0",1,0,1,0,0,0,74,78,83,80,70,10.45,7,11.0,1.0,-1011.0,16:42:04.453293,192.168.0.111
2026,-1,-100,-100,-100,"0,0,0",1,0,1,0,0,0,74,78,83,80,70,10.43,7,5.0,5.0,-970.0,16:42:04.555263,192.168.0.111
2031,-1,-100,-100,-100,"0,0,0",2,0,1,0,0,0,74,78,83,80,70,10.4,8,14.0,0.0,-1001.0,16:42:04.657522,192.168.0.111
2036,-1,-100,-100,-100,"0,0,0",2,0,1,0,0,0,74,78,83,80,70,10.43,8,2.0,3.0,-998.0,16:42:04.759342,192.168.0.111
2041,-1,-100,-100,-100,"0,0,0",2,0,1,0,0,0,74,78,83,80,70,10.44,8,0.0,1.0,-990.0,16:42:04.861325,192.168.0.111
2046,-1,-100,-100,-100,"0,0,0",2,0,1,0,0,0,74,78,83,80,70,10.48,8,-7.0,5.0,-1007.0,16:42:04.963223,192.168.0.111
2051,-1,-100,-100,-100,"0,0,0",1,0,1,0,0,0,74,78,83,80,70,10.46,8,18.0,-3.0,-986.0,16:42:05.065688,192.168.0.111
2057,-1,-100,-100,-100,"0,0,0",2,0,1,0,0,0,75,77,83,80,70,10.47,8,3.0,4.0,-994.0,16:42:05.167440,192.168.0.111
2062,-1,-100,-100,-100,"0,0,0",2,0,1,0,0,0,75,77,83,80,70,10.46,8,12.0,-4.0,-974.0,16:42:05.269322,192.168.0.111
2066,-1,-100,-100,-100,"0,0,0",2,0,1,0,0,0,75,77,83,80,70,10.48,8,27.0,-3.0,-998.0,16:42:05.371428,192.168.0.111
2072,-1,-100,-100,-100,"0,0,0",2,0,1,0,0,0,75,77,83,80,70,10.45,8,6.0,2.0,-976.0,16:42:05.483119,192.168.0.111
2077,-1,-100,-100,-100,"0,0,0",2,0,1,0,0,0,75,77,83,80,70,10.41,8,5.0,1.0,-998.0,16:42:05.575985,192.168.0.111
2082,-1,-100,-100,-100,"0,0,0",1,0,1,0,0,0,75,77,83,80,70,10.48,9,14.0,-12.0,-996.0,16:42:05.684838,192.168.0.111
2087,-1,-100,-100,-100,"0,0,0",2,0,1,0,0,0,75,77,83,80,70,10.47,9,33.0,-4.0,-998.0,16:42:05.846777,192.168.0.111
2092,-1,-100,-100,-100,"0,0,0",2,0,1,0,0,0,75,77,83,80,70,10.51,9,20.0,-17.0,-994.0,16:42:05.980507,192.168.0.111
2097,-1,-100,-100,-100,"0,0,0",2,0,1,0,0,0,75,77,83,80,70,10.35,9,17.0,-10.0,-999.0,16:42:05.989048,192.168.0.111
2102,-1,-100,-100,-100,"0,0,0",2,0,1,0,0,0,75,77,83,80,70,10.39,9,11.0,-4.0,-996.0,16:42:06.275711,192.168.0.111
2107,-1,-100,-100,-100,"0,0,0",2,0,1,0,0,0,74,76,83,80,70,10.45,9,5.0,6.0,-987.0,16:42:06.281194,192.168.0.111
2112,-1,-100,-100,-100,"0,0,0",2,0,1,0,0,0,74,76,83,80,70,10.44,9,28.0,-15.0,-1007.0,16:42:06.327102,192.168.0.111
2117,-1,-100,-100,-100,"0,0,0",1,0,1,0,0,0,74,76,83,80,70,10.34,9,7.0,2.0,-995.0,16:42:06.399138,192.168.0.111
2122,-1,-100,-100,-100,"0,0,0",1,0,1,0,0,0,74,76,84,80,70,10.42,9,-2.0,5.0,-973.0,16:42:06.712847,192.168.0.111
2127,-1,-100,-100,-100,"0,0,0",1,0,1,0,0,0,74,76,84,80,70,10.32,9,9.0,0.0,-998.0,16:42:06.733826,192.168.0.111
2132,-1,-100,-100,-100,"0,0,0",1,0,1,0,0,0,74,76,83,80,70,10.33,10,31.0,-7.0,-1002.0,16:42:06.734036,192.168.0.111
2137,-1,-100,-100,-100,"0,0,0",1,0,1,0,0,0,74,76,84,80,70,10.4,10,32.0,-14.0,-999.0,16:42:06.947513,192.168.0.111
2142,-1,-100,-100,-100,"0,0,0",1,0,1,0,0,0,74,76,83,80,70,10.46,10,11.0,-3.0,-989.0,16:42:06.947983,192.168.0.111
2146,-1,-100,-100,-100,"0,0,0",2,0,1,0,0,0,74,76,83,80,70,10.38,10,3.0,11.0,-978.0,16:42:06.955527,192.168.0.111
2151,-1,-100,-100,-100,"0,0,0",2,0,1,0,0,0,74,76,83,80,70,10.46,10,19.0,-4.0,-1004.0,16:42:07.057575,192.168.0.111
2156,-1,-100,-100,-100,"0,0,0",2,0,1,0,0,0,74,76,83,80,70,10.37,10,30.0,-7.0,-1004.0,16:42:07.165993,192.168.0.111
2161,-1,-100,-100,-100,"0,0,0",2,0,1,0,0,0,74,76,83,80,70,10.39,10,21.0,-8.0,-996.0,16:42:07.268386,192.168.0.111
2166,-1,-100,-100,-100,"0,0,0",2,0,1,0,0,0,74,76,83,80,70,10.4,10,17.0,1.0,-1005.0,16:42:07.406915,192.168.0.111
2171,-1,-100,-100,-100,"0,0,0",2,0,1,0,0,0,74,76,83,80,70,10.45,10,8.0,2.0,-1002.0,16:42:07.530608,192.168.0.111
2176,-1,-100,-100,-100,"0,0,0",2,0,1,0,0,0,74,76,83,80,70,10.39,10,14.0,0.0,-1003.0,16:42:07.658813,192.168.0.111
2181,-1,-100,-100,-100,"0,0,0",2,0,1,0,0,0,74,76,83,80,70,10.43,11,25.0,-2.0,-1011.0,16:42:07.679584,192.168.0.111
2186,-1,-100,-100,-100,"0,0,0",2,0,1,0,0,0,74,76,83,80,70,10.42,11,13.0,0.0,-995.0,16:42:07.804856,192.168.0.111
2191,-1,-100,-100,-100,"0,0,0",2,0,1,0,0,0,74,76,83,80,70,10.37,11,0.0,6.0,-990.0,16:42:08.188562,192.168.0.111
2196,-1,-100,-100,-100,"0,0,0",2,0,1,0,0,0,74,76,83,80,70,10.4,11,9.0,1.0,-1001.0,16:42:08.373863,192.168.0.111
2201,-1,-100,-100,-100,"0,0,0",2,0,1,0,0,0,74,76,83,80,70,10.41,11,17.0,0.0,-1012.0,16:42:08.374170,192.168.0.111
2206,-1,-100,-100,-100,"0,0,0",2,0,1,0,0,0,73,76,82,80,70,10.43,11,6.0,5.0,-983.0,16:42:08.374467,192.168.0.111
2211,-1,-100,-100,-100,"0,0,0",2,0,1,0,0,0,73,76,82,80,70,10.4,11,13.0,3.0,-1019.0,16:42:08.374785,192.168.0.111
2216,-1,-100,-100,-100,"0,0,0",2,0,1,0,0,0,73,76,82,80,70,10.47,11,27.0,-1.0,-1020.0,16:42:08.409440,192.168.0.111
2221,-1,-100,-100,-100,"0,0,0",2,0,1,0,0,0,73,76,82,80,70,10.43,11,25.0,-8.0,-1006.0,16:42:08.495221,192.168.0.111
2226,-1,-100,-100,-100,"0,0,0",2,0,1,0,0,0,73,76,82,80,70,10.43,11,19.0,4.0,-1011.0,16:42:08.665839,192.168.0.111
2231,-1,-100,-100,-100,"0,0,0",2,0,1,0,0,0,73,76,82,80,70,10.36,12,23.0,-4.0,-1009.0,16:42:08.691221,192.168.0.111
2236,-1,-100,-100,-100,"0,0,0",3,0,1,0,0,0,73,76,81,80,70,10.43,12,17.0,-1.0,-1014.0,16:42:08.873992,192.168.0.111
2242,-1,-100,-100,-100,"0,0,0",4,0,1,1,0,0,73,76,82,80,70,10.42,12,10.0,9.0,-989.0,16:42:08.894028,192.168.0.111
2247,-1,-100,-100,-100,"0,0,0",5,0,1,1,0,0,73,76,81,80,70,10.45,12,26.0,-1.0,-1004.0,16:42:09.081248,192.168.0.111
2252,-1,-100,-100,-100,"0,0,0",5,0,1,1,0,0,73,76,81,80,70,10.41,12,18.0,2.0,-1011.0,16:42:09.137763,192.168.0.111
2257,-1,-100,-100,-100,"0,0,0",5,0,1,2,0,0,74,76,82,80,70,10.4,12,17.0,3.0,-987.0,16:42:09.209701,192.168.0.111
2262,-1,-100,-100,-100,"0,0,0",5,0,1,2,0,0,74,76,82,80,70,10.42,12,25.0,3.0,-1000.0,16:42:09.307240,192.168.0.111
2267,-1,-100,-100,-100,"0,0,0",5,0,1,3,0,0,74,76,82,80,70,10.38,12,37.0,-3.0,-1006.0,16:42:09.401033,192.168.0.111
2272,-1,-100,-100,-100,"0,0,0",5,0,1,3,0,0,74,76,82,80,70,10.31,12,42.0,-2.0,-988.0,16:42:09.504441,192.168.0.111
2277,-1,-100,-100,-100,"0,0,0",4,0,1,3,0,0,74,76,82,80,70,10.34,12,13.0,17.0,-991.0,16:42:09.622724,192.168.0.111
2282,-1,-100,-100,-100,"0,0,0",2,0,1,3,0,0,74,76,82,80,70,10.35,13,20.0,12.0,-999.0,16:42:09.773084,192.168.0.111
2287,-1,-100,-100,-100,"0,0,0",1,0,1,3,0,0,74,76,83,80,70,10.31,13,28.0,7.0,-989.0,16:42:09.820776,192.168.0.111
2292,-1,-100,-100,-100,"0,0,0",1,0,1,3,0,0,74,76,83,80,70,10.37,13,41.0,-17.0,-1004.0,16:42:09.924469,192.168.0.111
2297,-1,-100,-100,-100,"0,0,0",1,0,1,2,0,0,74,76,83,80,70,10.33,13,15.0,8.0,-1000.0,16:42:10.108617,192.168.0.111
2302,-1,-100,-100,-100,"0,0,0",1,0,1,2,0,0,74,76,83,80,70,10.34,13,31.0,0.0,-986.0,16:42:10.197447,192.168.0.111
2307,-1,-100,-100,-100,"0,0,0",0,0,1,2,0,0,73,77,84,80,70,10.33,13,20.0,11.0,-1004.0,16:42:10.230125,192.168.0.111
2312,-1,-100,-100,-100,"0,0,0",0,0,1,2,0,0,73,77,84,80,70,10.31,13,28.0,-7.0,-973.0,16:42:10.398353,192.168.0.111
2317,-1,-100,-100,-100,"0,0,0",0,0,1,1,0,0,73,77,84,80,70,10.37,13,22.0,3.0,-998.0,16:42:10.491989,192.168.0.111
2322,-1,-100,-100,-100,"0,0,0",1,0,1,1,0,0,73,77,84,80,70,10.33,13,21.0,2.0,-1006.0,16:42:10.610439,192.168.0.111
2327,-1,-100,-100,-100,"0,0,0",1,0,1,1,0,0,73,77,84,80,70,10.34,13,-5.0,2.0,-1016.0,16:42:10.657573,192.168.0.111
2332,-1,-100,-100,-100,"0,0,0",-1,0,1,0,0,0,73,77,84,80,70,10.38,14,17.0,0.0,-972.0,16:42:10.813748,192.168.0.111
2337,-1,-100,-100,-100,"0,0,0",0,0,1,0,0,0,73,77,84,80,70,10.35,14,1.0,4.0,-989.0,16:42:10.874588,192.168.0.111
2342,-1,-100,-100,-100,"0,0,0",0,0,1,0,0,0,73,77,83,80,70,10.32,14,4.0,4.0,-991.0,16:42:10.962180,192.168.0.111
2347,-1,-100,-100,-100,"0,0,0",1,0,1,0,0,0,73,77,82,80,70,10.42,14,-7.0,8.0,-994.0,16:42:11.042942,192.168.0.111
2351,-1,-100,-100,-100,"0,0,0",1,0,1,0,0,0,73,77,82,80,70,10.35,14,10.0,2.0,-1022.0,16:42:11.098301,192.168.0.111
2357,-1,-100,-100,-100,"0,0,0",1,1,1,0,0,0,73,77,81,80,70,10.38,14,-11.0,10.0,-1002.0,16:42:11.242449,192.168.0.111
2361,-1,-100,-100,-100,"0,0,0",2,1,1,0,0,0,73,77,80,80,70,10.4,14,-3.0,0.0,-1017.0,16:42:11.313933,192.168.0.111
2366,-1,-100,-100,-100,"0,0,0",2,1,1,0,0,0,73,77,80,80,70,10.36,14,1.0,5.0,-996.0,16:42:11.402660,192.168.0.111
2371,-1,-100,-100,-100,"0,0,0",2,1,1,0,0,0,73,77,80,80,70,10.39,14,-5.0,-9.0,-1012.0,16:42:11.504038,192.168.0.111
2376,-1,-100,-100,-100,"0,0,0",2,1,1,0,0,0,73,77,79,80,70,10.38,14,6.0,1.0,-998.0,16:42:11.607897,192.168.0.111
2380,-1,-100,-100,-100,"0,0,0",1,0,1,0,0,0,73,77,79,80,70,10.39,15,3.0,2.0,-1004.0,16:42:11.714606,192.168.0.111
2386,-1,-100,-100,-100,"0,0,0",1,0,1,0,0,0,73,77,78,80,70,10.4,15,3.0,1.0,-999.0,16:42:11.821038,192.168.0.111
2391,-1,-100,-100,-100,"0,0,0",1,0,1,0,0,0,73,77,78,80,70,10.41,15,21.0,-12.0,-1005.0,16:42:11.972405,192.168.0.111
2395,-1,-100,-100,-100,"0,0,0",1,0,1,0,0,0,73,77,79,80,70,10.45,15,-15.0,9.0,-1012.0,16:42:12.043357,192.168.0.111
2400,-1,-100,-100,-100,"0,0,0",2,0,1,0,0,0,73,77,79,80,70,10.38,15,4.0,-2.0,-1022.0,16:42:12.179350,192.168.0.111
2405,-1,-100,-100,-100,"0,0,0",2,1,1,0,0,0,73,76,79,80,70,10.41,15,-15.0,3.0,-1005.0,16:42:12.210498,192.168.0.111
2410,-1,-100,-100,-100,"0,0,0",3,1,1,0,0,0,73,76,79,80,70,10.36,15,5.0,0.0,-1013.0,16:42:12.317974,192.168.0.111
2416,-1,-100,-100,-100,"0,0,0",3,1,1,0,0,0,73,76,79,80,70,10.41,15,-4.0,4.0,-988.0,16:42:12.553605,192.168.0.111
2421,-1,-100,-100,-100,"0,0,0",3,1,1,0,0,0,73,76,79,80,70,10.37,15,0.0,-6.0,-987.0,16:42:12.640692,192.168.0.111
2426,-1,-100,-100,-100,"0,0,0",2,1,1,1,0,0,73,76,79,80,70,10.37,15,18.0,-17.0,-1016.0,16:42:12.646024,192.168.0.111
2432,-1,-100,-100,-100,"0,0,0",1,0,1,1,0,0,73,76,80,80,70,10.34,16,26.0,-9.0,-1006.0,16:42:12.728456,192.168.0.111
2437,-1,-100,-100,-100,"0,0,0",1,0,1,0,0,0,73,76,79,80,70,10.37,16,9.0,-5.0,-997.0,16:42:12.924687,192.168.0.111
2442,-1,-100,-100,-100,"0,0,0",1,0,1,0,0,0,73,76,80,80,70,10.36,16,6.0,0.0,-979.0,16:42:12.940241,192.168.0.111
2447,-1,-100,-100,-100,"0,0,0",1,0,1,0,0,0,73,76,80,80,70,10.43,16,-9.0,12.0,-995.0,16:42:13.053566,192.168.0.111
2452,-1,-100,-100,-100,"0,0,0",1,0,1,0,0,0,73,76,80,80,70,10.35,16,14.0,-3.0,-1005.0,16:42:13.145421,192.168.0.111
2457,-1,-100,-100,-100,"0,0,0",0,0,1,0,0,0,73,76,81,80,70,10.37,16,14.0,-7.0,-984.0,16:42:13.304163,192.168.0.111
2462,-1,-100,-100,-100,"0,0,0",0,0,1,0,0,0,73,76,81,80,70,10.36,16,-9.0,-2.0,-1003.0,16:42:13.334743,192.168.0.111
2467,-1,-100,-100,-100,"0,0,0",1,0,1,0,0,0,73,76,81,80,70,10.42,16,11.0,-11.0,-995.0,16:42:13.431343,192.168.0.111
2472,-1,-100,-100,-100,"0,0,0",1,1,1,0,0,0,73,76,82,80,70,10.34,16,27.0,-9.0,-1009.0,16:42:13.532933,192.168.0.111
2477,-1,-100,-100,-100,"0,0,0",2,1,1,0,0,0,73,76,82,80,70,10.38,16,-11.0,10.0,-980.0,16:42:13.656677,192.168.0.111
2482,-1,-100,-100,-100,"0,0,0",2,1,1,0,0,0,73,76,83,80,70,10.43,17,12.0,-6.0,-982.0,16:42:13.750720,192.168.0.111
2487,-1,-100,-100,-100,"0,0,0",2,1,1,0,0,0,73,76,83,80,70,10.34,17,17.0,-12.0,-1003.0,16:42:13.840996,192.168.0.111
2492,-1,-100,-100,-100,"0,0,0",2,1,1,0,0,0,73,76,83,80,70,10.34,17,10.0,-10.0,-994.0,16:42:13.949945,192.168.0.111
2497,-1,-100,-100,-100,"0,0,0",2,1,1,0,0,0,73,76,84,80,70,10.38,17,14.0,-6.0,-1006.0,16:42:14.086595,192.168.0.111
2502,-1,-100,-100,-100,"0,0,0",2,1,1,0,0,0,73,76,84,80,70,10.38,17,-2.0,-2.0,-1009.0,16:42:14.297925,192.168.0.111
2507,-1,-100,-100,-100,"0,0,0",2,1,1,0,0,0,73,75,84,80,70,10.37,17,7.0,-10.0,-1006.0,16:42:14.298503,192.168.0.111
2512,-1,-100,-100,-100,"0,0,0",2,1,1,0,0,0,73,75,84,80,70,10.45,17,-8.0,0.0,-998.0,16:42:14.383820,192.168.0.111
2517,-1,-100,-100,-100,"0,0,0",2,1,1,0,0,0,73,75,85,80,70,10.42,17,4.0,-2.0,-1002.0,16:42:14.489410,192.168.0.111
2522,-1,-100,-100,-100,"0,0,0",2,1,1,0,0,0,73,75,85,80,70,10.38,17,24.0,-27.0,-1003.0,16:42:14.556064,192.168.0.111
2527,-1,-100,-100,-100,"0,0,0",2,1,1,0,0,0,73,75,85,80,70,10.41,17,23.0,-16.0,-1003.0,16:42:14.658219,192.168.0.111
2532,-1,-100,-100,-100,"0,0,0",2,1,1,0,0,0,73,75,85,80,70,10.4,18,5.0,-8.0,-997.0,16:42:14.756500,192.168.0.111
2537,-1,-100,-100,-100,"0,0,0",3,1,1,0,0,0,73,75,85,80,70,10.39,18,29.0,-7.0,-1005.0,16:42:14.865992,192.168.0.111
2541,-1,-100,-100,-100,"0,0,0",4,2,1,1,0,0,73,75,85,80,70,10.41,18,-13.0,6.0,-988.0,16:42:15.049039,192.168.0.111
2546,-1,-100,-100,-100,"0,0,0",4,2,1,1,0,0,73,75,85,80,70,10.4,18,36.0,-15.0,-1009.0,16:42:15.049499,192.168.0.111
2551,-1,-100,-100,-100,"0,0,0",4,2,1,1,0,0,73,75,85,80,70,10.39,18,16.0,0.0,-1005.0,16:42:15.148034,192.168.0.111
2556,-1,-100,-100,-100,"0,0,0",4,2,1,2,-1,0,73,76,85,80,70,10.36,18,15.0,-9.0,-1008.0,16:42:15.220792,192.168.0.111
2561,-1,-100,-100,-100,"0,0,0",4,2,1,2,-1,0,73,76,85,80,70,10.39,18,12.0,4.0,-1010.0,16:42:15.344268,192.168.0.111
2566,-1,-100,-100,-100,"0,0,0",4,2,1,2,-1,0,73,76,84,80,70,10.34,18,36.0,-14.0,-1003.0,16:42:15.892055,192.168.0.111
2571,-1,-100,-100,-100,"0,0,0",4,2,1,3,-1,0,73,76,84,80,70,10.29,18,32.0,8.0,-991.0,16:42:15.897710,192.168.0.111
2576,-1,-100,-100,-100,"0,0,0",4,2,1,3,-1,0,73,76,83,80,70,10.32,18,56.0,-1.0,-1016.0,16:42:15.898105,192.168.0.111
2581,-1,-100,-100,-100,"0,0,0",3,1,1,3,-1,0,73,76,83,80,70,10.26,19,23.0,0.0,-991.0,16:42:15.908888,192.168.0.111
2586,-1,-100,-100,-100,"0,0,0",2,0,1,3,-1,0,73,76,83,80,70,10.32,19,32.0,0.0,-1008.0,16:42:15.909288,192.168.0.111
2591,-1,-100,-100,-100,"0,0,0",1,0,1,3,-1,0,73,76,84,80,70,10.28,19,56.0,-14.0,-986.0,16:42:15.940588,192.168.0.111
2596,-1,-100,-100,-100,"0,0,0",1,0,1,2,-1,0,73,76,83,80,70,10.23,19,22.0,2.0,-1016.0,16:42:16.039531,192.168.0.111
2601,-1,-100,-100,-100,"0,0,0",1,0,1,2,-1,0,73,76,83,80,70,10.32,19,28.0,-1.0,-990.0,16:42:16.136603,192.168.0.111
2607,-1,-100,-100,-100,"0,0,0",1,0,1,2,-1,0,73,76,83,80,70,10.29,19,27.0,4.0,-986.0,16:42:16.296694,192.168.0.111
2612,-1,-100,-100,-100,"0,0,0",1,0,1,2,-1,0,73,76,83,80,70,10.28,19,34.0,0.0,-997.0,16:42:16.417202,192.168.0.111
2617,-1,-100,-100,-100,"0,0,0",1,0,1,1,-1,0,73,76,83,80,70,10.28,19,30.0,-2.0,-1004.0,16:42:16.576884,192.168.0.111
2622,-1,-100,-100,-100,"0,0,0",1,0,1,1,0,0,73,76,83,80,70,10.34,19,51.0,-13.0,-1002.0,16:42:16.577574,192.168.0.111
2627,-1,-100,-100,-100,"0,0,0",1,0,1,1,0,0,73,76,83,80,70,10.26,19,14.0,5.0,-992.0,16:42:16.721478,192.168.0.111
2632,-1,-100,-100,-100,"0,0,0",1,0,1,1,0,0,73,76,83,80,70,10.34,20,25.0,-5.0,-1001.0,16:42:16.750866,192.168.0.111
2637,-1,-100,-100,-100,"0,0,0",-1,-1,1,1,0,0,73,76,83,80,70,10.25,20,0.0,3.0,-983.0,16:42:16.901426,192.168.0.111
2642,-1,-100,-100,-100,"0,0,0",0,0,1,0,0,0,73,76,83,80,70,10.23,20,11.0,0.0,-994.0,16:42:16.947443,192.168.0.111
2647,-1,-100,-100,-100,"0,0,0",0,0,1,0,0,0,73,76,81,80,70,10.31,20,-22.0,13.0,-1005.0,16:42:17.108321,192.168.0.111
2652,-1,-100,-100,-100,"0,0,0",1,0,1,0,0,0,73,76,81,80,70,10.31,20,21.0,-4.0,-1002.0,16:42:17.400787,192.168.0.111
2657,-1,-100,-100,-100,"0,0,0",2,0,1,0,0,0,73,75,80,80,70,10.3,20,7.0,8.0,-991.0,16:42:17.402717,192.168.0.111
