,mid,x,y,z,mpry,pitch,roll,yaw,vgx,vgy,vgz,templ,temph,tof,h,bat,baro,time,agx,agy,agz,timestamp,address
5,-1,-100,-100,-100,"0,0,0",0,0,0,0,0,0,54,57,10,0,90,9.66,0,0.0,0.0,-1002.0,16:41:23.888130,192.168.0.115
10,-1,-100,-100,-100,"0,0,0",0,0,0,0,0,0,54,57,10,0,90,9.66,0,0.0,0.0,-1001.0,16:41:23.989836,192.168.0.115
15,-1,-100,-100,-100,"0,0,0",0,0,0,0,0,0,54,57,10,0,90,9.57,0,0.0,0.0,-1001.0,16:41:24.091955,192.168.0.115
20,-1,-100,-100,-100,"0,0,0",0,0,0,0,0,0,54,57,10,0,90,9.62,0,0.0,0.0,-1001.0,16:41:24.193827,192.168.0.115
25,-1,-100,-100,-100,"0,0,0",0,0,0,0,0,0,54,57,10,0,90,9.56,0,0.0,0.0,-1000.0,16:41:24.295985,192.168.0.115
30,-1,-100,-100,-100,"0,0,0",0,0,0,0,0,0,54,57,10,0,90,9.59,0,-1.0,0.0,-1000.0,16:41:24.399000,192.168.0.115
35,-1,-100,-100,-100,"0,0,0",0,0,0,0,0,0,54,57,10,0,90,9.63,0,0.0,0.0,-1001.0,16:41:24.503331,192.168.0.115
40,-1,-100,-100,-100,"0,0,0",0,0,0,0,0,0,55,57,10,0,90,9.62,0,0.0,0.0,-1002.0,16:41:24.602008,192.168.0.115
45,-1,-100,-100,-100,"0,0,0",0,0,0,0,0,0,55,57,10,0,90,9.61,0,0.0,0.0,-1000.0,16:41:24.773261,192.168.0.115
50,-1,-100,-100,-100,"0,0,0",0,0,0,0,0,0,55,57,10,0,90,9.66,0,0.0,0.0,-1000.0,16:41:24.806119,192.168.0.115
55,-1,-100,-100,-100,"0,0,0",0,0,0,0,0,0,55,57,10,0,90,9.59,0,-1.0,0.0,-1001.0,16:41:24.915886,192.168.0.115
57,-1,-100,-100,-100,"0,0,0",0,0,0,0,0,0,55,57,10,0,90,9.63,0,0.0,0.0,-999.0,16:41:24.958677,192.168.0.115
62,-1,-100,-100,-100,"0,0,0",0,0,0,0,0,0,55,57,10,0,90,9.62,0,0.0,0.0,-998.0,16:41:25.060601,192.168.0.115
67,-1,-100,-100,-100,"0,0,0",0,0,0,0,0,0,55,57,10,0,90,9.64,0,0.0,0.0,-1000.0,16:41:25.163769,192.168.0.115
72,-1,-100,-100,-100,"0,0,0",0,0,0,0,0,0,55,57,10,0,90,9.59,0,-1.0,0.0,-999.0,16:41:25.265306,192.168.0.115
77,-1,-100,-100,-100,"0,0,0",0,0,0,0,0,0,55,57,10,0,90,9.63,0,0.0,0.0,-998.0,16:41:25.372527,192.168.0.115
82,-1,-100,-100,-100,"0,0,0",0,0,0,0,0,0,55,57,10,0,90,9.59,0,-1.0,1.0,-996.0,16:41:25.468661,192.168.0.115
88,-1,-100,-100,-100,"0,0,0",0,0,0,0,0,0,57,59,10,0,90,9.59,0,0.0,0.0,-1001.0,16:41:25.577543,192.168.0.115
93,-1,-100,-100,-100,"0,0,0",0,0,0,0,0,0,57,59,10,0,90,9.6,0,0.0,-1.0,-999.0,16:41:25.680128,192.168.0.115
98,-1,-100,-100,-100,"0,0,0",0,0,0,0,0,0,57,59,10,0,90,9.58,0,0.0,0.0,-1003.0,16:41:25.774737,192.168.0.115
103,-1,-100,-100,-100,"0,0,0",0,0,0,0,0,0,57,59,10,0,90,9.64,0,0.0,1.0,-998.0,16:41:25.879353,192.168.0.115
108,-1,-100,-100,-100,"0,0,0",0,0,0,0,0,0,57,59,10,0,90,9.63,0,0.0,1.0,-999.0,16:41:25.980333,192.168.0.115
113,-1,-100,-100,-100,"0,0,0",0,0,0,0,0,0,57,59,10,0,90,9.61,0,0.0,0.0,-1003.0,16:41:26.080613,192.168.0.115
118,-1,-100,-100,-100,"0,0,0",0,0,0,0,0,0,57,59,10,0,90,9.59,0,0.0,0.0,-1001.0,16:41:26.182729,192.168.0.115
124,-1,-100,-100,-100,"0,0,0",0,0,0,0,0,0,57,59,10,0,90,9.65,0,0.0,0.0,-998.0,16:41:26.284765,192.168.0.115
129,-1,-100,-100,-100,"0,0,0",0,0,0,0,0,0,57,59,10,0,90,9.63,0,0.0,0.0,-1000.0,16:41:26.386807,192.168.0.115
134,-1,-100,-100,-100,"0,0,0",0,0,0,0,0,0,57,59,10,0,90,9.64,0,0.0,0.0,-999.0,16:41:26.488617,192.168.0.115
139,-1,-100,-100,-100,"0,0,0",0,0,0,0,0,0,58,59,10,0,90,9.62,0,0.0,1.0,-1000.0,16:41:26.590739,192.168.0.115
144,-1,-100,-100,-100,"0,0,0",0,0,0,0,0,0,58,59,10,0,90,9.62,0,0.0,0.0,-1002.0,16:41:26.692714,192.168.0.115
149,-1,-100,-100,-100,"0,0,0",0,0,0,0,0,0,58,59,10,0,90,9.57,0,-1.0,0.0,-1000.0,16:41:26.796109,192.168.0.115
154,-1,-100,-100,-100,"0,0,0",0,0,0,0,0,0,58,59,10,0,90,9.58,0,0.0,0.0,-1001.0,16:41:26.898737,192.168.0.115
159,-1,-100,-100,-100,"0,0,0",0,0,0,0,0,0,58,59,10,0,90,9.65,0,0.0,0.0,-1000.0,16:41:27.006964,192.168.0.115
164,-1,-100,-100,-100,"0,0,0",0,0,0,0,0,0,58,59,10,0,90,9.68,0,0.0,0.0,-999.0,16:41:27.102396,192.168.0.115
170,-1,-100,-100,-100,"0,0,0",0,0,0,0,0,0,58,59,10,0,90,9.64,0,0.0,1.0,-1000.0,16:41:27.217076,192.168.0.115
175,-1,-100,-100,-100,"0,0,0",0,0,0,0,0,0,58,59,10,0,90,9.59,0,0.0,0.0,-999.0,16:41:27.304722,192.168.0.115
180,-1,-100,-100,-100,"0,0,0",0,0,0,0,0,0,58,59,10,0,90,9.61,0,-1.0,0.0,-997.0,16:41:27.412374,192.168.0.115
185,-1,-100,-100,-100,"0,0,0",0,0,0,0,0,0,58,59,10,0,90,9.6,0,0.0,0.0,-1000.0,16:41:27.510652,192.168.0.115
187,-1,-100,-100,-100,"0,0,0",0,0,0,0,0,0,58,60,10,0,90,9.61,0,-1.0,0.0,-1002.0,16:41:27.563990,192.168.0.115
192,-1,-100,-100,-100,"0,0,0",0,0,0,0,0,0,58,60,10,0,90,9.59,0,0.0,0.0,-1000.0,16:41:27.662326,192.168.0.115
197,-1,-100,-100,-100,"0,0,0",0,0,0,0,0,0,58,60,10,0,90,9.62,0,0.0,0.0,-1000.0,16:41:27.763497,192.168.0.115
202,-1,-100,-100,-100,"0,0,0",0,0,0,0,0,0,58,60,10,0,90,9.57,0,-1.0,0.0,-999.0,16:41:27.866146,192.168.0.115
207,-1,-100,-100,-100,"0,0,0",0,0,0,0,0,0,58,60,10,0,90,9.61,0,0.0,0.0,-1001.0,16:41:27.968630,192.168.0.115
212,-1,-100,-100,-100,"0,0,0",0,0,0,0,0,0,58,60,10,0,90,9.55,0,-2.0,0.0,-1000.0,16:41:28.071767,192.168.0.115
219,-1,-100,-100,-100,"0,0,0",0,0,0,0,0,0,58,60,10,0,90,9.55,0,0.0,0.0,-999.0,16:41:28.191115,192.168.0.115
223,-1,-100,-100,-100,"0,0,0",0,0,0,0,0,0,58,60,10,0,90,9.58,0,0.0,0.0,-998.0,16:41:28.283592,192.168.0.115
226,-1,-100,-100,-100,"0,0,0",0,0,0,0,0,0,58,60,10,0,90,9.57,0,0.0,1.0,-1001.0,16:41:28.377602,192.168.0.115
232,-1,-100,-100,-100,"0,0,0",0,0,0,0,0,0,58,60,10,0,90,9.59,0,1.0,0.0,-1000.0,16:41:28.477787,192.168.0.115
236,-1,-100,-100,-100,"0,0,0",0,0,0,0,0,0,58,61,10,0,90,9.6,0,0.0,-1.0,-999.0,16:41:28.581894,192.168.0.115
242,-1,-100,-100,-100,"0,0,0",0,0,0,0,0,0,58,61,10,0,90,9.57,0,-1.0,0.0,-1003.0,16:41:28.681576,192.168.0.115
247,-1,-100,-100,-100,"0,0,0",0,0,0,0,0,0,58,61,10,0,90,9.62,0,-1.0,0.0,-1003.0,16:41:28.783786,192.168.0.115
253,-1,-100,-100,-100,"0,0,0",0,0,0,0,0,0,58,61,10,0,90,9.6,0,0.0,0.0,-999.0,16:41:28.887374,192.168.0.115
258,-1,-100,-100,-100,"0,0,0",0,0,0,0,0,0,58,61,10,0,90,9.59,0,0.0,0.0,-999.0,16:41:28.987644,192.168.0.115
263,-1,-100,-100,-100,"0,0,0",0,0,0,0,0,0,58,61,10,0,90,9.59,0,0.0,0.0,-1001.0,16:41:29.089963,192.168.0.115
268,-1,-100,-100,-100,"0,0,0",0,0,0,0,0,0,58,61,10,0,90,9.58,0,0.0,0.0,-1000.0,16:41:29.191577,192.168.0.115
273,-1,-100,-100,-100,"0,0,0",0,0,0,0,0,0,58,61,10,0,90,9.59,0,0.0,-1.0,-999.0,16:41:29.294242,192.168.0.115
278,-1,-100,-100,-100,"0,0,0",0,0,0,0,0,0,58,61,10,0,90,9.53,0,0.0,0.0,-999.0,16:41:29.395612,192.168.0.115
284,-1,-100,-100,-100,"0,0,0",0,0,0,0,0,0,58,61,10,0,90,9.58,0,-1.0,0.0,-1002.0,16:41:29.512817,192.168.0.115
289,-1,-100,-100,-100,"0,0,0",0,0,0,0,0,0,59,61,10,0,90,9.58,0,-2.0,0.0,-1002.0,16:41:29.599470,192.168.0.115
294,-1,-100,-100,-100,"0,0,0",0,0,0,0,0,0,59,61,10,0,90,9.6,0,0.0,0.0,-999.0,16:41:29.716318,192.168.0.115
299,-1,-100,-100,-100,"0,0,0",0,0,0,0,0,0,59,61,10,0,90,9.57,0,0.0,0.0,-1001.0,16:41:29.805808,192.168.0.115
304,-1,-100,-100,-100,"0,0,0",0,0,0,0,0,0,59,61,10,0,90,9.6,0,0.0,0.0,-1000.0,16:41:29.922274,192.168.0.115
309,-1,-100,-100,-100,"0,0,0",0,0,0,0,0,0,59,61,10,0,90,9.59,0,-1.0,0.0,-1000.0,16:41:30.016313,192.168.0.115
312,-1,-100,-100,-100,"0,0,0",0,0,0,0,0,0,59,61,10,0,90,9.59,0,0.0,0.0,-1001.0,16:41:30.060669,192.168.0.115
317,-1,-100,-100,-100,"0,0,0",0,0,0,0,0,0,59,61,10,0,90,9.59,0,0.0,2.0,-1000.0,16:41:30.163505,192.168.0.115
322,-1,-100,-100,-100,"0,0,0",0,0,0,0,0,0,59,61,10,0,90,9.57,0,-1.0,1.0,-1000.0,16:41:30.276729,192.168.0.115
327,-1,-100,-100,-100,"0,0,0",0,0,0,0,0,0,59,61,10,0,90,9.58,0,0.0,1.0,-999.0,16:41:30.365709,192.168.0.115
332,-1,-100,-100,-100,"0,0,0",0,0,0,0,0,0,59,61,10,0,90,9.56,0,0.0,1.0,-999.0,16:41:30.467749,192.168.0.115
337,-1,-100,-100,-100,"0,0,0",0,0,0,0,0,0,59,62,10,0,90,9.51,0,0.0,0.0,-999.0,16:41:30.579958,192.168.0.115
341,-1,-100,-100,-100,"0,0,0",0,0,0,0,0,0,59,62,10,0,90,9.55,0,0.0,1.0,-1000.0,16:41:30.676081,192.168.0.115
349,-1,-100,-100,-100,"0,0,0",0,0,0,0,0,0,59,62,10,0,90,9.58,0,0.0,1.0,-998.0,16:41:30.789810,192.168.0.115
352,-1,-100,-100,-100,"0,0,0",0,0,0,0,0,0,59,62,10,0,90,9.55,0,0.0,1.0,-998.0,16:41:30.879631,192.168.0.115
357,-1,-100,-100,-100,"0,0,0",0,0,0,0,0,0,59,62,10,0,90,9.54,0,0.0,0.0,-1001.0,16:41:30.978231,192.168.0.115
362,-1,-100,-100,-100,"0,0,0",0,0,0,0,0,0,59,62,10,0,90,9.53,0,0.0,2.0,-1000.0,16:41:31.083595,192.168.0.115
367,-1,-100,-100,-100,"0,0,0",0,0,0,0,0,0,59,62,10,0,90,9.56,0,-1.0,0.0,-999.0,16:41:31.184186,192.168.0.115
372,-1,-100,-100,-100,"0,0,0",0,0,0,0,0,0,59,62,10,0,90,9.59,0,0.0,0.0,-999.0,16:41:31.284336,192.168.0.115
377,-1,-100,-100,-100,"0,0,0",0,0,0,0,0,0,59,62,10,0,90,9.57,0,0.0,0.0,-1001.0,16:41:31.386429,192.168.0.115
382,-1,-100,-100,-100,"0,0,0",0,0,0,0,0,0,59,62,10,0,90,9.57,0,0.0,1.0,-1001.0,16:41:31.488249,192.168.0.115
387,-1,-100,-100,-100,"0,0,0",0,0,0,0,0,0,60,62,10,0,90,9.56,0,1.0,0.0,-1000.0,16:41:31.594610,192.168.0.115
392,-1,-100,-100,-100,"0,0,0",0,0,0,0,0,0,60,62,10,0,90,9.55,0,0.0,0.0,-999.0,16:41:31.692175,192.168.0.115
397,-1,-100,-100,-100,"0,0,0",0,0,0,0,0,0,60,62,10,0,90,9.57,0,-1.0,0.0,-998.0,16:41:31.794266,192.168.0.115
402,-1,-100,-100,-100,"0,0,0",0,0,0,0,0,0,60,62,10,0,90,9.55,0,0.0,0.0,-1001.0,16:41:31.897778,192.168.0.115
407,-1,-100,-100,-100,"0,0,0",0,0,0,0,0,0,60,62,10,0,90,9.58,0,0.0,0.0,-1001.0,16:41:31.999157,192.168.0.115
412,-1,-100,-100,-100,"0,0,0",0,0,0,0,0,0,60,62,10,0,90,9.59,0,0.0,0.0,-999.0,16:41:32.108714,192.168.0.115
417,-1,-100,-100,-100,"0,0,0",0,0,0,0,0,0,60,62,10,0,90,9.61,0,0.0,0.0,-997.0,16:41:32.211463,192.168.0.115
422,-1,-100,-100,-100,"0,0,0",0,0,0,0,0,0,60,62,10,0,90,9.61,0,0.0,1.0,-999.0,16:41:32.304449,192.168.0.115
428,-1,-100,-100,-100,"0,0,0",0,0,0,0,0,0,60,62,10,0,90,9.58,0,-1.0,0.0,-1001.0,16:41:32.413485,192.168.0.115
433,-1,-100,-100,-100,"0,0,0",0,0,0,0,0,0,60,62,10,0,90,9.48,0,-1.0,-1.0,-999.0,16:41:32.510010,192.168.0.115
437,-1,-100,-100,-100,"0,0,0",0,0,0,0,0,0,60,62,10,0,90,9.52,0,-1.0,0.0,-997.0,16:41:32.559432,192.168.0.115
442,-1,-100,-100,-100,"0,0,0",0,0,0,0,0,0,60,62,10,0,90,9.59,0,0.0,0.0,-999.0,16:41:32.670779,192.168.0.115
447,-1,-100,-100,-100,"0,0,0",0,0,0,0,0,0,60,62,10,0,90,9.55,0,0.0,0.0,-1000.0,16:41:32.763310,192.168.0.115
453,-1,-100,-100,-100,"0,0,0",0,0,0,0,0,0,60,62,10,0,90,9.51,0,0.0,0.0,-998.0,16:41:32.873304,192.168.0.115
457,-1,-100,-100,-100,"0,0,0",0,0,0,0,0,0,60,62,10,0,90,9.59,0,-1.0,1.0,-1000.0,16:41:32.968732,192.168.0.115
462,-1,-100,-100,-100,"0,0,0",0,0,0,0,0,0,60,62,10,0,90,9.55,0,0.0,0.0,-1000.0,16:41:33.070261,192.168.0.115
467,-1,-100,-100,-100,"0,0,0",0,0,0,0,0,0,60,62,10,0,90,9.58,0,-1.0,0.0,-1001.0,16:41:33.171452,192.168.0.115
472,-1,-100,-100,-100,"0,0,0",0,0,0,0,0,0,60,62,10,0,90,9.59,0,0.0,1.0,-998.0,16:41:33.273960,192.168.0.115
477,-1,-100,-100,-100,"0,0,0",0,0,0,0,0,0,60,62,10,0,90,9.53,0,0.0,0.0,-999.0,16:41:33.375098,192.168.0.115
482,-1,-100,-100,-100,"0,0,0",0,0,0,0,0,0,60,62,10,0,90,9.55,0,0.0,0.0,-1000.0,16:41:33.477390,192.168.0.115
487,-1,-100,-100,-100,"0,0,0",0,0,0,0,0,0,60,62,10,0,90,9.51,0,0.0,1.0,-998.0,16:41:33.579371,192.168.0.115
492,-1,-100,-100,-100,"0,0,0",0,0,0,0,0,0,60,62,10,0,90,9.53,0,0.0,2.0,-1002.0,16:41:33.682704,192.168.0.115
497,-1,-100,-100,-100,"0,0,0",0,0,0,0,0,0,60,62,10,0,90,9.56,0,0.0,-1.0,-999.0,16:41:33.783339,192.168.0.115
502,-1,-100,-100,-100,"0,0,0",0,0,0,0,0,0,60,62,10,0,90,9.53,0,0.0,0.0,-1001.0,16:41:33.887169,192.168.0.115
507,-1,-100,-100,-100,"0,0,0",0,0,0,0,0,0,60,62,10,0,90,9.56,0,-1.0,-1.0,-1001.0,16:41:33.987309,192.168.0.115
512,-1,-100,-100,-100,"0,0,0",0,0,0,0,0,0,60,62,10,0,90,9.55,0,-1.0,0.0,-1001.0,16:41:34.089283,192.168.0.115
517,-1,-100,-100,-100,"0,0,0",0,0,0,0,0,0,60,62,10,0,90,9.55,0,-1.0,0.0,-1000.0,16:41:34.191321,192.168.0.115
522,-1,-100,-100,-100,"0,0,0",0,0,0,0,0,0,60,62,10,0,90,9.52,0,0.0,0.0,-1000.0,16:41:34.293409,192.168.0.115
527,-1,-100,-100,-100,"0,0,0",0,0,0,0,0,0,60,62,10,0,90,9.54,0,0.0,1.0,-996.0,16:41:34.396263,192.168.0.115
532,-1,-100,-100,-100,"0,0,0",0,0,0,0,0,0,60,62,10,0,90,9.54,0,0.0,0.0,-1000.0,16:41:34.497378,192.168.0.115
537,-1,-100,-100,-100,"0,0,0",0,0,0,0,0,0,60,62,10,0,90,9.61,0,0.0,0.0,-1001.0,16:41:34.603149,192.168.0.115
543,-1,-100,-100,-100,"0,0,0",0,0,0,0,0,0,60,62,10,0,90,9.54,0,0.0,0.0,-1000.0,16:41:34.711366,192.168.0.115
547,-1,-100,-100,-100,"0,0,0",0,0,0,0,0,0,60,62,10,0,90,9.55,0,-1.0,0.0,-1000.0,16:41:34.809225,192.168.0.115
551,-1,-100,-100,-100,"0,0,0",0,0,0,0,0,0,60,62,10,0,90,9.53,0,0.0,0.0,-1002.0,16:41:34.909298,192.168.0.115
557,-1,-100,-100,-100,"0,0,0",0,0,0,0,0,0,60,62,10,0,90,9.55,0,0.0,0.0,-1000.0,16:41:35.008273,192.168.0.115
561,-1,-100,-100,-100,"0,0,0",0,0,0,0,0,0,60,62,10,0,90,9.51,0,0.0,0.0,-999.0,16:41:35.059324,192.168.0.115
566,-1,-100,-100,-100,"0,0,0",0,0,0,0,0,0,60,62,10,0,90,9.58,0,0.0,0.0,-1000.0,16:41:35.161005,192.168.0.115
571,-1,-100,-100,-100,"0,0,0",0,0,0,0,0,0,60,62,10,0,90,9.49,0,1.0,0.0,-1001.0,16:41:35.263238,192.168.0.115
576,-1,-100,-100,-100,"0,0,0",0,0,0,0,0,0,60,62,10,0,90,9.57,0,-1.0,0.0,-998.0,16:41:35.367847,192.168.0.115
581,-1,-100,-100,-100,"0,0,0",0,0,0,0,0,0,60,62,10,0,90,9.57,0,0.0,-1.0,-999.0,16:41:35.472342,192.168.0.115
586,-1,-100,-100,-100,"0,0,0",0,0,0,0,0,0,61,63,10,0,90,9.54,0,0.0,1.0,-999.0,16:41:35.579312,192.168.0.115
591,-1,-100,-100,-100,"0,0,0",0,0,0,0,0,0,61,63,10,0,90,9.56,0,0.0,0.0,-1000.0,16:41:35.671530,192.168.0.115
596,-1,-100,-100,-100,"0,0,0",0,0,0,0,0,0,61,63,10,0,90,9.54,0,0.0,0.0,-999.0,16:41:35.778636,192.168.0.115
601,-1,-100,-100,-100,"0,0,0",0,0,0,0,0,0,61,63,10,0,90,9.61,0,1.0,0.0,-1000.0,16:41:35.877880,192.168.0.115
607,-1,-100,-100,-100,"0,0,0",0,0,0,0,0,0,61,63,10,0,90,9.58,0,0.0,1.0,-999.0,16:41:35.995485,192.168.0.115
611,-1,-100,-100,-100,"0,0,0",0,0,0,0,0,0,61,63,10,0,90,9.56,0,0.0,1.0,-997.0,16:41:36.086337,192.168.0.115
617,-1,-100,-100,-100,"0,0,0",0,0,0,0,0,0,61,63,10,0,90,9.52,0,-1.0,0.0,-999.0,16:41:36.181418,192.168.0.115
622,-1,-100,-100,-100,"0,0,0",0,0,0,0,0,0,61,63,10,0,90,9.55,0,0.0,0.0,-999.0,16:41:36.287473,192.168.0.115
627,-1,-100,-100,-100,"0,0,0",0,0,0,0,0,0,61,63,10,0,90,9.55,0,0.0,0.0,-997.0,16:41:36.385355,192.168.0.115
632,-1,-100,-100,-100,"0,0,0",0,0,0,0,0,0,61,63,10,0,90,9.48,0,0.0,0.0,-1000.0,16:41:36.486688,192.168.0.115
637,-1,-100,-100,-100,"0,0,0",0,0,0,0,0,0,61,63,10,0,90,9.53,0,-2.0,0.0,-1000.0,16:41:36.589073,192.168.0.115
642,-1,-100,-100,-100,"0,0,0",0,0,0,0,0,0,61,63,10,0,90,9.62,0,0.0,0.0,-1001.0,16:41:36.691058,192.168.0.115
646,-1,-100,-100,-100,"0,0,0",0,0,0,0,0,0,61,63,10,0,90,9.5,0,0.0,0.0,-1002.0,16:41:36.864707,192.168.0.115
652,-1,-100,-100,-100,"0,0,0",0,0,0,0,0,0,61,63,10,0,90,9.51,0,-1.0,0.0,-1000.0,16:41:37.192481,192.168.0.115
655,-1,-100,-100,-100,"0,0,0",0,0,0,0,0,0,61,63,10,0,90,9.53,0,-2.0,0.0,-996.0,16:41:37.396854,192.168.0.115
663,-1,-100,-100,-100,"0,0,0",0,0,0,0,0,0,61,63,10,0,90,9.51,0,0.0,1.0,-997.0,16:41:37.715986,192.168.0.115
689,-1,-100,-100,-100,"0,0,0",0,0,0,0,0,0,61,63,10,0,90,9.52,0,0.0,1.0,-999.0,16:41:38.023369,192.168.0.115
691,-1,-100,-100,-100,"0,0,0",0,0,0,0,0,0,61,63,10,0,90,9.52,0,-1.0,0.0,-1003.0,16:41:38.036846,192.168.0.115
702,-1,-100,-100,-100,"0,0,0",0,0,0,0,0,0,61,63,10,0,90,9.5,0,0.0,0.0,-999.0,16:41:38.128977,192.168.0.115
703,-1,-100,-100,-100,"0,0,0",0,0,0,0,0,0,61,63,10,0,90,9.54,0,0.0,-1.0,-1000.0,16:41:38.129240,192.168.0.115
704,-1,-100,-100,-100,"0,0,0",0,0,0,0,0,0,61,63,10,0,90,9.54,0,0.0,0.0,-999.0,16:41:38.129413,192.168.0.115
707,-1,-100,-100,-100,"0,0,0",0,0,0,0,0,0,61,63,10,0,90,9.56,0,0.0,0.0,-998.0,16:41:38.161081,192.168.0.115
708,-1,-100,-100,-100,"0,0,0",0,0,0,0,0,0,61,63,10,0,90,9.55,0,0.0,0.0,-999.0,16:41:38.189956,192.168.0.115
709,-1,-100,-100,-100,"0,0,0",0,0,0,0,0,0,61,63,10,0,90,9.59,0,0.0,0.0,-1001.0,16:41:38.190260,192.168.0.115
710,-1,-100,-100,-100,"0,0,0",0,0,0,0,0,0,61,63,10,0,90,9.58,0,-1.0,1.0,-999.0,16:41:38.190477,192.168.0.115
712,-1,-100,-100,-100,"0,0,0",0,0,0,0,0,0,61,63,10,0,90,9.57,0,0.0,1.0,-998.0,16:41:38.271858,192.168.0.115
716,-1,-100,-100,-100,"0,0,0",0,0,0,0,0,0,61,63,10,0,90,9.53,0,0.0,1.0,-995.0,16:41:38.342403,192.168.0.115
731,-1,-100,-100,-100,"0,0,0",0,0,0,0,0,0,61,63,10,0,90,9.57,0,-2.0,1.0,-997.0,16:41:38.624456,192.168.0.115
732,-1,-100,-100,-100,"0,0,0",0,0,0,0,0,0,61,63,10,0,90,9.57,0,0.0,0.0,-999.0,16:41:38.640613,192.168.0.115
733,-1,-100,-100,-100,"0,0,0",0,0,0,0,0,0,62,64,10,0,90,9.51,0,0.0,2.0,-1001.0,16:41:38.655837,192.168.0.115
737,-1,-100,-100,-100,"0,0,0",0,0,0,0,0,0,62,64,10,0,90,9.55,0,0.0,2.0,-1001.0,16:41:38.734221,192.168.0.115
746,-1,-100,-100,-100,"0,0,0",0,0,0,0,0,0,62,64,10,0,90,9.54,0,-1.0,1.0,-999.0,16:41:38.884024,192.168.0.115
750,-1,-100,-100,-100,"0,0,0",0,0,0,0,0,0,62,64,10,0,90,9.55,0,0.0,1.0,-1001.0,16:41:39.057549,192.168.0.115
760,-1,-100,-100,-100,"0,0,0",0,0,0,0,0,0,62,64,10,0,90,9.56,0,0.0,1.0,-1000.0,16:41:39.171657,192.168.0.115
762,-1,-100,-100,-100,"0,0,0",0,0,0,0,0,0,62,64,10,0,90,9.54,0,-1.0,0.0,-1000.0,16:41:39.190836,192.168.0.115
764,-1,-100,-100,-100,"0,0,0",0,0,0,0,0,0,62,64,10,0,90,9.57,0,0.0,0.0,-999.0,16:41:39.229008,192.168.0.115
773,-1,-100,-100,-100,"0,0,0",0,0,0,0,0,0,62,64,10,0,90,9.57,0,-3.0,1.0,-999.0,16:41:39.462693,192.168.0.115
774,-1,-100,-100,-100,"0,0,0",0,0,0,0,0,0,62,64,10,0,90,9.55,0,0.0,0.0,-1001.0,16:41:39.469544,192.168.0.115
780,-1,-100,-100,-100,"0,0,0",0,0,0,0,0,0,62,64,10,0,90,9.55,0,0.0,0.0,-999.0,16:41:39.554263,192.168.0.115
783,-1,-100,-100,-100,"0,0,0",0,0,0,0,0,0,62,64,10,0,90,9.56,0,0.0,2.0,-1002.0,16:41:39.664785,192.168.0.115
789,-1,-100,-100,-100,"0,0,0",0,0,0,0,0,0,62,64,10,0,90,9.56,0,0.0,1.0,-1001.0,16:41:39.791269,192.168.0.115
793,-1,-100,-100,-100,"0,0,0",0,0,0,0,0,0,62,64,10,0,90,9.56,0,0.0,0.0,-999.0,16:41:39.849235,192.168.0.115
800,-1,-100,-100,-100,"0,0,0",0,0,0,0,0,0,62,64,10,0,90,9.5,0,0.0,0.0,-998.0,16:41:39.934445,192.168.0.115
805,-1,-100,-100,-100,"0,0,0",0,0,0,0,0,0,62,64,10,0,90,9.51,0,0.0,0.0,-998.0,16:41:40.025252,192.168.0.115
812,-1,-100,-100,-100,"0,0,0",0,0,0,0,0,0,62,64,10,0,90,9.51,0,0.0,1.0,-995.0,16:41:40.162020,192.168.0.115
813,-1,-100,-100,-100,"0,0,0",0,0,0,0,0,0,62,64,10,0,90,9.53,0,0.0,1.0,-1002.0,16:41:40.219866,192.168.0.115
834,-1,-100,-100,-100,"0,0,0",0,0,0,0,0,0,62,64,10,0,90,9.54,0,-1.0,0.0,-1002.0,16:41:40.658339,192.168.0.115
835,-1,-100,-100,-100,"0,0,0",0,0,0,0,0,0,62,64,10,0,90,9.51,0,-1.0,0.0,-999.0,16:41:40.667042,192.168.0.115
836,-1,-100,-100,-100,"0,0,0",0,0,0,0,0,0,62,64,10,0,90,9.53,0,0.0,0.0,-999.0,16:41:40.671054,192.168.0.115
837,-1,-100,-100,-100,"0,0,0",0,0,0,0,0,0,62,64,10,0,90,9.48,0,0.0,1.0,-998.0,16:41:40.676220,192.168.0.115
843,-1,-100,-100,-100,"0,0,0",0,0,0,0,0,0,62,64,10,0,90,9.5,0,0.0,0.0,-999.0,16:41:40.791043,192.168.0.115
846,-1,-100,-100,-100,"0,0,0",0,0,0,0,0,0,62,64,10,0,89,9.55,0,0.0,0.0,-1001.0,16:41:40.846068,192.168.0.115
849,-1,-100,-100,-100,"0,0,0",0,0,0,0,0,0,62,64,10,0,89,9.54,0,0.0,0.0,-1002.0,16:41:40.924519,192.168.0.115
854,-1,-100,-100,-100,"0,0,0",0,0,0,0,0,0,62,64,10,0,89,9.53,0,0.0,0.0,-1000.0,16:41:41.001276,192.168.0.115
859,-1,-100,-100,-100,"0,0,0",0,0,0,0,0,0,62,64,10,0,89,9.57,0,0.0,0.0,-998.0,16:41:41.116856,192.168.0.115
864,-1,-100,-100,-100,"0,0,0",0,0,0,0,0,0,62,64,10,0,89,9.55,0,-1.0,0.0,-1000.0,16:41:41.203510,192.168.0.115
871,-1,-100,-100,-100,"0,0,0",0,0,0,0,0,0,62,64,10,0,89,9.51,0,0.0,0.0,-1001.0,16:41:41.361942,192.168.0.115
875,-1,-100,-100,-100,"0,0,0",0,0,0,0,0,0,62,64,10,0,89,9.54,0,-1.0,2.0,-998.0,16:41:41.413885,192.168.0.115
879,-1,-100,-100,-100,"0,0,0",0,0,0,0,0,0,62,64,10,0,89,9.51,0,0.0,2.0,-1001.0,16:41:41.499240,192.168.0.115
884,-1,-100,-100,-100,"0,0,0",0,0,0,0,0,0,62,63,10,0,89,9.48,0,0.0,0.0,-1002.0,16:41:41.613229,192.168.0.115
889,-1,-100,-100,-100,"0,0,0",0,0,0,0,0,0,62,63,10,0,89,9.46,0,0.0,1.0,-997.0,16:41:41.709335,192.168.0.115
894,-1,-100,-100,-100,"0,0,0",0,0,0,0,0,0,62,63,10,0,89,9.51,0,0.0,1.0,-999.0,16:41:41.830963,192.168.0.115
905,-1,-100,-100,-100,"0,0,0",0,0,0,0,0,0,62,63,10,0,89,9.49,0,0.0,0.0,-1003.0,16:41:42.049148,192.168.0.115
906,-1,-100,-100,-100,"0,0,0",0,0,0,0,0,0,62,63,10,0,89,9.46,0,-1.0,1.0,-1003.0,16:41:42.057598,192.168.0.115
908,-1,-100,-100,-100,"0,0,0",0,0,0,0,0,0,62,63,10,0,89,9.46,0,0.0,0.0,-1000.0,16:41:42.099868,192.168.0.115
914,-1,-100,-100,-100,"0,0,0",0,0,0,0,0,0,62,63,10,0,89,9.55,0,-1.0,0.0,-1001.0,16:41:42.207215,192.168.0.115
919,-1,-100,-100,-100,"0,0,0",0,0,0,0,0,0,62,63,10,0,89,9.53,0,0.0,0.0,-1002.0,16:41:42.299163,192.168.0.115
923,-1,-100,-100,-100,"0,0,0",0,0,0,0,0,0,62,63,10,0,89,9.47,0,0.0,0.0,-1001.0,16:41:42.415507,192.168.0.115
927,-1,-100,-100,-100,"0,0,0",0,0,0,0,0,0,62,63,10,0,89,9.48,0,0.0,0.0,-1000.0,16:41:42.538446,192.168.0.115
933,-1,-100,-100,-100,"0,0,0",0,0,0,0,0,0,62,64,10,0,89,9.51,0,0.0,0.0,-998.0,16:41:42.616491,192.168.0.115
940,-1,-100,-100,-100,"0,0,0",0,0,0,0,0,0,62,64,10,0,89,9.54,0,-2.0,0.0,-1002.0,16:41:42.715226,192.168.0.115
947,-1,-100,-100,-100,"0,0,0",0,0,0,0,0,0,62,64,10,0,89,9.44,0,-1.0,0.0,-1001.0,16:41:42.849046,192.168.0.115
949,-1,-100,-100,-100,"0,0,0",0,0,0,0,0,0,62,64,10,0,89,9.49,0,0.0,0.0,-998.0,16:41:42.918814,192.168.0.115
955,-1,-100,-100,-100,"0,0,0",0,0,0,0,0,0,62,64,10,0,89,9.49,0,0.0,0.0,-1000.0,16:41:43.016233,192.168.0.115
958,-1,-100,-100,-100,"0,0,0",0,0,0,0,0,0,62,64,10,0,89,9.49,0,0.0,1.0,-999.0,16:41:43.128067,192.168.0.115
964,-1,-100,-100,-100,"0,0,0",0,0,0,0,0,0,62,64,10,0,89,9.54,0,0.0,0.0,-999.0,16:41:43.215080,192.168.0.115
969,-1,-100,-100,-100,"0,0,0",0,0,0,0,0,0,62,64,10,0,89,9.45,0,0.0,0.0,-998.0,16:41:43.325207,192.168.0.115
974,-1,-100,-100,-100,"0,0,0",0,0,0,0,0,0,62,64,10,0,89,9.51,0,0.0,0.0,-998.0,16:41:43.419454,192.168.0.115
979,-1,-100,-100,-100,"0,0,0",0,0,0,0,0,0,62,64,10,0,89,9.47,0,0.0,0.0,-1001.0,16:41:43.521512,192.168.0.115
984,-1,-100,-100,-100,"0,0,0",0,0,0,0,0,0,62,64,10,0,89,9.52,0,-1.0,0.0,-997.0,16:41:43.622804,192.168.0.115
989,-1,-100,-100,-100,"0,0,0",0,0,0,0,0,0,62,64,10,0,89,9.48,0,0.0,0.0,-998.0,16:41:43.725197,192.168.0.115
994,-1,-100,-100,-100,"0,0,0",0,0,0,0,0,0,62,64,10,0,89,9.49,0,0.0,1.0,-999.0,16:41:43.827700,192.168.0.115
999,-1,-100,-100,-100,"0,0,0",0,0,0,0,0,0,62,64,10,0,89,9.47,0,0.0,0.0,-998.0,16:41:43.937355,192.168.0.115
1004,-1,-100,-100,-100,"0,0,0",0,0,0,0,0,0,62,64,10,0,89,9.51,0,0.0,0.0,-999.0,16:41:44.030910,192.168.0.115
1009,-1,-100,-100,-100,"0,0,0",0,0,0,0,0,0,62,64,10,0,89,9.51,0,-1.0,1.0,-999.0,16:41:44.134055,192.168.0.115
1015,-1,-100,-100,-100,"0,0,0",0,0,0,0,0,0,62,64,10,0,89,9.53,0,0.0,0.0,-998.0,16:41:44.256540,192.168.0.115
1020,-1,-100,-100,-100,"0,0,0",0,0,0,0,0,0,62,64,10,0,89,9.46,0,0.0,0.0,-999.0,16:41:44.346311,192.168.0.115
1025,-1,-100,-100,-100,"0,0,0",0,0,0,0,0,0,62,64,10,0,89,9.46,0,-1.0,1.0,-1002.0,16:41:44.456383,192.168.0.115
1030,-1,-100,-100,-100,"0,0,0",0,0,0,0,0,0,62,64,10,0,89,9.48,0,0.0,0.0,-1001.0,16:41:44.541759,192.168.0.115
1035,-1,-100,-100,-100,"0,0,0",0,0,0,0,0,0,63,65,10,0,89,9.49,0,0.0,-1.0,-999.0,16:41:44.650565,192.168.0.115
1041,-1,-100,-100,-100,"0,0,0",0,0,0,0,0,0,63,65,10,0,89,9.44,0,-1.0,1.0,-999.0,16:41:44.748811,192.168.0.115
1046,-1,-100,-100,-100,"0,0,0",0,0,0,0,0,0,63,65,10,0,89,9.51,0,0.0,1.0,-1000.0,16:41:44.851440,192.168.0.115
1050,-1,-100,-100,-100,"0,0,0",0,0,0,0,0,0,63,65,10,0,89,9.5,0,-1.0,0.0,-1001.0,16:41:44.957539,192.168.0.115
1054,-1,-100,-100,-100,"0,0,0",0,0,0,0,0,0,63,65,10,0,89,9.45,0,0.0,0.0,-999.0,16:41:45.002251,192.168.0.115
1059,-1,-100,-100,-100,"0,0,0",0,0,0,0,0,0,63,65,10,0,89,9.5,0,0.0,1.0,-1001.0,16:41:45.121410,192.168.0.115
1064,-1,-100,-100,-100,"0,0,0",0,0,0,0,0,0,63,65,10,0,89,9.53,0,0.0,0.0,-999.0,16:41:45.205029,192.168.0.115
1069,-1,-100,-100,-100,"0,0,0",0,0,0,0,0,0,63,65,10,0,89,9.45,0,0.0,-1.0,-997.0,16:41:45.309243,192.168.0.115
1074,-1,-100,-100,-100,"0,0,0",0,0,0,0,0,0,63,65,10,0,89,9.47,0,-1.0,0.0,-1001.0,16:41:45.416235,192.168.0.115
1079,-1,-100,-100,-100,"0,0,0",0,0,0,0,0,0,63,65,10,0,89,9.53,0,0.0,0.0,-1002.0,16:41:45.514738,192.168.0.115
1084,-1,-100,-100,-100,"0,0,0",0,0,0,0,0,0,63,65,10,0,89,9.48,0,-2.0,-1.0,-1000.0,16:41:45.618922,192.168.0.115
1089,-1,-100,-100,-100,"0,0,0",0,0,0,0,0,0,63,65,10,0,89,9.48,0,-1.0,1.0,-998.0,16:41:45.715117,192.168.0.115
1094,-1,-100,-100,-100,"0,0,0",0,0,0,0,0,0,63,65,10,0,89,9.49,0,0.0,1.0,-997.0,16:41:45.817068,192.168.0.115
1099,-1,-100,-100,-100,"0,0,0",0,0,0,0,0,0,63,65,10,0,89,9.51,0,-1.0,0.0,-998.0,16:41:45.918798,192.168.0.115
1104,-1,-100,-100,-100,"0,0,0",0,0,0,0,0,0,63,65,10,0,89,9.48,0,0.0,2.0,-999.0,16:41:46.020976,192.168.0.115
1109,-1,-100,-100,-100,"0,0,0",0,0,0,0,0,0,63,65,10,0,89,9.47,0,0.0,0.0,-999.0,16:41:46.122760,192.168.0.115
1114,-1,-100,-100,-100,"0,0,0",0,0,0,0,0,0,63,65,10,0,89,9.46,0,-2.0,0.0,-999.0,16:41:46.225072,192.168.0.115
1120,-1,-100,-100,-100,"0,0,0",0,0,0,0,0,0,63,65,10,0,89,9.49,0,0.0,1.0,-999.0,16:41:46.332102,192.168.0.115
1124,-1,-100,-100,-100,"0,0,0",0,0,0,0,0,0,63,65,10,0,89,9.43,0,-1.0,0.0,-998.0,16:41:46.430658,192.168.0.115
1129,-1,-100,-100,-100,"0,0,0",0,0,0,0,0,0,63,65,10,0,89,9.44,0,0.0,0.0,-1000.0,16:41:46.530690,192.168.0.115
1134,-1,-100,-100,-100,"0,0,0",0,0,0,0,0,0,64,66,10,0,89,9.46,0,-1.0,0.0,-998.0,16:41:46.634774,192.168.0.115
1139,-1,-100,-100,-100,"0,0,0",0,0,0,0,0,0,64,66,10,0,89,9.5,0,0.0,0.0,-1000.0,16:41:46.741180,192.168.0.115
1145,-1,-100,-100,-100,"0,0,0",0,0,0,0,0,0,64,66,10,0,89,9.52,0,-1.0,0.0,-999.0,16:41:46.846369,192.168.0.115
1150,-1,-100,-100,-100,"0,0,0",0,0,0,0,0,0,64,66,10,0,89,9.53,0,0.0,1.0,-999.0,16:41:46.946943,192.168.0.115
1154,-1,-100,-100,-100,"0,0,0",0,0,0,0,0,0,64,66,10,0,89,9.48,0,-1.0,0.0,-1001.0,16:41:47.040992,192.168.0.115
1160,-1,-100,-100,-100,"0,0,0",0,0,0,0,0,0,64,66,10,0,89,9.53,0,-1.0,0.0,-1001.0,16:41:47.150252,192.168.0.115
1164,-1,-100,-100,-100,"0,0,0",0,0,0,0,0,0,64,66,10,0,89,9.43,0,0.0,0.0,-997.0,16:41:47.255275,192.168.0.115
1169,-1,-100,-100,-100,"0,0,0",0,0,0,0,0,0,64,66,10,0,89,9.48,0,0.0,0.0,-996.0,16:41:47.346985,192.168.0.115
1174,-1,-100,-100,-100,"0,0,0",0,0,0,0,0,0,64,66,10,0,89,9.47,0,-1.0,0.0,-1000.0,16:41:47.450275,192.168.0.115
1179,-1,-100,-100,-100,"0,0,0",0,0,0,0,0,0,64,66,10,0,89,9.49,0,0.0,0.0,-1000.0,16:41:47.551004,192.168.0.115
1184,-1,-100,-100,-100,"0,0,0",0,0,0,0,0,0,64,66,10,0,89,9.45,0,-1.0,0.0,-997.0,16:41:47.653624,192.168.0.115
1189,-1,-100,-100,-100,"0,0,0",0,0,0,0,0,0,64,66,10,0,89,9.45,0,-1.0,1.0,-1001.0,16:41:47.755514,192.168.0.115
1195,-1,-100,-100,-100,"0,0,0",0,0,0,0,0,0,64,66,10,0,89,9.48,0,0.0,0.0,-1002.0,16:41:47.857088,192.168.0.115
1200,-1,-100,-100,-100,"0,0,0",0,0,0,0,0,0,64,66,10,0,89,9.51,0,-1.0,0.0,-998.0,16:41:47.959566,192.168.0.115
1205,-1,-100,-100,-100,"0,0,0",0,0,0,0,0,0,64,66,10,0,89,9.49,0,0.0,0.0,-999.0,16:41:48.060869,192.168.0.115
1210,-1,-100,-100,-100,"0,0,0",0,0,0,0,0,0,64,66,10,0,89,9.54,0,-2.0,0.0,-1001.0,16:41:48.163211,192.168.0.115
1214,-1,-100,-100,-100,"0,0,0",0,0,0,0,0,0,64,66,10,0,89,9.42,0,-1.0,1.0,-1000.0,16:41:48.270280,192.168.0.115
1218,-1,-100,-100,-100,"0,0,0",0,0,0,0,0,0,64,66,10,0,89,9.5,0,-3.0,0.0,-1001.0,16:41:48.317890,192.168.0.115
1224,-1,-100,-100,-100,"0,0,0",0,0,0,0,0,0,64,66,10,0,89,9.47,0,-1.0,0.0,-1001.0,16:41:48.418066,192.168.0.115
1228,-1,-100,-100,-100,"0,0,0",0,0,0,0,0,0,64,66,10,0,89,9.49,0,0.0,0.0,-1000.0,16:41:48.521875,192.168.0.115
1234,-1,-100,-100,-100,"0,0,0",0,0,0,0,0,0,64,66,10,0,89,9.45,0,0.0,0.0,-1000.0,16:41:48.622708,192.168.0.115
1239,-1,-100,-100,-100,"0,0,0",0,0,0,0,0,0,64,66,10,0,89,9.44,0,-1.0,0.0,-1001.0,16:41:48.723740,192.168.0.115
1244,-1,-100,-100,-100,"0,0,0",0,0,0,0,0,0,64,66,10,0,89,9.47,0,0.0,0.0,-1000.0,16:41:48.825994,192.168.0.115
1249,-1,-100,-100,-100,"0,0,0",0,0,0,0,0,0,64,66,10,0,89,9.47,0,-1.0,0.0,-1000.0,16:41:48.927482,192.168.0.115
1254,-1,-100,-100,-100,"0,0,0",0,0,0,0,0,0,64,66,10,0,89,9.49,0,0.0,0.0,-999.0,16:41:49.029576,192.168.0.115
1258,-1,-100,-100,-100,"0,0,0",0,0,0,0,0,0,64,66,10,0,89,9.49,0,0.0,0.0,-998.0,16:41:49.135693,192.168.0.115
1265,-1,-100,-100,-100,"0,0,0",0,0,0,0,0,0,64,66,10,0,89,9.51,0,0.0,1.0,-1000.0,16:41:49.256537,192.168.0.115
1268,-1,-100,-100,-100,"0,0,0",0,0,0,0,0,0,64,66,10,0,89,9.48,0,-1.0,0.0,-1001.0,16:41:49.347826,192.168.0.115
1277,-1,-100,-100,-100,"0,0,0",0,0,0,0,0,0,64,66,10,0,89,9.46,0,0.0,0.0,-1000.0,16:41:49.527599,192.168.0.115
1279,-1,-100,-100,-100,"0,0,0",0,0,0,0,0,0,64,66,10,0,89,9.49,0,-1.0,0.0,-998.0,16:41:49.551465,192.168.0.115
1284,-1,-100,-100,-100,"0,0,0",0,0,0,0,0,0,63,65,10,0,89,9.47,0,-1.0,0.0,-1002.0,16:41:49.669161,192.168.0.115
1289,-1,-100,-100,-100,"0,0,0",0,0,0,0,0,0,63,65,10,0,89,9.47,0,0.0,0.0,-999.0,16:41:49.744676,192.168.0.115
1294,-1,-100,-100,-100,"0,0,0",0,0,0,0,0,0,63,65,10,0,89,9.48,0,-1.0,1.0,-998.0,16:41:49.848085,192.168.0.115
1299,-1,-100,-100,-100,"0,0,0",0,0,0,0,0,0,63,65,10,0,89,9.45,0,-1.0,0.0,-998.0,16:41:49.950539,192.168.0.115
1305,-1,-100,-100,-100,"0,0,0",0,0,0,0,0,0,63,65,10,0,89,9.48,0,0.0,0.0,-1001.0,16:41:50.054839,192.168.0.115
1309,-1,-100,-100,-100,"0,0,0",0,0,0,0,0,0,63,65,10,0,89,9.5,0,0.0,0.0,-1001.0,16:41:50.159164,192.168.0.115
1314,-1,-100,-100,-100,"0,0,0",0,0,0,0,0,0,63,65,10,0,89,9.56,0,0.0,0.0,-1003.0,16:41:50.253608,192.168.0.115
1319,-1,-100,-100,-100,"0,0,0",0,0,0,0,0,0,63,65,10,0,89,9.49,0,-1.0,0.0,-1001.0,16:41:50.355434,192.168.0.115
1324,-1,-100,-100,-100,"0,0,0",0,0,0,0,0,0,63,65,10,0,89,9.51,0,-1.0,0.0,-999.0,16:41:50.457811,192.168.0.115
1329,-1,-100,-100,-100,"0,0,0",0,0,0,0,0,0,63,65,10,0,89,9.47,0,0.0,0.0,-1000.0,16:41:50.559520,192.168.0.115
1334,-1,-100,-100,-100,"0,0,0",0,0,0,0,0,0,64,66,10,0,89,9.52,0,-1.0,0.0,-998.0,16:41:50.661487,192.168.0.115
1339,-1,-100,-100,-100,"0,0,0",0,0,0,0,0,0,64,66,10,0,89,9.5,0,0.0,0.0,-1002.0,16:41:50.772608,192.168.0.115
1344,-1,-100,-100,-100,"0,0,0",0,0,0,0,0,0,64,66,10,0,89,9.5,0,0.0,0.0,-1001.0,16:41:50.899468,192.168.0.115
1349,-1,-100,-100,-100,"0,0,0",0,0,0,0,0,0,64,66,10,0,89,9.52,0,-1.0,0.0,-1001.0,16:41:50.981891,192.168.0.115
1355,-1,-100,-100,-100,"0,0,0",0,0,0,0,0,0,64,66,10,0,89,9.47,0,0.0,1.0,-1002.0,16:41:51.069650,192.168.0.115
1360,-1,-100,-100,-100,"0,0,0",0,0,0,0,0,0,64,66,10,0,89,9.5,0,0.0,0.0,-998.0,16:41:51.188778,192.168.0.115
1365,-1,-100,-100,-100,"0,0,0",0,0,0,0,0,0,64,66,10,0,89,9.46,0,0.0,0.0,-1001.0,16:41:51.288541,192.168.0.115
1369,-1,-100,-100,-100,"0,0,0",0,0,0,0,0,0,64,66,10,0,89,9.46,0,0.0,1.0,-1000.0,16:41:51.325543,192.168.0.115
1374,-1,-100,-100,-100,"0,0,0",0,0,0,0,0,0,64,66,10,0,89,9.55,0,0.0,0.0,-999.0,16:41:51.427139,192.168.0.115
1379,-1,-100,-100,-100,"0,0,0",0,0,0,0,0,0,64,66,10,0,89,9.45,0,0.0,0.0,-1000.0,16:41:51.529193,192.168.0.115
1384,-1,-100,-100,-100,"0,0,0",0,0,0,0,0,0,63,66,10,0,89,9.46,0,-1.0,0.0,-998.0,16:41:51.632364,192.168.0.115
1389,-1,-100,-100,-100,"0,0,0",0,0,0,0,0,0,63,66,10,0,89,9.43,0,0.0,0.0,-998.0,16:41:51.733382,192.168.0.115
1394,-1,-100,-100,-100,"0,0,0",0,0,0,0,0,0,63,66,10,0,89,9.46,0,0.0,1.0,-1003.0,16:41:51.835445,192.168.0.115
1399,-1,-100,-100,-100,"0,0,0",0,0,0,0,0,0,63,66,10,0,89,9.43,0,0.0,1.0,-996.0,16:41:51.937521,192.168.0.115
1404,-1,-100,-100,-100,"0,0,0",0,0,0,0,0,0,63,66,10,0,89,9.48,0,0.0,0.0,-999.0,16:41:52.039225,192.168.0.115
1409,-1,-100,-100,-100,"0,0,0",0,0,0,0,0,0,63,66,10,0,89,9.49,0,0.0,0.0,-1000.0,16:41:52.141271,192.168.0.115
1414,-1,-100,-100,-100,"0,0,0",0,0,0,0,0,0,63,66,10,0,89,9.49,0,0.0,0.0,-1001.0,16:41:52.245795,192.168.0.115
1419,-1,-100,-100,-100,"0,0,0",0,0,0,0,0,0,63,66,10,0,89,9.5,0,0.0,0.0,-1004.0,16:41:52.345121,192.168.0.115
1424,-1,-100,-100,-100,"0,0,0",0,0,0,0,0,0,63,66,10,0,89,9.48,0,-1.0,0.0,-1000.0,16:41:52.461143,192.168.0.115
1429,-1,-100,-100,-100,"0,0,0",0,0,0,0,0,0,63,66,10,0,89,9.52,0,0.0,0.0,-1000.0,16:41:52.549363,192.168.0.115
1434,-1,-100,-100,-100,"0,0,0",0,0,0,0,0,0,64,66,10,0,89,9.53,0,-2.0,0.0,-1000.0,16:41:52.652271,192.168.0.115
1439,-1,-100,-100,-100,"0,0,0",0,0,0,0,0,0,64,66,10,0,89,9.49,0,0.0,0.0,-1002.0,16:41:52.755377,192.168.0.115
1444,-1,-100,-100,-100,"0,0,0",0,0,0,0,0,0,64,66,10,0,89,9.46,0,-1.0,1.0,-999.0,16:41:52.856454,192.168.0.115
1449,-1,-100,-100,-100,"0,0,0",0,0,0,0,0,0,64,66,10,0,89,9.48,0,-1.0,0.0,-1000.0,16:41:52.960602,192.168.0.115
1454,-1,-100,-100,-100,"0,0,0",0,0,0,0,0,0,64,66,10,0,89,9.43,0,0.0,1.0,-999.0,16:41:53.060861,192.168.0.115
1459,-1,-100,-100,-100,"0,0,0",0,0,0,0,0,0,64,66,10,0,89,9.52,0,1.0,0.0,-1001.0,16:41:53.165307,192.168.0.115
1464,-1,-100,-100,-100,"0,0,0",0,0,0,0,0,0,64,66,10,0,89,9.45,0,0.0,0.0,-998.0,16:41:53.266138,192.168.0.115
1469,-1,-100,-100,-100,"0,0,0",0,0,0,0,0,0,64,66,10,0,89,9.47,0,0.0,0.0,-997.0,16:41:53.365093,192.168.0.115
1474,-1,-100,-100,-100,"0,0,0",0,0,0,0,0,0,64,66,10,0,89,9.48,0,-1.0,0.0,-998.0,16:41:53.467167,192.168.0.115
1479,-1,-100,-100,-100,"0,0,0",0,0,0,0,0,0,64,66,10,0,89,9.48,0,-1.0,0.0,-1001.0,16:41:53.568970,192.168.0.115
1484,-1,-100,-100,-100,"0,0,0",0,0,0,0,0,0,64,66,10,0,89,9.48,0,-2.0,2.0,-1001.0,16:41:53.671126,192.168.0.115
1489,-1,-100,-100,-100,"0,0,0",0,0,0,0,0,0,64,66,10,0,89,9.52,0,0.0,0.0,-1000.0,16:41:53.773063,192.168.0.115
1494,-1,-100,-100,-100,"0,0,0",0,0,0,0,0,0,64,66,10,0,89,9.48,0,-1.0,0.0,-1000.0,16:41:53.875306,192.168.0.115
1499,-1,-100,-100,-100,"0,0,0",0,0,0,0,0,0,64,66,10,0,89,9.48,0,0.0,0.0,-1000.0,16:41:53.978464,192.168.0.115
1504,-1,-100,-100,-100,"0,0,0",0,0,0,0,0,0,64,66,10,0,89,9.46,0,0.0,1.0,-1001.0,16:41:54.079148,192.168.0.115
1510,-1,-100,-100,-100,"0,0,0",0,0,0,0,0,0,64,66,10,0,89,9.43,0,0.0,0.0,-999.0,16:41:54.182025,192.168.0.115
1514,-1,-100,-100,-100,"0,0,0",0,0,0,0,0,0,64,66,10,0,89,9.43,0,0.0,0.0,-1000.0,16:41:54.283918,192.168.0.115
1519,-1,-100,-100,-100,"0,0,0",0,0,0,0,0,0,64,66,10,0,89,9.44,0,0.0,1.0,-1002.0,16:41:54.384854,192.168.0.115
1524,-1,-100,-100,-100,"0,0,0",0,0,0,0,0,0,64,66,10,0,89,9.5,0,0.0,1.0,-998.0,16:41:54.486960,192.168.0.115
1529,-1,-100,-100,-100,"0,0,0",0,0,0,0,0,0,64,66,10,0,89,9.53,0,1.0,1.0,-999.0,16:41:54.588936,192.168.0.115
1536,-1,-100,-100,-100,"0,0,0",0,0,0,0,0,0,65,66,10,0,89,9.48,0,0.0,0.0,-1001.0,16:41:54.691003,192.168.0.115
1541,-1,-100,-100,-100,"0,0,0",0,0,0,0,0,0,65,66,10,0,89,9.51,0,0.0,0.0,-1001.0,16:41:54.793094,192.168.0.115
1545,-1,-100,-100,-100,"0,0,0",0,0,0,0,0,0,65,66,10,0,89,9.51,0,0.0,0.0,-999.0,16:41:54.894846,192.168.0.115
1550,-1,-100,-100,-100,"0,0,0",0,0,0,0,0,0,65,66,10,0,89,9.48,0,0.0,0.0,-1001.0,16:41:54.996990,192.168.0.115
1554,-1,-100,-100,-100,"0,0,0",0,0,0,0,0,0,65,66,10,0,89,9.45,0,0.0,0.0,-998.0,16:41:55.050814,192.168.0.115
1559,-1,-100,-100,-100,"0,0,0",0,0,0,0,0,0,65,66,10,0,89,9.43,0,-1.0,0.0,-998.0,16:41:55.150137,192.168.0.115
1564,-1,-100,-100,-100,"0,0,0",0,0,0,0,0,0,65,66,10,0,89,9.41,0,-1.0,0.0,-1000.0,16:41:55.254052,192.168.0.115
1569,-1,-100,-100,-100,"0,0,0",0,0,0,0,0,0,65,66,10,0,89,9.4,0,-1.0,1.0,-999.0,16:41:55.354148,192.168.0.115
1574,-1,-100,-100,-100,"0,0,0",0,0,0,0,0,0,65,66,10,0,89,9.48,0,0.0,0.0,-1000.0,16:41:55.456364,192.168.0.115
1579,-1,-100,-100,-100,"0,0,0",0,0,0,0,0,0,65,66,10,0,89,9.46,0,-1.0,1.0,-1001.0,16:41:55.558336,192.168.0.115
1584,-1,-100,-100,-100,"0,0,0",0,0,0,0,0,0,64,66,10,0,89,9.43,0,0.0,0.0,-999.0,16:41:55.660096,192.168.0.115
1589,-1,-100,-100,-100,"0,0,0",0,0,0,0,0,0,64,66,10,0,89,9.41,0,0.0,0.0,-998.0,16:41:55.762862,192.168.0.115
1594,-1,-100,-100,-100,"0,0,0",0,0,0,0,0,0,64,66,10,0,89,9.46,0,-1.0,0.0,-998.0,16:41:55.866594,192.168.0.115
1599,-1,-100,-100,-100,"0,0,0",0,0,0,0,0,0,64,66,10,0,89,9.52,0,0.0,0.0,-999.0,16:41:55.966174,192.168.0.115
1604,-1,-100,-100,-100,"0,0,0",0,0,0,0,0,0,64,66,10,0,89,9.48,0,0.0,0.0,-999.0,16:41:56.068089,192.168.0.115
1609,-1,-100,-100,-100,"0,0,0",0,0,0,0,0,0,64,66,10,0,89,9.49,0,0.0,1.0,-999.0,16:41:56.170021,192.168.0.115
1614,-1,-100,-100,-100,"0,0,0",0,0,0,0,0,0,64,66,10,0,89,9.49,0,0.0,2.0,-998.0,16:41:56.272070,192.168.0.115
1619,-1,-100,-100,-100,"0,0,0",0,0,0,0,0,0,64,66,10,0,89,9.5,0,0.0,0.0,-1000.0,16:41:56.374033,192.168.0.115
1624,-1,-100,-100,-100,"0,0,0",0,0,0,0,0,0,64,66,10,0,89,9.52,0,0.0,0.0,-1000.0,16:41:56.475840,192.168.0.115
1629,-1,-100,-100,-100,"0,0,0",0,0,0,0,0,0,64,66,10,0,89,9.46,0,0.0,0.0,-998.0,16:41:56.578044,192.168.0.115
1634,-1,-100,-100,-100,"0,0,0",0,0,0,0,0,0,65,67,10,0,89,9.47,0,0.0,0.0,-997.0,16:41:56.681037,192.168.0.115
1639,-1,-100,-100,-100,"0,0,0",0,0,0,0,0,0,65,67,10,0,89,9.47,0,-2.0,1.0,-997.0,16:41:56.782171,192.168.0.115
1644,-1,-100,-100,-100,"0,0,0",0,0,0,0,0,0,65,67,10,0,89,9.47,0,-1.0,16.0,-1002.0,16:41:56.883938,192.168.0.115
1649,-1,-100,-100,-100,"0,0,0",0,0,0,0,0,0,65,67,10,0,89,9.47,0,-15.0,14.0,-1008.0,16:41:56.985954,192.168.0.115
1654,-1,-100,-100,-100,"0,0,0",0,0,0,0,0,0,65,67,10,0,89,9.47,0,0.0,4.0,-1049.0,16:41:57.088356,192.168.0.115
1659,-1,-100,-100,-100,"0,0,0",0,0,0,0,0,1,65,67,10,0,89,9.47,0,-11.0,8.0,-1167.0,16:41:57.190164,192.168.0.115
1664,-1,-100,-100,-100,"0,0,0",0,0,0,0,0,3,65,67,10,0,89,9.47,0,-7.0,12.0,-1348.0,16:41:57.292171,192.168.0.115
1669,-1,-100,-100,-100,"0,0,0",0,0,0,0,0,6,65,67,10,10,89,9.47,0,1.0,-1.0,-1260.0,16:41:57.398431,192.168.0.115
1674,-1,-100,-100,-100,"0,0,0",0,0,0,0,0,8,65,67,18,20,89,9.59,0,10.0,5.0,-1080.0,16:41:57.497447,192.168.0.115
1679,-1,-100,-100,-100,"0,0,0",0,0,0,0,0,9,65,67,28,20,89,9.74,0,-7.0,-1.0,-1005.0,16:41:57.598086,192.168.0.115
1685,-1,-100,-100,-100,"0,0,0",0,0,0,0,0,9,64,67,36,30,89,9.83,1,-9.0,0.0,-947.0,16:41:57.700680,192.168.0.115
1690,-1,-100,-100,-100,"0,0,0",0,0,0,0,0,8,64,67,42,40,89,9.91,1,-10.0,14.0,-902.0,16:41:57.802479,192.168.0.115
1695,-1,-100,-100,-100,"0,0,0",0,0,0,0,0,7,64,67,49,50,89,9.99,1,-17.0,13.0,-867.0,16:41:57.905155,192.168.0.115
1700,-1,-100,-100,-100,"0,0,0",0,0,0,0,0,5,64,67,55,60,89,10.01,1,2.0,-7.0,-858.0,16:41:58.005882,192.168.0.115
1706,-1,-100,-100,-100,"0,0,0",0,0,0,0,0,4,64,67,59,60,89,10.13,1,-10.0,-3.0,-883.0,16:41:58.108259,192.168.0.115
1711,-1,-100,-100,-100,"0,0,0",0,0,0,0,0,3,64,67,62,70,89,10.2,1,8.0,-14.0,-871.0,16:41:58.209962,192.168.0.115
1716,-1,-100,-100,-100,"0,0,0",0,0,0,0,0,2,64,67,64,70,89,10.2,1,-3.0,-10.0,-921.0,16:41:58.312078,192.168.0.115
1719,-1,-100,-100,-100,"0,0,0",0,0,0,0,0,1,64,67,66,70,89,10.19,1,-1.0,-2.0,-939.0,16:41:58.362747,192.168.0.115
1724,-1,-100,-100,-100,"0,0,0",0,0,0,0,0,1,64,67,66,70,89,10.21,1,-11.0,11.0,-975.0,16:41:58.464747,192.168.0.115
1729,-1,-100,-100,-100,"0,0,0",0,0,0,0,0,1,64,67,67,70,89,10.23,1,-5.0,2.0,-993.0,16:41:58.566674,192.168.0.115
1734,-1,-100,-100,-100,"0,0,0",0,0,0,0,0,1,64,66,67,70,89,10.25,2,-12.0,-5.0,-1002.0,16:41:58.669070,192.168.0.115
1739,-1,-100,-100,-100,"0,0,0",0,0,0,0,0,1,64,66,68,70,89,10.23,2,-8.0,0.0,-1011.0,16:41:58.770798,192.168.0.115
1744,-1,-100,-100,-100,"0,0,0",0,0,0,0,0,1,64,66,69,70,88,10.23,2,-8.0,2.0,-1011.0,16:41:58.874226,192.168.0.115
1749,-1,-100,-100,-100,"0,0,0",0,0,0,0,0,1,64,66,70,70,88,10.27,2,-4.0,2.0,-1015.0,16:41:58.974637,192.168.0.115
1754,-1,-100,-100,-100,"0,0,0",0,0,0,0,0,1,64,66,71,80,88,10.2,2,-6.0,-1.0,-1011.0,16:41:59.076644,192.168.0.115
1759,-1,-100,-100,-100,"0,0,0",0,0,0,0,0,1,64,66,72,80,88,10.23,2,-14.0,2.0,-998.0,16:41:59.178560,192.168.0.115
1764,-1,-100,-100,-100,"0,0,0",0,0,0,0,0,1,64,66,73,80,88,10.25,2,-21.0,17.0,-999.0,16:41:59.283731,192.168.0.115
1769,-1,-100,-100,-100,"0,0,0",0,0,0,0,0,1,64,66,74,80,88,10.27,2,-3.0,0.0,-998.0,16:41:59.383318,192.168.0.115
1774,-1,-100,-100,-100,"0,0,0",0,0,0,0,0,1,64,66,75,80,88,10.26,2,-4.0,0.0,-994.0,16:41:59.484490,192.168.0.115
1779,-1,-100,-100,-100,"0,0,0",0,0,0,0,0,1,64,66,76,80,88,10.35,2,-9.0,5.0,-991.0,16:41:59.587068,192.168.0.115
1784,-1,-100,-100,-100,"0,0,0",0,0,0,0,0,0,65,67,77,80,88,10.36,3,-3.0,-5.0,-997.0,16:41:59.688567,192.168.0.115
1789,-1,-100,-100,-100,"0,0,0",0,0,0,0,0,0,65,67,78,80,88,10.37,3,-9.0,14.0,-995.0,16:41:59.790671,192.168.0.115
1794,-1,-100,-100,-100,"0,0,0",0,0,0,0,0,0,65,67,78,80,88,10.33,3,-2.0,-4.0,-988.0,16:41:59.892477,192.168.0.115
1799,-1,-100,-100,-100,"0,0,0",0,0,0,0,0,0,65,67,79,80,88,10.29,3,-19.0,17.0,-994.0,16:41:59.994676,192.168.0.115
1804,-1,-100,-100,-100,"0,0,0",0,0,0,0,0,0,65,67,79,80,88,10.34,3,9.0,-11.0,-986.0,16:42:00.096681,192.168.0.115
1809,-1,-100,-100,-100,"0,0,0",0,0,0,0,0,0,65,67,80,80,88,10.29,3,-5.0,-9.0,-1000.0,16:42:00.199996,192.168.0.115
1814,-1,-100,-100,-100,"0,0,0",0,0,0,0,0,0,65,67,80,80,88,10.28,3,-8.0,-7.0,-998.0,16:42:00.300810,192.168.0.115
1819,-1,-100,-100,-100,"0,0,0",0,0,0,0,0,0,65,67,81,80,88,10.36,3,-3.0,-5.0,-1003.0,16:42:00.402835,192.168.0.115
1824,-1,-100,-100,-100,"0,0,0",0,0,0,0,0,0,65,67,81,80,88,10.33,3,-5.0,-1.0,-990.0,16:42:00.504599,192.168.0.115
1829,-1,-100,-100,-100,"0,0,0",0,0,0,0,0,0,65,67,82,80,88,10.35,3,-6.0,3.0,-983.0,16:42:00.606678,192.168.0.115
1834,-1,-100,-100,-100,"0,0,0",0,0,0,0,0,0,65,67,82,80,88,10.38,4,-18.0,0.0,-987.0,16:42:00.708516,192.168.0.115
1838,-1,-100,-100,-100,"0,0,0",0,0,0,0,0,0,65,67,82,80,88,10.37,4,5.0,-14.0,-998.0,16:42:00.811350,192.168.0.115
1844,-1,-100,-100,-100,"0,0,0",0,0,0,0,0,0,65,67,82,80,88,10.32,4,9.0,-14.0,-995.0,16:42:00.912781,192.168.0.115
1849,-1,-100,-100,-100,"0,0,0",0,0,0,0,0,0,65,67,82,80,88,10.36,4,-7.0,1.0,-991.0,16:42:01.014534,192.168.0.115
1855,-1,-100,-100,-100,"0,0,0",0,0,0,0,0,0,65,67,82,80,88,10.36,4,1.0,4.0,-999.0,16:42:01.116255,192.168.0.115
1860,-1,-100,-100,-100,"0,0,0",0,0,0,0,0,0,65,67,82,80,88,10.36,4,-9.0,1.0,-1006.0,16:42:01.218305,192.168.0.115
1864,-1,-100,-100,-100,"0,0,0",0,0,0,0,0,0,65,67,82,80,88,10.38,4,-14.0,8.0,-1016.0,16:42:01.320665,192.168.0.115
1870,-1,-100,-100,-100,"0,0,0",0,0,0,0,0,0,65,67,82,80,88,10.35,4,-14.0,8.0,-1007.0,16:42:01.422476,192.168.0.115
1875,-1,-100,-100,-100,"0,0,0",0,0,0,0,0,0,65,67,82,80,88,10.33,4,-18.0,18.0,-999.0,16:42:01.524715,192.168.0.115
1880,-1,-100,-100,-100,"0,0,0",0,0,0,0,0,0,65,67,83,80,88,10.31,4,-14.0,9.0,-1008.0,16:42:01.626743,192.168.0.115
1886,-1,-100,-100,-100,"0,0,0",0,0,0,0,0,0,65,67,82,80,88,10.38,5,12.0,-25.0,-989.0,16:42:01.728614,192.168.0.115
1891,-1,-100,-100,-100,"0,0,0",0,0,0,0,0,0,65,67,83,80,88,10.37,5,-8.0,-6.0,-1008.0,16:42:01.830598,192.168.0.115
1896,-1,-100,-100,-100,"0,0,0",0,0,0,0,0,0,65,67,83,80,88,10.34,5,0.0,1.0,-1002.0,16:42:01.932713,192.168.0.115
1901,-1,-100,-100,-100,"0,0,0",0,0,0,0,0,0,65,67,83,90,88,10.34,5,-20.0,8.0,-1006.0,16:42:02.036636,192.168.0.115
1906,-1,-100,-100,-100,"0,0,0",0,0,0,0,0,0,65,67,83,90,88,10.31,5,-18.0,7.0,-1003.0,16:42:02.136509,192.168.0.115
1909,-1,-100,-100,-100,"0,0,0",0,0,0,0,0,0,65,67,83,90,88,10.4,5,-14.0,11.0,-1000.0,16:42:02.187608,192.168.0.115
1914,-1,-100,-100,-100,"0,0,0",0,0,0,0,0,0,65,67,83,90,88,10.33,5,-20.0,12.0,-1000.0,16:42:02.289665,192.168.0.115
1919,-1,-100,-100,-100,"0,0,0",0,0,0,0,0,0,65,67,83,90,88,10.34,5,-22.0,23.0,-999.0,16:42:02.391770,192.168.0.115
1924,-1,-100,-100,-100,"0,0,0",0,0,0,0,0,0,65,67,83,90,88,10.35,5,-13.0,1.0,-995.0,16:42:02.493598,192.168.0.115
1929,-1,-100,-100,-100,"0,0,0",0,0,0,0,0,0,65,67,83,90,88,10.43,5,-23.0,23.0,-1000.0,16:42:02.597001,192.168.0.115
1934,-1,-100,-100,-100,"0,0,0",0,0,0,0,0,0,65,67,83,90,88,10.35,6,-21.0,27.0,-992.0,16:42:02.699064,192.168.0.115
1939,-1,-100,-100,-100,"0,0,0",0,0,0,0,0,0,65,67,83,90,88,10.33,6,-11.0,7.0,-1002.0,16:42:02.802402,192.168.0.115
1944,-1,-100,-100,-100,"0,0,0",0,0,0,0,0,0,65,67,83,90,88,10.37,6,-7.0,9.0,-994.0,16:42:02.901673,192.168.0.115
1949,-1,-100,-100,-100,"0,0,0",0,0,0,0,0,0,65,67,83,90,88,10.39,6,-4.0,-9.0,-1002.0,16:42:03.003571,192.168.0.115
1954,-1,-100,-100,-100,"0,0,0",0,0,0,0,0,0,65,67,83,90,88,10.33,6,-7.0,4.0,-997.0,16:42:03.109621,192.168.0.115
1959,-1,-100,-100,-100,"0,0,0",0,0,0,0,0,0,65,67,83,90,88,10.38,6,-8.0,15.0,-999.0,16:42:03.208508,192.168.0.115
1964,-1,-100,-100,-100,"0,0,0",0,0,0,0,0,0,65,67,83,90,88,10.31,6,0.0,10.0,-1009.0,16:42:03.319543,192.168.0.115
1969,-1,-100,-100,-100,"0,0,0",0,0,0,0,0,0,65,67,83,90,88,10.34,6,-2.0,2.0,-1000.0,16:42:03.412548,192.168.0.115
1974,-1,-100,-100,-100,"0,0,0",0,0,0,0,0,0,65,67,83,90,88,10.31,6,0.0,0.0,-989.0,16:42:03.514492,192.168.0.115
1979,-1,-100,-100,-100,"0,0,0",0,0,0,0,0,0,65,67,83,90,88,10.4,6,-2.0,9.0,-994.0,16:42:03.616491,192.168.0.115
1984,-1,-100,-100,-100,"0,0,0",0,0,0,0,0,0,65,66,83,90,88,10.34,7,-8.0,6.0,-997.0,16:42:03.718600,192.168.0.115
1989,-1,-100,-100,-100,"0,0,0",0,0,0,0,0,0,65,66,83,90,88,10.36,7,-14.0,8.0,-999.0,16:42:03.821673,192.168.0.115
1994,-1,-100,-100,-100,"0,0,0",-1,0,0,0,0,0,65,66,83,90,88,10.32,7,-20.0,19.0,-1007.0,16:42:03.923087,192.168.0.115
1999,-1,-100,-100,-100,"0,0,0",-1,0,0,0,0,0,65,66,83,90,88,10.36,7,-3.0,3.0,-981.0,16:42:04.024566,192.168.0.115
2004,-1,-100,-100,-100,"0,0,0",-1,0,0,0,0,0,65,66,83,90,88,10.38,7,-10.0,12.0,-1003.0,16:42:04.126244,192.168.0.115
2009,-1,-100,-100,-100,"0,0,0",-1,0,0,0,0,0,65,66,83,90,88,10.33,7,-1.0,-1.0,-991.0,16:42:04.228564,192.168.0.115
2014,-1,-100,-100,-100,"0,0,0",-1,0,0,0,0,0,65,66,83,80,88,10.37,7,-10.0,-2.0,-1003.0,16:42:04.330312,192.168.0.115
2019,-1,-100,-100,-100,"0,0,0",-1,0,0,0,0,0,65,66,83,80,88,10.3,7,-11.0,10.0,-993.0,16:42:04.432389,192.168.0.115
2024,-1,-100,-100,-100,"0,0,0",-1,0,0,0,0,0,65,66,83,80,88,10.32,7,-12.0,6.0,-1000.0,16:42:04.534377,192.168.0.115
2029,-1,-100,-100,-100,"0,0,0",-1,0,0,0,0,0,65,66,83,80,88,10.3,7,-8.0,8.0,-1006.0,16:42:04.636591,192.168.0.115
2034,-1,-100,-100,-100,"0,0,0",-1,0,0,0,0,0,65,67,83,80,88,10.32,8,-11.0,1.0,-1000.0,16:42:04.738326,192.168.0.115
2039,-1,-100,-100,-100,"0,0,0",-1,0,0,0,0,0,65,67,83,80,88,10.31,8,-19.0,25.0,-996.0,16:42:04.840437,192.168.0.115
2044,-1,-100,-100,-100,"0,0,0",-1,0,0,0,0,0,65,67,83,90,88,10.3,8,-11.0,28.0,-999.0,16:42:04.942123,192.168.0.115
2049,-1,-100,-100,-100,"0,0,0",0,0,0,0,0,0,65,67,83,90,88,10.23,8,-15.0,14.0,-1003.0,16:42:05.044857,192.168.0.115
2055,-1,-100,-100,-100,"0,0,0",-1,0,0,0,0,0,65,67,83,90,88,10.33,8,-20.0,20.0,-1013.0,16:42:05.146508,192.168.0.115
2060,-1,-100,-100,-100,"0,0,0",-1,0,0,0,0,0,65,67,83,90,88,10.3,8,-7.0,1.0,-996.0,16:42:05.250019,192.168.0.115
2064,-1,-100,-100,-100,"0,0,0",-1,0,0,0,0,0,65,67,83,90,88,10.41,8,-11.0,8.0,-995.0,16:42:05.351335,192.168.0.115
2070,-1,-100,-100,-100,"0,0,0",0,0,0,0,0,0,65,67,83,90,88,10.35,8,-8.0,-7.0,-989.0,16:42:05.456167,192.168.0.115
2076,-1,-100,-100,-100,"0,0,0",0,0,0,0,0,0,65,67,83,90,88,10.3,8,-10.0,2.0,-1003.0,16:42:05.558948,192.168.0.115
2081,-1,-100,-100,-100,"0,0,0",0,0,0,0,0,0,65,67,83,90,88,10.33,8,-6.0,6.0,-995.0,16:42:05.684784,192.168.0.115
2086,-1,-100,-100,-100,"0,0,0",-1,0,0,0,0,0,66,67,83,90,88,10.35,9,-13.0,17.0,-1012.0,16:42:05.759558,192.168.0.115
2091,-1,-100,-100,-100,"0,0,0",-1,0,0,0,0,0,66,67,83,90,88,10.31,9,0.0,4.0,-984.0,16:42:05.980379,192.168.0.115
2096,-1,-100,-100,-100,"0,0,0",-1,0,0,0,0,0,66,67,83,90,88,10.22,9,-16.0,6.0,-999.0,16:42:05.980797,192.168.0.115
2101,-1,-100,-100,-100,"0,0,0",0,0,0,0,0,0,66,67,83,90,88,10.23,9,-11.0,7.0,-1004.0,16:42:06.077460,192.168.0.115
2104,-1,-100,-100,-100,"0,0,0",0,0,0,0,0,0,66,67,83,80,88,10.25,9,-15.0,5.0,-986.0,16:42:06.280958,192.168.0.115
2109,-1,-100,-100,-100,"0,0,0",-1,0,0,0,0,0,66,67,83,80,88,10.29,9,-13.0,4.0,-1006.0,16:42:06.281332,192.168.0.115
2114,-1,-100,-100,-100,"0,0,0",-1,0,0,0,0,0,66,67,83,80,88,10.3,9,-20.0,13.0,-1002.0,16:42:06.368796,192.168.0.115
2119,-1,-100,-100,-100,"0,0,0",-1,0,0,0,0,0,66,67,83,80,88,10.25,9,-15.0,2.0,-998.0,16:42:06.482588,192.168.0.115
2124,-1,-100,-100,-100,"0,0,0",-1,0,0,0,0,0,66,67,83,80,88,10.24,9,2.0,-12.0,-995.0,16:42:06.712979,192.168.0.115
2129,-1,-100,-100,-100,"0,0,0",-1,0,0,0,0,0,66,67,83,80,88,10.22,9,-9.0,3.0,-994.0,16:42:06.733909,192.168.0.115
2134,-1,-100,-100,-100,"0,0,0",-1,0,0,0,0,0,65,67,83,90,88,10.29,10,-18.0,3.0,-987.0,16:42:06.734124,192.168.0.115
2139,-1,-100,-100,-100,"0,0,0",-1,0,0,0,0,0,65,67,83,90,88,10.2,10,-22.0,9.0,-1003.0,16:42:06.947665,192.168.0.115
2144,-1,-100,-100,-100,"0,0,0",-1,0,0,0,0,0,65,67,83,90,88,10.27,10,-12.0,1.0,-1001.0,16:42:06.948124,192.168.0.115
2149,-1,-100,-100,-100,"0,0,0",-1,0,0,0,0,0,65,67,83,90,88,10.27,10,3.0,5.0,-997.0,16:42:07.050554,192.168.0.115
2154,-1,-100,-100,-100,"0,0,0",-1,0,0,0,0,0,65,67,83,90,88,10.27,10,-2.0,-9.0,-1000.0,16:42:07.165893,192.168.0.115
2159,-1,-100,-100,-100,"0,0,0",-1,0,0,0,0,0,65,67,83,90,88,10.31,10,-10.0,3.0,-999.0,16:42:07.268249,192.168.0.115
2164,-1,-100,-100,-100,"0,0,0",-1,0,0,0,0,0,65,67,83,90,88,10.25,10,-6.0,-4.0,-987.0,16:42:07.401727,192.168.0.115
2169,-1,-100,-100,-100,"0,0,0",-1,0,0,0,0,0,65,67,83,90,88,10.28,10,-20.0,7.0,-995.0,16:42:07.530509,192.168.0.115
2175,-1,-100,-100,-100,"0,0,0",-1,0,0,0,0,0,65,67,83,90,88,10.26,10,-5.0,-1.0,-986.0,16:42:07.658776,192.168.0.115
2179,-1,-100,-100,-100,"0,0,0",-1,0,0,0,0,0,65,67,83,90,88,10.3,10,-13.0,2.0,-994.0,16:42:07.658942,192.168.0.115
2184,-1,-100,-100,-100,"0,0,0",-1,0,0,0,0,0,65,68,83,90,88,10.27,11,-5.0,-4.0,-999.0,16:42:07.752826,192.168.0.115
2189,-1,-100,-100,-100,"0,0,0",-1,0,0,0,0,0,65,68,83,90,88,10.31,11,-19.0,2.0,-998.0,16:42:07.856520,192.168.0.115
2194,-1,-100,-100,-100,"0,0,0",-1,0,0,0,0,0,65,68,83,90,88,10.18,11,-11.0,16.0,-1014.0,16:42:08.363441,192.168.0.115
2199,-1,-100,-100,-100,"0,0,0",-1,0,0,0,0,0,65,68,83,90,88,10.27,11,-5.0,-6.0,-988.0,16:42:08.374043,192.168.0.115
2204,-1,-100,-100,-100,"0,0,0",-1,0,0,0,0,0,65,68,83,90,88,10.29,11,-15.0,16.0,-999.0,16:42:08.374333,192.168.0.115
2209,-1,-100,-100,-100,"0,0,0",-1,0,0,0,0,0,65,68,83,90,88,10.32,11,-10.0,-8.0,-1005.0,16:42:08.374645,192.168.0.115
2214,-1,-100,-100,-100,"0,0,0",-1,0,0,0,0,0,65,68,83,90,88,10.25,11,-9.0,1.0,-1000.0,16:42:08.374993,192.168.0.115
2219,-1,-100,-100,-100,"0,0,0",-1,0,0,0,0,0,65,68,83,90,88,10.26,11,-20.0,10.0,-1003.0,16:42:08.474066,192.168.0.115
2224,-1,-100,-100,-100,"0,0,0",-1,0,0,0,0,0,65,68,82,80,88,10.26,11,-8.0,-4.0,-999.0,16:42:08.629770,192.168.0.115
2229,-1,-100,-100,-100,"0,0,0",-1,0,0,0,0,0,65,68,82,80,88,10.27,11,-32.0,10.0,-1015.0,16:42:08.665980,192.168.0.115
2235,-1,-100,-100,-100,"0,0,0",-1,0,0,0,0,0,66,67,82,80,88,10.26,12,-17.0,1.0,-1000.0,16:42:08.770977,192.168.0.115
2241,-1,-100,-100,-100,"0,0,0",-1,0,0,0,0,0,66,67,83,80,88,10.36,12,-28.0,18.0,-1007.0,16:42:08.874430,192.168.0.115
2245,-1,-100,-100,-100,"0,0,0",-1,0,0,0,0,0,66,67,83,90,88,10.38,12,-26.0,8.0,-997.0,16:42:09.080976,192.168.0.115
2250,-1,-100,-100,-100,"0,0,0",-1,0,0,0,0,0,66,67,83,90,88,10.39,12,-17.0,9.0,-995.0,16:42:09.081656,192.168.0.115
2255,-1,-100,-100,-100,"0,0,0",-1,0,0,0,0,0,66,67,83,90,88,10.38,12,-32.0,8.0,-1010.0,16:42:09.204410,192.168.0.115
2259,-1,-100,-100,-100,"0,0,0",-1,0,0,0,0,0,66,67,83,90,88,10.28,12,-10.0,-5.0,-982.0,16:42:09.241153,192.168.0.115
2264,-1,-100,-100,-100,"0,0,0",-1,0,0,0,0,0,66,67,83,90,88,10.28,12,-8.0,-5.0,-992.0,16:42:09.353817,192.168.0.115
2269,-1,-100,-100,-100,"0,0,0",-1,0,0,0,0,0,66,67,83,90,88,10.29,12,-13.0,4.0,-996.0,16:42:09.453568,192.168.0.115
2274,-1,-100,-100,-100,"0,0,0",-1,0,0,0,0,0,66,67,83,90,88,10.3,12,-11.0,2.0,-1000.0,16:42:09.561052,192.168.0.115
2279,-1,-100,-100,-100,"0,0,0",-1,0,0,0,0,0,66,67,84,90,88,10.36,12,-12.0,5.0,-1000.0,16:42:09.668125,192.168.0.115
2286,-1,-100,-100,-100,"0,0,0",-1,0,0,0,0,0,65,67,84,90,88,10.28,13,-25.0,9.0,-992.0,16:42:09.820705,192.168.0.115
2291,-1,-100,-100,-100,"0,0,0",-1,0,0,0,0,0,65,67,84,90,88,10.29,13,-22.0,28.0,-995.0,16:42:09.903591,192.168.0.115
2294,-1,-100,-100,-100,"0,0,0",-1,0,0,0,0,0,65,67,84,90,88,10.31,13,-19.0,12.0,-994.0,16:42:10.108322,192.168.0.115
2299,-1,-100,-100,-100,"0,0,0",-1,0,0,0,0,0,65,67,84,90,88,10.29,13,-17.0,18.0,-985.0,16:42:10.108779,192.168.0.115
2304,-1,-100,-100,-100,"0,0,0",-1,0,0,0,0,0,65,67,84,90,88,10.29,13,-17.0,8.0,-987.0,16:42:10.197635,192.168.0.115
2309,-1,-100,-100,-100,"0,0,0",0,0,0,0,0,0,65,67,84,90,88,10.35,13,-16.0,0.0,-989.0,16:42:10.306118,192.168.0.115
2314,-1,-100,-100,-100,"0,0,0",0,0,0,0,0,0,65,67,84,90,88,10.29,13,-3.0,-8.0,-998.0,16:42:10.403760,192.168.0.115
2319,-1,-100,-100,-100,"0,0,0",0,0,0,0,0,0,65,67,84,90,88,10.31,13,-15.0,11.0,-1000.0,16:42:10.492178,192.168.0.115
2324,-1,-100,-100,-100,"0,0,0",-1,0,0,0,0,0,65,67,84,90,88,10.3,13,-26.0,18.0,-1008.0,16:42:10.610638,192.168.0.115
2329,-1,-100,-100,-100,"0,0,0",-1,0,0,0,0,0,65,67,84,90,88,10.34,14,-18.0,9.0,-1003.0,16:42:10.657931,192.168.0.115
2334,-1,-100,-100,-100,"0,0,0",-1,0,0,0,0,0,66,68,83,90,88,10.33,14,-17.0,6.0,-991.0,16:42:10.813920,192.168.0.115
2339,-1,-100,-100,-100,"0,0,0",-1,0,0,0,0,0,66,68,84,90,88,10.28,14,-18.0,15.0,-997.0,16:42:10.925814,192.168.0.115
2344,-1,-100,-100,-100,"0,0,0",-1,0,0,0,0,0,66,68,83,90,88,10.29,14,-14.0,2.0,-1002.0,16:42:10.969294,192.168.0.115
2349,-1,-100,-100,-100,"0,0,0",-1,0,0,0,0,0,66,68,83,90,88,10.26,14,3.0,3.0,-989.0,16:42:11.097980,192.168.0.115
2354,-1,-100,-100,-100,"0,0,0",-1,0,0,0,0,0,66,68,83,90,88,10.34,14,-18.0,-10.0,-999.0,16:42:11.180408,192.168.0.115
2359,-1,-100,-100,-100,"0,0,0",-1,0,0,0,0,0,66,68,83,90,88,10.33,14,-20.0,8.0,-997.0,16:42:11.278194,192.168.0.115
2364,-1,-100,-100,-100,"0,0,0",-1,0,0,0,0,0,66,68,83,90,88,10.28,14,0.0,0.0,-997.0,16:42:11.399078,192.168.0.115
2369,-1,-100,-100,-100,"0,0,0",-1,0,0,0,0,0,66,68,83,90,88,10.29,14,-24.0,5.0,-997.0,16:42:11.474867,192.168.0.115
2374,-1,-100,-100,-100,"0,0,0",-1,0,0,0,0,0,66,68,82,90,88,10.3,14,-32.0,12.0,-1009.0,16:42:11.575047,192.168.0.115
2379,-1,-100,-100,-100,"0,0,0",-1,0,0,0,0,0,66,68,82,80,88,10.28,15,-13.0,5.0,-1009.0,16:42:11.688247,192.168.0.115
2384,-1,-100,-100,-100,"0,0,0",-1,0,0,0,0,0,66,67,82,80,88,10.31,15,-42.0,23.0,-1018.0,16:42:11.778625,192.168.0.115
2389,-1,-100,-100,-100,"0,0,0",-2,0,0,0,0,0,66,67,82,80,88,10.28,15,-16.0,4.0,-993.0,16:42:11.898663,192.168.0.115
2394,-1,-100,-100,-100,"0,0,0",-2,0,0,0,0,0,66,67,82,80,88,10.3,15,-12.0,-5.0,-995.0,16:42:12.043277,192.168.0.115
2399,-1,-100,-100,-100,"0,0,0",-1,0,0,0,0,0,66,67,82,80,88,10.26,15,-27.0,1.0,-993.0,16:42:12.087689,192.168.0.115
2404,-1,-100,-100,-100,"0,0,0",-1,0,0,0,0,0,66,67,81,80,88,10.32,15,-18.0,-8.0,-995.0,16:42:12.210442,192.168.0.115
2409,-1,-100,-100,-100,"0,0,0",-1,0,0,0,0,0,66,67,81,80,88,10.25,15,-4.0,-11.0,-992.0,16:42:12.302341,192.168.0.115
2414,-1,-100,-100,-100,"0,0,0",-1,0,0,0,0,0,66,67,81,80,88,10.24,15,-17.0,2.0,-1010.0,16:42:12.405156,192.168.0.115
2419,-1,-100,-100,-100,"0,0,0",-1,0,0,0,0,0,66,67,81,80,88,10.29,15,-13.0,-8.0,-995.0,16:42:12.640596,192.168.0.115
2424,-1,-100,-100,-100,"0,0,0",-1,0,0,0,0,0,66,67,81,80,88,10.33,15,-25.0,17.0,-1007.0,16:42:12.645949,192.168.0.115
2430,-1,-100,-100,-100,"0,0,0",-1,0,0,0,0,0,66,67,81,80,88,10.3,16,-21.0,5.0,-1005.0,16:42:12.702863,192.168.0.115
2435,-1,-100,-100,-100,"0,0,0",-1,0,0,0,0,0,66,67,81,80,88,10.28,16,-30.0,14.0,-1009.0,16:42:12.867188,192.168.0.115
2441,-1,-100,-100,-100,"0,0,0",-1,0,0,0,0,0,66,67,81,80,88,10.27,16,1.0,-9.0,-986.0,16:42:12.940186,192.168.0.115
2445,-1,-100,-100,-100,"0,0,0",-1,0,0,0,0,0,66,67,82,80,88,10.24,16,-18.0,4.0,-1002.0,16:42:13.048210,192.168.0.115
2450,-1,-100,-100,-100,"0,0,0",0,0,0,0,0,0,66,67,81,80,88,10.26,16,-20.0,5.0,-1000.0,16:42:13.145324,192.168.0.115
2456,-1,-100,-100,-100,"0,0,0",0,0,0,0,0,0,66,67,81,80,88,10.26,16,-18.0,7.0,-996.0,16:42:13.210481,192.168.0.115
2461,-1,-100,-100,-100,"0,0,0",0,0,0,0,0,0,66,67,82,80,88,10.24,16,-19.0,-16.0,-1001.0,16:42:13.312595,192.168.0.115
2464,-1,-100,-100,-100,"0,0,0",-1,0,0,0,0,0,66,67,82,80,88,10.24,16,-14.0,1.0,-991.0,16:42:13.363463,192.168.0.115
2469,-1,-100,-100,-100,"0,0,0",-1,0,0,0,0,0,66,67,82,80,88,10.26,16,-10.0,-15.0,-989.0,16:42:13.461837,192.168.0.115
2474,-1,-100,-100,-100,"0,0,0",-1,0,0,0,0,0,66,67,82,80,88,10.26,16,-6.0,-8.0,-996.0,16:42:13.584303,192.168.0.115
2479,-1,-100,-100,-100,"0,0,0",-1,0,0,0,0,0,66,67,82,80,88,10.24,17,-15.0,18.0,-1004.0,16:42:13.667336,192.168.0.115
2484,-1,-100,-100,-100,"0,0,0",-1,0,0,0,0,0,66,68,82,80,88,10.23,17,-10.0,-1.0,-996.0,16:42:13.771068,192.168.0.115
2489,-1,-100,-100,-100,"0,0,0",-1,0,0,0,0,0,66,68,82,80,88,10.32,17,-14.0,9.0,-1003.0,16:42:13.886912,192.168.0.115
2494,-1,-100,-100,-100,"0,0,0",-1,0,0,0,0,0,66,68,82,80,88,10.24,17,-12.0,0.0,-1003.0,16:42:13.972942,192.168.0.115
2499,-1,-100,-100,-100,"0,0,0",-1,0,0,0,0,0,66,68,81,80,88,10.25,17,-12.0,-9.0,-998.0,16:42:14.086775,192.168.0.115
2504,-1,-100,-100,-100,"0,0,0",-1,0,0,0,0,0,66,68,82,80,88,10.26,17,-19.0,6.0,-997.0,16:42:14.298078,192.168.0.115
2509,-1,-100,-100,-100,"0,0,0",-1,0,0,0,0,0,66,68,82,80,88,10.27,17,-9.0,3.0,-999.0,16:42:14.298697,192.168.0.115
2514,-1,-100,-100,-100,"0,0,0",-1,0,0,0,0,0,66,68,82,80,88,10.26,17,-6.0,-20.0,-984.0,16:42:14.384030,192.168.0.115
2519,-1,-100,-100,-100,"0,0,0",-1,0,0,0,0,0,66,68,82,80,88,10.29,17,0.0,-24.0,-1003.0,16:42:14.489588,192.168.0.115
2524,-1,-100,-100,-100,"0,0,0",-1,0,0,0,0,0,66,68,82,80,88,10.25,17,-6.0,0.0,-992.0,16:42:14.586402,192.168.0.115
2529,-1,-100,-100,-100,"0,0,0",-1,0,0,0,0,0,66,68,82,80,88,10.22,18,-16.0,11.0,-1001.0,16:42:14.724523,192.168.0.115
2534,-1,-100,-100,-100,"0,0,0",-1,0,0,0,0,0,66,68,82,80,88,10.35,18,-23.0,6.0,-996.0,16:42:14.798854,192.168.0.115
2539,-1,-100,-100,-100,"0,0,0",-1,0,0,0,0,0,66,68,82,80,88,10.31,18,-7.0,-10.0,-997.0,16:42:15.048849,192.168.0.115
2544,-1,-100,-100,-100,"0,0,0",-1,0,0,0,0,0,66,68,82,80,88,10.32,18,-19.0,13.0,-1008.0,16:42:15.049320,192.168.0.115
2549,-1,-100,-100,-100,"0,0,0",-1,0,0,0,0,0,66,68,82,80,88,10.31,18,-17.0,4.0,-986.0,16:42:15.147811,192.168.0.115
2554,-1,-100,-100,-100,"0,0,0",-1,0,0,0,0,0,66,68,82,80,88,10.28,18,-27.0,23.0,-1006.0,16:42:15.220599,192.168.0.115
2559,-1,-100,-100,-100,"0,0,0",-1,0,0,0,0,0,66,68,82,80,88,10.23,18,-18.0,-3.0,-1001.0,16:42:15.344100,192.168.0.115
2564,-1,-100,-100,-100,"0,0,0",-1,0,0,0,0,0,66,68,82,80,88,10.27,18,-16.0,5.0,-994.0,16:42:15.401857,192.168.0.115
2569,-1,-100,-100,-100,"0,0,0",-1,0,0,0,0,0,66,68,82,80,88,10.24,18,-27.0,17.0,-1003.0,16:42:15.897494,192.168.0.115
2574,-1,-100,-100,-100,"0,0,0",-1,0,0,0,0,0,66,68,82,80,88,10.28,18,-17.0,-1.0,-998.0,16:42:15.897942,192.168.0.115
2579,-1,-100,-100,-100,"0,0,0",-1,0,0,0,0,0,66,68,82,80,88,10.23,19,-17.0,16.0,-997.0,16:42:15.908722,192.168.0.115
2584,-1,-100,-100,-100,"0,0,0",-1,0,0,0,0,0,66,67,82,80,88,10.32,19,-31.0,8.0,-998.0,16:42:15.909123,192.168.0.115
2589,-1,-100,-100,-100,"0,0,0",0,0,0,0,0,0,66,67,83,80,88,10.28,19,-17.0,-7.0,-1005.0,16:42:15.909513,192.168.0.115
2594,-1,-100,-100,-100,"0,0,0",0,0,0,0,0,0,66,67,82,80,88,10.25,19,-8.0,-7.0,-1006.0,16:42:16.034157,192.168.0.115
2599,-1,-100,-100,-100,"0,0,0",0,0,0,0,0,0,66,67,83,80,88,10.24,19,-30.0,8.0,-998.0,16:42:16.127368,192.168.0.115
2605,-1,-100,-100,-100,"0,0,0",0,0,0,0,0,0,66,67,83,80,88,10.23,19,-31.0,13.0,-1007.0,16:42:16.296481,192.168.0.115
2610,-1,-100,-100,-100,"0,0,0",0,0,0,0,0,0,66,67,83,80,88,10.2,19,-6.0,-11.0,-986.0,16:42:16.318182,192.168.0.115
2615,-1,-100,-100,-100,"0,0,0",0,0,0,0,0,0,66,67,83,80,88,10.22,19,-19.0,15.0,-1002.0,16:42:16.424734,192.168.0.115
2621,-1,-100,-100,-100,"0,0,0",0,0,0,0,0,0,66,67,83,80,88,10.27,19,-19.0,-2.0,-993.0,16:42:16.577430,192.168.0.115
2626,-1,-100,-100,-100,"0,0,0",0,0,0,0,0,0,66,67,83,80,88,10.24,19,-20.0,1.0,-997.0,16:42:16.623429,192.168.0.115
2631,-1,-100,-100,-100,"0,0,0",-1,0,0,0,0,0,66,67,83,90,88,10.24,20,-8.0,-10.0,-996.0,16:42:16.745539,192.168.0.115
2636,-1,-100,-100,-100,"0,0,0",-1,0,0,0,0,0,66,68,83,90,88,10.24,20,-10.0,8.0,-1004.0,16:42:16.901249,192.168.0.115
2641,-1,-100,-100,-100,"0,0,0",-1,0,0,0,0,0,66,68,83,90,88,10.23,20,-31.0,24.0,-997.0,16:42:16.947357,192.168.0.115
2646,-1,-100,-100,-100,"0,0,0",-1,0,0,0,0,0,66,68,83,90,88,10.23,20,-23.0,10.0,-999.0,16:42:17.071634,192.168.0.115
2651,-1,-100,-100,-100,"0,0,0",-1,0,0,0,0,0,66,68,82,90,88,10.24,20,-14.0,0.0,-1002.0,16:42:17.393731,192.168.0.115
2654,-1,-100,-100,-100,"0,0,0",-1,0,0,0,0,0,66,68,82,80,88,10.25,20,-3.0,-3.0,-996.0,16:42:17.401084,192.168.0.115
2659,-1,-100,-100,-100,"0,0,0",-1,0,0,0,0,0,66,68,82,80,88,10.23,20,2.0,-19.0,-1004.0,16:42:17.402997,192.168.0.115
2664,-1,-100,-100,-100,"0,0,0",-1,0,0,0,0,0,66,68,82,80,88,10.27,20,-15.0,1.0,-1000.0,16:42:17.409604,192.168.0.115
2669,-1,-100,-100,-100,"0,0,0",-1,0,0,0,0,0,66,68,82,80,88,10.17,20,-17.0,0.0,-1000.0,16:42:17.512335,192.168.0.115
2674,-1,-100,-100,-100,"0,0,0",-1,0,0,0,0,0,66,68,82,80,88,10.2,20,-24.0,6.0,-1002.0,16:42:17.617832,192.168.0.115
2679,-1,-100,-100,-100,"0,0,0",-1,0,0,0,0,0,66,68,82,80,88,10.28,21,-22.0,15.0,-1004.0,16:42:17.713415,192.168.0.115
2684,-1,-100,-100,-100,"0,0,0",-1,0,0,0,0,0,67,68,81,80,88,10.25,21,-13.0,2.0,-1002.0,16:42:17.803773,192.168.0.115
2689,-1,-100,-100,-100,"0,0,0",-1,0,0,0,0,0,67,68,82,80,88,10.23,21,-17.0,11.0,-997.0,16:42:17.939745,192.168.0.115
