,mid,x,y,z,mpry,pitch,roll,yaw,vgx,vgy,vgz,templ,temph,tof,h,bat,baro,time,agx,agy,agz,timestamp,address
0,-1,-100,-100,-100,"0,0,0",0,0,0,0,0,0,89,91,10,0,38,2.76,0,-7.0,6.0,-998.0,13:53:06.136151,192.168.0.114
1,-1,-100,-100,-100,"0,0,0",0,0,0,0,0,0,89,91,10,0,38,2.78,0,-7.0,4.0,-1000.0,13:53:06.238280,192.168.0.114
2,-1,-100,-100,-100,"0,0,0",0,0,0,0,0,0,89,91,10,0,38,2.79,0,-7.0,5.0,-998.0,13:53:06.339995,192.168.0.114
3,-1,-100,-100,-100,"0,0,0",0,0,0,0,0,0,89,91,10,0,38,2.76,0,-6.0,5.0,-1000.0,13:53:06.442090,192.168.0.114
4,-1,-100,-100,-100,"0,0,0",0,0,0,0,0,0,89,91,10,0,38,2.68,0,-7.0,5.0,-1001.0,13:53:06.544122,192.168.0.114
5,-1,-100,-100,-100,"0,0,0",0,0,0,0,0,0,90,92,10,0,38,2.74,0,-5.0,5.0,-1000.0,13:53:06.645997,192.168.0.114
6,-1,-100,-100,-100,"0,0,0",0,0,0,0,0,0,90,92,10,0,38,2.7,0,-6.0,5.0,-1000.0,13:53:06.748048,192.168.0.114
7,-1,-100,-100,-100,"0,0,0",0,0,0,0,0,0,90,92,10,0,38,2.7,0,-6.0,6.0,-999.0,13:53:06.849645,192.168.0.114
8,-1,-100,-100,-100,"0,0,0",0,0,0,0,0,0,90,92,10,0,38,2.7,0,-6.0,6.0,-1000.0,13:53:06.951545,192.168.0.114
9,-1,-100,-100,-100,"0,0,0",0,0,0,0,0,0,90,92,10,0,38,2.71,0,-5.0,5.0,-999.0,13:53:07.054007,192.168.0.114
10,-1,-100,-100,-100,"0,0,0",0,0,0,0,0,0,90,92,10,0,38,2.7,0,-9.0,6.0,-1000.0,13:53:07.155601,192.168.0.114
11,-1,-100,-100,-100,"0,0,0",0,0,0,0,0,0,90,92,10,0,38,2.73,0,-7.0,7.0,-1000.0,13:53:07.257578,192.168.0.114
12,-1,-100,-100,-100,"0,0,0",0,0,0,0,0,0,90,92,10,0,38,2.7,0,-8.0,5.0,-999.0,13:53:07.361440,192.168.0.114
13,-1,-100,-100,-100,"0,0,0",0,0,0,0,0,0,90,92,10,0,38,2.71,0,-8.0,4.0,-999.0,13:53:07.463515,192.168.0.114
14,-1,-100,-100,-100,"0,0,0",0,0,0,0,0,0,90,92,10,0,38,2.76,0,-5.0,5.0,-999.0,13:53:07.564505,192.168.0.114
15,-1,-100,-100,-100,"0,0,0",0,0,0,0,0,0,92,94,10,0,38,2.75,0,-6.0,5.0,-997.0,13:53:07.666524,192.168.0.114
16,-1,-100,-100,-100,"0,0,0",0,0,0,0,0,0,92,94,10,0,38,2.75,0,-7.0,6.0,-999.0,13:53:07.768440,192.168.0.114
17,-1,-100,-100,-100,"0,0,0",0,0,0,0,0,0,92,94,10,0,38,2.72,0,-6.0,5.0,-1002.0,13:53:07.870556,192.168.0.114
18,-1,-100,-100,-100,"0,0,0",0,0,0,0,0,0,92,94,10,0,38,2.77,0,-7.0,6.0,-999.0,13:53:07.972501,192.168.0.114
19,-1,-100,-100,-100,"0,0,0",0,0,0,0,0,0,92,94,10,0,38,2.71,0,-7.0,4.0,-1000.0,13:53:08.074491,192.168.0.114
20,-1,-100,-100,-100,"0,0,0",0,0,0,0,0,0,92,94,10,0,38,2.73,0,-6.0,5.0,-1002.0,13:53:08.176467,192.168.0.114
21,-1,-100,-100,-100,"0,0,0",0,0,0,0,0,0,92,94,10,0,38,2.74,0,-7.0,6.0,-999.0,13:53:08.278454,192.168.0.114
22,-1,-100,-100,-100,"0,0,0",0,0,0,0,0,0,92,94,10,0,38,2.71,0,-5.0,4.0,-1001.0,13:53:08.380410,192.168.0.114
23,-1,-100,-100,-100,"0,0,0",0,0,0,0,0,0,92,94,10,0,38,2.8,0,-4.0,7.0,-1001.0,13:53:08.431443,192.168.0.114
24,-1,-100,-100,-100,"0,0,0",0,0,0,0,0,0,92,94,10,0,38,2.79,0,-7.0,5.0,-1001.0,13:53:08.533550,192.168.0.114
25,-1,-100,-100,-100,"0,0,0",0,0,0,0,0,0,94,95,10,0,38,2.79,0,-6.0,4.0,-1000.0,13:53:08.635429,192.168.0.114
26,-1,-100,-100,-100,"0,0,0",0,0,0,0,0,0,94,95,10,0,38,2.78,0,-7.0,4.0,-999.0,13:53:08.737579,192.168.0.114
27,-1,-100,-100,-100,"0,0,0",0,0,0,0,0,0,94,95,10,0,38,2.77,0,-7.0,6.0,-998.0,13:53:08.839491,192.168.0.114
28,-1,-100,-100,-100,"0,0,0",0,0,0,0,0,0,94,95,10,0,38,2.78,0,-7.0,4.0,-1003.0,13:53:08.941523,192.168.0.114
29,-1,-100,-100,-100,"0,0,0",0,0,0,0,0,0,94,95,10,0,38,2.78,0,-6.0,4.0,-999.0,13:53:09.043423,192.168.0.114
30,-1,-100,-100,-100,"0,0,0",0,0,0,0,0,0,94,95,10,0,38,2.8,0,-6.0,5.0,-998.0,13:53:09.145476,192.168.0.114
31,-1,-100,-100,-100,"0,0,0",0,0,0,0,0,0,94,95,10,0,38,2.76,0,-8.0,4.0,-1001.0,13:53:09.247376,192.168.0.114
32,-1,-100,-100,-100,"0,0,0",0,0,0,0,0,0,94,95,10,0,38,2.77,0,-6.0,6.0,-1002.0,13:53:09.349935,192.168.0.114
33,-1,-100,-100,-100,"0,0,0",0,0,0,0,0,0,94,95,10,0,38,2.76,0,-7.0,6.0,-998.0,13:53:09.451295,192.168.0.114
34,-1,-100,-100,-100,"0,0,0",0,0,0,0,0,0,94,95,10,0,38,2.8,0,-6.0,4.0,-997.0,13:53:09.553309,192.168.0.114
35,-1,-100,-100,-100,"0,0,0",0,0,0,0,0,0,94,96,10,0,38,2.78,0,-6.0,6.0,-1001.0,13:53:09.655231,192.168.0.114
36,-1,-100,-100,-100,"0,0,0",0,0,0,0,0,0,94,96,10,0,38,2.73,0,-6.0,6.0,-999.0,13:53:09.757372,192.168.0.114
37,-1,-100,-100,-100,"0,0,0",0,0,0,0,0,0,94,96,10,0,38,2.75,0,-6.0,5.0,-998.0,13:53:09.859416,192.168.0.114
38,-1,-100,-100,-100,"0,0,0",0,0,0,0,0,0,94,96,10,0,38,2.75,0,-7.0,5.0,-1000.0,13:53:09.962101,192.168.0.114
39,-1,-100,-100,-100,"0,0,0",0,0,0,0,0,0,94,96,10,0,38,2.71,0,-4.0,6.0,-1000.0,13:53:10.064696,192.168.0.114
40,-1,-100,-100,-100,"0,0,0",0,0,0,0,0,0,94,96,10,0,38,2.67,0,-6.0,4.0,-999.0,13:53:10.165657,192.168.0.114
41,-1,-100,-100,-100,"0,0,0",0,0,0,0,0,0,94,96,10,0,38,2.72,0,-5.0,5.0,-998.0,13:53:10.267752,192.168.0.114
42,-1,-100,-100,-100,"0,0,0",0,0,0,0,0,0,94,96,10,0,38,2.7,0,-5.0,6.0,-1004.0,13:53:10.371663,192.168.0.114
43,-1,-100,-100,-100,"0,0,0",0,0,0,0,0,0,94,96,10,0,38,2.69,0,-5.0,5.0,-998.0,13:53:10.471846,192.168.0.114
44,-1,-100,-100,-100,"0,0,0",0,0,0,0,0,0,94,96,10,0,38,2.71,0,-5.0,5.0,-998.0,13:53:10.573703,192.168.0.114
45,-1,-100,-100,-100,"0,0,0",0,0,0,0,0,0,94,96,10,0,38,2.75,0,-7.0,6.0,-1000.0,13:53:10.675756,192.168.0.114
46,-1,-100,-100,-100,"0,0,0",0,0,0,0,0,0,94,96,10,0,38,2.79,0,-7.0,5.0,-999.0,13:53:10.777585,192.168.0.114
47,-1,-100,-100,-100,"0,0,0",0,0,0,0,0,0,94,96,10,0,38,2.76,0,-6.0,3.0,-1001.0,13:53:10.881803,192.168.0.114
48,-1,-100,-100,-100,"0,0,0",0,0,0,0,0,0,94,96,10,0,38,2.79,0,-7.0,5.0,-999.0,13:53:10.984303,192.168.0.114
49,-1,-100,-100,-100,"0,0,0",0,0,0,0,0,0,94,96,10,0,38,2.79,0,-7.0,4.0,-999.0,13:53:11.083642,192.168.0.114
50,-1,-100,-100,-100,"0,0,0",0,0,0,0,0,0,94,96,10,0,38,2.76,0,-7.0,4.0,-998.0,13:53:11.146146,192.168.0.114
51,-1,-100,-100,-100,"0,0,0",0,0,0,0,0,0,94,96,10,0,38,2.77,0,-7.0,6.0,-999.0,13:53:11.236576,192.168.0.114
52,-1,-100,-100,-100,"0,0,0",0,0,0,0,0,0,94,96,10,0,38,2.72,0,-5.0,6.0,-999.0,13:53:11.338930,192.168.0.114
53,-1,-100,-100,-100,"0,0,0",0,0,0,0,0,0,94,96,10,0,38,2.71,0,-6.0,6.0,-1001.0,13:53:11.440349,192.168.0.114
54,-1,-100,-100,-100,"0,0,0",0,0,0,0,0,0,94,96,10,0,38,2.75,0,-7.0,6.0,-999.0,13:53:11.543647,192.168.0.114
55,-1,-100,-100,-100,"0,0,0",0,0,0,0,0,0,94,97,10,0,38,2.78,0,-6.0,5.0,-999.0,13:53:11.644448,192.168.0.114
56,-1,-100,-100,-100,"0,0,0",0,0,0,0,0,0,94,97,10,0,38,2.7,0,-7.0,5.0,-998.0,13:53:11.746616,192.168.0.114
57,-1,-100,-100,-100,"0,0,0",0,0,0,0,0,0,94,97,10,0,38,2.75,0,-6.0,5.0,-998.0,13:53:11.848465,192.168.0.114
58,-1,-100,-100,-100,"0,0,0",0,0,0,0,0,0,94,97,10,0,38,2.71,0,-6.0,6.0,-1000.0,13:53:11.950145,192.168.0.114
59,-1,-100,-100,-100,"0,0,0",0,0,0,0,0,0,94,97,10,0,38,2.7,0,-6.0,6.0,-999.0,13:53:12.052503,192.168.0.114
60,-1,-100,-100,-100,"0,0,0",0,0,0,0,0,0,94,97,10,0,38,2.72,0,-6.0,4.0,-1001.0,13:53:12.154518,192.168.0.114
61,-1,-100,-100,-100,"0,0,0",0,0,0,0,0,0,94,97,10,0,38,2.72,0,-5.0,6.0,-999.0,13:53:12.256384,192.168.0.114
62,-1,-100,-100,-100,"0,0,0",0,0,0,0,0,0,94,97,10,0,38,2.69,0,-6.0,5.0,-998.0,13:53:12.358489,192.168.0.114
63,-1,-100,-100,-100,"0,0,0",0,0,0,0,0,0,94,97,10,0,38,2.7,0,-5.0,6.0,-1002.0,13:53:12.460853,192.168.0.114
64,-1,-100,-100,-100,"0,0,0",0,0,0,0,0,0,94,97,10,0,38,2.72,0,-6.0,4.0,-1000.0,13:53:12.563932,192.168.0.114
65,-1,-100,-100,-100,"0,0,0",0,0,0,0,0,0,95,96,10,0,38,2.68,0,-7.0,5.0,-998.0,13:53:12.665438,192.168.0.114
66,-1,-100,-100,-100,"0,0,0",0,0,0,0,0,0,95,96,10,0,38,2.75,0,-6.0,4.0,-1001.0,13:53:12.767926,192.168.0.114
67,-1,-100,-100,-100,"0,0,0",0,0,0,0,0,0,95,96,10,0,38,2.71,0,-7.0,5.0,-998.0,13:53:12.870259,192.168.0.114
68,-1,-100,-100,-100,"0,0,0",0,0,0,0,0,0,95,96,10,0,38,2.71,0,-7.0,6.0,-1000.0,13:53:12.984587,192.168.0.114
69,-1,-100,-100,-100,"0,0,0",0,0,0,0,0,0,95,96,10,0,38,2.68,0,-7.0,6.0,-1001.0,13:53:13.075978,192.168.0.114
70,-1,-100,-100,-100,"0,0,0",0,0,0,0,0,0,95,96,10,0,38,2.65,0,-7.0,6.0,-997.0,13:53:13.178128,192.168.0.114
71,-1,-100,-100,-100,"0,0,0",0,0,0,0,0,0,95,96,10,0,38,2.67,0,-6.0,6.0,-1000.0,13:53:13.276176,192.168.0.114
72,-1,-100,-100,-100,"0,0,0",0,0,0,0,0,0,95,96,10,0,38,2.63,0,-8.0,4.0,-1000.0,13:53:13.378334,192.168.0.114
73,-1,-100,-100,-100,"0,0,0",0,0,0,0,0,0,95,96,10,0,38,2.64,0,-7.0,4.0,-998.0,13:53:13.480366,192.168.0.114
74,-1,-100,-100,-100,"0,0,0",0,0,0,0,0,0,95,96,10,0,38,2.66,0,-7.0,4.0,-1002.0,13:53:13.582129,192.168.0.114
75,-1,-100,-100,-100,"0,0,0",0,0,0,0,0,0,94,96,10,0,38,2.68,0,-7.0,6.0,-1001.0,13:53:13.633518,192.168.0.114
76,-1,-100,-100,-100,"0,0,0",0,0,0,0,0,0,94,96,10,0,38,2.7,0,-8.0,5.0,-999.0,13:53:13.735209,192.168.0.114
77,-1,-100,-100,-100,"0,0,0",0,0,0,0,0,0,94,96,10,0,38,2.74,0,-7.0,5.0,-999.0,13:53:13.837361,192.168.0.114
78,-1,-100,-100,-100,"0,0,0",0,0,0,0,0,0,94,96,10,0,38,2.7,0,-7.0,4.0,-998.0,13:53:13.939371,192.168.0.114
79,-1,-100,-100,-100,"0,0,0",0,0,0,0,0,0,94,96,10,0,38,2.71,0,-6.0,4.0,-999.0,13:53:14.041537,192.168.0.114
80,-1,-100,-100,-100,"0,0,0",0,0,0,0,0,0,94,96,10,0,38,2.74,0,-8.0,5.0,-998.0,13:53:14.143333,192.168.0.114
81,-1,-100,-100,-100,"0,0,0",0,0,0,0,0,0,94,96,10,0,38,2.72,0,-7.0,4.0,-999.0,13:53:14.245312,192.168.0.114
82,-1,-100,-100,-100,"0,0,0",0,0,0,0,0,0,94,96,10,0,38,2.71,0,-7.0,5.0,-999.0,13:53:14.347463,192.168.0.114
83,-1,-100,-100,-100,"0,0,0",0,0,0,0,0,0,94,96,10,0,38,2.71,0,-6.0,4.0,-999.0,13:53:14.449201,192.168.0.114
84,-1,-100,-100,-100,"0,0,0",0,0,0,0,0,0,94,96,10,0,38,2.73,0,-7.0,6.0,-998.0,13:53:14.550982,192.168.0.114
85,-1,-100,-100,-100,"0,0,0",0,0,0,0,0,0,94,96,10,0,38,2.72,0,-8.0,5.0,-997.0,13:53:14.653324,192.168.0.114
86,-1,-100,-100,-100,"0,0,0",0,0,0,0,0,0,94,96,10,0,38,2.65,0,-5.0,5.0,-996.0,13:53:14.755215,192.168.0.114
87,-1,-100,-100,-100,"0,0,0",0,0,0,0,0,0,94,96,10,0,38,2.71,0,-5.0,4.0,-1001.0,13:53:14.857304,192.168.0.114
88,-1,-100,-100,-100,"0,0,0",0,0,0,0,0,0,94,96,10,0,38,2.68,0,-8.0,6.0,-999.0,13:53:14.960103,192.168.0.114
89,-1,-100,-100,-100,"0,0,0",0,0,0,0,0,0,94,96,10,0,38,2.7,0,-7.0,6.0,-1002.0,13:53:15.061123,192.168.0.114
90,-1,-100,-100,-100,"0,0,0",0,0,0,0,0,0,94,96,10,0,38,2.75,0,-7.0,4.0,-999.0,13:53:15.163097,192.168.0.114
91,-1,-100,-100,-100,"0,0,0",0,0,0,0,0,0,94,96,10,0,38,2.7,0,-5.0,7.0,-997.0,13:53:15.265450,192.168.0.114
92,-1,-100,-100,-100,"0,0,0",0,0,0,0,0,0,94,96,10,0,38,2.68,0,-6.0,5.0,-998.0,13:53:15.368181,192.168.0.114
93,-1,-100,-100,-100,"0,0,0",0,0,0,0,0,0,94,96,10,0,38,2.68,0,-7.0,6.0,-999.0,13:53:15.470229,192.168.0.114
94,-1,-100,-100,-100,"0,0,0",0,0,0,0,0,0,94,96,10,0,38,2.69,0,-7.0,4.0,-997.0,13:53:15.574074,192.168.0.114
95,-1,-100,-100,-100,"0,0,0",0,0,0,0,0,0,95,97,10,0,38,2.71,0,-7.0,4.0,-1000.0,13:53:15.674546,192.168.0.114
96,-1,-100,-100,-100,"0,0,0",0,0,0,0,0,0,95,97,10,0,38,2.67,0,-7.0,3.0,-999.0,13:53:15.775864,192.168.0.114
97,-1,-100,-100,-100,"0,0,0",0,0,0,0,0,0,95,97,10,0,38,2.68,0,-7.0,6.0,-999.0,13:53:15.878064,192.168.0.114
98,-1,-100,-100,-100,"0,0,0",0,0,0,0,0,0,95,97,10,0,38,2.72,0,-6.0,5.0,-999.0,13:53:15.980047,192.168.0.114
99,-1,-100,-100,-100,"0,0,0",0,0,0,0,0,0,95,97,10,0,38,2.67,0,-6.0,5.0,-996.0,13:53:16.082038,192.168.0.114
100,-1,-100,-100,-100,"0,0,0",0,0,0,0,0,0,95,97,10,0,38,2.66,0,-6.0,4.0,-998.0,13:53:16.184046,192.168.0.114
101,-1,-100,-100,-100,"0,0,0",0,0,0,0,0,0,95,97,10,0,38,2.68,0,-6.0,6.0,-1001.0,13:53:16.235063,192.168.0.114
102,-1,-100,-100,-100,"0,0,0",0,0,0,0,0,0,95,97,10,0,38,2.69,0,-7.0,6.0,-999.0,13:53:16.337157,192.168.0.114
103,-1,-100,-100,-100,"0,0,0",0,0,0,0,0,0,95,97,10,0,38,2.71,0,-7.0,4.0,-1002.0,13:53:16.438849,192.168.0.114
104,-1,-100,-100,-100,"0,0,0",0,0,0,0,0,0,95,97,10,0,38,2.69,0,-6.0,7.0,-998.0,13:53:16.541066,192.168.0.114
105,-1,-100,-100,-100,"0,0,0",0,0,0,0,0,0,96,97,10,0,38,2.71,0,-7.0,3.0,-998.0,13:53:16.642929,192.168.0.114
106,-1,-100,-100,-100,"0,0,0",0,0,0,0,0,0,96,97,10,0,38,2.7,0,-7.0,5.0,-1001.0,13:53:16.745040,192.168.0.114
107,-1,-100,-100,-100,"0,0,0",0,0,0,0,0,0,96,97,10,0,38,2.71,0,-7.0,5.0,-998.0,13:53:16.847054,192.168.0.114
108,-1,-100,-100,-100,"0,0,0",0,0,0,0,0,0,96,97,10,0,38,2.73,0,-7.0,6.0,-1000.0,13:53:16.948954,192.168.0.114
109,-1,-100,-100,-100,"0,0,0",0,0,0,0,0,0,96,97,10,0,38,2.69,0,-4.0,6.0,-1001.0,13:53:17.050719,192.168.0.114
110,-1,-100,-100,-100,"0,0,0",0,0,0,0,0,0,96,97,10,0,38,2.69,0,-3.0,3.0,-993.0,13:53:17.153208,192.168.0.114
111,-1,-100,-100,-100,"0,0,0",0,0,0,0,0,0,96,97,10,0,38,2.69,0,-22.0,-25.0,-992.0,13:53:17.254951,192.168.0.114
112,-1,-100,-100,-100,"0,0,0",0,0,0,0,0,0,96,97,10,0,38,2.69,0,-20.0,-10.0,-993.0,13:53:17.358147,192.168.0.114
113,-1,-100,-100,-100,"0,0,0",0,0,0,0,0,0,96,97,10,0,38,2.69,0,3.0,3.0,-1011.0,13:53:17.459970,192.168.0.114
114,-1,-100,-100,-100,"0,0,0",0,0,0,0,0,0,96,97,10,0,38,2.69,0,10.0,9.0,-1122.0,13:53:17.561848,192.168.0.114
115,-1,-100,-100,-100,"0,0,0",0,1,0,0,0,0,95,97,10,0,38,2.69,0,-16.0,12.0,-1210.0,13:53:17.665113,192.168.0.114
116,-1,-100,-100,-100,"0,0,0",0,0,0,0,0,2,95,97,10,0,38,2.69,0,-11.0,9.0,-1275.0,13:53:17.765941,192.168.0.114
117,-1,-100,-100,-100,"0,0,0",0,-1,0,0,0,5,95,97,18,0,38,2.69,0,-17.0,0.0,-1171.0,13:53:17.867326,192.168.0.114
118,-1,-100,-100,-100,"0,0,0",0,-1,0,0,0,7,95,97,27,0,38,2.97,0,-6.0,0.0,-1062.0,13:53:17.969647,192.168.0.114
119,-1,-100,-100,-100,"0,0,0",0,0,0,0,0,7,95,97,35,10,38,3.05,1,-5.0,0.0,-1010.0,13:53:18.071921,192.168.0.114
120,-1,-100,-100,-100,"0,0,0",0,0,0,0,0,7,95,97,44,20,38,3.21,1,0.0,-2.0,-952.0,13:53:18.173867,192.168.0.114
121,-1,-100,-100,-100,"0,0,0",0,0,0,0,0,7,95,97,48,20,38,3.22,1,-7.0,-4.0,-912.0,13:53:18.275713,192.168.0.114
122,-1,-100,-100,-100,"0,0,0",0,0,0,0,0,6,95,97,56,30,38,3.32,1,4.0,-5.0,-902.0,13:53:18.378081,192.168.0.114
123,-1,-100,-100,-100,"0,0,0",0,0,0,0,0,5,95,97,62,40,38,3.34,1,10.0,3.0,-888.0,13:53:18.479809,192.168.0.114
124,-1,-100,-100,-100,"0,0,0",0,0,0,0,0,4,95,97,67,40,38,3.46,1,5.0,7.0,-875.0,13:53:18.581366,192.168.0.114
125,-1,-100,-100,-100,"0,0,0",0,0,0,0,0,3,95,97,71,50,38,3.44,1,1.0,0.0,-878.0,13:53:18.692172,192.168.0.114
126,-1,-100,-100,-100,"0,0,0",0,0,0,0,0,2,95,97,74,50,38,3.55,1,-11.0,-2.0,-916.0,13:53:18.785748,192.168.0.114
127,-1,-100,-100,-100,"0,0,0",0,0,0,0,0,1,95,97,77,50,38,3.6,1,-13.0,1.0,-944.0,13:53:18.887940,192.168.0.114
128,-1,-100,-100,-100,"0,0,0",0,0,0,0,0,0,95,97,79,50,38,3.57,1,-6.0,2.0,-939.0,13:53:18.989836,192.168.0.114
129,-1,-100,-100,-100,"0,0,0",0,0,0,0,0,0,95,97,80,50,38,3.49,2,6.0,7.0,-964.0,13:53:19.091805,192.168.0.114
130,-1,-100,-100,-100,"0,0,0",0,0,0,0,0,0,95,97,81,50,38,3.62,2,0.0,6.0,-980.0,13:53:19.193716,192.168.0.114
131,-1,-100,-100,-100,"0,0,0",0,0,0,0,0,0,95,97,82,60,38,3.52,2,-5.0,4.0,-998.0,13:53:19.299008,192.168.0.114
132,-1,-100,-100,-100,"0,0,0",0,0,0,0,0,0,95,97,83,60,38,3.61,2,6.0,0.0,-997.0,13:53:19.397608,192.168.0.114
133,-1,-100,-100,-100,"0,0,0",0,0,0,0,0,0,95,97,84,60,38,3.62,2,-7.0,2.0,-997.0,13:53:19.499748,192.168.0.114
134,-1,-100,-100,-100,"0,0,0",0,0,0,0,0,0,95,97,85,60,38,3.6,2,6.0,7.0,-1008.0,13:53:19.550697,192.168.0.114
135,-1,-100,-100,-100,"0,0,0",0,0,0,0,0,0,95,97,85,60,38,3.64,2,-11.0,0.0,-991.0,13:53:19.653033,192.168.0.114
136,-1,-100,-100,-100,"0,0,0",0,0,0,0,0,0,95,97,87,60,38,3.65,2,1.0,3.0,-1007.0,13:53:19.754776,192.168.0.114
137,-1,-100,-100,-100,"0,0,0",0,0,0,0,0,0,95,97,87,60,38,3.69,2,12.0,8.0,-996.0,13:53:19.856786,192.168.0.114
138,-1,-100,-100,-100,"0,0,0",0,0,0,0,0,0,95,97,87,60,38,3.67,2,-7.0,4.0,-985.0,13:53:19.958752,192.168.0.114
139,-1,-100,-100,-100,"0,0,0",0,0,0,0,0,0,95,97,87,60,38,3.67,3,-5.0,3.0,-974.0,13:53:20.060519,192.168.0.114
140,-1,-100,-100,-100,"0,0,0",0,0,0,0,0,0,95,97,88,60,38,3.67,3,18.0,16.0,-999.0,13:53:20.164727,192.168.0.114
141,-1,-100,-100,-100,"0,0,0",0,0,0,0,0,0,95,97,87,60,38,3.65,3,7.0,2.0,-998.0,13:53:20.264523,192.168.0.114
142,-1,-100,-100,-100,"0,0,0",0,0,0,0,0,0,95,97,88,60,38,3.67,3,-10.0,-3.0,-957.0,13:53:20.366354,192.168.0.114
143,-1,-100,-100,-100,"0,0,0",0,0,0,0,0,0,95,97,87,60,38,3.6,3,11.0,0.0,-995.0,13:53:20.469415,192.168.0.114
144,-1,-100,-100,-100,"0,0,0",0,0,0,0,0,0,95,97,87,60,38,3.6,3,7.0,2.0,-1000.0,13:53:20.570432,192.168.0.114
145,-1,-100,-100,-100,"0,0,0",0,0,0,0,0,0,95,97,87,60,38,3.6,3,-11.0,8.0,-974.0,13:53:20.675389,192.168.0.114
146,-1,-100,-100,-100,"0,0,0",0,0,0,0,0,0,95,97,86,60,38,3.6,3,9.0,0.0,-1018.0,13:53:20.774660,192.168.0.114
147,-1,-100,-100,-100,"0,0,0",0,0,0,0,0,0,95,97,86,60,38,3.59,3,-3.0,6.0,-995.0,13:53:20.876560,192.168.0.114
148,-1,-100,-100,-100,"0,0,0",0,0,0,0,0,0,95,97,85,60,38,3.63,4,-7.0,-5.0,-1002.0,13:53:20.978534,192.168.0.114
149,-1,-100,-100,-100,"0,0,0",0,0,0,0,0,0,95,97,84,60,38,3.65,4,4.0,3.0,-1007.0,13:53:21.080746,192.168.0.114
150,-1,-100,-100,-100,"0,0,0",0,0,0,0,0,0,95,97,83,60,38,3.67,4,-9.0,1.0,-984.0,13:53:21.182463,192.168.0.114
151,-1,-100,-100,-100,"0,0,0",0,0,0,0,0,0,95,97,83,60,38,3.59,4,-1.0,-7.0,-1022.0,13:53:21.284529,192.168.0.114
152,-1,-100,-100,-100,"0,0,0",0,0,0,0,0,0,95,97,82,60,38,3.64,4,-2.0,6.0,-1005.0,13:53:21.386445,192.168.0.114
153,-1,-100,-100,-100,"0,0,0",0,0,0,0,0,0,95,97,81,60,38,3.56,4,-1.0,13.0,-982.0,13:53:21.488225,192.168.0.114
154,-1,-100,-100,-100,"0,0,0",0,0,0,0,0,0,95,97,81,60,38,3.54,4,9.0,9.0,-986.0,13:53:21.590682,192.168.0.114
155,-1,-100,-100,-100,"0,0,0",0,0,0,0,0,0,94,97,80,60,38,3.61,4,-1.0,-4.0,-1008.0,13:53:21.692502,192.168.0.114
156,-1,-100,-100,-100,"0,0,0",0,0,0,0,0,0,94,97,80,60,38,3.59,4,7.0,1.0,-1020.0,13:53:21.794459,192.168.0.114
157,-1,-100,-100,-100,"0,0,0",0,0,0,0,0,0,94,97,79,60,38,3.57,4,1.0,0.0,-1024.0,13:53:21.896514,192.168.0.114
158,-1,-100,-100,-100,"0,0,0",0,0,0,0,0,0,94,97,79,60,38,3.54,5,-1.0,-2.0,-1008.0,13:53:21.998462,192.168.0.114
159,-1,-100,-100,-100,"0,0,0",0,0,0,0,0,0,94,97,78,60,38,3.57,5,11.0,-1.0,-1016.0,13:53:22.100459,192.168.0.114
160,-1,-100,-100,-100,"0,0,0",0,0,0,0,0,0,94,97,78,60,38,3.57,5,17.0,5.0,-1023.0,13:53:22.202334,192.168.0.114
161,-1,-100,-100,-100,"0,0,0",0,0,0,0,0,0,94,97,78,60,38,3.57,5,4.0,-1.0,-1018.0,13:53:22.304430,192.168.0.114
162,-1,-100,-100,-100,"0,0,0",0,0,0,0,0,0,94,97,77,50,38,3.57,5,-4.0,-2.0,-1019.0,13:53:22.406195,192.168.0.114
163,-1,-100,-100,-100,"0,0,0",0,0,0,0,0,0,94,97,77,50,38,3.6,5,-10.0,-1.0,-1009.0,13:53:22.509161,192.168.0.114
164,-1,-100,-100,-100,"0,0,0",0,0,0,0,0,0,94,97,76,50,38,3.55,5,-7.0,-1.0,-1000.0,13:53:22.611127,192.168.0.114
165,-1,-100,-100,-100,"0,0,0",0,0,0,0,0,0,94,97,76,50,38,3.55,5,1.0,3.0,-1007.0,13:53:22.713211,192.168.0.114
166,-1,-100,-100,-100,"0,0,0",0,0,0,0,0,0,94,97,76,50,38,3.55,5,3.0,-4.0,-1018.0,13:53:22.814154,192.168.0.114
167,-1,-100,-100,-100,"0,0,0",0,0,0,0,0,0,94,97,76,50,38,3.51,5,-3.0,-4.0,-1025.0,13:53:22.916335,192.168.0.114
168,-1,-100,-100,-100,"0,0,0",0,0,0,0,0,0,94,97,77,50,38,3.49,6,2.0,3.0,-1017.0,13:53:23.018119,192.168.0.114
169,-1,-100,-100,-100,"0,0,0",0,0,0,0,0,0,94,97,77,50,38,3.53,6,4.0,1.0,-1001.0,13:53:23.120291,192.168.0.114
170,-1,-100,-100,-100,"0,0,0",0,0,0,0,0,0,94,97,77,50,38,3.48,6,6.0,4.0,-997.0,13:53:23.222507,192.168.0.114
171,-1,-100,-100,-100,"0,0,0",0,0,0,0,0,0,94,97,77,50,38,3.54,6,5.0,-2.0,-1004.0,13:53:23.329163,192.168.0.114
172,-1,-100,-100,-100,"0,0,0",0,0,0,0,0,0,94,97,77,50,38,3.53,6,-1.0,-3.0,-1005.0,13:53:23.379716,192.168.0.114
173,-1,-100,-100,-100,"0,0,0",0,0,0,0,0,0,94,97,77,50,38,3.52,6,4.0,1.0,-1011.0,13:53:23.481711,192.168.0.114
174,-1,-100,-100,-100,"0,0,0",0,0,0,0,0,0,94,97,77,50,38,3.52,6,-12.0,0.0,-1013.0,13:53:23.583689,192.168.0.114
175,-1,-100,-100,-100,"0,0,0",0,0,0,0,0,0,94,96,77,50,38,3.54,6,0.0,-3.0,-1016.0,13:53:23.736678,192.168.0.114
176,-1,-100,-100,-100,"0,0,0",0,0,0,0,0,0,94,96,76,50,38,3.53,6,-17.0,3.0,-1012.0,13:53:23.838780,192.168.0.114
177,-1,-100,-100,-100,"0,0,0",0,0,0,0,0,0,94,96,76,50,38,3.53,6,2.0,-6.0,-1012.0,13:53:23.889707,192.168.0.114
178,-1,-100,-100,-100,"0,0,0",0,0,0,0,0,0,94,96,76,50,38,3.56,7,8.0,6.0,-1025.0,13:53:23.991680,192.168.0.114
179,-1,-100,-100,-100,"0,0,0",0,0,0,0,0,0,94,96,77,50,38,3.54,7,15.0,7.0,-997.0,13:53:24.093786,192.168.0.114
180,-1,-100,-100,-100,"0,0,0",0,0,0,0,0,0,94,96,77,50,38,3.55,7,14.0,-2.0,-1006.0,13:53:24.195725,192.168.0.114
181,-1,-100,-100,-100,"0,0,0",0,0,0,0,0,0,94,96,77,50,38,3.44,7,15.0,5.0,-1018.0,13:53:24.297776,192.168.0.114
182,-1,-100,-100,-100,"0,0,0",0,0,0,0,0,0,94,96,77,50,38,3.48,7,5.0,2.0,-1002.0,13:53:24.399714,192.168.0.114
183,-1,-100,-100,-100,"0,0,0",0,0,0,0,0,0,94,96,77,50,38,3.5,7,-9.0,4.0,-982.0,13:53:24.501804,192.168.0.114
184,-1,-100,-100,-100,"0,0,0",0,0,0,0,0,0,94,96,77,50,38,3.5,7,-15.0,8.0,-979.0,13:53:24.605515,192.168.0.114
185,-1,-100,-100,-100,"0,0,0",0,0,0,0,0,0,94,96,77,50,38,3.45,7,1.0,1.0,-988.0,13:53:24.705789,192.168.0.114
186,-1,-100,-100,-100,"0,0,0",0,0,0,0,0,0,94,96,76,50,38,3.54,7,-1.0,-9.0,-992.0,13:53:24.807666,192.168.0.114
187,-1,-100,-100,-100,"0,0,0",0,0,0,0,0,0,94,96,76,50,38,3.48,7,8.0,5.0,-1014.0,13:53:24.909630,192.168.0.114
188,-1,-100,-100,-100,"0,0,0",0,0,0,0,0,0,94,96,76,50,38,3.47,8,-10.0,2.0,-981.0,13:53:25.011768,192.168.0.114
189,-1,-100,-100,-100,"0,0,0",0,0,0,0,0,0,94,96,76,50,38,3.46,8,6.0,8.0,-981.0,13:53:25.119095,192.168.0.114
190,-1,-100,-100,-100,"0,0,0",0,0,0,0,0,0,94,96,75,50,38,3.53,8,23.0,-3.0,-1004.0,13:53:25.213674,192.168.0.114
191,-1,-100,-100,-100,"0,0,0",0,0,0,0,0,0,94,96,76,50,38,3.48,8,1.0,6.0,-1007.0,13:53:25.314468,192.168.0.114
192,-1,-100,-100,-100,"0,0,0",0,0,0,0,0,0,94,96,76,50,38,3.46,8,11.0,-5.0,-994.0,13:53:25.420723,192.168.0.114
193,-1,-100,-100,-100,"0,0,0",0,0,0,0,0,0,94,96,75,50,38,3.48,8,-2.0,3.0,-1006.0,13:53:25.524417,192.168.0.114
194,-1,-100,-100,-100,"0,0,0",0,0,0,0,0,0,94,96,76,50,38,3.45,8,-5.0,8.0,-1005.0,13:53:25.625068,192.168.0.114
195,-1,-100,-100,-100,"0,0,0",0,0,0,0,0,0,93,95,75,50,38,3.47,8,-4.0,-6.0,-986.0,13:53:25.726549,192.168.0.114
196,-1,-100,-100,-100,"0,0,0",0,0,0,0,0,0,93,95,75,50,38,3.51,8,-12.0,1.0,-994.0,13:53:25.828554,192.168.0.114
197,-1,-100,-100,-100,"0,0,0",0,0,0,0,0,0,93,95,76,50,38,3.5,8,2.0,5.0,-1004.0,13:53:25.930714,192.168.0.114
198,-1,-100,-100,-100,"0,0,0",0,0,0,0,0,0,93,95,76,50,38,3.51,9,4.0,-10.0,-987.0,13:53:26.032606,192.168.0.114
199,-1,-100,-100,-100,"0,0,0",0,0,0,0,0,0,93,95,76,50,38,3.44,9,-5.0,4.0,-1006.0,13:53:26.134559,192.168.0.114
200,-1,-100,-100,-100,"0,0,0",0,0,0,0,0,0,93,95,76,50,38,3.51,9,18.0,3.0,-1003.0,13:53:26.231459,192.168.0.114
201,-1,-100,-100,-100,"0,0,0",0,0,0,0,0,0,93,95,76,50,38,3.49,9,17.0,0.0,-1012.0,13:53:26.338480,192.168.0.114
202,-1,-100,-100,-100,"0,0,0",0,0,0,0,0,0,93,95,76,50,38,3.46,9,0.0,-1.0,-1011.0,13:53:26.440633,192.168.0.114
203,-1,-100,-100,-100,"0,0,0",0,0,0,0,0,0,93,95,76,50,38,3.5,9,-6.0,-9.0,-1035.0,13:53:26.542430,192.168.0.114
204,-1,-100,-100,-100,"0,0,0",0,0,0,0,0,0,93,95,77,50,38,3.49,9,5.0,3.0,-1024.0,13:53:26.644501,192.168.0.114
205,-1,-100,-100,-100,"0,0,0",0,0,0,0,0,1,93,94,78,60,38,3.46,9,0.0,0.0,-1022.0,13:53:26.746365,192.168.0.114
206,-1,-100,-100,-100,"0,0,0",0,0,0,0,0,1,93,94,79,60,38,3.53,9,-10.0,-1.0,-1004.0,13:53:26.848452,192.168.0.114
207,-1,-100,-100,-100,"0,0,0",0,0,0,0,0,1,93,94,82,60,38,3.46,9,-2.0,0.0,-1020.0,13:53:26.950460,192.168.0.114
208,-1,-100,-100,-100,"0,0,0",0,0,0,0,0,1,93,94,83,60,38,3.57,10,2.0,5.0,-1010.0,13:53:27.052774,192.168.0.114
209,-1,-100,-100,-100,"0,0,0",0,0,0,0,0,1,93,94,85,60,38,3.6,10,-17.0,0.0,-988.0,13:53:27.154431,192.168.0.114
210,-1,-100,-100,-100,"0,0,0",0,0,0,0,0,1,93,94,87,60,38,3.56,10,0.0,-8.0,-1013.0,13:53:27.256366,192.168.0.114
211,-1,-100,-100,-100,"0,0,0",0,0,0,0,0,1,93,94,89,60,38,3.53,10,0.0,-1.0,-996.0,13:53:27.356082,192.168.0.114
212,-1,-100,-100,-100,"0,0,0",0,0,0,0,0,1,93,94,90,70,38,3.58,10,3.0,4.0,-964.0,13:53:27.410473,192.168.0.114
213,-1,-100,-100,-100,"0,0,0",0,0,0,0,0,1,93,94,91,70,38,3.57,10,2.0,-3.0,-975.0,13:53:27.512348,192.168.0.114
214,-1,-100,-100,-100,"0,0,0",0,0,0,0,0,0,93,94,92,70,38,3.59,10,-4.0,0.0,-971.0,13:53:27.613495,192.168.0.114
215,-1,-100,-100,-100,"0,0,0",0,0,0,0,0,0,93,95,93,70,38,3.61,10,-26.0,-5.0,-953.0,13:53:27.713105,192.168.0.114
216,-1,-100,-100,-100,"0,0,0",0,0,0,0,0,0,93,95,93,70,38,3.66,10,-5.0,14.0,-953.0,13:53:27.813728,192.168.0.114
217,-1,-100,-100,-100,"0,0,0",0,0,0,0,0,0,93,95,94,70,38,3.64,10,-2.0,5.0,-986.0,13:53:27.930674,192.168.0.114
218,-1,-100,-100,-100,"0,0,0",0,0,0,0,0,0,93,95,93,70,38,3.63,11,-7.0,1.0,-976.0,13:53:28.023574,192.168.0.114
219,-1,-100,-100,-100,"0,0,0",0,0,0,0,0,0,93,95,94,70,38,3.65,11,-2.0,-3.0,-973.0,13:53:28.124297,192.168.0.114
220,-1,-100,-100,-100,"0,0,0",0,0,0,0,0,0,93,95,93,70,38,3.61,11,-2.0,5.0,-997.0,13:53:28.226269,192.168.0.114
221,-1,-100,-100,-100,"0,0,0",0,0,0,0,0,0,93,95,93,70,38,3.61,11,0.0,13.0,-995.0,13:53:28.328349,192.168.0.114
222,-1,-100,-100,-100,"0,0,0",0,0,0,0,0,0,93,95,93,70,38,3.58,11,-14.0,-1.0,-1006.0,13:53:28.430361,192.168.0.114
223,-1,-100,-100,-100,"0,0,0",0,0,0,0,0,0,93,95,93,70,38,3.62,11,10.0,3.0,-1004.0,13:53:28.532373,192.168.0.114
224,-1,-100,-100,-100,"0,0,0",0,0,0,0,0,0,93,95,92,70,38,3.61,11,-17.0,10.0,-993.0,13:53:28.634344,192.168.0.114
225,-1,-100,-100,-100,"0,0,0",0,0,0,0,0,0,93,94,92,70,38,3.68,11,2.0,12.0,-1003.0,13:53:28.736293,192.168.0.114
226,-1,-100,-100,-100,"0,0,0",0,0,0,0,0,0,93,94,92,70,38,3.68,11,1.0,-1.0,-996.0,13:53:28.838245,192.168.0.114
227,-1,-100,-100,-100,"0,0,0",0,0,0,0,0,0,93,94,92,70,38,3.69,11,-14.0,7.0,-1008.0,13:53:28.940415,192.168.0.114
228,-1,-100,-100,-100,"0,0,0",0,0,0,0,0,0,93,94,91,70,38,3.64,12,-18.0,-5.0,-978.0,13:53:29.042284,192.168.0.114
229,-1,-100,-100,-100,"0,0,0",0,0,0,0,0,0,93,94,92,70,38,3.68,12,-8.0,4.0,-1002.0,13:53:29.144324,192.168.0.114
230,-1,-100,-100,-100,"0,0,0",0,0,0,0,0,0,93,94,91,70,38,3.64,12,-5.0,9.0,-1006.0,13:53:29.246192,192.168.0.114
231,-1,-100,-100,-100,"0,0,0",0,0,0,0,0,0,93,94,92,70,38,3.64,12,-10.0,3.0,-995.0,13:53:29.355513,192.168.0.114
232,-1,-100,-100,-100,"0,0,0",0,0,0,0,0,0,93,94,92,70,38,3.66,12,-9.0,0.0,-1012.0,13:53:29.450149,192.168.0.114
233,-1,-100,-100,-100,"0,0,0",0,0,0,0,0,0,93,94,92,70,38,3.64,12,8.0,12.0,-1029.0,13:53:29.552253,192.168.0.114
234,-1,-100,-100,-100,"0,0,0",0,0,0,0,0,0,93,94,92,70,38,3.66,12,-1.0,-1.0,-992.0,13:53:29.654072,192.168.0.114
235,-1,-100,-100,-100,"0,0,0",0,0,0,0,0,0,91,93,92,70,38,3.75,12,-12.0,8.0,-996.0,13:53:29.756105,192.168.0.114
236,-1,-100,-100,-100,"0,0,0",0,0,0,0,0,0,91,93,92,70,38,3.67,12,-3.0,9.0,-1016.0,13:53:29.858294,192.168.0.114
237,-1,-100,-100,-100,"0,0,0",0,0,0,0,0,0,91,93,92,70,38,3.61,12,15.0,2.0,-985.0,13:53:29.964986,192.168.0.114
238,-1,-100,-100,-100,"0,0,0",0,0,0,0,0,0,91,93,93,70,38,3.65,13,-7.0,14.0,-1003.0,13:53:30.062864,192.168.0.114
239,-1,-100,-100,-100,"0,0,0",0,0,0,0,0,0,91,93,92,70,38,3.67,13,-5.0,8.0,-993.0,13:53:30.162390,192.168.0.114
240,-1,-100,-100,-100,"0,0,0",0,0,0,0,0,0,91,93,92,70,38,3.63,13,-17.0,4.0,-1008.0,13:53:30.263807,192.168.0.114
241,-1,-100,-100,-100,"0,0,0",0,0,0,0,0,0,91,93,93,70,38,3.72,13,-19.0,8.0,-990.0,13:53:30.367960,192.168.0.114
242,-1,-100,-100,-100,"0,0,0",0,0,0,0,0,0,91,93,93,70,38,3.67,13,-5.0,8.0,-996.0,13:53:30.470014,192.168.0.114
243,-1,-100,-100,-100,"0,0,0",0,0,0,0,0,0,91,93,93,70,38,3.62,13,-7.0,20.0,-977.0,13:53:30.581260,192.168.0.114
244,-1,-100,-100,-100,"0,0,0",0,0,0,0,0,0,91,93,93,70,38,3.61,13,9.0,2.0,-976.0,13:53:30.676163,192.168.0.114
245,-1,-100,-100,-100,"0,0,0",0,0,0,0,0,0,92,93,93,70,38,3.56,13,-1.0,-1.0,-989.0,13:53:30.775979,192.168.0.114
246,-1,-100,-100,-100,"0,0,0",0,0,0,0,0,0,92,93,93,70,38,3.62,13,0.0,15.0,-1011.0,13:53:30.877924,192.168.0.114
247,-1,-100,-100,-100,"0,0,0",0,0,0,0,0,0,92,93,93,70,38,3.65,13,-1.0,9.0,-991.0,13:53:30.979999,192.168.0.114
248,-1,-100,-100,-100,"0,0,0",0,0,0,0,0,0,92,93,93,70,38,3.6,14,0.0,3.0,-991.0,13:53:31.030912,192.168.0.114
249,-1,-100,-100,-100,"0,0,0",0,0,0,0,0,0,92,93,93,70,38,3.59,14,-4.0,8.0,-989.0,13:53:31.133011,192.168.0.114
250,-1,-100,-100,-100,"0,0,0",0,0,0,0,0,0,92,93,93,70,38,3.52,14,-11.0,-1.0,-1022.0,13:53:31.235050,192.168.0.114
251,-1,-100,-100,-100,"0,0,0",0,0,0,0,0,0,92,93,93,70,38,3.58,14,7.0,-10.0,-986.0,13:53:31.337921,192.168.0.114
252,-1,-100,-100,-100,"0,0,0",0,0,0,0,0,0,92,93,93,70,38,3.64,14,2.0,7.0,-1000.0,13:53:31.439009,192.168.0.114
253,-1,-100,-100,-100,"0,0,0",0,0,0,0,0,0,92,93,93,70,38,3.58,14,-11.0,-3.0,-989.0,13:53:31.541067,192.168.0.114
254,-1,-100,-100,-100,"0,0,0",0,0,0,0,0,0,92,93,93,70,38,3.65,14,11.0,4.0,-983.0,13:53:31.643032,192.168.0.114
255,-1,-100,-100,-100,"0,0,0",0,0,0,0,0,0,92,93,94,70,38,3.68,14,2.0,-5.0,-993.0,13:53:31.744904,192.168.0.114
256,-1,-100,-100,-100,"0,0,0",0,0,0,0,0,0,92,93,93,70,38,3.62,14,-9.0,8.0,-1004.0,13:53:31.846919,192.168.0.114
257,-1,-100,-100,-100,"0,0,0",0,0,0,0,0,0,92,93,93,70,38,3.58,14,-13.0,-4.0,-1007.0,13:53:31.948916,192.168.0.114
258,-1,-100,-100,-100,"0,0,0",0,0,0,0,0,0,92,93,93,70,38,3.61,15,2.0,-7.0,-993.0,13:53:32.050937,192.168.0.114
259,-1,-100,-100,-100,"0,0,0",0,0,0,0,0,0,92,93,93,70,38,3.59,15,4.0,-13.0,-1011.0,13:53:32.152993,192.168.0.114
260,-1,-100,-100,-100,"0,0,0",0,0,0,0,0,0,92,93,93,70,38,3.57,15,-7.0,0.0,-1000.0,13:53:32.254894,192.168.0.114
261,-1,-100,-100,-100,"0,0,0",0,0,0,0,0,0,92,93,93,70,38,3.54,15,-10.0,-6.0,-999.0,13:53:32.356417,192.168.0.114
262,-1,-100,-100,-100,"0,0,0",0,0,0,0,0,0,92,93,93,70,38,3.61,15,-22.0,3.0,-1009.0,13:53:32.458996,192.168.0.114
263,-1,-100,-100,-100,"0,0,0",0,0,0,0,0,0,92,93,93,70,38,3.62,15,-8.0,11.0,-1024.0,13:53:32.560849,192.168.0.114
264,-1,-100,-100,-100,"0,0,0",0,0,0,0,0,0,92,93,93,70,38,3.62,15,-11.0,0.0,-1001.0,13:53:32.663272,192.168.0.114
265,-1,-100,-100,-100,"0,0,0",0,0,0,0,0,0,92,93,94,70,38,3.6,15,-14.0,3.0,-1020.0,13:53:32.764003,192.168.0.114
266,-1,-100,-100,-100,"0,0,0",0,0,0,0,0,0,92,93,94,70,38,3.6,15,-6.0,1.0,-1003.0,13:53:32.863092,192.168.0.114
267,-1,-100,-100,-100,"0,0,0",0,0,0,0,0,0,92,93,94,70,38,3.62,15,0.0,-11.0,-1009.0,13:53:32.968851,192.168.0.114
268,-1,-100,-100,-100,"0,0,0",0,0,0,0,0,0,92,93,95,70,38,3.62,16,-13.0,0.0,-1024.0,13:53:33.066025,192.168.0.114
269,-1,-100,-100,-100,"0,0,0",0,0,0,0,0,0,92,93,95,70,38,3.66,16,-7.0,3.0,-1001.0,13:53:33.168659,192.168.0.114
270,-1,-100,-100,-100,"0,0,0",0,0,0,0,0,0,92,93,96,70,38,3.68,16,14.0,9.0,-1001.0,13:53:33.274739,192.168.0.114
271,-1,-100,-100,-100,"0,0,0",0,0,0,0,0,0,92,93,96,70,38,3.6,16,1.0,-1.0,-1004.0,13:53:33.376708,192.168.0.114
272,-1,-100,-100,-100,"0,0,0",0,0,0,0,0,0,92,93,96,70,38,3.65,16,2.0,5.0,-997.0,13:53:33.478723,192.168.0.114
273,-1,-100,-100,-100,"0,0,0",0,0,0,0,0,0,92,93,96,70,38,3.69,16,-18.0,6.0,-985.0,13:53:33.580711,192.168.0.114
274,-1,-100,-100,-100,"0,0,0",0,0,0,0,0,0,92,93,96,70,38,3.65,16,-25.0,15.0,-1001.0,13:53:33.682772,192.168.0.114
275,-1,-100,-100,-100,"0,0,0",0,0,0,0,0,0,90,92,97,70,38,3.63,16,-17.0,0.0,-980.0,13:53:33.784662,192.168.0.114
276,-1,-100,-100,-100,"0,0,0",0,0,0,0,0,0,90,92,97,70,38,3.62,16,-17.0,1.0,-977.0,13:53:33.886767,192.168.0.114
277,-1,-100,-100,-100,"0,0,0",0,0,0,0,0,0,90,92,96,70,38,3.64,16,0.0,-6.0,-1011.0,13:53:33.988740,192.168.0.114
278,-1,-100,-100,-100,"0,0,0",0,0,0,0,0,0,90,92,96,70,38,3.63,17,-2.0,6.0,-1022.0,13:53:34.090770,192.168.0.114
279,-1,-100,-100,-100,"0,0,0",0,0,0,0,0,0,90,92,96,70,38,3.66,17,-8.0,5.0,-1015.0,13:53:34.193539,192.168.0.114
280,-1,-100,-100,-100,"0,0,0",0,0,0,0,0,0,90,92,96,70,38,3.68,17,-11.0,6.0,-1006.0,13:53:34.294702,192.168.0.114
281,-1,-100,-100,-100,"0,0,0",0,0,0,0,0,0,90,92,96,70,38,3.62,17,4.0,-5.0,-980.0,13:53:34.396716,192.168.0.114
282,-1,-100,-100,-100,"0,0,0",0,0,0,0,0,0,90,92,96,70,38,3.65,17,-4.0,4.0,-992.0,13:53:34.498730,192.168.0.114
283,-1,-100,-100,-100,"0,0,0",0,0,0,0,0,0,90,92,96,70,38,3.64,17,12.0,4.0,-994.0,13:53:34.549655,192.168.0.114
284,-1,-100,-100,-100,"0,0,0",0,0,0,0,0,0,90,92,95,70,38,3.61,17,-11.0,1.0,-1020.0,13:53:34.651608,192.168.0.114
285,-1,-100,-100,-100,"0,0,0",0,0,0,0,0,0,91,92,95,70,38,3.71,17,-18.0,-3.0,-993.0,13:53:34.753781,192.168.0.114
286,-1,-100,-100,-100,"0,0,0",0,0,0,0,0,0,91,92,95,70,38,3.69,17,-2.0,1.0,-999.0,13:53:34.855715,192.168.0.114
287,-1,-100,-100,-100,"0,0,0",0,0,0,0,0,0,91,92,96,70,38,3.64,17,6.0,-3.0,-1005.0,13:53:34.957573,192.168.0.114
288,-1,-100,-100,-100,"0,0,0",0,0,0,0,0,0,91,92,95,70,38,3.67,18,-16.0,-3.0,-999.0,13:53:35.059647,192.168.0.114
289,-1,-100,-100,-100,"0,0,0",0,0,0,0,0,0,91,92,95,70,38,3.66,18,-1.0,-2.0,-999.0,13:53:35.161712,192.168.0.114
290,-1,-100,-100,-100,"0,0,0",0,0,0,0,0,0,91,92,96,70,38,3.62,18,-12.0,6.0,-993.0,13:53:35.263149,192.168.0.114
291,-1,-100,-100,-100,"0,0,0",0,0,0,0,0,0,91,92,96,70,38,3.58,18,-7.0,2.0,-1005.0,13:53:35.368282,192.168.0.114
292,-1,-100,-100,-100,"0,0,0",0,0,0,0,0,0,91,92,95,70,38,3.61,18,-9.0,-4.0,-1020.0,13:53:35.467692,192.168.0.114
293,-1,-100,-100,-100,"0,0,0",0,0,0,0,0,0,91,92,96,70,38,3.71,18,-18.0,2.0,-982.0,13:53:35.567569,192.168.0.114
294,-1,-100,-100,-100,"0,0,0",0,0,0,0,0,0,91,92,96,70,38,3.66,18,0.0,-3.0,-1005.0,13:53:35.673263,192.168.0.114
295,-1,-100,-100,-100,"0,0,0",0,0,0,0,0,0,90,92,96,70,38,3.61,18,-9.0,-2.0,-982.0,13:53:35.773492,192.168.0.114
296,-1,-100,-100,-100,"0,0,0",0,0,0,0,0,0,90,92,97,70,38,3.6,18,-14.0,-3.0,-1002.0,13:53:35.875454,192.168.0.114
297,-1,-100,-100,-100,"0,0,0",0,0,0,0,0,0,90,92,97,70,38,3.58,18,-2.0,4.0,-1014.0,13:53:35.977444,192.168.0.114
298,-1,-100,-100,-100,"0,0,0",0,0,0,0,0,0,90,92,98,70,38,3.69,19,-14.0,0.0,-1003.0,13:53:36.079411,192.168.0.114
299,-1,-100,-100,-100,"0,0,0",0,0,0,0,0,0,90,92,97,70,38,3.7,19,-7.0,1.0,-999.0,13:53:36.181480,192.168.0.114
300,-1,-100,-100,-100,"0,0,0",0,0,0,0,0,0,90,92,98,70,38,3.66,19,-26.0,-11.0,-989.0,13:53:36.283430,192.168.0.114
301,-1,-100,-100,-100,"0,0,0",0,0,0,0,0,0,90,92,98,70,38,3.64,19,-5.0,1.0,-999.0,13:53:36.385393,192.168.0.114
302,-1,-100,-100,-100,"0,0,0",0,0,0,0,0,0,90,92,99,80,38,3.66,19,-13.0,-14.0,-1042.0,13:53:36.487412,192.168.0.114
303,-1,-100,-100,-100,"0,0,0",0,0,0,0,0,0,90,92,100,80,38,3.7,19,-20.0,9.0,-1058.0,13:53:36.589654,192.168.0.114
304,-1,-100,-100,-100,"0,0,0",0,0,0,0,0,1,90,92,101,80,38,3.69,19,-3.0,0.0,-1029.0,13:53:36.693569,192.168.0.114
305,-1,-100,-100,-100,"0,0,0",0,0,0,0,0,2,90,92,103,80,38,3.73,19,-9.0,2.0,-1020.0,13:53:36.793473,192.168.0.114
306,-1,-100,-100,-100,"0,0,0",0,0,0,0,0,2,90,92,105,80,38,3.78,19,-14.0,0.0,-1012.0,13:53:36.895598,192.168.0.114
307,-1,-100,-100,-100,"0,0,0",0,0,0,0,0,2,90,92,107,80,38,3.73,20,-6.0,-4.0,-1033.0,13:53:36.997503,192.168.0.114
308,-1,-100,-100,-100,"0,0,0",0,0,0,0,0,2,90,92,110,90,38,3.78,20,-8.0,4.0,-1000.0,13:53:37.100380,192.168.0.114
309,-1,-100,-100,-100,"0,0,0",0,0,0,0,0,2,90,92,112,90,38,3.76,20,-1.0,0.0,-995.0,13:53:37.201540,192.168.0.114
310,-1,-100,-100,-100,"0,0,0",0,0,0,0,0,2,90,92,115,90,38,3.83,20,-7.0,0.0,-991.0,13:53:37.303412,192.168.0.114
311,-1,-100,-100,-100,"0,0,0",0,0,0,0,0,2,90,92,118,90,38,3.86,20,-10.0,-3.0,-926.0,13:53:37.405418,192.168.0.114
312,-1,-100,-100,-100,"0,0,0",0,0,0,0,0,1,90,92,120,100,38,3.85,20,-9.0,-1.0,-943.0,13:53:37.507279,192.168.0.114
313,-1,-100,-100,-100,"0,0,0",0,0,0,0,0,1,90,92,122,100,38,3.93,20,-19.0,11.0,-968.0,13:53:37.609483,192.168.0.114
314,-1,-100,-100,-100,"0,0,0",0,0,0,0,0,0,90,92,122,100,38,3.9,20,-17.0,1.0,-966.0,13:53:37.711345,192.168.0.114
315,-1,-100,-100,-100,"0,0,0",0,0,0,0,0,0,90,91,123,100,38,3.86,20,0.0,2.0,-989.0,13:53:37.812550,192.168.0.114
316,-1,-100,-100,-100,"0,0,0",0,0,0,0,0,0,90,91,123,100,38,3.95,20,-3.0,5.0,-980.0,13:53:37.914523,192.168.0.114
317,-1,-100,-100,-100,"0,0,0",0,0,0,0,0,0,90,91,123,100,38,3.92,21,-12.0,-1.0,-981.0,13:53:38.013435,192.168.0.114
318,-1,-100,-100,-100,"0,0,0",0,0,0,0,0,0,90,91,123,100,38,3.96,21,-13.0,7.0,-1007.0,13:53:38.121803,192.168.0.114
319,-1,-100,-100,-100,"0,0,0",0,0,0,0,0,0,90,91,123,100,38,3.87,21,-16.0,0.0,-1006.0,13:53:38.222447,192.168.0.114
320,-1,-100,-100,-100,"0,0,0",0,0,0,0,0,0,90,91,123,100,38,3.85,21,-4.0,5.0,-1008.0,13:53:38.323183,192.168.0.114
321,-1,-100,-100,-100,"0,0,0",0,0,0,0,0,0,90,91,123,100,38,3.93,21,0.0,9.0,-990.0,13:53:38.425266,192.168.0.114
322,-1,-100,-100,-100,"0,0,0",0,0,0,0,0,0,90,91,122,100,38,3.9,21,-12.0,0.0,-1008.0,13:53:38.476207,192.168.0.114
323,-1,-100,-100,-100,"0,0,0",0,0,0,0,0,0,90,91,123,100,38,3.91,21,-2.0,-2.0,-994.0,13:53:38.578527,192.168.0.114
324,-1,-100,-100,-100,"0,0,0",0,0,0,0,0,0,90,91,122,100,38,3.94,21,-16.0,3.0,-996.0,13:53:38.680165,192.168.0.114
325,-1,-100,-100,-100,"0,0,0",0,0,0,0,0,0,89,92,123,100,38,3.89,21,-5.0,2.0,-994.0,13:53:38.833193,192.168.0.114
326,-1,-100,-100,-100,"0,0,0",0,0,0,0,0,0,89,92,123,100,38,3.87,21,-2.0,-2.0,-976.0,13:53:38.938316,192.168.0.114
327,-1,-100,-100,-100,"0,0,0",0,0,0,0,0,0,89,92,123,100,38,3.87,22,-11.0,1.0,-1000.0,13:53:38.989449,192.168.0.114
328,-1,-100,-100,-100,"0,0,0",0,0,0,0,0,0,89,92,122,100,38,3.87,22,-5.0,-1.0,-1000.0,13:53:39.088227,192.168.0.114
329,-1,-100,-100,-100,"0,0,0",0,0,0,0,0,0,89,92,123,100,38,3.91,22,7.0,2.0,-996.0,13:53:39.190537,192.168.0.114
330,-1,-100,-100,-100,"0,0,0",0,0,0,0,0,0,89,92,123,100,38,3.83,22,-16.0,-11.0,-1001.0,13:53:39.292620,192.168.0.114
331,-1,-100,-100,-100,"0,0,0",0,0,0,0,0,0,89,92,123,100,38,3.92,22,-12.0,-2.0,-1052.0,13:53:39.395357,192.168.0.114
332,-1,-100,-100,-100,"0,0,0",0,0,0,0,0,0,89,92,125,100,38,3.91,22,-4.0,2.0,-1091.0,13:53:39.497366,192.168.0.114
333,-1,-100,-100,-100,"0,0,0",0,0,0,0,0,1,89,92,125,100,38,3.98,22,1.0,2.0,-1078.0,13:53:39.599678,192.168.0.114
334,-1,-100,-100,-100,"0,0,0",0,0,0,0,0,2,89,92,129,100,38,3.95,22,-21.0,0.0,-1052.0,13:53:39.702474,192.168.0.114
335,-1,-100,-100,-100,"0,0,0",0,0,0,0,0,2,89,91,132,110,38,3.93,22,-10.0,7.0,-1041.0,13:53:39.804494,192.168.0.114
336,-1,-100,-100,-100,"0,0,0",0,0,0,0,0,3,89,91,134,110,38,3.99,22,4.0,7.0,-1041.0,13:53:39.904083,192.168.0.114
337,-1,-100,-100,-100,"0,0,0",0,0,0,0,0,3,89,91,139,110,38,4.03,23,-8.0,-4.0,-995.0,13:53:40.005991,192.168.0.114
338,-1,-100,-100,-100,"0,0,0",0,0,0,0,0,3,89,91,143,120,38,4.1,23,-2.0,0.0,-1004.0,13:53:40.107968,192.168.0.114
339,-1,-100,-100,-100,"0,0,0",0,0,0,0,0,3,89,91,147,120,38,4.02,23,-10.0,5.0,-977.0,13:53:40.210112,192.168.0.114
340,-1,-100,-100,-100,"0,0,0",0,0,0,0,0,3,89,91,150,120,38,4.06,23,-6.0,13.0,-1008.0,13:53:40.312222,192.168.0.114
341,-1,-100,-100,-100,"0,0,0",0,0,0,0,0,3,89,91,154,130,38,4.13,23,-1.0,-6.0,-885.0,13:53:40.412191,192.168.0.114
342,-1,-100,-100,-100,"0,0,0",0,0,0,0,0,2,89,91,157,130,38,4.17,23,22.0,2.0,-920.0,13:53:40.513230,192.168.0.114
343,-1,-100,-100,-100,"0,0,0",0,0,0,0,0,1,89,91,159,130,38,4.18,23,6.0,7.0,-945.0,13:53:40.615409,192.168.0.114
344,-1,-100,-100,-100,"0,0,0",0,0,0,0,0,1,89,91,162,140,38,4.18,23,3.0,10.0,-937.0,13:53:40.719857,192.168.0.114
345,-1,-100,-100,-100,"0,0,0",0,0,0,0,0,0,89,91,160,140,38,4.14,23,7.0,5.0,-973.0,13:53:40.821834,192.168.0.114
346,-1,-100,-100,-100,"0,0,0",0,0,0,0,0,0,89,91,163,140,38,4.18,23,8.0,-6.0,-960.0,13:53:40.925941,192.168.0.114
347,-1,-100,-100,-100,"0,0,0",-1,0,0,0,0,0,89,91,163,140,38,4.15,24,0.0,0.0,-972.0,13:53:41.025834,192.168.0.114
348,-1,-100,-100,-100,"0,0,0",-1,0,0,0,0,0,89,91,162,140,38,4.24,24,-5.0,2.0,-991.0,13:53:41.127805,192.168.0.114
349,-1,-100,-100,-100,"0,0,0",0,0,0,0,0,0,89,91,162,140,38,4.25,24,3.0,-1.0,-973.0,13:53:41.229933,192.168.0.114
350,-1,-100,-100,-100,"0,0,0",0,0,0,0,0,0,89,91,162,140,38,4.19,24,-6.0,3.0,-993.0,13:53:41.332030,192.168.0.114
351,-1,-100,-100,-100,"0,0,0",0,0,0,0,0,0,89,91,162,140,38,4.22,24,-4.0,0.0,-1003.0,13:53:41.434958,192.168.0.114
352,-1,-100,-100,-100,"0,0,0",0,0,0,0,0,0,89,91,161,140,38,4.2,24,-1.0,7.0,-989.0,13:53:41.536858,192.168.0.114
353,-1,-100,-100,-100,"0,0,0",0,0,0,0,0,0,89,91,161,140,38,4.15,24,9.0,-2.0,-988.0,13:53:41.639085,192.168.0.114
354,-1,-100,-100,-100,"0,0,0",0,0,0,0,0,0,89,91,161,140,38,4.17,24,9.0,4.0,-1024.0,13:53:41.754747,192.168.0.114
355,-1,-100,-100,-100,"0,0,0",0,0,0,0,0,0,89,90,161,140,38,4.16,24,-6.0,0.0,-1006.0,13:53:41.842966,192.168.0.114
356,-1,-100,-100,-100,"0,0,0",0,0,0,0,0,0,89,90,159,140,38,4.21,24,-4.0,3.0,-1009.0,13:53:41.945195,192.168.0.114
357,-1,-100,-100,-100,"0,0,0",0,0,0,0,0,0,89,90,160,140,38,4.18,25,1.0,1.0,-1022.0,13:53:42.046859,192.168.0.114
358,-1,-100,-100,-100,"0,0,0",0,0,0,0,0,0,89,90,159,140,38,4.07,25,-17.0,-2.0,-1008.0,13:53:42.097856,192.168.0.114
359,-1,-100,-100,-100,"0,0,0",0,0,0,0,0,0,89,90,159,140,38,4.16,25,-1.0,-1.0,-1003.0,13:53:42.201317,192.168.0.114
360,-1,-100,-100,-100,"0,0,0",0,0,0,0,0,0,89,90,160,140,38,4.12,25,7.0,5.0,-1005.0,13:53:42.297002,192.168.0.114
361,-1,-100,-100,-100,"0,0,0",2,0,0,0,0,0,89,90,161,140,38,4.17,25,15.0,6.0,-1017.0,13:53:42.398629,192.168.0.114
362,-1,-100,-100,-100,"0,0,0",7,-1,0,0,0,0,89,90,162,140,38,4.19,25,-7.0,-8.0,-1057.0,13:53:42.500738,192.168.0.114
363,-1,-100,-100,-100,"0,0,0",7,-1,0,2,0,0,89,90,162,140,38,4.21,25,7.0,13.0,-1045.0,13:53:42.602728,192.168.0.114
364,-1,-100,-100,-100,"0,0,0",7,-1,0,3,0,0,89,90,163,140,38,4.26,25,7.0,-2.0,-1008.0,13:53:42.704646,192.168.0.114
365,-1,-100,-100,-100,"0,0,0",7,-1,0,4,0,0,87,88,165,140,38,4.18,25,27.0,4.0,-1006.0,13:53:42.806693,192.168.0.114
366,-1,-100,-100,-100,"0,0,0",7,-1,0,5,0,0,87,88,166,140,38,4.19,25,26.0,9.0,-969.0,13:53:42.908629,192.168.0.114
367,-1,-100,-100,-100,"0,0,0",7,-1,0,6,0,0,87,88,167,140,38,4.24,26,57.0,8.0,-966.0,13:53:43.078310,192.168.0.114
368,-1,-100,-100,-100,"0,0,0",7,-1,0,6,1,0,87,88,165,140,38,4.16,26,42.0,14.0,-946.0,13:53:43.112528,192.168.0.114
369,-1,-100,-100,-100,"0,0,0",7,-1,0,7,1,0,87,88,166,140,38,4.19,26,52.0,0.0,-920.0,13:53:43.214587,192.168.0.114
370,-1,-100,-100,-100,"0,0,0",7,-1,0,8,1,-1,87,88,164,140,38,4.16,26,61.0,0.0,-925.0,13:53:43.316565,192.168.0.114
371,-1,-100,-100,-100,"0,0,0",7,0,0,8,1,-2,87,88,163,140,38,4.19,26,57.0,6.0,-897.0,13:53:43.424224,192.168.0.114
372,-1,-100,-100,-100,"0,0,0",7,0,0,9,1,-3,87,88,159,140,38,4.16,26,52.0,13.0,-907.0,13:53:43.529131,192.168.0.114
373,-1,-100,-100,-100,"0,0,0",7,-1,0,9,1,-4,87,88,154,130,38,4.04,26,68.0,7.0,-904.0,13:53:43.622640,192.168.0.114
374,-1,-100,-100,-100,"0,0,0",7,-1,0,9,1,-4,87,88,150,130,38,3.97,26,73.0,13.0,-912.0,13:53:43.724534,192.168.0.114
375,-1,-100,-100,-100,"0,0,0",6,-1,0,10,1,-5,86,88,144,120,38,3.93,26,76.0,10.0,-903.0,13:53:43.826593,192.168.0.114
376,-1,-100,-100,-100,"0,0,0",6,0,0,10,1,-6,86,88,135,120,38,3.89,26,82.0,7.0,-921.0,13:53:43.928497,192.168.0.114
377,-1,-100,-100,-100,"0,0,0",6,0,0,10,1,-7,86,88,131,110,38,3.79,27,93.0,22.0,-946.0,13:53:44.030535,192.168.0.114
378,-1,-100,-100,-100,"0,0,0",6,-1,0,10,1,-7,86,88,121,100,38,3.71,27,96.0,-2.0,-964.0,13:53:44.132465,192.168.0.114
379,-1,-100,-100,-100,"0,0,0",5,0,0,10,1,-7,86,88,110,90,38,3.73,27,129.0,25.0,-1106.0,13:53:44.234424,192.168.0.114
380,-1,-100,-100,-100,"0,0,0",-19,4,-1,8,0,-5,86,88,68,90,38,3.62,27,321.0,160.0,-1377.0,13:53:44.336756,192.168.0.114
381,-1,-100,-100,-100,"0,0,0",-54,1,-4,0,0,-5,86,88,75,80,38,3.52,27,179.0,-12.0,-796.0,13:53:44.438415,192.168.0.114
382,-1,-100,-100,-100,"0,0,0",-57,51,-46,-8,0,-4,86,88,60,80,38,3.47,27,-562.0,-213.0,-1402.0,13:53:44.540393,192.168.0.114
383,-1,-100,-100,-100,"0,0,0",-22,78,-62,-18,-1,-9,86,88,111,70,38,3.5,27,30.0,22.0,-1236.0,13:53:44.642493,192.168.0.114
384,-1,-100,-100,-100,"0,0,0",8,63,-57,-29,-8,-15,86,88,168,60,38,3.62,27,-64.0,-78.0,-1608.0,13:53:44.744391,192.168.0.114
385,-1,-100,-100,-100,"0,0,0",26,38,-67,-38,-17,-15,85,87,84,40,38,3.65,27,101.0,-269.0,-1661.0,13:53:44.921489,192.168.0.114
386,-1,-100,-100,-100,"0,0,0",22,9,-85,-41,-24,-10,85,87,52,30,38,3.2,27,200.0,-307.0,-1686.0,13:53:44.948301,192.168.0.114
387,-1,-100,-100,-100,"0,0,0",2,-11,-88,-39,-27,-5,85,87,42,20,38,2.42,28,200.0,-208.0,-1493.0,13:53:45.053555,192.168.0.114
388,-1,-100,-100,-100,"0,0,0",-12,-18,-83,-34,-25,-2,85,87,42,20,38,2.5,28,102.0,-124.0,-1099.0,13:53:45.152307,192.168.0.114
389,-1,-100,-100,-100,"0,0,0",-7,-13,-82,-30,-21,-1,85,87,39,10,38,2.72,28,90.0,-96.0,-985.0,13:53:45.254221,192.168.0.114
390,-1,-100,-100,-100,"0,0,0",0,-6,-77,-28,-19,-2,85,87,41,10,38,2.67,28,87.0,-108.0,-963.0,13:53:45.357135,192.168.0.114
391,-1,-100,-100,-100,"0,0,0",2,-8,-68,-26,-18,-3,85,87,33,10,38,2.7,28,44.0,-136.0,-959.0,13:53:45.407263,192.168.0.114
392,-1,-100,-100,-100,"0,0,0",4,-6,-56,-23,-17,-3,85,87,33,0,38,2.66,28,-4.0,-92.0,-926.0,13:53:45.509258,192.168.0.114
393,-1,-100,-100,-100,"0,0,0",5,-4,-43,-21,-16,-4,85,87,31,0,38,2.95,28,-4.0,-104.0,-949.0,13:53:45.611294,192.168.0.114
394,-1,-100,-100,-100,"0,0,0",5,-2,-32,-19,-16,-5,85,87,6553,0,38,3.43,28,2181.0,-5464.0,834.0,13:53:45.713331,192.168.0.114
395,-1,-100,-100,-100,"0,0,0",20,-71,52,-17,0,-12,85,86,10,0,38,2.88,28,-78.0,1240.0,-697.0,13:53:45.815274,192.168.0.114
396,-1,-100,-100,-100,"0,0,0",1,-13,107,-9,5,-18,85,86,10,-10,38,2.62,28,-121.0,7.0,33.0,13:53:45.917241,192.168.0.114
397,-1,-100,-100,-100,"0,0,0",0,0,86,-7,-1,-17,85,86,6553,-20,38,2.59,28,441.0,675.0,-937.0,13:53:46.019264,192.168.0.114
398,-1,-100,-100,-100,"0,0,0",0,0,83,-1,-5,-14,85,86,6553,-40,38,2.6,28,-121.0,7.0,33.0,13:53:46.121216,192.168.0.114
399,-1,-100,-100,-100,"0,0,0",0,0,84,-1,-5,-14,85,86,6553,-50,38,2.6,28,2.0,7.0,-1005.0,13:53:46.224002,192.168.0.114
400,-1,-100,-100,-100,"0,0,0",0,0,84,-1,-5,-13,85,86,6553,-60,38,2.61,28,2.0,7.0,-1005.0,13:53:46.325193,192.168.0.114
401,-1,-100,-100,-100,"0,0,0",0,0,84,-1,-5,-13,85,86,6553,-70,38,2.58,28,3.0,7.0,-1006.0,13:53:46.427139,192.168.0.114
402,-1,-100,-100,-100,"0,0,0",0,0,84,-1,-5,-12,85,86,6553,-70,38,2.58,28,2.0,6.0,-1007.0,13:53:46.529256,192.168.0.114
403,-1,-100,-100,-100,"0,0,0",0,0,84,-1,-5,-11,85,86,6553,-80,38,2.54,28,3.0,6.0,-1007.0,13:53:46.631197,192.168.0.114
404,-1,-100,-100,-100,"0,0,0",0,0,84,-1,-5,-10,85,86,6553,-90,38,2.6,28,3.0,9.0,-1010.0,13:53:46.733318,192.168.0.114
405,-1,-100,-100,-100,"0,0,0",0,0,84,-1,-5,-10,84,85,6553,-90,38,2.6,28,2.0,6.0,-1013.0,13:53:46.835409,192.168.0.114
406,-1,-100,-100,-100,"0,0,0",0,0,84,-1,-5,-9,84,85,6553,-90,38,2.58,28,3.0,6.0,-1013.0,13:53:46.937150,192.168.0.114
407,-1,-100,-100,-100,"0,0,0",0,0,84,-1,-5,-8,84,85,6553,-90,38,2.67,28,2.0,7.0,-1016.0,13:53:47.039142,192.168.0.114
408,-1,-100,-100,-100,"0,0,0",0,0,84,0,0,0,84,85,6553,-90,38,2.58,28,2.0,8.0,-1012.0,13:53:47.141141,192.168.0.114
409,-1,-100,-100,-100,"0,0,0",0,0,84,0,0,0,84,85,6553,-80,38,2.58,28,1.0,8.0,-1013.0,13:53:47.243203,192.168.0.114
410,-1,-100,-100,-100,"0,0,0",0,0,84,0,0,0,84,85,6553,-80,38,2.58,28,2.0,8.0,-1015.0,13:53:47.345119,192.168.0.114
411,-1,-100,-100,-100,"0,0,0",0,0,84,0,0,0,84,85,6553,-80,38,2.61,28,2.0,7.0,-1012.0,13:53:47.447453,192.168.0.114
412,-1,-100,-100,-100,"0,0,0",0,0,84,0,0,0,84,85,6553,-70,38,2.62,28,2.0,6.0,-1008.0,13:53:47.549509,192.168.0.114
413,-1,-100,-100,-100,"0,0,0",0,0,84,0,0,0,84,85,6553,0,38,2.61,28,3.0,8.0,-1012.0,13:53:47.651093,192.168.0.114
414,-1,-100,-100,-100,"0,0,0",0,0,84,0,0,0,84,85,6553,0,38,2.58,28,3.0,7.0,-1009.0,13:53:47.753124,192.168.0.114
415,-1,-100,-100,-100,"0,0,0",0,0,84,0,0,0,83,86,6553,0,38,2.65,28,1.0,6.0,-1011.0,13:53:47.855445,192.168.0.114
416,-1,-100,-100,-100,"0,0,0",0,0,84,0,0,0,83,86,6553,0,38,2.6,28,1.0,6.0,-1007.0,13:53:47.957454,192.168.0.114
417,-1,-100,-100,-100,"0,0,0",0,0,84,0,0,0,83,86,6553,0,38,2.61,28,2.0,7.0,-1004.0,13:53:48.059530,192.168.0.114
418,-1,-100,-100,-100,"0,0,0",0,0,84,0,0,0,83,86,6553,0,38,2.59,28,2.0,6.0,-1008.0,13:53:48.161413,192.168.0.114
419,-1,-100,-100,-100,"0,0,0",0,0,84,0,0,0,83,86,6553,0,38,2.57,28,1.0,7.0,-1005.0,13:53:48.263527,192.168.0.114
420,-1,-100,-100,-100,"0,0,0",0,0,85,0,0,0,83,86,6553,0,38,2.59,28,1.0,7.0,-1007.0,13:53:48.365334,192.168.0.114
421,-1,-100,-100,-100,"0,0,0",0,0,85,0,0,0,83,86,6553,0,38,2.62,28,1.0,9.0,-1004.0,13:53:48.467407,192.168.0.114
422,-1,-100,-100,-100,"0,0,0",0,0,85,0,0,0,83,86,6553,0,38,2.61,28,1.0,8.0,-1006.0,13:53:48.569586,192.168.0.114
423,-1,-100,-100,-100,"0,0,0",0,0,85,0,0,0,83,86,6553,0,38,2.61,28,2.0,6.0,-1005.0,13:53:48.671382,192.168.0.114
424,-1,-100,-100,-100,"0,0,0",0,0,85,0,0,0,83,86,6553,0,38,2.62,28,2.0,9.0,-1005.0,13:53:48.773609,192.168.0.114
425,-1,-100,-100,-100,"0,0,0",0,0,85,0,0,0,83,85,6553,0,38,2.66,28,3.0,8.0,-1006.0,13:53:48.915336,192.168.0.114
426,-1,-100,-100,-100,"0,0,0",0,0,85,0,0,0,83,85,6553,0,38,2.58,28,1.0,6.0,-1005.0,13:53:48.977457,192.168.0.114
427,-1,-100,-100,-100,"0,0,0",0,0,85,0,0,0,83,85,6553,0,38,2.68,28,2.0,7.0,-1005.0,13:53:49.028782,192.168.0.114
428,-1,-100,-100,-100,"0,0,0",0,0,85,0,0,0,83,85,6553,0,38,2.62,28,1.0,8.0,-1000.0,13:53:49.130470,192.168.0.114
429,-1,-100,-100,-100,"0,0,0",0,0,85,0,0,0,83,85,6553,0,38,2.63,28,1.0,6.0,-1005.0,13:53:49.232451,192.168.0.114
430,-1,-100,-100,-100,"0,0,0",0,0,85,0,0,0,83,85,6553,0,38,2.66,28,1.0,7.0,-1002.0,13:53:49.334433,192.168.0.114
431,-1,-100,-100,-100,"0,0,0",0,0,85,0,0,0,83,85,6553,0,38,2.64,28,1.0,5.0,-1003.0,13:53:49.436343,192.168.0.114
432,-1,-100,-100,-100,"0,0,0",0,0,85,0,0,0,83,85,6553,0,38,2.61,28,0.0,7.0,-1004.0,13:53:49.539845,192.168.0.114
433,-1,-100,-100,-100,"0,0,0",0,0,85,0,0,0,83,85,6553,0,38,2.64,28,1.0,7.0,-1001.0,13:53:49.640319,192.168.0.114
434,-1,-100,-100,-100,"0,0,0",0,0,85,0,0,0,83,85,6553,0,38,2.65,28,2.0,8.0,-1003.0,13:53:49.742410,192.168.0.114
435,-1,-100,-100,-100,"0,0,0",0,0,85,0,0,0,83,85,6553,0,38,2.74,28,2.0,7.0,-1002.0,13:53:49.844391,192.168.0.114
436,-1,-100,-100,-100,"0,0,0",0,0,85,0,0,0,83,85,6553,0,38,2.61,28,1.0,7.0,-1003.0,13:53:49.946440,192.168.0.114
437,-1,-100,-100,-100,"0,0,0",0,0,85,0,0,0,83,85,6553,0,38,2.69,28,3.0,7.0,-1002.0,13:53:50.048062,192.168.0.114
438,-1,-100,-100,-100,"0,0,0",0,0,85,0,0,0,83,85,6553,0,38,2.61,28,1.0,7.0,-1002.0,13:53:50.246466,192.168.0.114
439,-1,-100,-100,-100,"0,0,0",0,0,85,0,0,0,83,85,6553,0,38,2.64,28,1.0,8.0,-1004.0,13:53:50.252328,192.168.0.114
440,-1,-100,-100,-100,"0,0,0",0,0,85,0,0,0,83,85,6553,0,38,2.73,28,3.0,7.0,-1002.0,13:53:50.353808,192.168.0.114
441,-1,-100,-100,-100,"0,0,0",0,0,85,0,0,0,83,85,6553,0,38,2.66,28,1.0,8.0,-1002.0,13:53:50.456346,192.168.0.114
442,-1,-100,-100,-100,"0,0,0",0,0,85,0,0,0,83,85,6553,0,38,2.63,28,1.0,8.0,-1001.0,13:53:50.558473,192.168.0.114
443,-1,-100,-100,-100,"0,0,0",0,0,85,0,0,0,83,85,6553,0,38,2.65,28,1.0,7.0,-1001.0,13:53:50.660282,192.168.0.114
444,-1,-100,-100,-100,"0,0,0",0,0,85,0,0,0,83,85,6553,0,38,2.68,28,2.0,7.0,-1000.0,13:53:50.762195,192.168.0.114
445,-1,-100,-100,-100,"0,0,0",0,0,85,0,0,0,83,85,6553,0,38,2.65,28,2.0,7.0,-1000.0,13:53:50.863971,192.168.0.114
446,-1,-100,-100,-100,"0,0,0",0,0,85,0,0,0,83,85,6553,0,38,2.7,28,2.0,10.0,-1001.0,13:53:50.966300,192.168.0.114
447,-1,-100,-100,-100,"0,0,0",0,0,85,0,0,0,83,85,6553,0,38,2.65,28,1.0,7.0,-1000.0,13:53:51.068271,192.168.0.114
448,-1,-100,-100,-100,"0,0,0",0,0,85,0,0,0,83,85,6553,0,38,2.64,28,1.0,6.0,-1003.0,13:53:51.173859,192.168.0.114
449,-1,-100,-100,-100,"0,0,0",0,0,85,0,0,0,83,85,6553,0,38,2.66,28,2.0,7.0,-1001.0,13:53:51.274886,192.168.0.114
450,-1,-100,-100,-100,"0,0,0",0,0,85,0,0,0,83,85,6553,0,38,2.68,28,3.0,7.0,-1000.0,13:53:51.373995,192.168.0.114
451,-1,-100,-100,-100,"0,0,0",0,0,85,0,0,0,83,85,6553,0,38,2.65,28,2.0,6.0,-999.0,13:53:51.475671,192.168.0.114
452,-1,-100,-100,-100,"0,0,0",0,0,85,0,0,0,83,85,6553,0,38,2.66,28,1.0,6.0,-998.0,13:53:51.578497,192.168.0.114
453,-1,-100,-100,-100,"0,0,0",0,0,85,0,0,0,83,85,6553,0,38,2.68,28,2.0,7.0,-999.0,13:53:51.680261,192.168.0.114
454,-1,-100,-100,-100,"0,0,0",0,0,85,0,0,0,83,85,6553,0,38,2.69,28,1.0,7.0,-1001.0,13:53:51.782312,192.168.0.114
455,-1,-100,-100,-100,"0,0,0",0,0,85,0,0,0,83,85,6553,0,38,2.65,28,3.0,6.0,-1003.0,13:53:51.884173,192.168.0.114
456,-1,-100,-100,-100,"0,0,0",0,0,85,0,0,0,83,85,6553,0,38,2.68,28,2.0,8.0,-999.0,13:53:51.986154,192.168.0.114
457,-1,-100,-100,-100,"0,0,0",0,0,85,0,0,0,83,85,6553,0,38,2.72,28,2.0,6.0,-999.0,13:53:52.192053,192.168.0.114
458,-1,-100,-100,-100,"0,0,0",0,0,85,0,0,0,83,85,6553,0,38,2.71,28,1.0,7.0,-1002.0,13:53:52.192404,192.168.0.114
459,-1,-100,-100,-100,"0,0,0",0,0,85,0,0,0,83,85,6553,0,38,2.7,28,2.0,5.0,-1000.0,13:53:52.292013,192.168.0.114
460,-1,-100,-100,-100,"0,0,0",0,0,85,0,0,0,83,85,6553,0,38,2.66,28,2.0,8.0,-1000.0,13:53:52.343190,192.168.0.114
461,-1,-100,-100,-100,"0,0,0",0,0,85,0,0,0,83,85,6553,0,38,2.7,28,2.0,8.0,-1001.0,13:53:52.445106,192.168.0.114
462,-1,-100,-100,-100,"0,0,0",0,0,85,0,0,0,83,85,6553,0,38,2.74,28,3.0,6.0,-1000.0,13:53:52.601512,192.168.0.114
463,-1,-100,-100,-100,"0,0,0",0,0,85,0,0,0,83,85,6553,0,38,2.72,28,2.0,8.0,-1000.0,13:53:52.649136,192.168.0.114
464,-1,-100,-100,-100,"0,0,0",0,0,85,0,0,0,83,85,6553,0,38,2.72,28,3.0,8.0,-999.0,13:53:52.751108,192.168.0.114
465,-1,-100,-100,-100,"0,0,0",0,0,85,0,0,0,83,85,6553,0,38,2.74,28,1.0,6.0,-998.0,13:53:52.852994,192.168.0.114
466,-1,-100,-100,-100,"0,0,0",0,0,85,0,0,0,83,85,6553,0,38,2.7,28,2.0,7.0,-1000.0,13:53:52.955069,192.168.0.114
467,-1,-100,-100,-100,"0,0,0",0,0,85,0,0,0,83,85,6553,0,38,2.69,28,2.0,8.0,-999.0,13:53:53.056819,192.168.0.114
468,-1,-100,-100,-100,"0,0,0",0,0,85,0,0,0,83,85,6553,0,38,2.77,28,3.0,7.0,-1000.0,13:53:53.159083,192.168.0.114
469,-1,-100,-100,-100,"0,0,0",0,0,85,0,0,0,83,85,6553,0,38,2.71,28,2.0,7.0,-997.0,13:53:53.261121,192.168.0.114
470,-1,-100,-100,-100,"0,0,0",0,0,85,0,0,0,83,85,6553,0,38,2.78,28,1.0,8.0,-997.0,13:53:53.362994,192.168.0.114
471,-1,-100,-100,-100,"0,0,0",0,0,85,0,0,0,83,85,6553,0,38,2.74,28,1.0,7.0,-1001.0,13:53:53.465038,192.168.0.114
472,-1,-100,-100,-100,"0,0,0",0,0,85,0,0,0,83,85,6553,0,38,2.72,28,3.0,6.0,-1002.0,13:53:53.567124,192.168.0.114
473,-1,-100,-100,-100,"0,0,0",0,0,85,0,0,0,83,85,6553,0,38,2.73,28,3.0,6.0,-999.0,13:53:53.669046,192.168.0.114
474,-1,-100,-100,-100,"0,0,0",0,0,85,0,0,0,83,85,6553,0,38,2.76,28,2.0,8.0,-997.0,13:53:53.770988,192.168.0.114
475,-1,-100,-100,-100,"0,0,0",0,0,85,0,0,0,83,85,6553,0,38,2.74,28,1.0,7.0,-1000.0,13:53:53.873050,192.168.0.114
476,-1,-100,-100,-100,"0,0,0",0,0,85,0,0,0,83,85,6553,0,38,2.75,28,3.0,8.0,-1000.0,13:53:53.975380,192.168.0.114
477,-1,-100,-100,-100,"0,0,0",0,0,85,0,0,0,83,85,6553,0,38,2.79,28,2.0,8.0,-997.0,13:53:54.137526,192.168.0.114
478,-1,-100,-100,-100,"0,0,0",0,0,85,0,0,0,83,85,6553,0,38,2.79,28,1.0,6.0,-998.0,13:53:54.178992,192.168.0.114
479,-1,-100,-100,-100,"0,0,0",0,0,85,0,0,0,83,85,6553,0,38,2.86,28,1.0,7.0,-1000.0,13:53:54.281084,192.168.0.114
480,-1,-100,-100,-100,"0,0,0",0,0,85,0,0,0,83,85,6553,0,38,2.79,28,1.0,7.0,-999.0,13:53:54.382820,192.168.0.114
481,-1,-100,-100,-100,"0,0,0",0,0,85,0,0,0,83,85,6553,0,38,2.74,28,2.0,8.0,-999.0,13:53:54.484961,192.168.0.114
482,-1,-100,-100,-100,"0,0,0",0,0,85,0,0,0,83,85,6553,0,38,2.79,28,2.0,6.0,-999.0,13:53:54.587133,192.168.0.114
483,-1,-100,-100,-100,"0,0,0",0,0,85,0,0,0,83,85,6553,0,38,2.74,28,2.0,8.0,-999.0,13:53:54.688393,192.168.0.114
484,-1,-100,-100,-100,"0,0,0",0,0,85,0,0,0,83,85,6553,0,38,2.78,28,2.0,9.0,-1000.0,13:53:54.790837,192.168.0.114
485,-1,-100,-100,-100,"0,0,0",0,0,85,0,0,0,83,84,6553,0,38,2.83,28,1.0,7.0,-999.0,13:53:54.893093,192.168.0.114
486,-1,-100,-100,-100,"0,0,0",0,0,85,0,0,0,83,84,6553,0,38,2.79,28,2.0,7.0,-995.0,13:53:54.994872,192.168.0.114
487,-1,-100,-100,-100,"0,0,0",0,0,85,0,0,0,83,84,6553,0,38,2.76,28,3.0,7.0,-1000.0,13:53:55.096880,192.168.0.114
488,-1,-100,-100,-100,"0,0,0",0,0,85,0,0,0,83,84,6553,0,38,2.77,28,3.0,6.0,-1002.0,13:53:55.198870,192.168.0.114
489,-1,-100,-100,-100,"0,0,0",0,0,85,0,0,0,83,84,6553,0,38,2.8,28,1.0,7.0,-1001.0,13:53:55.300749,192.168.0.114
490,-1,-100,-100,-100,"0,0,0",0,0,85,0,0,0,83,84,6553,0,38,2.8,28,1.0,7.0,-999.0,13:53:55.351620,192.168.0.114
491,-1,-100,-100,-100,"0,0,0",0,0,85,0,0,0,83,84,6553,0,38,2.76,28,3.0,8.0,-998.0,13:53:55.453635,192.168.0.114
492,-1,-100,-100,-100,"0,0,0",0,0,85,0,0,0,83,84,6553,0,38,2.8,28,2.0,8.0,-1002.0,13:53:55.555746,192.168.0.114
493,-1,-100,-100,-100,"0,0,0",0,0,85,0,0,0,83,84,6553,0,38,2.8,28,2.0,10.0,-999.0,13:53:55.657746,192.168.0.114
494,-1,-100,-100,-100,"0,0,0",0,0,85,0,0,0,83,84,6553,0,38,2.8,28,2.0,8.0,-999.0,13:53:55.759252,192.168.0.114
495,-1,-100,-100,-100,"0,0,0",0,0,85,0,0,0,84,84,6553,0,38,2.81,28,1.0,7.0,-1000.0,13:53:55.861435,192.168.0.114
496,-1,-100,-100,-100,"0,0,0",0,0,85,0,0,0,84,84,6553,0,38,2.8,28,4.0,7.0,-1000.0,13:53:55.963689,192.168.0.114
497,-1,-100,-100,-100,"0,0,0",0,0,85,0,0,0,84,84,6553,0,38,2.77,28,1.0,5.0,-996.0,13:53:56.065876,192.168.0.114
498,-1,-100,-100,-100,"0,0,0",0,0,85,0,0,0,84,84,6553,0,38,2.77,28,2.0,7.0,-1000.0,13:53:56.167668,192.168.0.114
499,-1,-100,-100,-100,"0,0,0",0,0,85,0,0,0,84,84,6553,0,38,2.79,28,2.0,7.0,-1000.0,13:53:56.269599,192.168.0.114
500,-1,-100,-100,-100,"0,0,0",0,0,85,0,0,0,84,84,6553,0,38,2.85,28,2.0,7.0,-997.0,13:53:56.371951,192.168.0.114
501,-1,-100,-100,-100,"0,0,0",0,0,85,0,0,0,84,84,6553,0,38,2.84,28,3.0,6.0,-998.0,13:53:56.473104,192.168.0.114
502,-1,-100,-100,-100,"0,0,0",0,0,85,0,0,0,84,84,6553,0,38,2.8,28,4.0,6.0,-1000.0,13:53:56.575691,192.168.0.114
503,-1,-100,-100,-100,"0,0,0",0,0,85,0,0,0,84,84,6553,0,38,2.84,28,3.0,8.0,-998.0,13:53:56.677652,192.168.0.114
504,-1,-100,-100,-100,"0,0,0",0,0,85,0,0,0,84,84,6553,0,38,2.81,28,2.0,8.0,-1001.0,13:53:56.779946,192.168.0.114
505,-1,-100,-100,-100,"0,0,0",0,0,85,0,0,0,83,85,6553,0,38,2.83,28,1.0,6.0,-1002.0,13:53:56.881425,192.168.0.114
506,-1,-100,-100,-100,"0,0,0",0,0,85,0,0,0,83,85,6553,0,38,2.84,28,2.0,7.0,-1000.0,13:53:56.983585,192.168.0.114
507,-1,-100,-100,-100,"0,0,0",0,0,85,0,0,0,83,85,6553,0,38,2.84,28,0.0,8.0,-1000.0,13:53:57.085095,192.168.0.114
508,-1,-100,-100,-100,"0,0,0",0,0,85,0,0,0,83,85,6553,0,38,2.84,28,1.0,7.0,-999.0,13:53:57.187095,192.168.0.114
509,-1,-100,-100,-100,"0,0,0",0,0,85,0,0,0,83,85,6553,0,38,2.79,28,1.0,6.0,-998.0,13:53:57.289434,192.168.0.114
510,-1,-100,-100,-100,"0,0,0",0,0,85,0,0,0,83,85,6553,0,38,2.78,28,2.0,8.0,-1000.0,13:53:57.391610,192.168.0.114
511,-1,-100,-100,-100,"0,0,0",0,0,85,0,0,0,83,85,6553,0,38,2.81,28,2.0,7.0,-998.0,13:53:57.493547,192.168.0.114
512,-1,-100,-100,-100,"0,0,0",0,0,85,0,0,0,83,85,6553,0,38,2.79,28,1.0,7.0,-1002.0,13:53:57.595568,192.168.0.114
513,-1,-100,-100,-100,"0,0,0",0,0,85,0,0,0,83,85,6553,0,38,2.78,28,2.0,7.0,-999.0,13:53:57.728326,192.168.0.114
514,-1,-100,-100,-100,"0,0,0",0,0,85,0,0,0,83,85,6553,0,38,2.75,28,0.0,7.0,-998.0,13:53:57.799522,192.168.0.114
515,-1,-100,-100,-100,"0,0,0",0,0,85,0,0,0,83,84,6553,0,38,2.77,28,3.0,7.0,-999.0,13:53:57.904317,192.168.0.114
516,-1,-100,-100,-100,"0,0,0",0,0,85,0,0,0,83,84,6553,0,38,2.76,28,3.0,8.0,-1002.0,13:53:58.003566,192.168.0.114
517,-1,-100,-100,-100,"0,0,0",0,0,85,0,0,0,83,84,6553,0,38,2.81,28,2.0,8.0,-999.0,13:53:58.105462,192.168.0.114
518,-1,-100,-100,-100,"0,0,0",0,0,85,0,0,0,83,84,6553,0,38,2.73,28,3.0,7.0,-1001.0,13:53:58.241945,192.168.0.114
519,-1,-100,-100,-100,"0,0,0",0,0,85,0,0,0,83,84,6553,0,38,2.78,28,3.0,8.0,-1000.0,13:53:58.309422,192.168.0.114
520,-1,-100,-100,-100,"0,0,0",0,0,85,0,0,0,83,84,6553,0,38,2.77,28,3.0,7.0,-999.0,13:53:58.411822,192.168.0.114
521,-1,-100,-100,-100,"0,0,0",0,0,85,0,0,0,83,84,6553,0,38,2.74,28,2.0,6.0,-999.0,13:53:58.513337,192.168.0.114
522,-1,-100,-100,-100,"0,0,0",0,0,85,0,0,0,83,84,6553,0,38,2.79,28,2.0,7.0,-999.0,13:53:58.615537,192.168.0.114
523,-1,-100,-100,-100,"0,0,0",0,0,85,0,0,0,83,84,6553,0,38,2.72,28,1.0,7.0,-1001.0,13:53:58.717545,192.168.0.114
524,-1,-100,-100,-100,"0,0,0",0,0,85,0,0,0,83,84,6553,0,38,2.74,28,2.0,6.0,-998.0,13:53:58.819462,192.168.0.114
525,-1,-100,-100,-100,"0,0,0",0,0,85,0,0,0,83,85,6553,0,38,2.76,28,1.0,6.0,-999.0,13:53:58.961175,192.168.0.114
526,-1,-100,-100,-100,"0,0,0",0,0,85,0,0,0,83,85,6553,0,38,2.73,28,2.0,9.0,-998.0,13:53:59.023492,192.168.0.114
527,-1,-100,-100,-100,"0,0,0",0,0,85,0,0,0,83,85,6553,0,38,2.81,28,2.0,8.0,-998.0,13:53:59.125269,192.168.0.114
528,-1,-100,-100,-100,"0,0,0",0,0,85,0,0,0,83,85,6553,0,38,2.79,28,3.0,7.0,-1000.0,13:53:59.269497,192.168.0.114
529,-1,-100,-100,-100,"0,0,0",0,0,85,0,0,0,83,85,6553,0,38,2.79,28,2.0,7.0,-1000.0,13:53:59.278383,192.168.0.114
530,-1,-100,-100,-100,"0,0,0",0,0,85,0,0,0,83,85,6553,0,38,2.79,28,1.0,10.0,-997.0,13:53:59.380741,192.168.0.114
531,-1,-100,-100,-100,"0,0,0",0,0,85,0,0,0,83,85,6553,0,38,2.78,28,0.0,7.0,-1000.0,13:53:59.482463,192.168.0.114
532,-1,-100,-100,-100,"0,0,0",0,0,85,0,0,0,83,85,6553,0,38,2.79,28,-1.0,6.0,-998.0,13:53:59.584555,192.168.0.114
533,-1,-100,-100,-100,"0,0,0",0,0,85,0,0,0,83,85,6553,0,38,2.79,28,2.0,5.0,-1000.0,13:53:59.783088,192.168.0.114
534,-1,-100,-100,-100,"0,0,0",0,0,85,0,0,0,83,85,6553,0,38,2.76,28,2.0,7.0,-1000.0,13:53:59.795517,192.168.0.114
