,mid,x,y,z,mpry,pitch,roll,yaw,vgx,vgy,vgz,templ,temph,tof,h,bat,baro,time,agx,agy,agz,timestamp,address
1,-1,-100,-100,-100,"0,0,0",0,0,0,0,0,0,67,70,10,0,90,10.09,0,4.0,-5.0,-1001.0,16:41:23.834617,192.168.0.112
7,-1,-100,-100,-100,"0,0,0",0,0,0,0,0,0,67,70,10,0,90,10.09,0,3.0,-5.0,-1000.0,16:41:23.935098,192.168.0.112
12,-1,-100,-100,-100,"0,0,0",0,0,0,0,0,0,67,70,10,0,90,10.14,0,4.0,-4.0,-1000.0,16:41:24.039354,192.168.0.112
17,-1,-100,-100,-100,"0,0,0",0,0,0,0,0,0,67,70,10,0,90,10.15,0,3.0,-5.0,-1000.0,16:41:24.139336,192.168.0.112
21,-1,-100,-100,-100,"0,0,0",0,0,0,0,0,0,67,70,10,0,90,10.13,0,3.0,-3.0,-999.0,16:41:24.241531,192.168.0.112
26,-1,-100,-100,-100,"0,0,0",0,0,0,0,0,0,67,70,10,0,90,10.1,0,3.0,-2.0,-1002.0,16:41:24.344609,192.168.0.112
32,-1,-100,-100,-100,"0,0,0",0,0,0,0,0,0,67,70,10,0,90,10.15,0,3.0,-4.0,-999.0,16:41:24.445187,192.168.0.112
37,-1,-100,-100,-100,"0,0,0",0,0,0,0,0,0,67,70,10,0,90,10.11,0,2.0,-5.0,-999.0,16:41:24.547385,192.168.0.112
42,-1,-100,-100,-100,"0,0,0",0,0,0,0,0,0,67,70,10,0,90,10.1,0,4.0,-4.0,-1001.0,16:41:24.648971,192.168.0.112
46,-1,-100,-100,-100,"0,0,0",0,0,0,0,0,0,70,72,10,0,90,10.15,0,5.0,-4.0,-1002.0,16:41:24.773514,192.168.0.112
51,-1,-100,-100,-100,"0,0,0",0,0,0,0,0,0,70,72,10,0,90,10.11,0,4.0,-5.0,-998.0,16:41:24.853165,192.168.0.112
56,-1,-100,-100,-100,"0,0,0",0,0,0,0,0,0,70,72,10,0,90,10.1,0,2.0,-4.0,-1000.0,16:41:24.955649,192.168.0.112
61,-1,-100,-100,-100,"0,0,0",0,0,0,0,0,0,70,72,10,0,90,10.15,0,2.0,-4.0,-998.0,16:41:25.057366,192.168.0.112
66,-1,-100,-100,-100,"0,0,0",0,0,0,0,0,0,70,72,10,0,90,10.1,0,3.0,-4.0,-1002.0,16:41:25.162491,192.168.0.112
71,-1,-100,-100,-100,"0,0,0",0,0,0,0,0,0,70,72,10,0,90,10.09,0,2.0,-1.0,-1000.0,16:41:25.261134,192.168.0.112
76,-1,-100,-100,-100,"0,0,0",0,0,0,0,0,0,70,72,10,0,90,10.09,0,2.0,-3.0,-997.0,16:41:25.364247,192.168.0.112
81,-1,-100,-100,-100,"0,0,0",0,0,0,0,0,0,70,72,10,0,90,10.15,0,2.0,-3.0,-998.0,16:41:25.465221,192.168.0.112
86,-1,-100,-100,-100,"0,0,0",0,0,0,0,0,0,70,72,10,0,90,10.11,0,2.0,-3.0,-1000.0,16:41:25.516530,192.168.0.112
91,-1,-100,-100,-100,"0,0,0",0,0,0,0,0,0,70,72,10,0,90,10.12,0,3.0,-4.0,-1002.0,16:41:25.618207,192.168.0.112
96,-1,-100,-100,-100,"0,0,0",0,0,0,0,0,0,71,74,10,0,90,10.1,0,4.0,-4.0,-1000.0,16:41:25.720053,192.168.0.112
101,-1,-100,-100,-100,"0,0,0",0,0,0,0,0,0,71,74,10,0,90,10.14,0,2.0,-4.0,-1001.0,16:41:25.822758,192.168.0.112
106,-1,-100,-100,-100,"0,0,0",0,0,0,0,0,0,71,74,10,0,90,10.09,0,3.0,-3.0,-999.0,16:41:25.925120,192.168.0.112
111,-1,-100,-100,-100,"0,0,0",0,0,0,0,0,0,71,74,10,0,90,10.06,0,4.0,-6.0,-1000.0,16:41:26.027548,192.168.0.112
116,-1,-100,-100,-100,"0,0,0",0,0,0,0,0,0,71,74,10,0,90,10.08,0,3.0,-4.0,-1000.0,16:41:26.130059,192.168.0.112
121,-1,-100,-100,-100,"0,0,0",0,0,0,0,0,0,71,74,10,0,90,10.14,0,4.0,-5.0,-997.0,16:41:26.235770,192.168.0.112
126,-1,-100,-100,-100,"0,0,0",0,0,0,0,0,0,71,74,10,0,90,10.14,0,4.0,-4.0,-999.0,16:41:26.335530,192.168.0.112
132,-1,-100,-100,-100,"0,0,0",0,0,0,0,0,0,71,74,10,0,90,10.14,0,3.0,-5.0,-997.0,16:41:26.449024,192.168.0.112
136,-1,-100,-100,-100,"0,0,0",0,0,0,0,0,0,71,74,10,0,90,10.13,0,3.0,-4.0,-999.0,16:41:26.542710,192.168.0.112
141,-1,-100,-100,-100,"0,0,0",0,0,0,0,0,0,71,74,10,0,90,10.13,0,2.0,-3.0,-1001.0,16:41:26.638339,192.168.0.112
146,-1,-100,-100,-100,"0,0,0",0,0,0,0,0,0,72,74,10,0,90,10.12,0,4.0,-3.0,-1003.0,16:41:26.746230,192.168.0.112
151,-1,-100,-100,-100,"0,0,0",0,0,0,0,0,0,72,74,10,0,90,10.12,0,1.0,-4.0,-998.0,16:41:26.844030,192.168.0.112
157,-1,-100,-100,-100,"0,0,0",0,0,0,0,0,0,72,74,10,0,90,10.14,0,3.0,-4.0,-997.0,16:41:26.959499,192.168.0.112
161,-1,-100,-100,-100,"0,0,0",0,0,0,0,0,0,72,74,10,0,90,10.12,0,1.0,-3.0,-998.0,16:41:27.046962,192.168.0.112
166,-1,-100,-100,-100,"0,0,0",0,0,0,0,0,0,72,74,10,0,90,10.1,0,4.0,-6.0,-999.0,16:41:27.148356,192.168.0.112
171,-1,-100,-100,-100,"0,0,0",0,0,0,0,0,0,72,74,10,0,90,10.12,0,4.0,-3.0,-998.0,16:41:27.250277,192.168.0.112
176,-1,-100,-100,-100,"0,0,0",0,0,0,0,0,0,72,74,10,0,90,10.12,0,3.0,-2.0,-999.0,16:41:27.352661,192.168.0.112
181,-1,-100,-100,-100,"0,0,0",0,0,0,0,0,0,72,74,10,0,90,10.11,0,4.0,-4.0,-997.0,16:41:27.454060,192.168.0.112
186,-1,-100,-100,-100,"0,0,0",0,0,0,0,0,0,72,74,10,0,90,10.06,0,4.0,-2.0,-1000.0,16:41:27.556029,192.168.0.112
191,-1,-100,-100,-100,"0,0,0",0,0,0,0,0,0,72,74,10,0,90,10.08,0,4.0,-4.0,-1000.0,16:41:27.658205,192.168.0.112
196,-1,-100,-100,-100,"0,0,0",0,0,0,0,0,0,72,74,10,0,90,10.14,0,3.0,-5.0,-1001.0,16:41:27.760060,192.168.0.112
201,-1,-100,-100,-100,"0,0,0",0,0,0,0,0,0,72,74,10,0,90,10.06,0,3.0,-3.0,-1001.0,16:41:27.863632,192.168.0.112
206,-1,-100,-100,-100,"0,0,0",0,0,0,0,0,0,72,74,10,0,90,10.1,0,2.0,-4.0,-998.0,16:41:27.968353,192.168.0.112
211,-1,-100,-100,-100,"0,0,0",0,0,0,0,0,0,72,74,10,0,90,10.1,0,4.0,-3.0,-998.0,16:41:28.066999,192.168.0.112
216,-1,-100,-100,-100,"0,0,0",0,0,0,0,0,0,72,74,10,0,90,10.11,0,3.0,-6.0,-997.0,16:41:28.175144,192.168.0.112
221,-1,-100,-100,-100,"0,0,0",0,0,0,0,0,0,72,74,10,0,90,10.12,0,4.0,-6.0,-1002.0,16:41:28.277701,192.168.0.112
227,-1,-100,-100,-100,"0,0,0",0,0,0,0,0,0,72,74,10,0,90,10.07,0,3.0,-3.0,-1002.0,16:41:28.382857,192.168.0.112
231,-1,-100,-100,-100,"0,0,0",0,0,0,0,0,0,72,74,10,0,90,10.05,0,2.0,-3.0,-1000.0,16:41:28.474918,192.168.0.112
237,-1,-100,-100,-100,"0,0,0",0,0,0,0,0,0,72,74,10,0,90,10.1,0,4.0,-4.0,-1000.0,16:41:28.582479,192.168.0.112
241,-1,-100,-100,-100,"0,0,0",0,0,0,0,0,0,72,74,10,0,90,10.12,0,3.0,-3.0,-998.0,16:41:28.679732,192.168.0.112
246,-1,-100,-100,-100,"0,0,0",0,0,0,0,0,0,72,74,10,0,90,10.14,0,4.0,-5.0,-997.0,16:41:28.780716,192.168.0.112
252,-1,-100,-100,-100,"0,0,0",0,0,0,0,0,0,72,74,10,0,90,10.09,0,4.0,-4.0,-1000.0,16:41:28.883488,192.168.0.112
257,-1,-100,-100,-100,"0,0,0",0,0,0,0,0,0,72,74,10,0,90,10.08,0,4.0,-4.0,-999.0,16:41:28.984106,192.168.0.112
262,-1,-100,-100,-100,"0,0,0",0,0,0,0,0,0,72,74,10,0,90,10.09,0,2.0,-5.0,-1001.0,16:41:29.047534,192.168.0.112
266,-1,-100,-100,-100,"0,0,0",0,0,0,0,0,0,72,74,10,0,90,10.11,0,3.0,-4.0,-1001.0,16:41:29.137111,192.168.0.112
271,-1,-100,-100,-100,"0,0,0",0,0,0,0,0,0,72,74,10,0,90,10.08,0,4.0,-5.0,-1001.0,16:41:29.250217,192.168.0.112
276,-1,-100,-100,-100,"0,0,0",0,0,0,0,0,0,72,74,10,0,90,10.04,0,3.0,-4.0,-1001.0,16:41:29.350206,192.168.0.112
282,-1,-100,-100,-100,"0,0,0",0,0,0,0,0,0,72,74,10,0,90,10.09,0,4.0,-3.0,-1002.0,16:41:29.457454,192.168.0.112
286,-1,-100,-100,-100,"0,0,0",0,0,0,0,0,0,72,74,10,0,90,10.07,0,2.0,-4.0,-1001.0,16:41:29.556887,192.168.0.112
291,-1,-100,-100,-100,"0,0,0",0,0,0,0,0,0,72,74,10,0,90,10.1,0,4.0,-3.0,-1000.0,16:41:29.646510,192.168.0.112
296,-1,-100,-100,-100,"0,0,0",0,0,0,0,0,0,72,75,10,0,90,10.11,0,3.0,-3.0,-999.0,16:41:29.758128,192.168.0.112
301,-1,-100,-100,-100,"0,0,0",0,0,0,0,0,0,72,75,10,0,90,10.06,0,3.0,-3.0,-1001.0,16:41:29.854176,192.168.0.112
306,-1,-100,-100,-100,"0,0,0",0,0,0,0,0,0,72,75,10,0,90,10.13,0,2.0,-3.0,-998.0,16:41:29.952974,192.168.0.112
311,-1,-100,-100,-100,"0,0,0",0,0,0,0,0,0,72,75,10,0,90,10.04,0,5.0,-4.0,-999.0,16:41:30.055045,192.168.0.112
316,-1,-100,-100,-100,"0,0,0",0,0,0,0,0,0,72,75,10,0,90,10.06,0,1.0,-4.0,-1000.0,16:41:30.157034,192.168.0.112
321,-1,-100,-100,-100,"0,0,0",0,0,0,0,0,0,72,75,10,0,90,10.06,0,3.0,-3.0,-997.0,16:41:30.258793,192.168.0.112
326,-1,-100,-100,-100,"0,0,0",0,0,0,0,0,0,72,75,10,0,90,10.05,0,4.0,-2.0,-1000.0,16:41:30.364757,192.168.0.112
331,-1,-100,-100,-100,"0,0,0",0,0,0,0,0,0,72,75,10,0,90,10.08,0,5.0,-3.0,-1001.0,16:41:30.462907,192.168.0.112
336,-1,-100,-100,-100,"0,0,0",0,0,0,0,0,0,72,75,10,0,90,10.05,0,5.0,-4.0,-1000.0,16:41:30.565958,192.168.0.112
344,-1,-100,-100,-100,"0,0,0",0,0,0,0,0,0,72,75,10,0,90,10.1,0,3.0,-3.0,-997.0,16:41:30.684738,192.168.0.112
346,-1,-100,-100,-100,"0,0,0",0,0,0,0,0,0,72,74,10,0,90,10.08,0,4.0,-3.0,-1001.0,16:41:30.781885,192.168.0.112
351,-1,-100,-100,-100,"0,0,0",0,0,0,0,0,0,72,74,10,0,90,10.1,0,2.0,-3.0,-1000.0,16:41:30.874451,192.168.0.112
356,-1,-100,-100,-100,"0,0,0",0,0,0,0,0,0,72,74,10,0,90,10.07,0,3.0,-4.0,-1000.0,16:41:30.972893,192.168.0.112
361,-1,-100,-100,-100,"0,0,0",0,0,0,0,0,0,72,74,10,0,90,10.11,0,5.0,-4.0,-1002.0,16:41:31.079999,192.168.0.112
366,-1,-100,-100,-100,"0,0,0",0,0,0,0,0,0,72,74,10,0,90,10.1,0,5.0,-5.0,-1000.0,16:41:31.178681,192.168.0.112
371,-1,-100,-100,-100,"0,0,0",0,0,0,0,0,0,72,74,10,0,90,10.08,0,4.0,-3.0,-999.0,16:41:31.279205,192.168.0.112
376,-1,-100,-100,-100,"0,0,0",0,0,0,0,0,0,72,74,10,0,90,10.08,0,5.0,-3.0,-1000.0,16:41:31.380908,192.168.0.112
381,-1,-100,-100,-100,"0,0,0",0,0,0,0,0,0,72,74,10,0,90,10.06,0,4.0,-3.0,-1000.0,16:41:31.482833,192.168.0.112
386,-1,-100,-100,-100,"0,0,0",0,0,0,0,0,0,72,74,10,0,90,10.05,0,2.0,-6.0,-999.0,16:41:31.585001,192.168.0.112
391,-1,-100,-100,-100,"0,0,0",0,0,0,0,0,0,72,74,10,0,90,10.09,0,4.0,-3.0,-1000.0,16:41:31.687041,192.168.0.112
396,-1,-100,-100,-100,"0,0,0",0,0,0,0,0,0,73,75,10,0,90,10.05,0,2.0,-4.0,-999.0,16:41:31.788884,192.168.0.112
401,-1,-100,-100,-100,"0,0,0",0,0,0,0,0,0,73,75,10,0,90,10.11,0,4.0,-4.0,-1000.0,16:41:31.890932,192.168.0.112
406,-1,-100,-100,-100,"0,0,0",0,0,0,0,0,0,73,75,10,0,90,10.08,0,4.0,-5.0,-998.0,16:41:31.992785,192.168.0.112
411,-1,-100,-100,-100,"0,0,0",0,0,0,0,0,0,73,75,10,0,90,10.05,0,3.0,-2.0,-998.0,16:41:32.094762,192.168.0.112
416,-1,-100,-100,-100,"0,0,0",0,0,0,0,0,0,73,75,10,0,90,10.08,0,3.0,-4.0,-998.0,16:41:32.196893,192.168.0.112
421,-1,-100,-100,-100,"0,0,0",0,0,0,0,0,0,73,75,10,0,90,10.06,0,3.0,-3.0,-998.0,16:41:32.298878,192.168.0.112
426,-1,-100,-100,-100,"0,0,0",0,0,0,0,0,0,73,75,10,0,90,10.04,0,4.0,-4.0,-999.0,16:41:32.408131,192.168.0.112
431,-1,-100,-100,-100,"0,0,0",0,0,0,0,0,0,73,75,10,0,90,10.01,0,3.0,-4.0,-999.0,16:41:32.451744,192.168.0.112
436,-1,-100,-100,-100,"0,0,0",0,0,0,0,0,0,73,75,10,0,90,10.05,0,5.0,-5.0,-999.0,16:41:32.555253,192.168.0.112
441,-1,-100,-100,-100,"0,0,0",0,0,0,0,0,0,73,75,10,0,90,10.06,0,4.0,-4.0,-998.0,16:41:32.655944,192.168.0.112
446,-1,-100,-100,-100,"0,0,0",0,0,0,0,0,0,73,75,10,0,90,10.02,0,2.0,-3.0,-1001.0,16:41:32.757936,192.168.0.112
451,-1,-100,-100,-100,"0,0,0",0,0,0,0,0,0,73,75,10,0,90,10.04,0,3.0,-3.0,-998.0,16:41:32.861094,192.168.0.112
456,-1,-100,-100,-100,"0,0,0",0,0,0,0,0,0,73,75,10,0,90,9.99,0,3.0,-4.0,-1000.0,16:41:32.962517,192.168.0.112
461,-1,-100,-100,-100,"0,0,0",0,0,0,0,0,0,73,75,10,0,90,10.06,0,2.0,-3.0,-998.0,16:41:33.065746,192.168.0.112
466,-1,-100,-100,-100,"0,0,0",0,0,0,0,0,0,73,75,10,0,90,10.03,0,2.0,-3.0,-1001.0,16:41:33.165798,192.168.0.112
471,-1,-100,-100,-100,"0,0,0",0,0,0,0,0,0,73,75,10,0,90,10.0,0,4.0,-3.0,-999.0,16:41:33.273189,192.168.0.112
476,-1,-100,-100,-100,"0,0,0",0,0,0,0,0,0,73,75,10,0,90,10.06,0,2.0,-3.0,-999.0,16:41:33.373839,192.168.0.112
481,-1,-100,-100,-100,"0,0,0",0,0,0,0,0,0,73,75,10,0,90,10.05,0,3.0,-3.0,-997.0,16:41:33.473140,192.168.0.112
486,-1,-100,-100,-100,"0,0,0",0,0,0,0,0,0,73,75,10,0,90,9.99,0,2.0,-3.0,-1001.0,16:41:33.576878,192.168.0.112
491,-1,-100,-100,-100,"0,0,0",0,0,0,0,0,0,73,75,10,0,90,9.99,0,3.0,-3.0,-1000.0,16:41:33.675751,192.168.0.112
496,-1,-100,-100,-100,"0,0,0",0,0,0,0,0,0,73,75,10,0,90,10.02,0,4.0,-4.0,-1001.0,16:41:33.777567,192.168.0.112
501,-1,-100,-100,-100,"0,0,0",0,0,0,0,0,0,73,75,10,0,90,10.04,0,6.0,-3.0,-1001.0,16:41:33.880686,192.168.0.112
506,-1,-100,-100,-100,"0,0,0",0,0,0,0,0,0,73,75,10,0,90,9.99,0,2.0,-5.0,-1001.0,16:41:33.981757,192.168.0.112
511,-1,-100,-100,-100,"0,0,0",0,0,0,0,0,0,73,75,10,0,90,10.04,0,3.0,-3.0,-999.0,16:41:34.083889,192.168.0.112
516,-1,-100,-100,-100,"0,0,0",0,0,0,0,0,0,73,75,10,0,90,10.0,0,3.0,-2.0,-1002.0,16:41:34.185797,192.168.0.112
521,-1,-100,-100,-100,"0,0,0",0,0,0,0,0,0,73,75,10,0,90,10.03,0,3.0,-3.0,-999.0,16:41:34.287694,192.168.0.112
526,-1,-100,-100,-100,"0,0,0",0,0,0,0,0,0,73,75,10,0,90,10.07,0,2.0,-4.0,-999.0,16:41:34.389638,192.168.0.112
531,-1,-100,-100,-100,"0,0,0",0,0,0,0,0,0,73,75,10,0,90,10.03,0,3.0,-5.0,-1000.0,16:41:34.491771,192.168.0.112
536,-1,-100,-100,-100,"0,0,0",0,0,0,0,0,0,73,75,10,0,90,9.99,0,5.0,-4.0,-999.0,16:41:34.594647,192.168.0.112
541,-1,-100,-100,-100,"0,0,0",0,0,0,0,0,0,73,75,10,0,90,10.02,0,3.0,-3.0,-999.0,16:41:34.696729,192.168.0.112
546,-1,-100,-100,-100,"0,0,0",0,0,0,0,0,0,73,76,10,0,90,10.01,0,4.0,-2.0,-1000.0,16:41:34.799957,192.168.0.112
552,-1,-100,-100,-100,"0,0,0",0,0,0,0,0,0,73,76,10,0,90,9.97,0,3.0,-3.0,-1001.0,16:41:34.911573,192.168.0.112
556,-1,-100,-100,-100,"0,0,0",0,0,0,0,0,0,73,76,10,0,90,10.06,0,4.0,-4.0,-998.0,16:41:35.001579,192.168.0.112
562,-1,-100,-100,-100,"0,0,0",0,0,0,0,0,0,73,76,10,0,90,10.04,0,2.0,-3.0,-997.0,16:41:35.107556,192.168.0.112
567,-1,-100,-100,-100,"0,0,0",0,0,0,0,0,0,73,76,10,0,90,10.05,0,3.0,-3.0,-999.0,16:41:35.211670,192.168.0.112
572,-1,-100,-100,-100,"0,0,0",0,0,0,0,0,0,73,76,10,0,90,10.01,0,3.0,-4.0,-1002.0,16:41:35.318216,192.168.0.112
577,-1,-100,-100,-100,"0,0,0",0,0,0,0,0,0,73,76,10,0,90,10.05,0,2.0,-4.0,-999.0,16:41:35.413309,192.168.0.112
582,-1,-100,-100,-100,"0,0,0",0,0,0,0,0,0,73,76,10,0,90,10.07,0,1.0,-4.0,-998.0,16:41:35.511984,192.168.0.112
587,-1,-100,-100,-100,"0,0,0",0,0,0,0,0,0,73,76,10,0,90,10.02,0,4.0,-3.0,-998.0,16:41:35.614190,192.168.0.112
592,-1,-100,-100,-100,"0,0,0",0,0,0,0,0,0,73,76,10,0,90,10.08,0,2.0,-4.0,-1000.0,16:41:35.716378,192.168.0.112
597,-1,-100,-100,-100,"0,0,0",0,0,0,0,0,0,73,76,10,0,90,10.06,0,2.0,-3.0,-1000.0,16:41:35.817945,192.168.0.112
603,-1,-100,-100,-100,"0,0,0",0,0,0,0,0,0,73,76,10,0,90,10.06,0,3.0,-5.0,-1001.0,16:41:35.920473,192.168.0.112
608,-1,-100,-100,-100,"0,0,0",0,0,0,0,0,0,73,76,10,0,90,10.06,0,5.0,-3.0,-1001.0,16:41:36.022002,192.168.0.112
613,-1,-100,-100,-100,"0,0,0",0,0,0,0,0,0,73,76,10,0,90,9.97,0,2.0,-3.0,-1001.0,16:41:36.088596,192.168.0.112
616,-1,-100,-100,-100,"0,0,0",0,0,0,0,0,0,73,76,10,0,90,10.04,0,4.0,-3.0,-998.0,16:41:36.174849,192.168.0.112
621,-1,-100,-100,-100,"0,0,0",0,0,0,0,0,0,73,76,10,0,90,10.06,0,3.0,-4.0,-1000.0,16:41:36.283341,192.168.0.112
626,-1,-100,-100,-100,"0,0,0",0,0,0,0,0,0,73,76,10,0,89,10.02,0,4.0,-3.0,-1001.0,16:41:36.383763,192.168.0.112
631,-1,-100,-100,-100,"0,0,0",0,0,0,0,0,0,73,76,10,0,89,10.01,0,2.0,-4.0,-998.0,16:41:36.486264,192.168.0.112
636,-1,-100,-100,-100,"0,0,0",0,0,0,0,0,0,73,76,10,0,89,10.06,0,3.0,-3.0,-999.0,16:41:36.584125,192.168.0.112
641,-1,-100,-100,-100,"0,0,0",0,0,0,0,0,0,73,76,10,0,89,10.04,0,1.0,-4.0,-999.0,16:41:36.684675,192.168.0.112
651,-1,-100,-100,-100,"0,0,0",0,0,0,0,0,0,73,76,10,0,89,10.04,0,3.0,-4.0,-1001.0,16:41:37.192263,192.168.0.112
659,-1,-100,-100,-100,"0,0,0",0,0,0,0,0,0,73,76,10,0,89,9.99,0,4.0,-4.0,-998.0,16:41:37.594666,192.168.0.112
662,-1,-100,-100,-100,"0,0,0",0,0,0,0,0,0,73,76,10,0,89,9.99,0,3.0,-2.0,-999.0,16:41:37.715769,192.168.0.112
664,-1,-100,-100,-100,"0,0,0",0,0,0,0,0,0,73,76,10,0,89,10.0,0,2.0,-3.0,-997.0,16:41:37.833968,192.168.0.112
669,-1,-100,-100,-100,"0,0,0",0,0,0,0,0,0,73,76,10,0,89,10.04,0,3.0,-3.0,-1001.0,16:41:37.855139,192.168.0.112
671,-1,-100,-100,-100,"0,0,0",0,0,0,0,0,0,73,76,10,0,89,10.02,0,2.0,-2.0,-1001.0,16:41:37.859738,192.168.0.112
676,-1,-100,-100,-100,"0,0,0",0,0,0,0,0,0,73,76,10,0,89,10.02,0,2.0,-4.0,-1002.0,16:41:37.931028,192.168.0.112
679,-1,-100,-100,-100,"0,0,0",0,0,0,0,0,0,73,76,10,0,89,10.01,0,4.0,-3.0,-999.0,16:41:37.931382,192.168.0.112
685,-1,-100,-100,-100,"0,0,0",0,0,0,0,0,0,73,76,10,0,89,10.01,0,3.0,-3.0,-1000.0,16:41:37.974509,192.168.0.112
686,-1,-100,-100,-100,"0,0,0",0,0,0,0,0,0,73,76,10,0,89,10.06,0,3.0,-3.0,-999.0,16:41:37.974614,192.168.0.112
690,-1,-100,-100,-100,"0,0,0",0,0,0,0,0,0,73,76,10,0,89,10.03,0,2.0,-3.0,-1000.0,16:41:38.023570,192.168.0.112
693,-1,-100,-100,-100,"0,0,0",0,0,0,0,0,0,73,76,10,0,89,10.0,0,3.0,-3.0,-999.0,16:41:38.079336,192.168.0.112
713,-1,-100,-100,-100,"0,0,0",0,0,0,0,0,0,73,76,10,0,89,10.05,0,4.0,-4.0,-999.0,16:41:38.275814,192.168.0.112
715,-1,-100,-100,-100,"0,0,0",0,0,0,0,0,0,73,76,10,0,89,10.01,0,1.0,-5.0,-1001.0,16:41:38.292699,192.168.0.112
721,-1,-100,-100,-100,"0,0,0",0,0,0,0,0,0,73,76,10,0,89,10.08,0,4.0,-5.0,-1000.0,16:41:38.385770,192.168.0.112
724,-1,-100,-100,-100,"0,0,0",0,0,0,0,0,0,73,76,10,0,89,10.06,0,4.0,-4.0,-1000.0,16:41:38.502390,192.168.0.112
728,-1,-100,-100,-100,"0,0,0",0,0,0,0,0,0,73,76,10,0,89,10.03,0,3.0,-2.0,-1000.0,16:41:38.559719,192.168.0.112
735,-1,-100,-100,-100,"0,0,0",0,0,0,0,0,0,73,76,10,0,89,10.03,0,3.0,-3.0,-999.0,16:41:38.681633,192.168.0.112
740,-1,-100,-100,-100,"0,0,0",0,0,0,0,0,0,73,76,10,0,89,10.05,0,3.0,-4.0,-998.0,16:41:38.780553,192.168.0.112
741,-1,-100,-100,-100,"0,0,0",0,0,0,0,0,0,74,76,10,0,89,10.01,0,3.0,-5.0,-998.0,16:41:38.830260,192.168.0.112
756,-1,-100,-100,-100,"0,0,0",0,0,0,0,0,0,74,76,10,0,89,10.03,0,1.0,-4.0,-1002.0,16:41:39.136710,192.168.0.112
757,-1,-100,-100,-100,"0,0,0",0,0,0,0,0,0,74,76,10,0,89,10.02,0,2.0,-5.0,-998.0,16:41:39.142271,192.168.0.112
761,-1,-100,-100,-100,"0,0,0",0,0,0,0,0,0,74,76,10,0,89,10.01,0,3.0,-4.0,-1001.0,16:41:39.177443,192.168.0.112
768,-1,-100,-100,-100,"0,0,0",0,0,0,0,0,0,74,76,10,0,89,10.01,0,4.0,-5.0,-1000.0,16:41:39.317340,192.168.0.112
769,-1,-100,-100,-100,"0,0,0",0,0,0,0,0,0,74,76,10,0,89,10.07,0,3.0,-3.0,-997.0,16:41:39.332900,192.168.0.112
787,-1,-100,-100,-100,"0,0,0",0,0,0,0,0,0,74,76,10,0,89,10.03,0,3.0,-4.0,-1003.0,16:41:39.729914,192.168.0.112
795,-1,-100,-100,-100,"0,0,0",0,0,0,0,0,0,74,76,10,0,89,10.01,0,2.0,-6.0,-1000.0,16:41:39.891125,192.168.0.112
796,-1,-100,-100,-100,"0,0,0",0,0,0,0,0,0,74,76,10,0,89,9.99,0,3.0,-4.0,-1000.0,16:41:39.891989,192.168.0.112
797,-1,-100,-100,-100,"0,0,0",0,0,0,0,0,0,74,76,10,0,89,10.03,0,3.0,-2.0,-1001.0,16:41:39.893778,192.168.0.112
798,-1,-100,-100,-100,"0,0,0",0,0,0,0,0,0,73,76,10,0,89,9.99,0,3.0,-4.0,-999.0,16:41:39.902291,192.168.0.112
803,-1,-100,-100,-100,"0,0,0",0,0,0,0,0,0,73,76,10,0,89,10.01,0,2.0,-4.0,-999.0,16:41:40.006263,192.168.0.112
806,-1,-100,-100,-100,"0,0,0",0,0,0,0,0,0,73,76,10,0,89,10.04,0,4.0,-4.0,-997.0,16:41:40.025811,192.168.0.112
811,-1,-100,-100,-100,"0,0,0",0,0,0,0,0,0,73,76,10,0,89,10.02,0,3.0,-5.0,-1000.0,16:41:40.154395,192.168.0.112
816,-1,-100,-100,-100,"0,0,0",0,0,0,0,0,0,73,76,10,0,89,9.99,0,1.0,-4.0,-999.0,16:41:40.322073,192.168.0.112
818,-1,-100,-100,-100,"0,0,0",0,0,0,0,0,0,73,76,10,0,89,9.98,0,3.0,-3.0,-999.0,16:41:40.329191,192.168.0.112
826,-1,-100,-100,-100,"0,0,0",0,0,0,0,0,0,73,76,10,0,89,10.0,0,5.0,-3.0,-1000.0,16:41:40.513325,192.168.0.112
827,-1,-100,-100,-100,"0,0,0",0,0,0,0,0,0,73,76,10,0,89,10.01,0,3.0,-3.0,-997.0,16:41:40.516535,192.168.0.112
831,-1,-100,-100,-100,"0,0,0",0,0,0,0,0,0,73,76,10,0,89,10.01,0,4.0,-5.0,-1000.0,16:41:40.617027,192.168.0.112
839,-1,-100,-100,-100,"0,0,0",0,0,0,0,0,0,73,76,10,0,89,10.01,0,5.0,-4.0,-1001.0,16:41:40.717819,192.168.0.112
844,-1,-100,-100,-100,"0,0,0",0,0,0,0,0,0,74,76,10,0,89,10.02,0,3.0,-4.0,-1001.0,16:41:40.815897,192.168.0.112
852,-1,-100,-100,-100,"0,0,0",0,0,0,0,0,0,74,76,10,0,89,9.99,0,2.0,-3.0,-1000.0,16:41:40.955285,192.168.0.112
856,-1,-100,-100,-100,"0,0,0",0,0,0,0,0,0,74,76,10,0,89,10.02,0,3.0,-4.0,-1001.0,16:41:41.018459,192.168.0.112
860,-1,-100,-100,-100,"0,0,0",0,0,0,0,0,0,74,76,10,0,89,10.0,0,4.0,-4.0,-1000.0,16:41:41.142553,192.168.0.112
866,-1,-100,-100,-100,"0,0,0",0,0,0,0,0,0,74,76,10,0,89,9.97,0,4.0,-4.0,-999.0,16:41:41.222377,192.168.0.112
872,-1,-100,-100,-100,"0,0,0",0,0,0,0,0,0,74,76,10,0,89,10.01,0,3.0,-2.0,-999.0,16:41:41.363421,192.168.0.112
876,-1,-100,-100,-100,"0,0,0",0,0,0,0,0,0,74,76,10,0,89,10.0,0,3.0,-4.0,-1000.0,16:41:41.428572,192.168.0.112
881,-1,-100,-100,-100,"0,0,0",0,0,0,0,0,0,74,76,10,0,89,9.97,0,3.0,-3.0,-1000.0,16:41:41.528620,192.168.0.112
886,-1,-100,-100,-100,"0,0,0",0,0,0,0,0,0,74,76,10,0,89,9.99,0,2.0,-3.0,-1000.0,16:41:41.631484,192.168.0.112
891,-1,-100,-100,-100,"0,0,0",0,0,0,0,0,0,74,76,10,0,89,9.91,0,5.0,-4.0,-1002.0,16:41:41.746623,192.168.0.112
895,-1,-100,-100,-100,"0,0,0",0,0,0,0,0,0,74,77,10,0,89,10.0,0,2.0,-4.0,-1000.0,16:41:41.837106,192.168.0.112
901,-1,-100,-100,-100,"0,0,0",0,0,0,0,0,0,74,77,10,0,89,10.0,0,4.0,-5.0,-1001.0,16:41:41.981954,192.168.0.112
904,-1,-100,-100,-100,"0,0,0",0,0,0,0,0,0,74,77,10,0,89,9.98,0,3.0,-5.0,-998.0,16:41:42.040248,192.168.0.112
913,-1,-100,-100,-100,"0,0,0",0,0,0,0,0,0,74,77,10,0,89,10.01,0,2.0,-5.0,-997.0,16:41:42.189376,192.168.0.112
918,-1,-100,-100,-100,"0,0,0",0,0,0,0,0,0,74,77,10,0,89,10.0,0,4.0,-3.0,-998.0,16:41:42.295175,192.168.0.112
921,-1,-100,-100,-100,"0,0,0",0,0,0,0,0,0,74,77,10,0,89,10.0,0,4.0,-3.0,-999.0,16:41:42.350047,192.168.0.112
926,-1,-100,-100,-100,"0,0,0",0,0,0,0,0,0,74,77,10,0,89,9.97,0,3.0,-3.0,-1000.0,16:41:42.460574,192.168.0.112
932,-1,-100,-100,-100,"0,0,0",0,0,0,0,0,0,74,77,10,0,89,9.94,0,5.0,-5.0,-999.0,16:41:42.602697,192.168.0.112
935,-1,-100,-100,-100,"0,0,0",0,0,0,0,0,0,74,77,10,0,89,9.95,0,3.0,-4.0,-1000.0,16:41:42.633973,192.168.0.112
939,-1,-100,-100,-100,"0,0,0",0,0,0,0,0,0,74,77,10,0,89,9.97,0,3.0,-3.0,-1000.0,16:41:42.708866,192.168.0.112
944,-1,-100,-100,-100,"0,0,0",0,0,0,0,0,0,74,77,10,0,89,9.96,0,4.0,-4.0,-998.0,16:41:42.817429,192.168.0.112
951,-1,-100,-100,-100,"0,0,0",0,0,0,0,0,0,74,77,10,0,89,9.97,0,3.0,-4.0,-1000.0,16:41:42.926236,192.168.0.112
954,-1,-100,-100,-100,"0,0,0",0,0,0,0,0,0,74,77,10,0,89,9.99,0,4.0,-4.0,-1000.0,16:41:43.015126,192.168.0.112
960,-1,-100,-100,-100,"0,0,0",0,0,0,0,0,0,74,77,10,0,89,9.95,0,3.0,-4.0,-999.0,16:41:43.131577,192.168.0.112
965,-1,-100,-100,-100,"0,0,0",0,0,0,0,0,0,74,77,10,0,89,9.94,0,4.0,-2.0,-1002.0,16:41:43.217110,192.168.0.112
968,-1,-100,-100,-100,"0,0,0",0,0,0,0,0,0,74,77,10,0,89,9.94,0,2.0,-5.0,-1001.0,16:41:43.322493,192.168.0.112
975,-1,-100,-100,-100,"0,0,0",0,0,0,0,0,0,74,77,10,0,89,9.97,0,3.0,-3.0,-1003.0,16:41:43.421878,192.168.0.112
980,-1,-100,-100,-100,"0,0,0",0,0,0,0,0,0,74,77,10,0,89,9.89,0,3.0,-4.0,-1000.0,16:41:43.522178,192.168.0.112
985,-1,-100,-100,-100,"0,0,0",0,0,0,0,0,0,74,77,10,0,89,9.93,0,2.0,-4.0,-1002.0,16:41:43.624173,192.168.0.112
990,-1,-100,-100,-100,"0,0,0",0,0,0,0,0,0,74,77,10,0,89,9.99,0,3.0,-3.0,-999.0,16:41:43.726094,192.168.0.112
995,-1,-100,-100,-100,"0,0,0",0,0,0,0,0,0,75,77,10,0,89,9.94,0,4.0,-3.0,-1001.0,16:41:43.828938,192.168.0.112
1000,-1,-100,-100,-100,"0,0,0",0,0,0,0,0,0,75,77,10,0,89,9.98,0,3.0,-5.0,-1000.0,16:41:43.940814,192.168.0.112
1005,-1,-100,-100,-100,"0,0,0",0,0,0,0,0,0,75,77,10,0,89,9.92,0,3.0,-4.0,-999.0,16:41:44.032105,192.168.0.112
1010,-1,-100,-100,-100,"0,0,0",0,0,0,0,0,0,75,77,10,0,89,9.92,0,3.0,-4.0,-999.0,16:41:44.148894,192.168.0.112
1014,-1,-100,-100,-100,"0,0,0",0,0,0,0,0,0,75,77,10,0,89,9.95,0,2.0,-4.0,-999.0,16:41:44.243501,192.168.0.112
1019,-1,-100,-100,-100,"0,0,0",0,0,0,0,0,0,75,77,10,0,89,9.96,0,3.0,-5.0,-999.0,16:41:44.342640,192.168.0.112
1026,-1,-100,-100,-100,"0,0,0",0,0,0,0,0,0,75,77,10,0,89,9.95,0,3.0,-3.0,-999.0,16:41:44.459979,192.168.0.112
1031,-1,-100,-100,-100,"0,0,0",0,0,0,0,0,0,75,77,10,0,89,9.99,0,3.0,-4.0,-1000.0,16:41:44.542242,192.168.0.112
1036,-1,-100,-100,-100,"0,0,0",0,0,0,0,0,0,75,77,10,0,89,9.97,0,4.0,-3.0,-1000.0,16:41:44.654932,192.168.0.112
1040,-1,-100,-100,-100,"0,0,0",0,0,0,0,0,0,75,77,10,0,89,9.97,0,3.0,-3.0,-1000.0,16:41:44.747547,192.168.0.112
1045,-1,-100,-100,-100,"0,0,0",0,0,0,0,0,0,75,77,10,0,89,9.92,0,3.0,-3.0,-997.0,16:41:44.850748,192.168.0.112
1049,-1,-100,-100,-100,"0,0,0",0,0,0,0,0,0,75,77,10,0,89,9.96,0,2.0,-5.0,-1001.0,16:41:44.953058,192.168.0.112
1056,-1,-100,-100,-100,"0,0,0",0,0,0,0,0,0,75,77,10,0,89,9.96,0,2.0,-4.0,-1001.0,16:41:45.052535,192.168.0.112
1061,-1,-100,-100,-100,"0,0,0",0,0,0,0,0,0,75,77,10,0,89,9.97,0,5.0,-3.0,-999.0,16:41:45.154231,192.168.0.112
1065,-1,-100,-100,-100,"0,0,0",0,0,0,0,0,0,75,77,10,0,89,9.91,0,1.0,-5.0,-997.0,16:41:45.256488,192.168.0.112
1071,-1,-100,-100,-100,"0,0,0",0,0,0,0,0,0,75,77,10,0,89,9.95,0,4.0,-4.0,-999.0,16:41:45.357975,192.168.0.112
1076,-1,-100,-100,-100,"0,0,0",0,0,0,0,0,0,75,77,10,0,89,9.93,0,3.0,-5.0,-1001.0,16:41:45.461520,192.168.0.112
1081,-1,-100,-100,-100,"0,0,0",0,0,0,0,0,0,75,77,10,0,89,9.94,0,3.0,-4.0,-999.0,16:41:45.588296,192.168.0.112
1087,-1,-100,-100,-100,"0,0,0",0,0,0,0,0,0,75,77,10,0,89,9.9,0,2.0,-3.0,-1000.0,16:41:45.681240,192.168.0.112
1091,-1,-100,-100,-100,"0,0,0",0,0,0,0,0,0,75,77,10,0,89,9.99,0,3.0,-3.0,-999.0,16:41:45.767003,192.168.0.112
1096,-1,-100,-100,-100,"0,0,0",0,0,0,0,0,0,74,77,10,0,89,9.99,0,4.0,-4.0,-1003.0,16:41:45.868463,192.168.0.112
1102,-1,-100,-100,-100,"0,0,0",0,0,0,0,0,0,74,77,10,0,89,9.94,0,3.0,-3.0,-1000.0,16:41:45.989948,192.168.0.112
1106,-1,-100,-100,-100,"0,0,0",0,0,0,0,0,0,74,77,10,0,89,9.95,0,3.0,-6.0,-999.0,16:41:46.073943,192.168.0.112
1111,-1,-100,-100,-100,"0,0,0",0,0,0,0,0,0,74,77,10,0,89,9.96,0,4.0,-4.0,-999.0,16:41:46.184045,192.168.0.112
1115,-1,-100,-100,-100,"0,0,0",0,0,0,0,0,0,74,77,10,0,89,9.92,0,3.0,-4.0,-998.0,16:41:46.225139,192.168.0.112
1119,-1,-100,-100,-100,"0,0,0",0,0,0,0,0,0,74,77,10,0,89,9.92,0,3.0,-3.0,-1000.0,16:41:46.329173,192.168.0.112
1125,-1,-100,-100,-100,"0,0,0",0,0,0,0,0,0,74,77,10,0,89,9.92,0,3.0,-2.0,-1002.0,16:41:46.436415,192.168.0.112
1130,-1,-100,-100,-100,"0,0,0",0,0,0,0,0,0,74,77,10,0,89,9.93,0,1.0,-3.0,-999.0,16:41:46.531439,192.168.0.112
1136,-1,-100,-100,-100,"0,0,0",0,0,0,0,0,0,74,77,10,0,89,10.0,0,4.0,-3.0,-999.0,16:41:46.651825,192.168.0.112
1140,-1,-100,-100,-100,"0,0,0",0,0,0,0,0,0,74,77,10,0,89,9.98,0,4.0,-4.0,-998.0,16:41:46.752452,192.168.0.112
1144,-1,-100,-100,-100,"0,0,0",0,0,0,0,0,0,74,77,10,0,89,9.97,0,4.0,-2.0,-999.0,16:41:46.841609,192.168.0.112
1149,-1,-100,-100,-100,"0,0,0",0,0,0,0,0,0,74,77,10,0,89,9.97,0,3.0,-3.0,-999.0,16:41:46.940238,192.168.0.112
1155,-1,-100,-100,-100,"0,0,0",0,0,0,0,0,0,74,77,10,0,89,9.9,0,3.0,-4.0,-1000.0,16:41:47.041568,192.168.0.112
1159,-1,-100,-100,-100,"0,0,0",0,0,0,0,0,0,74,77,10,0,89,9.91,0,3.0,-4.0,-999.0,16:41:47.143948,192.168.0.112
1166,-1,-100,-100,-100,"0,0,0",0,0,0,0,0,0,74,77,10,0,89,9.95,0,4.0,-6.0,-1000.0,16:41:47.281889,192.168.0.112
1170,-1,-100,-100,-100,"0,0,0",0,0,0,0,0,0,74,77,10,0,89,9.94,0,4.0,-5.0,-999.0,16:41:47.350415,192.168.0.112
1175,-1,-100,-100,-100,"0,0,0",0,0,0,0,0,0,74,77,10,0,89,9.93,0,3.0,-3.0,-999.0,16:41:47.457744,192.168.0.112
1180,-1,-100,-100,-100,"0,0,0",0,0,0,0,0,0,74,77,10,0,89,9.96,0,2.0,-4.0,-1001.0,16:41:47.551557,192.168.0.112
1185,-1,-100,-100,-100,"0,0,0",0,0,0,0,0,0,74,77,10,0,89,9.92,0,2.0,-4.0,-1001.0,16:41:47.655720,192.168.0.112
1191,-1,-100,-100,-100,"0,0,0",0,0,0,0,0,0,74,77,10,0,89,9.94,0,2.0,-4.0,-1002.0,16:41:47.763913,192.168.0.112
1196,-1,-100,-100,-100,"0,0,0",0,0,0,0,0,0,75,77,10,0,89,9.95,0,4.0,-4.0,-999.0,16:41:47.857757,192.168.0.112
1201,-1,-100,-100,-100,"0,0,0",0,0,0,0,0,0,75,77,10,0,89,9.99,0,3.0,-4.0,-1000.0,16:41:47.959843,192.168.0.112
1206,-1,-100,-100,-100,"0,0,0",0,0,0,0,0,0,75,77,10,0,89,9.95,0,2.0,-4.0,-1002.0,16:41:48.062676,192.168.0.112
1211,-1,-100,-100,-100,"0,0,0",0,0,0,0,0,0,75,77,10,0,89,9.93,0,2.0,-3.0,-998.0,16:41:48.163812,192.168.0.112
1215,-1,-100,-100,-100,"0,0,0",0,0,0,0,0,0,75,77,10,0,89,9.96,0,3.0,-4.0,-999.0,16:41:48.271296,192.168.0.112
1221,-1,-100,-100,-100,"0,0,0",0,0,0,0,0,0,75,77,10,0,89,9.94,0,3.0,-3.0,-998.0,16:41:48.367285,192.168.0.112
1227,-1,-100,-100,-100,"0,0,0",0,0,0,0,0,0,75,77,10,0,89,9.95,0,1.0,-3.0,-999.0,16:41:48.492454,192.168.0.112
1231,-1,-100,-100,-100,"0,0,0",0,0,0,0,0,0,75,77,10,0,89,9.94,0,1.0,-5.0,-1000.0,16:41:48.579179,192.168.0.112
1235,-1,-100,-100,-100,"0,0,0",0,0,0,0,0,0,75,77,10,0,89,9.97,0,2.0,-4.0,-998.0,16:41:48.676903,192.168.0.112
1242,-1,-100,-100,-100,"0,0,0",0,0,0,0,0,0,75,77,10,0,89,9.96,0,2.0,-3.0,-1002.0,16:41:48.792642,192.168.0.112
1246,-1,-100,-100,-100,"0,0,0",0,0,0,0,0,0,76,77,10,0,89,9.96,0,4.0,-3.0,-999.0,16:41:48.877407,192.168.0.112
1251,-1,-100,-100,-100,"0,0,0",0,0,0,0,0,0,76,77,10,0,89,9.94,0,3.0,-3.0,-1001.0,16:41:48.988603,192.168.0.112
1256,-1,-100,-100,-100,"0,0,0",0,0,0,0,0,0,76,77,10,0,89,9.95,0,3.0,-3.0,-1000.0,16:41:49.092540,192.168.0.112
1261,-1,-100,-100,-100,"0,0,0",0,0,0,0,0,0,76,77,10,0,89,9.95,0,4.0,-4.0,-1000.0,16:41:49.197267,192.168.0.112
1264,-1,-100,-100,-100,"0,0,0",0,0,0,0,0,0,76,77,10,0,89,9.88,0,2.0,-6.0,-999.0,16:41:49.252579,192.168.0.112
1269,-1,-100,-100,-100,"0,0,0",0,0,0,0,0,0,76,77,10,0,89,9.96,0,3.0,-2.0,-1000.0,16:41:49.349854,192.168.0.112
1274,-1,-100,-100,-100,"0,0,0",0,0,0,0,0,0,76,77,10,0,89,9.93,0,4.0,-3.0,-1000.0,16:41:49.473751,192.168.0.112
1280,-1,-100,-100,-100,"0,0,0",0,0,0,0,0,0,76,77,10,0,89,9.95,0,3.0,-4.0,-999.0,16:41:49.556052,192.168.0.112
1283,-1,-100,-100,-100,"0,0,0",0,0,0,0,0,0,76,77,10,0,89,9.94,0,3.0,-6.0,-1001.0,16:41:49.649150,192.168.0.112
1290,-1,-100,-100,-100,"0,0,0",0,0,0,0,0,0,76,77,10,0,89,9.98,0,1.0,-4.0,-1000.0,16:41:49.746182,192.168.0.112
1295,-1,-100,-100,-100,"0,0,0",0,0,0,0,0,0,75,77,10,0,89,9.97,0,3.0,-5.0,-998.0,16:41:49.851178,192.168.0.112
1300,-1,-100,-100,-100,"0,0,0",0,0,0,0,0,0,75,77,10,0,89,9.94,0,2.0,-4.0,-999.0,16:41:49.951524,192.168.0.112
1304,-1,-100,-100,-100,"0,0,0",0,0,0,0,0,0,75,77,10,0,89,9.97,0,2.0,-4.0,-999.0,16:41:50.053241,192.168.0.112
1310,-1,-100,-100,-100,"0,0,0",0,0,0,0,0,0,75,77,10,0,89,9.97,0,2.0,-4.0,-997.0,16:41:50.159380,192.168.0.112
1315,-1,-100,-100,-100,"0,0,0",0,0,0,0,0,0,75,77,10,0,89,9.99,0,3.0,-4.0,-1000.0,16:41:50.254688,192.168.0.112
1320,-1,-100,-100,-100,"0,0,0",0,0,0,0,0,0,75,77,10,0,89,10.0,0,2.0,-3.0,-998.0,16:41:50.356894,192.168.0.112
1325,-1,-100,-100,-100,"0,0,0",0,0,0,0,0,0,75,77,10,0,89,9.99,0,2.0,-3.0,-1001.0,16:41:50.459146,192.168.0.112
1330,-1,-100,-100,-100,"0,0,0",0,0,0,0,0,0,75,77,10,0,89,9.95,0,4.0,-4.0,-1000.0,16:41:50.560916,192.168.0.112
1335,-1,-100,-100,-100,"0,0,0",0,0,0,0,0,0,75,77,10,0,89,9.97,0,2.0,-3.0,-1001.0,16:41:50.664703,192.168.0.112
1341,-1,-100,-100,-100,"0,0,0",0,0,0,0,0,0,75,77,10,0,89,9.95,0,2.0,-3.0,-995.0,16:41:50.792018,192.168.0.112
1348,-1,-100,-100,-100,"0,0,0",0,0,0,0,0,0,75,77,10,0,89,9.95,0,2.0,-4.0,-998.0,16:41:50.960856,192.168.0.112
1351,-1,-100,-100,-100,"0,0,0",0,0,0,0,0,0,75,77,10,0,89,9.96,0,4.0,-3.0,-998.0,16:41:50.995825,192.168.0.112
1356,-1,-100,-100,-100,"0,0,0",0,0,0,0,0,0,75,77,10,0,89,9.96,0,2.0,-3.0,-999.0,16:41:51.086646,192.168.0.112
1361,-1,-100,-100,-100,"0,0,0",0,0,0,0,0,0,75,77,10,0,89,9.9,0,3.0,-4.0,-999.0,16:41:51.188982,192.168.0.112
1366,-1,-100,-100,-100,"0,0,0",0,0,0,0,0,0,75,77,10,0,89,9.93,0,3.0,-4.0,-1000.0,16:41:51.289689,192.168.0.112
1371,-1,-100,-100,-100,"0,0,0",0,0,0,0,0,0,75,77,10,0,89,9.95,0,3.0,-5.0,-1000.0,16:41:51.391652,192.168.0.112
1376,-1,-100,-100,-100,"0,0,0",0,0,0,0,0,0,75,77,10,0,89,9.94,0,3.0,-4.0,-999.0,16:41:51.494181,192.168.0.112
1380,-1,-100,-100,-100,"0,0,0",0,0,0,0,0,0,75,77,10,0,89,9.87,0,4.0,-2.0,-1000.0,16:41:51.545325,192.168.0.112
1385,-1,-100,-100,-100,"0,0,0",0,0,0,0,0,0,75,77,10,0,89,9.91,0,3.0,-3.0,-999.0,16:41:51.647793,192.168.0.112
1390,-1,-100,-100,-100,"0,0,0",0,0,0,0,0,0,75,77,10,0,89,9.88,0,3.0,-4.0,-1002.0,16:41:51.749693,192.168.0.112
1395,-1,-100,-100,-100,"0,0,0",0,0,0,0,0,0,74,77,10,0,89,9.91,0,3.0,-5.0,-1000.0,16:41:51.851785,192.168.0.112
1400,-1,-100,-100,-100,"0,0,0",0,0,0,0,0,0,74,77,10,0,89,9.91,0,3.0,-4.0,-999.0,16:41:51.953973,192.168.0.112
1405,-1,-100,-100,-100,"0,0,0",0,0,0,0,0,0,74,77,10,0,89,9.93,0,3.0,-3.0,-1001.0,16:41:52.055885,192.168.0.112
1410,-1,-100,-100,-100,"0,0,0",0,0,0,0,0,0,74,77,10,0,89,9.91,0,3.0,-4.0,-999.0,16:41:52.158561,192.168.0.112
1415,-1,-100,-100,-100,"0,0,0",0,0,0,0,0,0,74,77,10,0,89,9.92,0,3.0,-3.0,-1001.0,16:41:52.259904,192.168.0.112
1420,-1,-100,-100,-100,"0,0,0",0,0,0,0,0,0,74,77,10,0,89,9.93,0,2.0,-5.0,-1000.0,16:41:52.361463,192.168.0.112
1425,-1,-100,-100,-100,"0,0,0",0,0,0,0,0,0,74,77,10,0,89,9.86,0,4.0,-4.0,-999.0,16:41:52.465340,192.168.0.112
1430,-1,-100,-100,-100,"0,0,0",0,0,0,0,0,0,74,77,10,0,89,9.94,0,3.0,-4.0,-999.0,16:41:52.565531,192.168.0.112
1435,-1,-100,-100,-100,"0,0,0",0,0,0,0,0,0,74,77,10,0,89,9.92,0,3.0,-4.0,-1001.0,16:41:52.667541,192.168.0.112
1440,-1,-100,-100,-100,"0,0,0",0,0,0,0,0,0,74,77,10,0,89,9.93,0,4.0,-2.0,-998.0,16:41:52.769582,192.168.0.112
1445,-1,-100,-100,-100,"0,0,0",0,0,0,0,0,0,73,77,10,0,89,9.97,0,3.0,-3.0,-998.0,16:41:52.871668,192.168.0.112
1450,-1,-100,-100,-100,"0,0,0",0,0,0,0,0,0,73,77,10,0,89,9.98,0,3.0,-3.0,-1000.0,16:41:52.973732,192.168.0.112
1455,-1,-100,-100,-100,"0,0,0",0,0,0,0,0,0,73,77,10,0,89,9.88,0,3.0,-4.0,-1002.0,16:41:53.075527,192.168.0.112
1460,-1,-100,-100,-100,"0,0,0",0,0,0,0,0,0,73,77,10,0,89,9.89,0,2.0,-3.0,-997.0,16:41:53.177711,192.168.0.112
1465,-1,-100,-100,-100,"0,0,0",0,0,0,0,0,0,73,77,10,0,89,9.94,0,2.0,-4.0,-1002.0,16:41:53.279857,192.168.0.112
1470,-1,-100,-100,-100,"0,0,0",0,0,0,0,0,0,73,77,10,0,89,9.88,0,1.0,-4.0,-1000.0,16:41:53.384342,192.168.0.112
1475,-1,-100,-100,-100,"0,0,0",0,0,0,0,0,0,73,77,10,0,89,9.91,0,2.0,-4.0,-1001.0,16:41:53.484133,192.168.0.112
1480,-1,-100,-100,-100,"0,0,0",0,0,0,0,0,0,73,77,10,0,89,9.92,0,3.0,-4.0,-1000.0,16:41:53.586274,192.168.0.112
1485,-1,-100,-100,-100,"0,0,0",0,0,0,0,0,0,73,77,10,0,89,9.86,0,3.0,-4.0,-1001.0,16:41:53.687676,192.168.0.112
1490,-1,-100,-100,-100,"0,0,0",0,0,0,0,0,0,73,77,10,0,89,9.9,0,5.0,-4.0,-999.0,16:41:53.789910,192.168.0.112
1495,-1,-100,-100,-100,"0,0,0",0,0,0,0,0,0,74,77,10,0,89,9.89,0,2.0,-4.0,-998.0,16:41:53.892403,192.168.0.112
1500,-1,-100,-100,-100,"0,0,0",0,0,0,0,0,0,74,77,10,0,89,9.87,0,2.0,-3.0,-998.0,16:41:53.994817,192.168.0.112
1505,-1,-100,-100,-100,"0,0,0",0,0,0,0,0,0,74,77,10,0,89,9.89,0,2.0,-4.0,-999.0,16:41:54.097189,192.168.0.112
1511,-1,-100,-100,-100,"0,0,0",0,0,0,0,0,0,74,77,10,0,89,9.88,0,2.0,-3.0,-999.0,16:41:54.197482,192.168.0.112
1515,-1,-100,-100,-100,"0,0,0",0,0,0,0,0,0,74,77,10,0,89,9.88,0,3.0,-4.0,-1001.0,16:41:54.299691,192.168.0.112
1520,-1,-100,-100,-100,"0,0,0",0,0,0,0,0,0,74,77,10,0,89,9.91,0,4.0,-4.0,-1000.0,16:41:54.404577,192.168.0.112
1525,-1,-100,-100,-100,"0,0,0",0,0,0,0,0,0,74,77,10,0,89,9.86,0,2.0,-4.0,-1001.0,16:41:54.504309,192.168.0.112
1530,-1,-100,-100,-100,"0,0,0",0,0,0,0,0,0,74,77,10,0,89,9.94,0,3.0,-4.0,-999.0,16:41:54.605634,192.168.0.112
1534,-1,-100,-100,-100,"0,0,0",0,0,0,0,0,0,74,77,10,0,89,9.92,0,2.0,-3.0,-999.0,16:41:54.656865,192.168.0.112
1539,-1,-100,-100,-100,"0,0,0",0,0,0,0,0,0,74,77,10,0,89,9.88,0,2.0,-3.0,-1000.0,16:41:54.760645,192.168.0.112
1547,-1,-100,-100,-100,"0,0,0",0,0,0,0,0,0,74,77,10,0,89,9.91,0,4.0,-3.0,-1000.0,16:41:54.918414,192.168.0.112
1551,-1,-100,-100,-100,"0,0,0",0,0,0,0,0,0,74,77,10,0,89,9.9,0,2.0,-2.0,-1001.0,16:41:55.018640,192.168.0.112
1555,-1,-100,-100,-100,"0,0,0",0,0,0,0,0,0,74,77,10,0,89,9.88,0,2.0,-4.0,-1002.0,16:41:55.066594,192.168.0.112
1560,-1,-100,-100,-100,"0,0,0",0,0,0,0,0,0,74,77,10,0,89,9.89,0,2.0,-4.0,-997.0,16:41:55.168715,192.168.0.112
1565,-1,-100,-100,-100,"0,0,0",0,0,0,0,0,0,74,77,10,0,89,9.89,0,2.0,-4.0,-1000.0,16:41:55.270625,192.168.0.112
1570,-1,-100,-100,-100,"0,0,0",0,0,0,0,0,0,74,77,10,0,89,9.86,0,3.0,-3.0,-999.0,16:41:55.372737,192.168.0.112
1575,-1,-100,-100,-100,"0,0,0",0,0,0,0,0,0,74,77,10,0,89,9.85,0,3.0,-4.0,-1000.0,16:41:55.474612,192.168.0.112
1580,-1,-100,-100,-100,"0,0,0",0,0,0,0,0,0,74,77,10,0,89,9.83,0,2.0,-4.0,-1001.0,16:41:55.576718,192.168.0.112
1585,-1,-100,-100,-100,"0,0,0",0,0,0,0,0,0,74,77,10,0,89,9.82,0,4.0,-3.0,-999.0,16:41:55.678797,192.168.0.112
1590,-1,-100,-100,-100,"0,0,0",0,0,0,0,0,0,74,77,10,0,89,9.81,0,4.0,-2.0,-998.0,16:41:55.782659,192.168.0.112
1595,-1,-100,-100,-100,"0,0,0",0,0,0,0,0,0,74,77,10,0,89,9.83,0,3.0,-4.0,-999.0,16:41:55.882587,192.168.0.112
1600,-1,-100,-100,-100,"0,0,0",0,0,0,0,0,0,74,77,10,0,89,9.89,0,2.0,-3.0,-997.0,16:41:55.984801,192.168.0.112
1605,-1,-100,-100,-100,"0,0,0",0,0,0,0,0,0,74,77,10,0,89,9.85,0,1.0,-5.0,-1001.0,16:41:56.086638,192.168.0.112
1610,-1,-100,-100,-100,"0,0,0",0,0,0,0,0,0,74,77,10,0,89,9.9,0,4.0,-3.0,-997.0,16:41:56.188642,192.168.0.112
1615,-1,-100,-100,-100,"0,0,0",0,0,0,0,0,0,74,77,10,0,89,9.87,0,4.0,-2.0,-1001.0,16:41:56.290751,192.168.0.112
1620,-1,-100,-100,-100,"0,0,0",0,0,0,0,0,0,74,77,10,0,89,9.9,0,2.0,-3.0,-999.0,16:41:56.392717,192.168.0.112
1625,-1,-100,-100,-100,"0,0,0",0,0,0,0,0,0,74,77,10,0,89,9.82,0,2.0,-3.0,-997.0,16:41:56.494763,192.168.0.112
1630,-1,-100,-100,-100,"0,0,0",0,0,0,0,0,0,74,77,10,0,89,9.85,0,5.0,-2.0,-999.0,16:41:56.596722,192.168.0.112
1635,-1,-100,-100,-100,"0,0,0",0,0,0,0,0,0,74,77,10,0,89,9.84,0,4.0,-3.0,-995.0,16:41:56.698944,192.168.0.112
1640,-1,-100,-100,-100,"0,0,0",0,0,0,0,0,0,74,77,10,0,89,9.84,0,1.0,-5.0,-991.0,16:41:56.800556,192.168.0.112
1645,-1,-100,-100,-100,"0,0,0",0,0,0,0,0,0,74,78,10,0,89,9.84,0,-19.0,1.0,-1009.0,16:41:56.902815,192.168.0.112
1650,-1,-100,-100,-100,"0,0,0",0,0,0,0,0,0,74,78,10,0,89,9.84,0,-10.0,-12.0,-982.0,16:41:57.004535,192.168.0.112
1655,-1,-100,-100,-100,"0,0,0",0,0,0,0,0,1,74,78,10,10,89,9.84,0,14.0,-6.0,-1097.0,16:41:57.114152,192.168.0.112
1660,-1,-100,-100,-100,"0,0,0",0,0,0,0,0,1,74,78,10,10,89,9.84,0,4.0,8.0,-1230.0,16:41:57.209344,192.168.0.112
1665,-1,-100,-100,-100,"0,0,0",0,0,1,0,0,4,74,78,10,10,89,9.84,0,22.0,-2.0,-1316.0,16:41:57.311410,192.168.0.112
1670,-1,-100,-100,-100,"0,0,0",0,0,0,0,0,7,74,78,18,20,89,9.92,0,-13.0,0.0,-1141.0,16:41:57.414141,192.168.0.112
1675,-1,-100,-100,-100,"0,0,0",1,0,0,0,0,8,74,78,26,30,89,10.23,0,-1.0,-6.0,-1008.0,16:41:57.515266,192.168.0.112
1680,-1,-100,-100,-100,"0,0,0",0,0,0,0,0,9,74,78,35,30,89,10.33,0,10.0,-20.0,-945.0,16:41:57.617508,192.168.0.112
1686,-1,-100,-100,-100,"0,0,0",0,0,0,0,0,8,74,78,39,40,89,10.33,1,15.0,-8.0,-878.0,16:41:57.719434,192.168.0.112
1691,-1,-100,-100,-100,"0,0,0",0,0,0,0,0,7,74,78,44,50,89,10.38,1,14.0,-8.0,-860.0,16:41:57.821328,192.168.0.112
1696,-1,-100,-100,-100,"0,0,0",0,0,0,0,0,6,74,77,49,60,89,10.48,1,0.0,1.0,-858.0,16:41:57.924016,192.168.0.112
1701,-1,-100,-100,-100,"0,0,0",0,0,0,0,0,4,74,77,53,60,89,10.49,1,10.0,-1.0,-863.0,16:41:58.025381,192.168.0.112
1704,-1,-100,-100,-100,"0,0,0",0,0,0,0,0,3,74,77,55,70,89,10.5,1,7.0,-10.0,-874.0,16:41:58.078680,192.168.0.112
1709,-1,-100,-100,-100,"0,0,0",0,0,0,0,0,2,74,77,56,70,89,10.52,1,12.0,-20.0,-893.0,16:41:58.180924,192.168.0.112
1714,-1,-100,-100,-100,"0,0,0",0,0,0,0,0,1,74,77,55,70,89,10.53,1,9.0,-10.0,-909.0,16:41:58.285505,192.168.0.112
1720,-1,-100,-100,-100,"0,0,0",0,0,0,0,0,0,74,77,54,80,89,10.55,1,-1.0,1.0,-958.0,16:41:58.385996,192.168.0.112
1725,-1,-100,-100,-100,"0,0,0",0,0,0,0,0,0,74,77,53,80,89,10.5,1,3.0,3.0,-977.0,16:41:58.484589,192.168.0.112
1730,-1,-100,-100,-100,"0,0,0",0,0,0,0,0,0,74,77,51,70,89,10.46,1,20.0,-16.0,-987.0,16:41:58.591689,192.168.0.112
1735,-1,-100,-100,-100,"0,0,0",0,0,0,0,0,0,74,77,49,70,89,10.45,2,19.0,-11.0,-1004.0,16:41:58.688594,192.168.0.112
1740,-1,-100,-100,-100,"0,0,0",0,0,0,0,0,0,74,77,48,70,89,10.48,2,19.0,-2.0,-1009.0,16:41:58.790962,192.168.0.112
1745,-1,-100,-100,-100,"0,0,0",0,0,0,0,0,-1,75,78,46,70,89,10.42,2,29.0,-14.0,-1043.0,16:41:58.892786,192.168.0.112
1750,-1,-100,-100,-100,"0,0,0",0,0,0,0,0,0,75,78,45,70,89,10.42,2,17.0,-11.0,-1049.0,16:41:58.994653,192.168.0.112
1755,-1,-100,-100,-100,"0,0,0",0,0,0,0,0,0,75,78,44,60,89,10.48,2,28.0,-21.0,-1035.0,16:41:59.097111,192.168.0.112
1760,-1,-100,-100,-100,"0,0,0",1,0,1,0,0,0,75,78,44,60,89,10.51,2,28.0,-9.0,-1032.0,16:41:59.200505,192.168.0.112
1765,-1,-100,-100,-100,"0,0,0",1,0,0,0,0,0,75,78,43,60,89,10.52,2,33.0,-15.0,-1020.0,16:41:59.302291,192.168.0.112
1770,-1,-100,-100,-100,"0,0,0",1,1,0,0,0,0,75,78,43,60,89,10.42,2,40.0,-20.0,-1013.0,16:41:59.404336,192.168.0.112
1775,-1,-100,-100,-100,"0,0,0",0,0,0,0,0,0,75,78,44,60,89,10.41,2,33.0,-12.0,-1023.0,16:41:59.505886,192.168.0.112
1780,-1,-100,-100,-100,"0,0,0",1,0,0,0,0,0,75,78,44,60,89,10.43,2,10.0,-3.0,-1023.0,16:41:59.608934,192.168.0.112
1785,-1,-100,-100,-100,"0,0,0",1,0,0,0,0,0,75,78,45,70,89,10.4,3,12.0,-6.0,-1003.0,16:41:59.709234,192.168.0.112
1790,-1,-100,-100,-100,"0,0,0",1,0,0,0,0,0,75,78,46,70,89,10.45,3,4.0,-4.0,-990.0,16:41:59.811529,192.168.0.112
1795,-1,-100,-100,-100,"0,0,0",0,0,0,0,0,0,74,77,46,70,89,10.45,3,6.0,-9.0,-1003.0,16:41:59.913287,192.168.0.112
1800,-1,-100,-100,-100,"0,0,0",0,0,0,0,0,0,74,77,47,70,89,10.49,3,15.0,-18.0,-1000.0,16:42:00.015126,192.168.0.112
1805,-1,-100,-100,-100,"0,0,0",0,0,1,0,0,0,74,77,48,70,89,10.48,3,14.0,-17.0,-988.0,16:42:00.117404,192.168.0.112
1810,-1,-100,-100,-100,"0,0,0",0,0,1,0,0,0,74,77,49,70,89,10.52,3,-1.0,-2.0,-997.0,16:42:00.219339,192.168.0.112
1815,-1,-100,-100,-100,"0,0,0",0,0,0,0,0,0,74,77,49,70,89,10.49,3,10.0,-9.0,-998.0,16:42:00.321290,192.168.0.112
1820,-1,-100,-100,-100,"0,0,0",0,0,1,0,0,0,74,77,50,70,89,10.52,3,-10.0,-2.0,-994.0,16:42:00.423176,192.168.0.112
1825,-1,-100,-100,-100,"0,0,0",0,0,1,0,0,0,74,77,50,70,89,10.47,3,2.0,-9.0,-996.0,16:42:00.525101,192.168.0.112
1830,-1,-100,-100,-100,"0,0,0",0,0,0,0,0,0,74,77,51,70,89,10.5,3,3.0,-11.0,-992.0,16:42:00.627176,192.168.0.112
1836,-1,-100,-100,-100,"0,0,0",0,0,0,0,0,0,74,77,51,70,89,10.49,4,0.0,-7.0,-994.0,16:42:00.731048,192.168.0.112
1840,-1,-100,-100,-100,"0,0,0",0,0,0,0,0,0,74,77,51,70,89,10.51,4,-3.0,0.0,-995.0,16:42:00.831278,192.168.0.112
1845,-1,-100,-100,-100,"0,0,0",0,0,0,0,0,0,74,77,51,70,89,10.49,4,-5.0,6.0,-992.0,16:42:00.933611,192.168.0.112
1850,-1,-100,-100,-100,"0,0,0",0,0,0,0,0,0,74,77,51,70,89,10.49,4,-7.0,10.0,-1000.0,16:42:01.035173,192.168.0.112
1856,-1,-100,-100,-100,"0,0,0",0,0,0,0,0,0,74,77,51,70,89,10.58,4,0.0,0.0,-991.0,16:42:01.136770,192.168.0.112
1861,-1,-100,-100,-100,"0,0,0",0,0,0,0,0,0,74,77,51,70,89,10.48,4,7.0,-7.0,-994.0,16:42:01.240268,192.168.0.112
1865,-1,-100,-100,-100,"0,0,0",0,0,0,0,0,0,74,77,51,70,89,10.53,4,17.0,-12.0,-983.0,16:42:01.341159,192.168.0.112
1869,-1,-100,-100,-100,"0,0,0",0,0,0,0,0,0,74,77,52,70,89,10.47,4,0.0,-6.0,-1000.0,16:42:01.393769,192.168.0.112
1874,-1,-100,-100,-100,"0,0,0",0,0,0,0,0,0,74,77,51,70,89,10.48,4,-7.0,7.0,-1004.0,16:42:01.496086,192.168.0.112
1879,-1,-100,-100,-100,"0,0,0",0,0,0,0,0,0,74,77,52,70,89,10.54,4,7.0,10.0,-988.0,16:42:01.596331,192.168.0.112
1884,-1,-100,-100,-100,"0,0,0",0,0,0,0,0,0,74,77,51,70,89,10.45,5,25.0,6.0,-966.0,16:42:01.698561,192.168.0.112
1889,-1,-100,-100,-100,"0,0,0",0,0,0,0,0,0,74,77,51,70,89,10.46,5,14.0,2.0,-1012.0,16:42:01.801608,192.168.0.112
1894,-1,-100,-100,-100,"0,0,0",0,0,0,0,0,0,74,77,50,70,89,10.47,5,18.0,3.0,-1004.0,16:42:01.902474,192.168.0.112
1899,-1,-100,-100,-100,"0,0,0",1,0,1,0,0,0,74,77,51,70,89,10.58,5,5.0,-2.0,-1008.0,16:42:02.004359,192.168.0.112
1904,-1,-100,-100,-100,"0,0,0",1,0,0,0,0,0,74,77,51,70,89,10.51,5,14.0,-12.0,-1031.0,16:42:02.106214,192.168.0.112
1910,-1,-100,-100,-100,"0,0,0",0,0,0,0,0,0,74,77,52,70,89,10.48,5,13.0,14.0,-1010.0,16:42:02.208483,192.168.0.112
1915,-1,-100,-100,-100,"0,0,0",1,0,1,0,0,0,74,77,52,70,89,10.41,5,20.0,-4.0,-999.0,16:42:02.312477,192.168.0.112
1920,-1,-100,-100,-100,"0,0,0",1,0,1,0,0,0,74,77,51,70,89,10.5,5,24.0,-6.0,-992.0,16:42:02.412329,192.168.0.112
1925,-1,-100,-100,-100,"0,0,0",1,0,1,0,0,0,74,77,52,70,89,10.53,5,13.0,-1.0,-1005.0,16:42:02.514255,192.168.0.112
1930,-1,-100,-100,-100,"0,0,0",1,0,0,0,0,0,74,77,52,70,89,10.53,5,34.0,-18.0,-1005.0,16:42:02.616305,192.168.0.112
1935,-1,-100,-100,-100,"0,0,0",1,0,0,0,0,0,74,77,52,70,89,10.53,6,-4.0,6.0,-998.0,16:42:02.718829,192.168.0.112
1940,-1,-100,-100,-100,"0,0,0",1,0,0,0,0,0,74,77,51,70,89,10.51,6,14.0,-1.0,-987.0,16:42:02.820374,192.168.0.112
1945,-1,-100,-100,-100,"0,0,0",1,0,0,0,0,0,73,77,51,70,89,10.53,6,7.0,-3.0,-1000.0,16:42:02.922567,192.168.0.112
1950,-1,-100,-100,-100,"0,0,0",0,0,0,0,0,0,73,77,51,70,89,10.52,6,26.0,3.0,-1014.0,16:42:03.024835,192.168.0.112
1955,-1,-100,-100,-100,"0,0,0",0,0,0,0,0,0,73,77,52,70,89,10.44,6,1.0,-4.0,-1014.0,16:42:03.126583,192.168.0.112
1960,-1,-100,-100,-100,"0,0,0",0,0,0,0,0,0,73,77,52,70,89,10.5,6,0.0,5.0,-992.0,16:42:03.228553,192.168.0.112
1965,-1,-100,-100,-100,"0,0,0",0,0,0,0,0,0,73,77,52,70,89,10.5,6,24.0,-13.0,-989.0,16:42:03.330413,192.168.0.112
1970,-1,-100,-100,-100,"0,0,0",0,0,0,0,0,0,73,77,52,70,89,10.5,6,15.0,-8.0,-987.0,16:42:03.432453,192.168.0.112
1975,-1,-100,-100,-100,"0,0,0",0,0,0,0,0,0,73,77,52,70,89,10.48,6,27.0,-9.0,-993.0,16:42:03.534240,192.168.0.112
1980,-1,-100,-100,-100,"0,0,0",0,0,0,0,0,0,73,77,53,70,89,10.56,7,22.0,-10.0,-991.0,16:42:03.636528,192.168.0.112
1985,-1,-100,-100,-100,"0,0,0",0,0,0,0,0,0,73,77,52,70,89,10.44,7,24.0,-1.0,-1011.0,16:42:03.739303,192.168.0.112
1990,-1,-100,-100,-100,"0,0,0",0,0,0,0,0,0,73,77,53,70,89,10.51,7,16.0,6.0,-1006.0,16:42:03.840211,192.168.0.112
1995,-1,-100,-100,-100,"0,0,0",0,0,0,0,0,0,73,77,53,70,89,10.46,7,18.0,-16.0,-996.0,16:42:03.942805,192.168.0.112
2000,-1,-100,-100,-100,"0,0,0",0,0,0,0,0,0,73,77,53,70,89,10.5,7,8.0,1.0,-995.0,16:42:04.044556,192.168.0.112
2005,-1,-100,-100,-100,"0,0,0",0,0,0,0,0,0,73,77,53,70,89,10.48,7,13.0,-1.0,-999.0,16:42:04.146281,192.168.0.112
2010,-1,-100,-100,-100,"0,0,0",0,0,0,0,0,0,73,77,53,70,89,10.52,7,26.0,-13.0,-984.0,16:42:04.248834,192.168.0.112
2016,-1,-100,-100,-100,"0,0,0",0,0,0,0,0,0,73,77,53,70,89,10.56,7,14.0,-15.0,-993.0,16:42:04.353045,192.168.0.112
2020,-1,-100,-100,-100,"0,0,0",0,0,0,0,0,0,73,77,53,70,89,10.52,7,-2.0,9.0,-1007.0,16:42:04.452289,192.168.0.112
2025,-1,-100,-100,-100,"0,0,0",0,0,0,0,0,0,73,77,53,70,89,10.56,7,-12.0,14.0,-1004.0,16:42:04.553953,192.168.0.112
2030,-1,-100,-100,-100,"0,0,0",0,0,0,0,0,0,73,77,53,70,89,10.5,8,-1.0,1.0,-993.0,16:42:04.656127,192.168.0.112
2035,-1,-100,-100,-100,"0,0,0",0,0,0,0,0,0,73,77,53,70,89,10.52,8,4.0,-2.0,-997.0,16:42:04.758049,192.168.0.112
2040,-1,-100,-100,-100,"0,0,0",0,0,0,0,0,0,73,77,53,70,89,10.52,8,17.0,-17.0,-993.0,16:42:04.860013,192.168.0.112
2045,-1,-100,-100,-100,"0,0,0",0,0,0,0,0,0,73,77,53,70,89,10.51,8,25.0,-21.0,-1000.0,16:42:04.962182,192.168.0.112
2050,-1,-100,-100,-100,"0,0,0",0,0,0,0,0,0,73,77,53,70,89,10.54,8,15.0,-11.0,-989.0,16:42:05.064368,192.168.0.112
2056,-1,-100,-100,-100,"0,0,0",0,0,0,0,0,0,73,77,53,70,89,10.48,8,14.0,-16.0,-997.0,16:42:05.166261,192.168.0.112
2061,-1,-100,-100,-100,"0,0,0",0,0,0,0,0,0,73,77,53,70,89,10.61,8,19.0,-17.0,-1004.0,16:42:05.269091,192.168.0.112
2065,-1,-100,-100,-100,"0,0,0",0,0,0,0,0,0,73,77,53,70,89,10.49,8,6.0,-7.0,-990.0,16:42:05.370341,192.168.0.112
2071,-1,-100,-100,-100,"0,0,0",0,0,0,0,0,0,73,77,53,70,89,10.52,8,-5.0,-8.0,-1006.0,16:42:05.472593,192.168.0.112
2074,-1,-100,-100,-100,"0,0,0",0,0,0,0,0,0,73,77,53,70,89,10.55,8,0.0,3.0,-998.0,16:42:05.526696,192.168.0.112
2079,-1,-100,-100,-100,"0,0,0",0,0,1,0,0,0,73,77,53,70,89,10.54,9,14.0,-21.0,-995.0,16:42:05.643031,192.168.0.112
2084,-1,-100,-100,-100,"0,0,0",0,0,1,0,0,0,73,77,53,70,89,10.53,9,2.0,1.0,-1002.0,16:42:05.759439,192.168.0.112
2089,-1,-100,-100,-100,"0,0,0",0,0,1,0,0,0,73,77,53,70,89,10.49,9,14.0,-30.0,-1002.0,16:42:05.862464,192.168.0.112
2094,-1,-100,-100,-100,"0,0,0",0,0,1,0,0,0,73,76,53,70,89,10.47,9,19.0,-13.0,-977.0,16:42:05.980656,192.168.0.112
2099,-1,-100,-100,-100,"0,0,0",0,0,0,0,0,0,73,76,53,70,89,10.46,9,3.0,-9.0,-982.0,16:42:06.066790,192.168.0.112
2105,-1,-100,-100,-100,"0,0,0",0,0,0,0,0,0,73,76,53,70,89,10.44,9,8.0,-23.0,-1002.0,16:42:06.281075,192.168.0.112
2110,-1,-100,-100,-100,"0,0,0",0,0,0,0,0,0,73,76,52,70,89,10.47,9,-2.0,2.0,-1013.0,16:42:06.281397,192.168.0.112
2115,-1,-100,-100,-100,"0,0,0",0,0,0,0,0,0,73,76,52,70,89,10.46,9,2.0,0.0,-1011.0,16:42:06.368859,192.168.0.112
2120,-1,-100,-100,-100,"0,0,0",0,0,0,0,0,0,73,76,52,70,89,10.43,9,6.0,-4.0,-1006.0,16:42:06.482682,192.168.0.112
2125,-1,-100,-100,-100,"0,0,0",0,0,0,0,0,0,73,76,52,70,89,10.44,9,1.0,0.0,-990.0,16:42:06.733702,192.168.0.112
2130,-1,-100,-100,-100,"0,0,0",0,0,0,0,0,0,73,76,52,70,89,10.44,10,9.0,-4.0,-990.0,16:42:06.733953,192.168.0.112
2135,-1,-100,-100,-100,"0,0,0",0,0,0,0,0,0,73,76,52,70,89,10.36,10,26.0,-13.0,-985.0,16:42:06.947345,192.168.0.112
2140,-1,-100,-100,-100,"0,0,0",0,0,0,0,0,0,73,76,52,70,89,10.33,10,11.0,-17.0,-988.0,16:42:06.947761,192.168.0.112
2145,-1,-100,-100,-100,"0,0,0",0,0,0,0,0,0,73,76,52,70,89,10.38,10,1.0,-16.0,-1008.0,16:42:06.955480,192.168.0.112
2150,-1,-100,-100,-100,"0,0,0",0,0,0,0,0,0,73,76,52,70,89,10.4,10,-7.0,-4.0,-1020.0,16:42:07.057515,192.168.0.112
2155,-1,-100,-100,-100,"0,0,0",0,0,0,0,0,0,73,76,52,70,89,10.41,10,-6.0,-1.0,-1007.0,16:42:07.165945,192.168.0.112
2160,-1,-100,-100,-100,"0,0,0",0,0,0,0,0,0,73,76,52,70,89,10.42,10,-9.0,-5.0,-1001.0,16:42:07.268342,192.168.0.112
2165,-1,-100,-100,-100,"0,0,0",0,1,0,0,0,0,73,76,52,70,89,10.44,10,-6.0,0.0,-1019.0,16:42:07.406876,192.168.0.112
2170,-1,-100,-100,-100,"0,0,0",0,0,0,0,0,0,73,76,52,70,89,10.46,10,1.0,-11.0,-988.0,16:42:07.530561,192.168.0.112
2174,-1,-100,-100,-100,"0,0,0",0,0,0,0,0,0,73,76,52,70,89,10.46,10,-1.0,-11.0,-991.0,16:42:07.658707,192.168.0.112
2180,-1,-100,-100,-100,"0,0,0",0,0,0,0,0,0,73,76,52,70,89,10.42,11,-3.0,-2.0,-995.0,16:42:07.679511,192.168.0.112
2185,-1,-100,-100,-100,"0,0,0",0,0,0,0,0,0,73,76,52,70,89,10.38,11,-14.0,-1.0,-999.0,16:42:07.788479,192.168.0.112
2190,-1,-100,-100,-100,"0,0,0",0,0,0,0,0,0,73,76,52,70,89,10.48,11,10.0,-25.0,-993.0,16:42:07.908199,192.168.0.112
2195,-1,-100,-100,-100,"0,0,0",0,0,0,0,0,0,72,76,52,70,89,10.46,11,5.0,-5.0,-995.0,16:42:08.368624,192.168.0.112
2200,-1,-100,-100,-100,"0,0,0",0,0,0,0,0,0,72,76,52,70,89,10.44,11,-10.0,-4.0,-999.0,16:42:08.374133,192.168.0.112
2205,-1,-100,-100,-100,"0,0,0",0,0,0,0,0,0,72,76,52,70,89,10.48,11,14.0,-19.0,-992.0,16:42:08.374400,192.168.0.112
2210,-1,-100,-100,-100,"0,0,0",0,0,0,0,0,0,72,76,52,70,89,10.45,11,-5.0,-11.0,-1030.0,16:42:08.374709,192.168.0.112
2215,-1,-100,-100,-100,"0,0,0",0,0,0,0,0,0,72,76,52,70,89,10.49,11,10.0,-13.0,-1024.0,16:42:08.380311,192.168.0.112
2220,-1,-100,-100,-100,"0,0,0",0,0,0,0,0,0,72,76,52,70,89,10.52,11,5.0,-10.0,-992.0,16:42:08.495146,192.168.0.112
2225,-1,-100,-100,-100,"0,0,0",0,0,1,0,0,0,72,76,52,70,89,10.49,11,8.0,-2.0,-991.0,16:42:08.665765,192.168.0.112
2230,-1,-100,-100,-100,"0,0,0",0,0,0,0,0,0,72,76,52,70,89,10.49,12,4.0,-13.0,-982.0,16:42:08.686066,192.168.0.112
2234,-1,-100,-100,-100,"0,0,0",0,0,0,0,0,0,72,76,52,70,89,10.56,12,0.0,-1.0,-988.0,16:42:08.753799,192.168.0.112
2239,-1,-100,-100,-100,"0,0,0",0,0,0,0,0,0,72,76,52,70,89,10.54,12,23.0,-26.0,-990.0,16:42:08.874267,192.168.0.112
2246,-1,-100,-100,-100,"0,0,0",0,0,0,0,0,0,73,76,52,70,89,10.44,12,0.0,10.0,-984.0,16:42:09.081107,192.168.0.112
2251,-1,-100,-100,-100,"0,0,0",0,0,0,0,0,0,73,76,52,70,89,10.5,12,-17.0,-2.0,-985.0,16:42:09.117794,192.168.0.112
2256,-1,-100,-100,-100,"0,0,0",1,0,0,0,0,0,73,76,51,70,89,10.35,12,-21.0,0.0,-1044.0,16:42:09.209606,192.168.0.112
2260,-1,-100,-100,-100,"0,0,0",0,0,0,0,0,0,73,76,51,70,89,10.46,12,-1.0,-10.0,-996.0,16:42:09.248333,192.168.0.112
2265,-1,-100,-100,-100,"0,0,0",0,0,1,0,0,0,73,76,51,70,89,10.36,12,-3.0,-6.0,-1027.0,16:42:09.353955,192.168.0.112
2270,-1,-100,-100,-100,"0,0,0",0,0,1,0,0,0,73,76,51,70,89,10.41,12,-7.0,-1.0,-1010.0,16:42:09.453664,192.168.0.112
2275,-1,-100,-100,-100,"0,0,0",0,0,1,0,0,0,73,76,51,70,89,10.42,12,-16.0,4.0,-1005.0,16:42:09.561151,192.168.0.112
2280,-1,-100,-100,-100,"0,0,0",0,0,1,0,0,0,73,76,51,70,89,10.43,13,-2.0,-13.0,-1002.0,16:42:09.673368,192.168.0.112
2284,-1,-100,-100,-100,"0,0,0",0,0,0,0,0,0,73,76,51,70,89,10.52,13,1.0,-11.0,-987.0,16:42:09.820540,192.168.0.112
2289,-1,-100,-100,-100,"0,0,0",0,1,0,0,0,0,73,76,52,70,89,10.42,13,-4.0,1.0,-971.0,16:42:09.903439,192.168.0.112
2295,-1,-100,-100,-100,"0,0,0",0,0,0,0,0,0,73,76,52,70,89,10.46,13,4.0,-14.0,-1003.0,16:42:10.108448,192.168.0.112
2300,-1,-100,-100,-100,"0,0,0",0,0,1,0,0,0,73,76,52,70,89,10.42,13,-19.0,5.0,-1019.0,16:42:10.125127,192.168.0.112
2305,-1,-100,-100,-100,"0,0,0",0,0,0,0,0,0,73,76,51,70,89,10.43,13,5.0,-13.0,-988.0,16:42:10.197707,192.168.0.112
2310,-1,-100,-100,-100,"0,0,0",0,0,0,0,0,0,73,76,51,70,89,10.39,13,-10.0,0.0,-988.0,16:42:10.306247,192.168.0.112
2315,-1,-100,-100,-100,"0,0,0",0,0,0,0,0,0,73,76,52,70,89,10.31,13,-20.0,0.0,-1014.0,16:42:10.403843,192.168.0.112
2320,-1,-100,-100,-100,"0,0,0",0,0,1,0,0,0,73,76,52,70,89,10.47,13,-20.0,-9.0,-1021.0,16:42:10.492268,192.168.0.112
2325,-1,-100,-100,-100,"0,0,0",0,0,1,0,0,0,73,76,52,70,89,10.42,13,7.0,-30.0,-1007.0,16:42:10.610717,192.168.0.112
2330,-1,-100,-100,-100,"0,0,0",0,0,0,0,0,0,73,76,52,70,89,10.41,14,-18.0,4.0,-1006.0,16:42:10.720367,192.168.0.112
2335,-1,-100,-100,-100,"0,0,0",0,0,0,0,0,0,73,76,52,70,89,10.42,14,-4.0,0.0,-989.0,16:42:10.813997,192.168.0.112
2340,-1,-100,-100,-100,"0,0,0",0,0,0,0,0,0,73,76,52,70,89,10.43,14,-7.0,8.0,-991.0,16:42:10.925963,192.168.0.112
2345,-1,-100,-100,-100,"0,0,0",0,0,0,0,0,0,72,75,52,70,89,10.45,14,-1.0,4.0,-998.0,16:42:10.996370,192.168.0.112
2350,-1,-100,-100,-100,"0,0,0",0,0,0,0,0,0,72,75,52,70,89,10.44,14,25.0,-10.0,-995.0,16:42:11.098144,192.168.0.112
2355,-1,-100,-100,-100,"0,0,0",0,0,0,0,0,0,72,75,53,70,89,10.46,14,20.0,-10.0,-1004.0,16:42:11.222007,192.168.0.112
2360,-1,-100,-100,-100,"0,0,0",0,0,0,0,0,0,72,75,53,70,89,10.43,14,8.0,-9.0,-1002.0,16:42:11.313810,192.168.0.112
2365,-1,-100,-100,-100,"0,0,0",1,0,0,0,0,0,72,75,53,70,89,10.49,14,9.0,0.0,-1004.0,16:42:11.402502,192.168.0.112
2370,-1,-100,-100,-100,"0,0,0",1,0,0,0,0,0,72,75,53,70,89,10.45,14,1.0,-5.0,-993.0,16:42:11.503939,192.168.0.112
2375,-1,-100,-100,-100,"0,0,0",1,0,0,0,0,0,72,75,53,70,89,10.44,14,5.0,-6.0,-974.0,16:42:11.596651,192.168.0.112
2381,-1,-100,-100,-100,"0,0,0",1,0,0,0,0,0,72,75,53,70,89,10.47,15,-2.0,-5.0,-1004.0,16:42:11.714701,192.168.0.112
2385,-1,-100,-100,-100,"0,0,0",1,0,0,0,0,0,72,75,53,70,89,10.46,15,9.0,-21.0,-996.0,16:42:11.820885,192.168.0.112
2390,-1,-100,-100,-100,"0,0,0",0,0,0,0,0,0,72,75,53,70,89,10.49,15,-14.0,-8.0,-990.0,16:42:11.972236,192.168.0.112
2396,-1,-100,-100,-100,"0,0,0",0,0,0,0,0,0,73,76,53,70,89,10.51,15,-1.0,-12.0,-985.0,16:42:12.043424,192.168.0.112
2401,-1,-100,-100,-100,"0,0,0",-1,0,0,0,0,0,73,76,52,70,89,10.28,15,-15.0,0.0,-976.0,16:42:12.179420,192.168.0.112
2406,-1,-100,-100,-100,"0,0,0",-1,0,0,0,0,0,73,76,52,70,89,10.42,15,-10.0,-13.0,-1006.0,16:42:12.210545,192.168.0.112
2411,-1,-100,-100,-100,"0,0,0",-1,0,0,0,0,0,73,76,52,70,89,10.53,15,-7.0,-9.0,-979.0,16:42:12.318029,192.168.0.112
2415,-1,-100,-100,-100,"0,0,0",0,0,0,0,0,0,73,76,52,70,89,10.25,15,-4.0,-6.0,-1003.0,16:42:12.410531,192.168.0.112
2420,-1,-100,-100,-100,"0,0,0",-1,0,0,0,0,0,73,76,52,70,89,10.42,15,2.0,-18.0,-992.0,16:42:12.640651,192.168.0.112
2425,-1,-100,-100,-100,"0,0,0",0,0,0,0,0,0,73,76,53,70,89,10.4,15,-21.0,-11.0,-1027.0,16:42:12.645989,192.168.0.112
2431,-1,-100,-100,-100,"0,0,0",0,1,0,0,0,0,73,76,53,70,89,10.42,16,-27.0,3.0,-985.0,16:42:12.728407,192.168.0.112
2436,-1,-100,-100,-100,"0,0,0",0,0,0,0,0,0,73,76,53,70,89,10.5,16,-13.0,-9.0,-998.0,16:42:12.872717,192.168.0.112
2439,-1,-100,-100,-100,"0,0,0",0,0,0,0,0,0,73,76,53,70,89,10.44,16,-10.0,-6.0,-988.0,16:42:12.924794,192.168.0.112
2446,-1,-100,-100,-100,"0,0,0",0,0,1,0,0,0,72,75,53,70,89,10.48,16,-2.0,-2.0,-995.0,16:42:13.053505,192.168.0.112
2451,-1,-100,-100,-100,"0,0,0",0,0,0,0,0,0,72,75,53,70,89,10.45,16,-9.0,3.0,-1013.0,16:42:13.145377,192.168.0.112
2454,-1,-100,-100,-100,"0,0,0",1,0,1,0,0,0,72,75,53,70,89,10.47,16,-16.0,1.0,-1003.0,16:42:13.202225,192.168.0.112
2459,-1,-100,-100,-100,"0,0,0",0,0,1,0,0,0,72,75,54,70,89,10.43,16,-15.0,7.0,-1003.0,16:42:13.304258,192.168.0.112
2465,-1,-100,-100,-100,"0,0,0",0,0,1,0,0,0,72,75,54,70,89,10.53,16,-5.0,-19.0,-988.0,16:42:13.380444,192.168.0.112
2470,-1,-100,-100,-100,"0,0,0",0,0,0,0,0,0,72,75,53,70,89,10.48,16,-2.0,-6.0,-969.0,16:42:13.512552,192.168.0.112
2475,-1,-100,-100,-100,"0,0,0",0,0,0,0,0,0,72,75,53,70,89,10.51,16,18.0,-17.0,-997.0,16:42:13.584430,192.168.0.112
2480,-1,-100,-100,-100,"0,0,0",0,0,0,0,0,0,72,75,53,70,89,10.46,17,5.0,-2.0,-995.0,16:42:13.698373,192.168.0.112
2485,-1,-100,-100,-100,"0,0,0",0,0,1,0,0,0,72,75,53,70,89,10.44,17,-7.0,-5.0,-993.0,16:42:13.788904,192.168.0.112
2490,-1,-100,-100,-100,"0,0,0",0,1,0,0,0,0,72,75,53,70,89,10.55,17,8.0,-16.0,-999.0,16:42:13.887025,192.168.0.112
2495,-1,-100,-100,-100,"0,0,0",0,0,0,0,0,0,73,75,53,70,89,10.52,17,-15.0,-1.0,-1025.0,16:42:14.003435,192.168.0.112
2500,-1,-100,-100,-100,"0,0,0",0,0,1,0,0,0,73,75,53,70,89,10.44,17,-7.0,-2.0,-993.0,16:42:14.095260,192.168.0.112
2505,-1,-100,-100,-100,"0,0,0",0,0,0,0,0,0,73,75,53,70,89,10.35,17,-11.0,1.0,-991.0,16:42:14.298242,192.168.0.112
2510,-1,-100,-100,-100,"0,0,0",0,0,0,0,0,0,73,75,53,70,89,10.44,17,-18.0,3.0,-1004.0,16:42:14.298765,192.168.0.112
2515,-1,-100,-100,-100,"0,0,0",0,0,0,0,0,0,73,75,53,70,89,10.53,17,-8.0,-6.0,-975.0,16:42:14.405485,192.168.0.112
2520,-1,-100,-100,-100,"0,0,0",0,0,0,0,0,0,73,75,53,70,89,10.33,17,-2.0,-15.0,-1049.0,16:42:14.500684,192.168.0.112
2525,-1,-100,-100,-100,"0,0,0",0,0,0,0,0,0,73,75,53,70,89,10.39,17,4.0,-1.0,-998.0,16:42:14.607662,192.168.0.112
2530,-1,-100,-100,-100,"0,0,0",0,0,1,0,0,0,73,75,53,70,89,10.36,18,3.0,-6.0,-1008.0,16:42:14.724628,192.168.0.112
2535,-1,-100,-100,-100,"0,0,0",0,0,1,0,0,0,73,75,53,70,89,10.45,18,5.0,-13.0,-993.0,16:42:14.809956,192.168.0.112
2540,-1,-100,-100,-100,"0,0,0",0,1,1,0,0,0,73,75,53,70,89,10.49,18,-8.0,-4.0,-992.0,16:42:15.048942,192.168.0.112
2545,-1,-100,-100,-100,"0,0,0",1,0,1,0,0,0,72,75,53,70,89,10.5,18,-13.0,-7.0,-991.0,16:42:15.049398,192.168.0.112
2550,-1,-100,-100,-100,"0,0,0",0,0,1,0,0,0,72,75,53,70,89,10.58,18,-21.0,3.0,-1011.0,16:42:15.147939,192.168.0.112
2555,-1,-100,-100,-100,"0,0,0",0,0,0,0,0,0,72,75,53,70,89,10.55,18,-12.0,-11.0,-1015.0,16:42:15.220698,192.168.0.112
2560,-1,-100,-100,-100,"0,0,0",0,0,0,0,0,0,72,75,53,70,89,10.61,18,-25.0,5.0,-1003.0,16:42:15.344192,192.168.0.112
2565,-1,-100,-100,-100,"0,0,0",0,0,0,0,0,0,72,75,52,70,89,10.51,18,-24.0,6.0,-1027.0,16:42:15.419800,192.168.0.112
2570,-1,-100,-100,-100,"0,0,0",0,0,0,1,0,0,72,75,52,70,89,10.46,18,-21.0,1.0,-1008.0,16:42:15.897623,192.168.0.112
2575,-1,-100,-100,-100,"0,0,0",0,0,0,1,0,0,72,75,51,70,89,10.45,18,4.0,-5.0,-996.0,16:42:15.898011,192.168.0.112
2580,-1,-100,-100,-100,"0,0,0",-1,0,0,1,0,0,72,75,51,70,89,10.47,19,-8.0,-4.0,-992.0,16:42:15.908797,192.168.0.112
2585,-1,-100,-100,-100,"0,0,0",-1,0,0,0,0,0,72,75,51,70,89,10.53,19,-12.0,-7.0,-978.0,16:42:15.909210,192.168.0.112
2590,-1,-100,-100,-100,"0,0,0",0,0,0,0,0,0,72,75,51,70,89,10.35,19,-17.0,-2.0,-983.0,16:42:15.940480,192.168.0.112
2595,-1,-100,-100,-100,"0,0,0",0,0,0,0,0,0,72,75,50,70,89,10.49,19,11.0,-17.0,-1005.0,16:42:16.039408,192.168.0.112
2600,-1,-100,-100,-100,"0,0,0",0,0,0,0,0,0,72,75,50,70,89,10.5,19,-21.0,13.0,-1013.0,16:42:16.136507,192.168.0.112
2606,-1,-100,-100,-100,"0,0,0",-1,0,1,0,0,0,72,75,51,70,89,10.44,19,-7.0,6.0,-981.0,16:42:16.296596,192.168.0.112
2611,-1,-100,-100,-100,"0,0,0",-1,0,1,0,0,0,72,75,51,70,89,10.28,19,-3.0,-13.0,-998.0,16:42:16.405461,192.168.0.112
2616,-1,-100,-100,-100,"0,0,0",-1,0,1,0,0,0,72,75,51,70,89,10.24,19,-38.0,-7.0,-1054.0,16:42:16.576729,192.168.0.112
2619,-1,-100,-100,-100,"0,0,0",0,1,1,0,0,0,72,75,51,70,89,10.36,19,-29.0,-1.0,-992.0,16:42:16.577185,192.168.0.112
2624,-1,-100,-100,-100,"0,0,0",-1,1,1,0,0,0,72,75,52,70,89,10.32,19,-24.0,3.0,-958.0,16:42:16.618000,192.168.0.112
2629,-1,-100,-100,-100,"0,0,0",-1,1,1,0,0,0,72,75,51,70,89,10.43,20,-3.0,-2.0,-1006.0,16:42:16.721690,192.168.0.112
2634,-1,-100,-100,-100,"0,0,0",0,1,0,0,0,0,72,75,51,70,89,10.55,20,-16.0,17.0,-1012.0,16:42:16.833966,192.168.0.112
2639,-1,-100,-100,-100,"0,0,0",-1,0,0,0,0,0,72,75,51,70,89,10.53,20,-30.0,-6.0,-992.0,16:42:16.901698,192.168.0.112
2644,-1,-100,-100,-100,"0,0,0",-1,0,0,0,0,0,72,74,52,70,89,10.49,20,-31.0,2.0,-990.0,16:42:16.998360,192.168.0.112
2649,-1,-100,-100,-100,"0,0,0",-1,0,0,0,0,0,72,74,52,70,89,10.42,20,-9.0,0.0,-994.0,16:42:17.134821,192.168.0.112
2655,-1,-100,-100,-100,"0,0,0",-1,0,0,0,0,0,72,74,52,70,89,10.45,20,-18.0,5.0,-1007.0,16:42:17.401226,192.168.0.112
2660,-1,-100,-100,-100,"0,0,0",0,0,0,0,0,0,72,74,52,70,89,10.43,20,-24.0,6.0,-974.0,16:42:17.407440,192.168.0.112
2665,-1,-100,-100,-100,"0,0,0",0,0,0,0,0,0,72,74,52,70,89,10.35,20,-28.0,0.0,-1025.0,16:42:17.411839,192.168.0.112
2670,-1,-100,-100,-100,"0,0,0",0,0,0,0,0,0,72,74,52,70,89,10.18,20,-2.0,4.0,-993.0,16:42:17.512513,192.168.0.112
2675,-1,-100,-100,-100,"0,0,0",0,0,0,0,0,0,72,74,52,70,89,10.46,20,-15.0,15.0,-981.0,16:42:17.617944,192.168.0.112
2680,-1,-100,-100,-100,"0,0,0",0,0,1,0,0,0,72,74,51,70,89,10.29,21,4.0,5.0,-1019.0,16:42:17.713502,192.168.0.112
