,mid,x,y,z,mpry,pitch,roll,yaw,vgx,vgy,vgz,templ,temph,tof,h,bat,baro,time,agx,agy,agz,timestamp,address
3,-1,-100,-100,-100,"0,0,0",0,0,0,0,0,0,62,65,10,0,83,-29.27,0,-2.0,-3.0,-999.0,11:36:06.687046,192.168.0.113
8,-1,-100,-100,-100,"0,0,0",0,0,0,0,0,0,62,65,10,0,83,-29.27,0,0.0,-4.0,-998.0,11:36:06.788447,192.168.0.113
13,-1,-100,-100,-100,"0,0,0",0,0,0,0,0,0,62,65,10,0,83,-29.28,0,-5.0,-12.0,-1001.0,11:36:06.890593,192.168.0.113
18,-1,-100,-100,-100,"0,0,0",0,0,0,0,0,0,62,65,10,0,83,-29.28,0,4.0,-4.0,-992.0,11:36:06.992532,192.168.0.113
23,-1,-100,-100,-100,"0,0,0",0,0,0,0,0,0,61,65,10,0,83,-29.28,0,1.0,-17.0,-997.0,11:36:07.094642,192.168.0.113
28,-1,-100,-100,-100,"0,0,0",0,0,0,0,0,0,61,65,10,0,83,-29.28,0,5.0,-5.0,-1034.0,11:36:07.196609,192.168.0.113
33,-1,-100,-100,-100,"0,0,0",0,0,0,0,0,0,61,65,10,0,83,-29.28,0,12.0,5.0,-1184.0,11:36:07.298503,192.168.0.113
38,-1,-100,-100,-100,"0,0,0",0,0,0,0,0,1,61,65,10,0,83,-29.28,0,5.0,16.0,-1363.0,11:36:07.400822,192.168.0.113
44,-1,-100,-100,-100,"0,0,0",0,0,0,0,0,5,61,65,10,0,83,-29.28,0,27.0,-20.0,-1208.0,11:36:07.502704,192.168.0.113
49,-1,-100,-100,-100,"0,0,0",1,0,0,0,0,7,61,65,12,0,83,-28.95,0,5.0,0.0,-1080.0,11:36:07.604286,192.168.0.113
54,-1,-100,-100,-100,"0,0,0",0,0,0,0,0,8,61,65,21,10,83,-28.95,0,11.0,5.0,-1014.0,11:36:07.706831,192.168.0.113
59,-1,-100,-100,-100,"0,0,0",0,0,0,0,0,8,61,65,31,20,83,-28.8,0,12.0,0.0,-958.0,11:36:07.808275,192.168.0.113
64,-1,-100,-100,-100,"0,0,0",0,0,0,0,0,7,61,65,40,30,83,-28.74,1,3.0,6.0,-923.0,11:36:07.910018,192.168.0.113
70,-1,-100,-100,-100,"0,0,0",0,0,0,0,0,7,61,65,48,30,83,-28.63,1,-5.0,6.0,-892.0,11:36:08.012739,192.168.0.113
75,-1,-100,-100,-100,"0,0,0",0,0,0,0,0,6,62,65,56,40,83,-28.58,1,8.0,-9.0,-878.0,11:36:08.113886,192.168.0.113
80,-1,-100,-100,-100,"0,0,0",0,0,0,0,0,4,62,65,62,40,83,-28.54,1,7.0,2.0,-893.0,11:36:08.215900,192.168.0.113
85,3,-2,-2,43,"-1,-2,-175",0,0,0,0,0,3,62,65,66,50,83,-28.47,1,16.0,10.0,-902.0,11:36:08.317978,192.168.0.113
90,3,-2,-2,43,"-1,-2,-175",0,0,0,0,0,2,62,65,71,50,83,-28.38,1,7.0,-9.0,-904.0,11:36:08.420423,192.168.0.113
95,3,-2,-2,43,"-1,-2,-175",0,0,0,0,0,2,62,65,74,60,83,-28.43,1,5.0,15.0,-936.0,11:36:08.523652,192.168.0.113
101,3,-2,-2,43,"-1,-2,-175",0,0,0,0,0,1,62,65,77,60,83,-28.37,1,-5.0,0.0,-941.0,11:36:08.624403,192.168.0.113
105,3,-5,-8,66,"-3,-2,-172",0,0,0,0,0,0,62,65,78,60,83,-28.4,1,-2.0,-3.0,-958.0,11:36:08.726830,192.168.0.113
111,3,-5,-8,66,"-3,-2,-172",0,0,0,0,0,0,62,65,79,60,83,-28.32,1,9.0,-4.0,-976.0,11:36:08.828493,192.168.0.113
116,3,-5,-8,66,"-3,-2,-172",0,0,0,0,0,0,62,65,81,60,83,-28.35,2,-7.0,-1.0,-979.0,11:36:08.932966,192.168.0.113
121,3,-5,-8,66,"-3,-2,-172",0,0,0,0,0,0,62,65,82,60,83,-28.28,2,14.0,-4.0,-986.0,11:36:09.031931,192.168.0.113
126,3,-4,-4,78,"-2,-2,-177",0,0,0,0,0,0,62,65,82,60,83,-28.29,2,-3.0,-11.0,-981.0,11:36:09.134435,192.168.0.113
128,3,-4,-4,78,"-2,-2,-177",0,0,0,0,0,0,62,65,82,60,83,-28.29,2,13.0,-3.0,-984.0,11:36:09.185832,192.168.0.113
133,3,-4,-4,78,"-2,-2,-177",0,0,0,0,0,0,62,65,84,70,83,-28.26,2,3.0,-6.0,-992.0,11:36:09.287186,192.168.0.113
138,3,-4,-4,78,"-2,-2,-177",0,0,0,0,0,0,62,65,84,70,83,-28.22,2,2.0,1.0,-988.0,11:36:09.394122,192.168.0.113
143,3,-5,-10,82,"-3,-2,-173",0,0,0,0,0,0,62,65,85,70,83,-28.24,2,18.0,-18.0,-984.0,11:36:09.491171,192.168.0.113
148,3,-5,-10,82,"-3,-2,-173",0,0,0,0,0,0,62,65,84,70,83,-28.21,2,0.0,-12.0,-988.0,11:36:09.593508,192.168.0.113
153,3,-5,-10,82,"-3,-2,-173",0,0,0,0,0,0,62,65,84,70,83,-28.26,2,1.0,4.0,-998.0,11:36:09.695515,192.168.0.113
158,3,-5,-10,82,"-3,-2,-173",0,0,0,0,0,0,62,65,85,70,83,-28.23,2,4.0,8.0,-994.0,11:36:09.797336,192.168.0.113
163,3,-3,-4,84,"-1,-2,-177",0,0,0,0,0,0,62,65,84,70,83,-28.26,3,3.0,-8.0,-978.0,11:36:09.899300,192.168.0.113
168,3,-3,-4,84,"-1,-2,-177",0,0,0,0,0,0,62,65,85,70,83,-28.27,3,-11.0,-1.0,-988.0,11:36:10.000901,192.168.0.113
173,3,-3,-4,84,"-1,-2,-177",0,0,0,0,0,0,62,65,84,70,83,-28.24,3,5.0,-1.0,-1002.0,11:36:10.103048,192.168.0.113
179,3,-3,-4,84,"-1,-2,-177",0,0,0,0,0,0,62,65,84,70,83,-28.3,3,12.0,-1.0,-1001.0,11:36:10.205448,192.168.0.113
183,3,-5,-12,84,"-3,-2,-172",0,0,0,0,0,0,62,65,84,70,83,-28.31,3,11.0,6.0,-999.0,11:36:10.307110,192.168.0.113
189,3,-5,-12,84,"-3,-2,-172",0,0,0,0,0,0,62,65,84,70,83,-28.32,3,7.0,-2.0,-992.0,11:36:10.409505,192.168.0.113
195,3,-5,-12,84,"-3,-2,-172",0,0,0,0,0,0,62,65,84,70,83,-28.22,3,-3.0,-6.0,-990.0,11:36:10.511406,192.168.0.113
200,3,-4,-10,84,"-3,-2,-173",0,0,0,0,0,0,62,65,83,70,83,-28.28,3,14.0,-23.0,-1006.0,11:36:10.612918,192.168.0.113
205,3,-4,-10,84,"-3,-2,-173",1,0,0,0,0,0,62,65,83,70,83,-28.26,3,19.0,-14.0,-998.0,11:36:10.714892,192.168.0.113
210,3,-4,-10,84,"-3,-2,-173",1,0,0,0,0,0,62,65,83,70,83,-28.29,3,2.0,-18.0,-999.0,11:36:10.817341,192.168.0.113
215,3,-4,-10,84,"-3,-2,-173",0,0,0,0,0,0,62,65,82,70,83,-28.31,4,27.0,-13.0,-998.0,11:36:10.919260,192.168.0.113
220,3,-3,-12,82,"-2,-2,-171",0,0,0,0,0,0,62,65,82,70,83,-28.3,4,6.0,-10.0,-988.0,11:36:11.021377,192.168.0.113
225,3,-3,-12,82,"-2,-2,-171",0,0,0,0,0,0,63,65,81,70,83,-28.26,4,15.0,0.0,-1010.0,11:36:11.123291,192.168.0.113
230,3,-3,-12,82,"-2,-2,-171",1,0,0,0,0,0,63,65,82,70,83,-28.28,4,16.0,-18.0,-1004.0,11:36:11.225456,192.168.0.113
235,3,-3,-12,82,"-2,-2,-171",1,0,0,0,0,0,63,65,82,70,83,-28.28,4,16.0,-5.0,-1006.0,11:36:11.327289,192.168.0.113
240,3,-2,-7,82,"-2,-2,-174",0,0,0,0,0,0,63,65,82,70,83,-28.33,4,4.0,13.0,-985.0,11:36:11.429500,192.168.0.113
245,3,-2,-7,82,"-2,-2,-174",0,0,0,0,0,0,63,65,82,70,83,-28.27,4,8.0,-18.0,-985.0,11:36:11.531090,192.168.0.113
250,3,-2,-7,82,"-2,-2,-174",0,0,0,0,0,0,63,65,82,70,83,-28.34,4,10.0,-11.0,-1002.0,11:36:11.633332,192.168.0.113
255,3,-2,-7,82,"-2,-2,-174",0,0,0,0,0,0,63,65,82,70,83,-28.3,4,8.0,-15.0,-993.0,11:36:11.739015,192.168.0.113
258,3,-4,-11,81,"-3,-2,-172",0,0,0,0,0,0,63,65,82,70,83,-28.27,4,24.0,-16.0,-998.0,11:36:11.786559,192.168.0.113
263,3,-4,-11,81,"-3,-2,-172",0,0,0,0,0,0,63,65,82,70,83,-28.23,5,13.0,-4.0,-1018.0,11:36:11.888282,192.168.0.113
268,3,-4,-11,81,"-3,-2,-172",0,0,0,0,0,0,63,65,81,70,83,-28.24,5,21.0,4.0,-1008.0,11:36:11.990345,192.168.0.113
273,3,-4,-11,81,"-3,-2,-172",0,0,0,0,0,0,63,66,82,70,83,-28.32,5,24.0,-8.0,-1021.0,11:36:12.092946,192.168.0.113
278,3,-3,-11,80,"-3,-2,-172",0,0,0,0,0,0,63,66,81,70,83,-28.25,5,-3.0,-18.0,-990.0,11:36:12.195461,192.168.0.113
283,3,-3,-11,80,"-3,-2,-172",0,0,0,0,0,0,63,66,81,70,83,-28.26,5,0.0,4.0,-1005.0,11:36:12.297743,192.168.0.113
287,3,-3,-11,80,"-3,-2,-172",1,0,0,0,0,0,63,66,80,70,83,-28.31,5,-1.0,-3.0,-1000.0,11:36:12.400067,192.168.0.113
293,3,-3,-11,80,"-3,-2,-172",1,0,0,0,0,0,63,66,80,70,83,-28.24,5,8.0,-22.0,-1001.0,11:36:12.502416,192.168.0.113
298,3,1,-6,81,"0,-2,-176",1,0,0,0,0,0,63,66,81,70,83,-28.3,5,-3.0,-4.0,-1011.0,11:36:12.604673,192.168.0.113
304,3,1,-6,81,"0,-2,-176",0,0,0,0,0,0,63,66,81,70,83,-28.24,5,8.0,-24.0,-1000.0,11:36:12.704335,192.168.0.113
309,3,1,-6,81,"0,-2,-176",1,0,0,0,0,0,63,66,80,70,83,-28.27,5,3.0,15.0,-1007.0,11:36:12.806610,192.168.0.113
314,3,1,-6,81,"0,-2,-176",0,0,0,0,0,0,63,66,80,70,83,-28.24,6,8.0,-18.0,-1005.0,11:36:12.908220,192.168.0.113
319,3,-2,-11,80,"-3,-2,-172",0,0,0,0,0,0,63,66,80,70,83,-28.31,6,5.0,12.0,-1028.0,11:36:13.010257,192.168.0.113
325,3,-2,-11,80,"-3,-2,-172",1,0,0,0,0,0,63,66,81,60,83,-28.31,6,-24.0,-8.0,-997.0,11:36:13.112959,192.168.0.113
330,3,-2,-11,80,"-3,-2,-172",1,0,0,0,0,0,63,66,81,60,83,-28.31,6,1.0,-7.0,-1023.0,11:36:13.214115,192.168.0.113
335,3,-2,-11,80,"-3,-2,-172",0,0,0,0,0,0,63,66,81,70,83,-28.32,6,4.0,-14.0,-977.0,11:36:13.316352,192.168.0.113
340,3,-2,-13,79,"-4,-2,-170",0,0,0,0,0,0,63,66,81,70,83,-28.26,6,22.0,13.0,-898.0,11:36:13.420264,192.168.0.113
345,3,-2,-13,79,"-4,-2,-170",0,0,0,0,0,-1,63,66,79,60,83,-28.36,6,-10.0,-5.0,-905.0,11:36:13.520321,192.168.0.113
350,3,-2,-13,79,"-4,-2,-170",0,0,0,0,0,-2,63,66,77,60,83,-28.35,6,-5.0,9.0,-920.0,11:36:13.622095,192.168.0.113
354,3,-2,-13,79,"-4,-2,-170",0,0,0,0,0,-2,63,66,74,60,83,-28.33,6,-5.0,-7.0,-949.0,11:36:13.724505,192.168.0.113
360,3,-1,-14,79,"-4,-3,-170",0,0,0,0,0,-3,63,66,70,60,83,-28.36,6,9.0,7.0,-1007.0,11:36:13.826743,192.168.0.113
365,3,-1,-14,79,"-4,-3,-170",0,0,0,0,0,-3,63,66,66,50,83,-28.45,7,9.0,7.0,-1026.0,11:36:13.927991,192.168.0.113
370,3,-1,-14,79,"-4,-3,-170",0,0,0,0,0,-3,63,66,62,50,83,-28.45,7,13.0,9.0,-1043.0,11:36:14.029809,192.168.0.113
375,3,2,-9,73,"-1,-2,-174",0,0,0,0,0,-3,63,66,59,50,83,-28.46,7,-2.0,5.0,-1051.0,11:36:14.132258,192.168.0.113
380,3,2,-9,73,"-1,-2,-174",1,0,0,0,0,-2,63,66,56,40,83,-28.49,7,5.0,5.0,-1038.0,11:36:14.234307,192.168.0.113
383,3,2,-9,73,"-1,-2,-174",0,0,0,0,0,-2,63,66,53,40,83,-28.5,7,9.0,-7.0,-1014.0,11:36:14.285338,192.168.0.113
388,3,2,-9,73,"-1,-2,-174",0,0,0,0,0,-2,63,66,51,40,83,-28.45,7,-3.0,9.0,-1030.0,11:36:14.387338,192.168.0.113
393,3,5,-5,59,"-1,-2,-176",0,0,0,0,0,-1,63,66,49,40,83,-28.6,7,-25.0,4.0,-1006.0,11:36:14.489197,192.168.0.113
398,3,5,-5,59,"-1,-2,-176",0,0,0,0,0,-1,63,66,48,30,83,-28.54,7,4.0,21.0,-1011.0,11:36:14.591305,192.168.0.113
403,3,5,-5,59,"-1,-2,-176",2,-1,0,0,0,-1,63,66,46,30,83,-28.6,7,-18.0,18.0,-1058.0,11:36:14.692959,192.168.0.113
408,3,5,-5,59,"-1,-2,-176",2,-1,0,0,0,-1,63,66,45,30,83,-28.59,7,3.0,27.0,-995.0,11:36:14.795767,192.168.0.113
413,3,7,-7,50,"-2,-4,-172",0,0,0,0,0,-1,63,66,44,30,83,-28.82,8,-23.0,16.0,-1067.0,11:36:14.897822,192.168.0.113
418,3,7,-7,50,"-2,-4,-172",0,1,0,0,0,0,63,66,43,30,83,-28.7,8,-24.0,28.0,-991.0,11:36:14.999143,192.168.0.113
423,3,7,-7,50,"-2,-4,-172",0,0,0,0,0,0,63,65,42,30,83,-28.68,8,-13.0,0.0,-1004.0,11:36:15.100907,192.168.0.113
428,3,11,-2,45,"0,-3,-176",0,0,0,0,0,0,63,65,41,30,83,-28.59,8,-2.0,-7.0,-1020.0,11:36:15.203144,192.168.0.113
434,3,11,-2,45,"0,-3,-176",-1,0,0,0,0,0,63,65,39,30,83,-28.7,8,21.0,-9.0,-1022.0,11:36:15.308535,192.168.0.113
439,3,11,-2,45,"0,-3,-176",-1,0,0,0,0,0,63,65,39,30,83,-28.6,8,-31.0,8.0,-1055.0,11:36:15.407029,192.168.0.113
444,3,11,-2,45,"0,-3,-176",0,0,0,0,0,0,63,65,39,20,83,-28.49,8,25.0,-13.0,-985.0,11:36:15.509072,192.168.0.113
449,3,9,0,42,"1,-2,-177",0,0,0,0,0,0,63,65,38,20,83,-28.7,8,-31.0,9.0,-1010.0,11:36:15.611196,192.168.0.113
455,3,9,0,42,"1,-2,-177",0,0,0,0,0,0,63,65,38,20,83,-28.5,8,-23.0,6.0,-996.0,11:36:15.713221,192.168.0.113
460,3,9,0,42,"1,-2,-177",0,0,0,0,0,0,63,65,38,20,83,-28.51,8,-25.0,10.0,-1002.0,11:36:15.815053,192.168.0.113
465,3,9,0,42,"1,-2,-177",0,0,0,0,0,0,63,65,39,20,83,-28.84,9,-33.0,24.0,-1009.0,11:36:15.916927,192.168.0.113
470,3,10,-1,40,"0,-3,-175",0,0,0,0,0,0,63,65,39,20,83,-28.86,9,-10.0,-3.0,-996.0,11:36:16.019065,192.168.0.113
475,3,10,-1,40,"0,-3,-175",0,-2,0,0,0,0,63,66,39,20,83,-28.53,9,-22.0,-9.0,-973.0,11:36:16.121236,192.168.0.113
480,3,10,-1,40,"0,-3,-175",0,-1,0,0,0,0,63,66,40,20,83,-28.56,9,-18.0,6.0,-981.0,11:36:16.223267,192.168.0.113
485,3,10,-1,40,"0,-3,-175",-1,0,0,0,0,0,63,66,39,20,83,-28.54,9,-24.0,14.0,-1009.0,11:36:16.325204,192.168.0.113
490,3,11,-2,40,"0,-2,-176",0,0,0,0,0,0,63,66,39,20,83,-28.75,9,-8.0,11.0,-968.0,11:36:16.427186,192.168.0.113
495,3,11,-2,40,"0,-2,-176",0,0,0,0,0,0,63,66,39,20,83,-28.59,9,-50.0,14.0,-1000.0,11:36:16.528717,192.168.0.113
500,3,11,-2,40,"0,-2,-176",0,-1,0,0,0,0,63,66,40,20,83,-28.56,9,-7.0,8.0,-978.0,11:36:16.631208,192.168.0.113
505,3,12,-3,40,"1,-2,-176",0,-2,0,0,0,0,63,66,40,20,83,-28.57,9,-17.0,2.0,-943.0,11:36:16.733153,192.168.0.113
510,3,12,-3,40,"1,-2,-176",0,-2,0,0,0,0,63,66,39,20,83,-28.57,9,-5.0,-29.0,-1050.0,11:36:16.835231,192.168.0.113
513,3,12,-3,40,"1,-2,-176",0,0,0,0,0,0,63,66,39,20,83,-28.65,10,-40.0,-7.0,-1023.0,11:36:16.886242,192.168.0.113
518,3,12,-3,40,"1,-2,-176",0,0,0,0,0,0,63,66,38,20,83,-28.64,10,-10.0,-14.0,-1000.0,11:36:16.988099,192.168.0.113
523,3,16,-5,39,"1,-2,-177",0,0,0,0,0,0,63,67,38,20,83,-28.67,10,6.0,-12.0,-1016.0,11:36:17.090227,192.168.0.113
527,3,16,-5,39,"1,-2,-177",0,0,0,0,0,0,63,67,39,20,83,-28.73,10,-16.0,0.0,-1006.0,11:36:17.192294,192.168.0.113
532,3,16,-5,39,"1,-2,-177",0,0,0,0,0,0,63,67,40,20,83,-28.59,10,-20.0,-6.0,-998.0,11:36:17.293948,192.168.0.113
538,3,16,-5,39,"1,-2,-177",0,0,0,0,0,0,63,67,40,20,83,-28.64,10,9.0,-6.0,-985.0,11:36:17.396073,192.168.0.113
543,3,16,-4,39,"1,-3,-175",0,0,0,0,0,0,63,67,40,20,83,-28.65,10,-4.0,-2.0,-940.0,11:36:17.498024,192.168.0.113
548,3,16,-4,39,"1,-3,-175",2,0,0,0,0,0,63,67,40,30,83,-28.61,10,-19.0,1.0,-976.0,11:36:17.599900,192.168.0.113
553,3,16,-4,39,"1,-3,-175",2,0,0,0,0,0,63,67,40,20,83,-28.69,10,5.0,-3.0,-1018.0,11:36:17.702088,192.168.0.113
558,3,16,-3,40,"0,-3,-175",1,0,0,1,0,0,63,67,40,20,83,-28.6,10,-3.0,3.0,-1005.0,11:36:17.804052,192.168.0.113
563,3,16,-3,40,"0,-3,-175",1,0,0,1,0,0,63,67,39,20,83,-28.68,11,-20.0,-10.0,-991.0,11:36:17.906372,192.168.0.113
568,3,16,-3,40,"0,-3,-175",0,0,0,1,0,0,63,67,39,20,83,-28.65,11,-4.0,-29.0,-979.0,11:36:18.008069,192.168.0.113
573,3,16,-3,40,"0,-3,-175",0,0,0,1,0,0,63,66,39,20,83,-28.64,11,-10.0,3.0,-996.0,11:36:18.110082,192.168.0.113
578,3,16,-3,40,"0,-3,-175",1,0,0,1,0,0,63,66,39,20,83,-28.64,11,0.0,-3.0,-985.0,11:36:18.212940,192.168.0.113
585,3,16,-3,40,"0,-3,-175",0,0,0,1,0,0,63,66,39,20,83,-28.57,11,12.0,12.0,-1016.0,11:36:18.313930,192.168.0.113
590,3,16,-3,40,"0,-3,-175",0,0,0,1,0,0,63,66,39,20,83,-28.62,11,-1.0,4.0,-991.0,11:36:18.416531,192.168.0.113
595,3,16,-3,40,"0,-3,-175",0,0,0,1,0,0,63,66,39,20,83,-28.62,11,-2.0,-10.0,-1015.0,11:36:18.518056,192.168.0.113
600,3,13,-3,39,"0,-3,-175",0,0,0,1,0,0,63,66,39,20,83,-28.57,11,-14.0,-4.0,-1004.0,11:36:18.620078,192.168.0.113
604,3,13,-3,39,"0,-3,-175",0,0,0,1,0,0,63,66,39,20,83,-28.6,11,0.0,-4.0,-982.0,11:36:18.722172,192.168.0.113
610,3,13,-3,39,"0,-3,-175",0,0,0,1,0,0,63,66,39,20,83,-28.53,11,-21.0,-2.0,-972.0,11:36:18.823961,192.168.0.113
615,3,9,-4,39,"0,-2,-177",0,0,0,1,0,0,63,66,39,20,83,-28.78,12,-17.0,-1.0,-1006.0,11:36:18.926318,192.168.0.113
620,3,9,-4,39,"0,-2,-177",0,0,0,0,0,0,63,66,39,20,83,-28.65,12,-21.0,-4.0,-1009.0,11:36:19.027872,192.168.0.113
625,3,9,-4,39,"0,-2,-177",0,-2,0,0,0,0,63,66,37,20,83,-28.65,12,12.0,-15.0,-1006.0,11:36:19.129991,192.168.0.113
630,3,9,-4,39,"0,-2,-177",0,-1,0,0,0,0,63,66,38,20,83,-28.64,12,-17.0,-5.0,-1029.0,11:36:19.232082,192.168.0.113
634,3,7,-5,39,"0,-2,-177",0,0,0,0,0,0,63,66,38,20,83,-28.58,12,8.0,-10.0,-1007.0,11:36:19.334075,192.168.0.113
637,3,7,-5,39,"0,-2,-177",-1,1,0,0,0,0,63,66,38,20,83,-28.68,12,28.0,24.0,-988.0,11:36:19.384963,192.168.0.113
642,3,7,-5,39,"0,-2,-177",0,1,0,0,0,0,63,66,38,20,83,-28.62,12,2.0,22.0,-997.0,11:36:19.487035,192.168.0.113
647,3,7,-5,39,"0,-2,-177",0,0,0,0,0,0,63,66,38,20,83,-28.64,12,6.0,11.0,-1018.0,11:36:19.589108,192.168.0.113
652,3,4,-7,38,"-2,-3,-175",1,0,0,0,0,0,63,66,37,20,83,-28.65,12,-5.0,0.0,-1004.0,11:36:19.690994,192.168.0.113
657,3,4,-7,38,"-2,-3,-175",1,0,0,0,0,0,63,66,37,20,83,-28.75,12,-20.0,-5.0,-1016.0,11:36:19.793535,192.168.0.113
662,3,4,-7,38,"-2,-3,-175",1,0,0,0,0,0,63,66,38,20,83,-28.94,13,-43.0,13.0,-1050.0,11:36:19.894976,192.168.0.113
667,3,4,-7,38,"-2,-3,-175",0,0,0,0,0,0,63,66,38,20,83,-28.65,13,-46.0,-2.0,-974.0,11:36:19.996928,192.168.0.113
672,3,9,-6,38,"0,-3,-176",-1,-1,0,0,0,0,64,66,39,20,83,-28.77,13,-18.0,-19.0,-969.0,11:36:20.099032,192.168.0.113
677,3,9,-6,38,"0,-3,-176",-1,0,0,0,0,0,64,66,39,20,83,-28.63,13,-27.0,11.0,-1022.0,11:36:20.201037,192.168.0.113
682,3,9,-6,38,"0,-3,-176",0,0,0,0,0,0,64,66,39,20,83,-28.72,13,-4.0,-17.0,-991.0,11:36:20.303077,192.168.0.113
687,3,11,-7,38,"2,-2,-177",0,-1,0,0,0,0,64,66,38,20,83,-28.67,13,-12.0,12.0,-998.0,11:36:20.405013,192.168.0.113
693,3,11,-7,38,"2,-2,-177",0,-1,0,0,0,0,64,66,39,20,83,-28.6,13,-5.0,9.0,-1021.0,11:36:20.507101,192.168.0.113
698,3,11,-7,38,"2,-2,-177",0,0,0,0,0,0,64,66,39,20,83,-28.62,13,-4.0,16.0,-1015.0,11:36:20.609055,192.168.0.113
703,3,11,-7,38,"2,-2,-177",0,0,0,0,0,0,64,66,39,20,83,-28.74,13,-13.0,3.0,-1071.0,11:36:20.711054,192.168.0.113
709,3,12,-8,38,"2,-3,-177",0,0,0,0,0,0,64,66,39,20,83,-28.7,13,-37.0,2.0,-1010.0,11:36:20.812876,192.168.0.113
714,3,12,-8,38,"2,-3,-177",0,0,0,0,0,0,64,66,39,20,83,-28.58,14,-16.0,32.0,-977.0,11:36:20.914854,192.168.0.113
719,3,12,-8,38,"2,-3,-177",0,0,0,0,0,0,64,66,39,20,83,-28.65,14,-34.0,14.0,-976.0,11:36:21.016714,192.168.0.113
724,3,12,-8,38,"2,-3,-177",0,0,0,0,0,0,64,67,39,20,83,-28.62,14,-35.0,-2.0,-998.0,11:36:21.118995,192.168.0.113
729,3,14,-8,38,"1,-3,-176",0,-1,0,0,0,0,64,67,39,20,83,-28.71,14,-31.0,-15.0,-951.0,11:36:21.220917,192.168.0.113
734,3,14,-8,38,"1,-3,-176",1,-2,0,0,0,0,64,67,39,20,83,-28.66,14,-9.0,-21.0,-980.0,11:36:21.323009,192.168.0.113
739,3,14,-8,38,"1,-3,-176",1,-2,0,0,0,0,64,67,38,20,83,-28.64,14,-8.0,-19.0,-1022.0,11:36:21.424900,192.168.0.113
744,3,15,-9,39,"1,-2,-177",1,0,0,0,1,0,64,67,38,20,83,-28.58,14,-20.0,-18.0,-1039.0,11:36:21.526884,192.168.0.113
749,3,15,-9,39,"1,-2,-177",1,0,0,1,1,0,64,67,38,20,83,-28.59,14,-20.0,-9.0,-991.0,11:36:21.628800,192.168.0.113
754,3,15,-9,39,"1,-2,-177",0,1,0,1,1,0,64,67,37,20,83,-28.68,14,-8.0,8.0,-1021.0,11:36:21.730924,192.168.0.113
759,3,15,-9,39,"1,-2,-177",0,2,0,1,0,0,64,67,37,20,83,-28.67,14,-30.0,16.0,-991.0,11:36:21.833535,192.168.0.113
764,3,14,-7,37,"0,-3,-176",0,2,0,1,0,0,64,67,37,20,83,-28.74,15,-30.0,1.0,-1007.0,11:36:21.935034,192.168.0.113
766,3,14,-7,37,"0,-3,-176",0,0,0,1,0,0,64,67,37,20,83,-28.7,15,-19.0,0.0,-965.0,11:36:21.986191,192.168.0.113
771,3,14,-7,37,"0,-3,-176",0,0,0,1,0,0,64,67,37,20,83,-28.53,15,17.0,15.0,-1027.0,11:36:22.088028,192.168.0.113
776,3,14,-7,37,"0,-3,-176",0,0,0,0,0,0,64,67,37,20,83,-28.64,15,-32.0,8.0,-1000.0,11:36:22.189477,192.168.0.113
781,3,11,-4,37,"2,-3,-172",0,-1,0,0,0,0,64,67,37,20,83,-28.73,15,-10.0,5.0,-995.0,11:36:22.292175,192.168.0.113
786,3,11,-4,37,"2,-3,-172",0,-1,0,0,0,0,64,67,37,20,83,-28.74,15,-11.0,5.0,-1007.0,11:36:22.393773,192.168.0.113
791,3,11,-4,37,"2,-3,-172",0,-2,0,0,0,0,64,67,36,20,83,-28.69,15,-29.0,-9.0,-992.0,11:36:22.495934,192.168.0.113
797,3,11,-4,37,"2,-3,-172",0,-1,0,0,0,0,64,67,37,20,83,-28.73,15,-12.0,10.0,-1000.0,11:36:22.597652,192.168.0.113
802,3,8,-5,37,"0,-2,-178",0,1,0,1,0,0,64,67,37,20,83,-28.73,15,-25.0,18.0,-978.0,11:36:22.699878,192.168.0.113
807,3,8,-5,37,"0,-2,-178",-3,0,0,0,0,0,64,67,35,20,83,-28.59,15,-19.0,4.0,-957.0,11:36:22.801878,192.168.0.113
812,3,8,-5,37,"0,-2,-178",-2,0,0,0,0,0,64,67,36,20,83,-28.63,16,-35.0,1.0,-1007.0,11:36:22.903951,192.168.0.113
817,3,6,-5,37,"-1,-3,-176",0,0,0,0,0,0,64,67,37,20,83,-28.71,16,-29.0,-2.0,-1025.0,11:36:23.005998,192.168.0.113
822,3,6,-5,37,"-1,-3,-176",0,0,0,0,0,0,64,67,37,20,83,-28.61,16,-7.0,9.0,-1007.0,11:36:23.107994,192.168.0.113
827,3,6,-5,37,"-1,-3,-176",-1,0,0,0,0,0,64,67,36,20,83,-28.65,16,-9.0,4.0,-984.0,11:36:23.209908,192.168.0.113
833,3,6,-5,37,"-1,-3,-176",0,0,0,0,0,0,64,67,36,20,83,-28.58,16,-10.0,1.0,-1002.0,11:36:23.311783,192.168.0.113
838,3,5,-5,37,"-1,-2,-175",0,0,0,0,0,0,64,67,36,20,83,-28.7,16,-33.0,9.0,-1024.0,11:36:23.413959,192.168.0.113
843,3,5,-5,37,"-1,-2,-175",0,0,0,0,0,0,64,67,36,20,83,-28.75,16,-27.0,0.0,-1011.0,11:36:23.517568,192.168.0.113
848,3,5,-5,37,"-1,-2,-175",0,0,0,0,0,0,64,67,36,20,83,-28.8,16,-29.0,-13.0,-982.0,11:36:23.617800,192.168.0.113
853,3,5,-5,37,"-1,-2,-175",0,0,0,0,0,0,64,67,36,20,83,-28.52,16,-12.0,22.0,-995.0,11:36:23.719797,192.168.0.113
859,3,7,-6,36,"0,-3,-175",0,0,0,0,0,0,64,67,37,20,83,-28.51,16,9.0,13.0,-991.0,11:36:23.821851,192.168.0.113
864,3,7,-6,36,"0,-3,-175",0,-1,0,0,0,0,64,67,37,20,83,-28.59,17,5.0,11.0,-1016.0,11:36:23.923781,192.168.0.113
869,3,7,-6,36,"0,-3,-175",1,-1,0,0,0,0,64,67,37,20,83,-28.56,17,5.0,4.0,-961.0,11:36:24.025941,192.168.0.113
874,3,7,-6,36,"0,-3,-175",2,-1,0,0,0,0,65,67,37,20,83,-28.66,17,21.0,40.0,-1012.0,11:36:24.127823,192.168.0.113
879,3,12,-7,36,"1,-4,-175",2,-1,0,0,0,0,65,67,37,20,83,-28.64,17,0.0,2.0,-982.0,11:36:24.229807,192.168.0.113
884,3,12,-7,36,"1,-4,-175",1,-2,0,0,0,0,65,67,37,20,83,-28.7,17,9.0,8.0,-987.0,11:36:24.331774,192.168.0.113
889,3,12,-7,36,"1,-4,-175",1,-1,0,0,0,0,65,67,37,20,83,-28.61,17,-2.0,25.0,-988.0,11:36:24.433797,192.168.0.113
894,3,18,-9,35,"1,-3,-177",1,-1,0,0,0,0,65,67,36,20,83,-28.7,17,5.0,10.0,-1002.0,11:36:24.539697,192.168.0.113
899,3,18,-9,35,"1,-3,-177",2,-2,0,0,0,0,65,67,36,20,83,-28.63,17,-6.0,7.0,-1021.0,11:36:24.637739,192.168.0.113
904,3,18,-9,35,"1,-3,-177",3,-3,0,0,0,0,65,67,35,20,83,-28.49,17,16.0,18.0,-1007.0,11:36:24.739880,192.168.0.113
909,3,18,-9,35,"1,-3,-177",2,-2,0,0,0,0,65,67,35,20,83,-28.25,17,23.0,13.0,-1016.0,11:36:24.842017,192.168.0.113
914,3,18,-9,35,"1,-3,-177",2,-1,0,0,0,0,65,67,36,20,83,-28.14,18,23.0,20.0,-1005.0,11:36:24.943737,192.168.0.113
919,3,18,-9,35,"1,-3,-177",2,-1,0,0,0,0,65,67,36,20,83,-28.07,18,13.0,14.0,-985.0,11:36:25.047821,192.168.0.113
924,3,18,-9,35,"1,-3,-177",2,-1,0,0,0,0,65,67,36,20,83,-28.02,18,19.0,4.0,-1001.0,11:36:25.149875,192.168.0.113
929,3,18,-9,35,"1,-3,-177",2,-1,0,0,0,0,65,67,36,20,83,-27.97,18,3.0,11.0,-999.0,11:36:25.249650,192.168.0.113
935,3,18,-9,35,"1,-3,-177",1,0,0,0,0,0,65,67,36,20,83,-28.11,18,27.0,10.0,-1025.0,11:36:25.351828,192.168.0.113
936,3,18,-9,35,"1,-3,-177",1,0,0,0,0,0,65,67,37,20,83,-28.46,18,16.0,10.0,-989.0,11:36:25.405009,192.168.0.113
941,3,18,-9,35,"1,-3,-177",1,0,0,0,0,0,65,67,37,20,83,-28.63,18,0.0,0.0,-975.0,11:36:25.504832,192.168.0.113
946,3,18,-9,35,"1,-3,-177",1,0,0,1,0,0,65,67,37,20,83,-28.88,18,-15.0,5.0,-1010.0,11:36:25.606568,192.168.0.113
951,3,18,-9,35,"1,-3,-177",0,0,0,1,0,0,65,67,37,20,83,-28.98,18,36.0,25.0,-999.0,11:36:25.712195,192.168.0.113
956,3,18,-9,35,"1,-3,-177",1,0,0,1,0,0,65,67,37,20,83,-29.09,18,16.0,22.0,-1003.0,11:36:25.810776,192.168.0.113
961,3,18,-9,35,"1,-3,-177",2,0,0,1,0,0,65,67,38,20,83,-29.02,19,11.0,5.0,-997.0,11:36:25.916826,192.168.0.113
966,3,18,-9,35,"1,-3,-177",1,0,0,1,0,0,65,67,38,20,83,-29.01,19,36.0,-3.0,-985.0,11:36:26.014817,192.168.0.113
971,3,18,-9,35,"1,-3,-177",1,-1,0,1,0,0,65,67,39,20,83,-29.05,19,9.0,3.0,-980.0,11:36:26.116768,192.168.0.113
978,3,18,-9,35,"1,-3,-177",1,0,0,1,0,0,65,67,39,20,83,-28.8,19,23.0,-3.0,-990.0,11:36:26.218724,192.168.0.113
983,3,19,-3,38,"0,-2,-179",1,0,0,0,0,0,65,67,39,20,83,-28.83,19,9.0,-3.0,-992.0,11:36:26.320573,192.168.0.113
988,3,19,-3,38,"0,-2,-179",1,0,0,0,0,0,65,67,39,20,83,-28.86,19,9.0,30.0,-1030.0,11:36:26.422787,192.168.0.113
993,3,19,-3,38,"0,-2,-179",2,-1,0,0,0,0,65,67,39,20,83,-28.79,19,45.0,0.0,-998.0,11:36:26.524819,192.168.0.113
998,3,15,-5,38,"0,-3,-176",2,0,0,0,0,0,65,67,40,20,83,-28.82,19,47.0,8.0,-1000.0,11:36:26.628269,192.168.0.113
1003,3,15,-5,38,"0,-3,-176",3,0,0,0,0,0,65,67,40,20,83,-28.73,19,29.0,-8.0,-989.0,11:36:26.728752,192.168.0.113
1008,3,15,-5,38,"0,-3,-176",3,0,0,0,0,0,65,67,40,20,83,-28.78,19,21.0,-9.0,-976.0,11:36:26.830795,192.168.0.113
1013,3,15,-5,38,"0,-3,-176",2,0,0,0,0,0,65,67,40,20,83,-28.86,20,35.0,-8.0,-1012.0,11:36:26.932708,192.168.0.113
1018,3,14,-5,39,"0,-3,-177",2,0,0,0,0,0,65,67,40,20,83,-28.84,20,3.0,4.0,-973.0,11:36:27.034813,192.168.0.113
1023,3,14,-5,39,"0,-3,-177",1,0,0,1,0,0,64,67,40,20,83,-28.88,20,10.0,4.0,-965.0,11:36:27.136741,192.168.0.113
1028,3,14,-5,39,"0,-3,-177",1,0,0,0,0,0,64,67,39,20,83,-28.92,20,6.0,-6.0,-990.0,11:36:27.238808,192.168.0.113
1033,3,14,-5,39,"0,-3,-177",1,-2,0,0,0,0,64,67,39,20,83,-28.87,20,22.0,-15.0,-1031.0,11:36:27.340666,192.168.0.113
1038,3,12,-6,39,"0,-3,-175",2,-2,0,0,0,0,64,67,39,20,83,-28.82,20,28.0,1.0,-1014.0,11:36:27.442762,192.168.0.113
1044,3,12,-6,39,"0,-3,-175",2,1,0,0,0,0,64,67,39,20,83,-28.9,20,-8.0,12.0,-1034.0,11:36:27.544473,192.168.0.113
1049,3,12,-6,39,"0,-3,-175",0,0,0,0,0,0,64,67,39,20,83,-28.95,20,22.0,22.0,-991.0,11:36:27.646424,192.168.0.113
1054,3,12,-6,39,"0,-3,-175",-1,0,0,0,0,0,64,67,39,20,83,-28.9,20,23.0,0.0,-1025.0,11:36:27.750072,192.168.0.113
1059,3,10,-5,39,"0,-2,180",0,0,0,0,0,0,64,67,38,20,83,-28.84,20,6.0,-3.0,-1009.0,11:36:27.850754,192.168.0.113
1064,3,10,-5,39,"0,-2,180",1,0,0,0,0,0,64,67,39,20,83,-28.8,21,6.0,1.0,-992.0,11:36:27.952847,192.168.0.113
1069,3,10,-5,39,"0,-2,180",1,0,0,0,0,0,64,67,39,20,83,-28.99,21,9.0,0.0,-971.0,11:36:28.054708,192.168.0.113
1074,3,10,-5,39,"0,-2,180",1,0,0,0,0,0,65,67,39,20,83,-28.87,21,16.0,24.0,-1016.0,11:36:28.156652,192.168.0.113
1079,3,10,-5,39,"0,-2,180",1,0,0,0,0,0,65,67,40,20,83,-28.7,21,12.0,17.0,-985.0,11:36:28.261638,192.168.0.113
1084,3,10,-5,39,"0,-2,180",2,0,0,0,0,0,65,67,40,20,83,-28.79,21,0.0,-3.0,-1014.0,11:36:28.360614,192.168.0.113
1089,3,10,-5,39,"0,-2,180",1,0,0,0,0,0,65,67,40,20,83,-28.87,21,9.0,4.0,-1001.0,11:36:28.462617,192.168.0.113
1094,3,13,-4,39,"1,-3,-176",1,0,0,0,0,0,65,67,40,20,83,-28.75,21,5.0,18.0,-973.0,11:36:28.565017,192.168.0.113
1096,3,13,-4,39,"1,-3,-176",1,0,0,0,0,0,65,67,41,20,83,-28.86,21,15.0,-9.0,-985.0,11:36:28.615542,192.168.0.113
1101,3,13,-4,39,"1,-3,-176",1,0,0,0,0,0,65,67,41,20,83,-28.81,21,2.0,13.0,-988.0,11:36:28.717620,192.168.0.113
1106,3,13,-4,39,"1,-3,-176",1,0,0,0,0,0,65,67,40,20,83,-28.98,21,43.0,-2.0,-985.0,11:36:28.819600,192.168.0.113
1111,3,15,-6,40,"0,-3,-176",4,0,0,0,0,0,65,67,40,20,83,-29.01,22,23.0,0.0,-1012.0,11:36:28.921853,192.168.0.113
1116,3,15,-6,40,"0,-3,-176",5,0,0,0,0,0,65,67,40,20,83,-29.02,22,11.0,8.0,-1015.0,11:36:29.023567,192.168.0.113
1121,3,15,-6,40,"0,-3,-176",4,0,0,0,0,0,65,67,40,20,83,-28.38,22,11.0,6.0,-974.0,11:36:29.125576,192.168.0.113
1126,3,17,-5,41,"-3,-3,-177",3,0,0,0,0,0,65,67,40,20,83,-28.51,22,14.0,27.0,-1025.0,11:36:29.227568,192.168.0.113
1132,3,17,-5,41,"-3,-3,-177",3,0,0,1,0,0,65,67,40,20,83,-28.95,22,-1.0,16.0,-995.0,11:36:29.329546,192.168.0.113
1137,3,17,-5,41,"-3,-3,-177",2,0,0,1,0,0,65,67,40,20,83,-28.38,22,13.0,7.0,-972.0,11:36:29.431572,192.168.0.113
1142,3,17,-5,41,"-3,-3,-177",1,0,0,1,0,0,65,67,40,20,83,-28.44,22,10.0,5.0,-998.0,11:36:29.533635,192.168.0.113
1147,3,17,-5,40,"-3,-3,-177",1,-2,0,1,0,0,65,67,39,20,83,-28.52,22,36.0,2.0,-1008.0,11:36:29.635758,192.168.0.113
1152,3,17,-5,40,"-3,-3,-177",1,-3,0,0,0,0,65,67,40,20,83,-28.57,22,43.0,-15.0,-1028.0,11:36:29.738442,192.168.0.113
1157,3,17,-5,40,"-3,-3,-177",3,0,0,0,0,0,65,67,40,20,83,-28.6,22,36.0,10.0,-980.0,11:36:29.839604,192.168.0.113
1163,3,17,-5,40,"-3,-3,-177",2,0,0,0,0,0,65,67,40,20,83,-28.5,23,41.0,10.0,-1004.0,11:36:29.941757,192.168.0.113
1168,3,15,-6,39,"0,-3,-178",2,0,0,1,0,0,65,67,40,20,83,-28.5,23,31.0,23.0,-1009.0,11:36:30.043660,192.168.0.113
1173,3,15,-6,39,"0,-3,-178",2,0,0,1,0,0,65,67,40,20,83,-28.58,23,40.0,5.0,-1024.0,11:36:30.145859,192.168.0.113
1178,3,15,-6,39,"0,-3,-178",2,0,0,0,0,0,65,67,39,20,83,-28.57,23,16.0,14.0,-961.0,11:36:30.247426,192.168.0.113
1183,3,13,-5,40,"0,-3,-176",2,0,0,0,0,0,65,67,40,20,83,-28.55,23,50.0,15.0,-999.0,11:36:30.351420,192.168.0.113
1188,3,13,-5,40,"0,-3,-176",2,0,0,0,0,0,65,67,40,20,83,-28.56,23,37.0,16.0,-1020.0,11:36:30.451552,192.168.0.113
1193,3,13,-5,40,"0,-3,-176",3,0,0,0,0,0,65,67,40,20,83,-28.58,23,45.0,0.0,-968.0,11:36:30.553564,192.168.0.113
1198,3,13,-5,40,"0,-3,-176",3,0,0,0,0,0,65,67,40,20,83,-28.55,23,69.0,-6.0,-1027.0,11:36:30.655324,192.168.0.113
1203,3,11,-6,40,"-1,-4,-175",3,0,0,0,0,0,65,67,40,20,83,-28.58,23,47.0,8.0,-1015.0,11:36:30.757566,192.168.0.113
1208,3,11,-6,40,"-1,-4,-175",0,0,0,0,0,0,65,67,40,20,83,-28.52,23,15.0,16.0,-986.0,11:36:30.859604,192.168.0.113
1214,3,11,-6,40,"-1,-4,-175",0,0,0,0,0,0,65,67,40,20,83,-28.69,24,10.0,16.0,-930.0,11:36:30.965842,192.168.0.113
1219,3,11,-6,40,"-1,-4,-175",0,0,0,0,0,0,65,67,40,20,83,-28.68,24,38.0,2.0,-1002.0,11:36:31.063511,192.168.0.113
1224,3,9,-6,40,"-1,-4,-175",1,0,0,0,0,0,65,68,40,20,83,-28.52,24,20.0,11.0,-1010.0,11:36:31.165517,192.168.0.113
1229,3,9,-6,40,"-1,-4,-175",1,0,0,0,0,0,65,68,39,20,83,-28.62,24,26.0,7.0,-1010.0,11:36:31.267356,192.168.0.113
1234,3,9,-6,40,"-1,-4,-175",1,0,0,0,0,0,65,68,39,20,83,-28.54,24,-11.0,-2.0,-994.0,11:36:31.369543,192.168.0.113
1239,3,9,-6,39,"0,-3,-176",1,0,0,0,0,0,65,68,39,20,83,-28.62,24,9.0,4.0,-1019.0,11:36:31.471355,192.168.0.113
1244,3,9,-6,39,"0,-3,-176",1,0,0,0,0,0,65,68,39,20,83,-28.63,24,3.0,2.0,-992.0,11:36:31.573575,192.168.0.113
1249,3,9,-6,39,"0,-3,-176",1,-1,0,0,0,0,65,68,39,20,83,-28.64,24,6.0,14.0,-1003.0,11:36:31.675464,192.168.0.113
1254,3,9,-6,39,"0,-3,-176",1,-1,0,0,0,0,65,68,38,20,83,-28.6,24,7.0,19.0,-998.0,11:36:31.777489,192.168.0.113
1259,3,11,-6,39,"0,-3,-177",1,0,0,0,0,0,65,68,39,20,83,-28.6,24,13.0,11.0,-1011.0,11:36:31.879493,192.168.0.113
1261,3,11,-6,39,"0,-3,-177",1,-1,0,0,0,0,65,68,38,20,83,-28.58,25,2.0,-13.0,-984.0,11:36:31.930569,192.168.0.113
1266,3,11,-6,39,"0,-3,-177",1,-1,0,0,0,0,65,68,39,20,83,-28.67,25,-9.0,5.0,-1002.0,11:36:32.034154,192.168.0.113
1271,3,11,-6,39,"0,-3,-177",1,-1,0,0,0,0,64,67,38,20,83,-28.62,25,-16.0,0.0,-996.0,11:36:32.134287,192.168.0.113
1276,3,14,-8,38,"0,-3,-176",1,-1,0,0,0,0,64,67,39,20,83,-28.66,25,-3.0,6.0,-1003.0,11:36:32.236350,192.168.0.113
1281,3,14,-8,38,"0,-3,-176",1,0,0,0,0,0,64,67,39,20,83,-28.54,25,8.0,21.0,-1018.0,11:36:32.338349,192.168.0.113
1286,3,14,-8,38,"0,-3,-176",1,0,0,0,0,0,64,67,39,20,83,-28.67,25,6.0,17.0,-1012.0,11:36:32.440143,192.168.0.113
1291,3,14,-7,39,"0,-2,-178",1,0,0,0,0,0,64,67,40,20,83,-28.53,25,18.0,13.0,-984.0,11:36:32.542368,192.168.0.113
1296,3,14,-7,39,"0,-2,-178",1,-1,0,0,0,0,64,67,41,20,83,-28.56,25,0.0,4.0,-975.0,11:36:32.646499,192.168.0.113
1301,3,14,-7,39,"0,-2,-178",1,-1,0,0,0,0,64,67,40,20,83,-28.56,25,13.0,29.0,-974.0,11:36:32.747416,192.168.0.113
1306,3,14,-7,39,"0,-2,-178",1,0,0,0,0,0,64,67,41,20,83,-28.54,25,7.0,15.0,-991.0,11:36:32.848632,192.168.0.113
1311,3,15,-8,40,"-1,-3,-178",2,0,0,0,0,0,64,67,41,20,83,-28.57,26,-7.0,18.0,-974.0,11:36:32.951334,192.168.0.113
1317,3,15,-8,40,"-1,-3,-178",1,-1,0,0,0,0,64,67,41,20,83,-28.79,26,28.0,0.0,-1011.0,11:36:33.052421,192.168.0.113
1323,3,15,-8,40,"-1,-3,-178",1,-1,0,0,0,0,65,67,40,20,83,-28.5,26,31.0,20.0,-1021.0,11:36:33.154294,192.168.0.113
1327,3,15,-8,40,"-1,-3,-178",1,-1,0,0,0,0,65,67,42,20,83,-28.51,26,38.0,12.0,-1006.0,11:36:33.256424,192.168.0.113
1333,3,14,-11,41,"-2,-4,-175",2,-1,0,0,0,0,65,67,41,20,83,-28.52,26,32.0,6.0,-960.0,11:36:33.358428,192.168.0.113
1338,3,14,-11,41,"-2,-4,-175",4,-1,0,0,0,0,65,67,42,20,83,-28.59,26,33.0,21.0,-998.0,11:36:33.460519,192.168.0.113
1343,3,14,-11,41,"-2,-4,-175",3,-1,0,0,0,0,65,67,41,20,83,-28.56,26,31.0,39.0,-1023.0,11:36:33.562278,192.168.0.113
1348,3,14,-9,41,"0,-3,-177",1,-1,0,1,0,0,65,67,41,20,83,-28.49,26,42.0,23.0,-984.0,11:36:33.664408,192.168.0.113
1353,3,14,-9,41,"0,-3,-177",2,-2,0,0,0,0,65,67,41,20,83,-28.54,26,35.0,11.0,-978.0,11:36:33.766301,192.168.0.113
1358,3,14,-9,41,"0,-3,-177",2,-2,0,1,0,0,65,67,41,20,83,-28.58,27,16.0,8.0,-970.0,11:36:33.868417,192.168.0.113
1363,3,14,-9,41,"0,-3,-177",2,-1,0,1,0,0,65,67,41,20,83,-28.49,27,17.0,0.0,-986.0,11:36:33.970461,192.168.0.113
1368,3,13,-9,41,"0,-3,-177",2,-1,0,1,1,0,65,67,40,20,83,-28.55,27,25.0,22.0,-1031.0,11:36:34.076611,192.168.0.113
1373,3,13,-9,41,"0,-3,-177",1,0,0,1,0,0,65,67,40,20,83,-28.56,27,36.0,31.0,-1045.0,11:36:34.174486,192.168.0.113
1378,3,13,-9,41,"0,-3,-177",0,0,0,1,0,0,65,67,40,20,83,-28.64,27,54.0,37.0,-999.0,11:36:34.276603,192.168.0.113
1383,3,13,-9,41,"0,-3,-177",0,0,0,1,0,0,65,67,40,20,83,-28.52,27,24.0,36.0,-976.0,11:36:34.378444,192.168.0.113
1389,3,10,-7,40,"-1,-2,-178",1,0,0,1,0,0,65,67,39,20,83,-28.55,27,44.0,27.0,-1028.0,11:36:34.480360,192.168.0.113
1394,3,10,-7,40,"-1,-2,-178",0,0,0,0,0,0,65,67,40,20,83,-28.63,27,20.0,19.0,-988.0,11:36:34.582482,192.168.0.113
1399,3,10,-7,40,"-1,-2,-178",0,-1,0,0,0,0,65,67,38,20,83,-28.56,27,23.0,29.0,-1018.0,11:36:34.684406,192.168.0.113
1403,3,10,-7,40,"-1,-2,-178",1,-1,0,0,0,0,65,67,38,20,83,-28.6,27,12.0,-2.0,-995.0,11:36:34.786482,192.168.0.113
1409,3,3,-6,41,"-3,-3,-174",1,-1,0,0,0,0,65,67,39,20,83,-28.65,28,32.0,-2.0,-975.0,11:36:34.888348,192.168.0.113
1414,3,3,-6,41,"-3,-3,-174",1,-1,0,0,0,0,65,67,38,20,83,-28.64,28,41.0,11.0,-1011.0,11:36:34.990421,192.168.0.113
1419,3,3,-6,41,"-3,-3,-174",1,0,0,0,0,0,65,67,39,20,83,-28.56,28,16.0,6.0,-992.0,11:36:35.092382,192.168.0.113
1424,3,3,-4,40,"-1,-2,-179",1,0,0,0,0,0,65,68,39,20,83,-28.59,28,17.0,11.0,-995.0,11:36:35.194420,192.168.0.113
1429,3,3,-4,40,"-1,-2,-179",1,0,0,0,0,0,65,68,39,20,83,-28.58,28,4.0,-2.0,-1026.0,11:36:35.296367,192.168.0.113
1431,3,3,-4,40,"-1,-2,-179",1,0,0,0,0,0,65,68,39,20,83,-28.73,28,0.0,13.0,-974.0,11:36:35.347371,192.168.0.113
1436,3,3,-4,40,"-1,-2,-179",0,0,0,0,0,0,65,68,39,20,83,-28.7,28,-28.0,20.0,-1013.0,11:36:35.449374,192.168.0.113
1441,3,4,-6,40,"-2,-2,-178",0,0,0,0,0,0,65,68,39,20,83,-28.73,28,12.0,-5.0,-1006.0,11:36:35.551282,192.168.0.113
1446,3,4,-6,40,"-2,-2,-178",0,0,0,0,0,0,65,68,39,20,83,-28.5,28,-9.0,5.0,-967.0,11:36:35.653206,192.168.0.113
1451,3,4,-6,40,"-2,-2,-178",0,-1,0,0,0,0,65,68,39,20,83,-28.62,28,-34.0,30.0,-995.0,11:36:35.755375,192.168.0.113
1456,3,4,-6,40,"-2,-2,-178",0,0,0,0,0,0,65,68,39,20,83,-28.6,29,-2.0,43.0,-1013.0,11:36:35.857283,192.168.0.113
1461,3,5,-7,41,"0,-2,-177",0,-1,0,0,0,0,65,68,40,20,83,-28.62,29,-6.0,32.0,-1002.0,11:36:35.959452,192.168.0.113
1466,3,5,-7,41,"0,-2,-177",0,-1,0,0,0,0,65,68,40,20,83,-28.55,29,2.0,11.0,-984.0,11:36:36.061382,192.168.0.113
1471,3,5,-7,41,"0,-2,-177",0,-1,0,0,0,0,65,67,40,20,83,-28.5,29,2.0,6.0,-996.0,11:36:36.163149,192.168.0.113
1476,3,5,-7,41,"0,-2,-177",1,-2,0,0,0,0,65,67,41,20,83,-28.57,29,-20.0,0.0,-1006.0,11:36:36.265842,192.168.0.113
1481,3,4,-7,41,"0,-2,-179",0,-2,0,0,0,0,65,67,41,20,83,-28.52,29,13.0,17.0,-991.0,11:36:36.367223,192.168.0.113
1487,3,4,-7,41,"0,-2,-179",0,-4,0,0,0,0,65,67,40,20,83,-28.59,29,18.0,-2.0,-1038.0,11:36:36.469375,192.168.0.113
1492,3,4,-7,41,"0,-2,-179",0,-2,0,0,1,0,65,67,40,20,83,-28.62,29,12.0,16.0,-977.0,11:36:36.571352,192.168.0.113
1497,3,5,-10,41,"0,-2,-179",0,0,0,0,1,0,65,67,40,20,83,-28.63,29,-15.0,17.0,-978.0,11:36:36.673292,192.168.0.113
1502,3,5,-10,41,"0,-2,-179",0,0,0,0,1,0,65,67,39,20,83,-28.56,29,3.0,18.0,-991.0,11:36:36.775435,192.168.0.113
1507,3,5,-10,41,"0,-2,-179",0,0,0,0,0,0,65,67,40,20,83,-28.5,30,-2.0,22.0,-997.0,11:36:36.877315,192.168.0.113
1513,3,5,-10,41,"0,-2,-179",0,0,0,0,0,0,65,67,40,20,83,-28.57,30,-14.0,1.0,-1004.0,11:36:36.979236,192.168.0.113
1518,3,3,-9,41,"-2,-3,-176",0,0,0,0,0,0,65,67,40,20,83,-28.56,30,-11.0,-12.0,-1011.0,11:36:37.081387,192.168.0.113
1523,3,3,-9,41,"-2,-3,-176",0,1,0,0,0,0,65,68,40,20,83,-28.54,30,0.0,3.0,-961.0,11:36:37.183324,192.168.0.113
1528,3,3,-9,41,"-2,-3,-176",0,0,0,0,0,0,65,68,40,20,83,-28.52,30,-7.0,3.0,-989.0,11:36:37.285444,192.168.0.113
1533,3,3,-9,41,"-2,-3,-176",0,0,0,0,0,0,65,68,40,20,83,-28.62,30,5.0,2.0,-1016.0,11:36:37.387304,192.168.0.113
1538,3,2,-6,41,"-2,-2,-176",0,0,0,0,0,0,65,68,40,20,83,-28.62,30,21.0,-11.0,-984.0,11:36:37.489588,192.168.0.113
1543,3,2,-6,41,"-2,-2,-176",0,0,0,0,0,0,65,68,40,20,83,-28.55,30,16.0,1.0,-1010.0,11:36:37.590838,192.168.0.113
1548,3,2,-6,41,"-2,-2,-176",0,0,0,0,0,0,65,68,40,20,83,-28.62,30,14.0,23.0,-1011.0,11:36:37.693339,192.168.0.113
1554,3,2,-6,41,"-2,-2,-176",1,0,0,0,0,0,65,68,40,20,83,-28.64,30,16.0,-7.0,-1002.0,11:36:37.796584,192.168.0.113
1559,3,2,-4,41,"-2,-3,-174",0,0,0,0,0,0,65,68,40,20,83,-28.62,31,5.0,12.0,-1008.0,11:36:37.897861,192.168.0.113
1564,3,2,-4,41,"-2,-3,-174",0,0,0,0,0,0,65,68,41,20,83,-28.55,31,0.0,4.0,-984.0,11:36:38.000459,192.168.0.113
1569,3,2,-4,41,"-2,-3,-174",0,-1,0,0,0,0,65,68,41,20,83,-28.59,31,-11.0,2.0,-984.0,11:36:38.102876,192.168.0.113
1574,3,3,-2,41,"-2,-2,-178",0,-1,0,0,0,0,65,68,40,20,83,-28.52,31,0.0,-6.0,-1003.0,11:36:38.205204,192.168.0.113
1579,3,3,-2,41,"-2,-2,-178",0,0,0,0,0,0,65,68,40,20,83,-28.62,31,1.0,3.0,-992.0,11:36:38.307640,192.168.0.113
1584,3,3,-2,41,"-2,-2,-178",0,0,0,0,0,0,65,68,40,20,83,-28.58,31,-3.0,-6.0,-1004.0,11:36:38.407350,192.168.0.113
1589,3,3,-2,41,"-2,-2,-178",0,0,0,0,0,0,65,68,40,20,83,-28.55,31,-2.0,11.0,-999.0,11:36:38.509204,192.168.0.113
1594,3,2,-5,42,"-2,-2,-176",0,0,0,0,0,0,65,68,40,20,83,-28.49,31,-1.0,3.0,-1004.0,11:36:38.611159,192.168.0.113
1599,3,2,-5,42,"-2,-2,-176",0,0,0,0,0,0,65,68,40,20,83,-28.51,31,0.0,2.0,-997.0,11:36:38.713328,192.168.0.113
1601,3,2,-5,42,"-2,-2,-176",0,0,0,0,0,0,65,68,40,20,83,-28.49,31,2.0,3.0,-992.0,11:36:38.767027,192.168.0.113
1606,3,2,-5,42,"-2,-2,-176",0,0,0,0,0,0,65,68,40,20,83,-28.5,32,2.0,-2.0,-991.0,11:36:38.866288,192.168.0.113
1611,3,2,-3,42,"0,-2,-178",0,0,0,0,0,0,65,68,40,20,83,-28.55,32,6.0,7.0,-1032.0,11:36:38.968333,192.168.0.113
1616,3,2,-3,42,"0,-2,-178",0,0,0,0,0,0,65,68,40,20,83,-28.52,32,31.0,4.0,-983.0,11:36:39.070373,192.168.0.113
1621,3,2,-3,42,"0,-2,-178",0,0,0,0,0,0,65,68,39,20,83,-28.39,32,18.0,-12.0,-1006.0,11:36:39.172044,192.168.0.113
1626,3,2,-3,42,"0,-2,-178",1,0,0,0,0,0,65,68,41,20,83,-28.45,32,11.0,-9.0,-1022.0,11:36:39.274413,192.168.0.113
1631,3,1,-4,42,"-2,-2,-178",1,0,0,0,0,0,65,68,40,20,83,-28.6,32,35.0,-13.0,-961.0,11:36:39.376227,192.168.0.113
1636,3,1,-4,42,"-2,-2,-178",1,0,0,0,0,0,65,68,40,20,83,-28.57,32,4.0,-14.0,-999.0,11:36:39.480183,192.168.0.113
1641,3,1,-4,42,"-2,-2,-178",0,0,0,0,0,0,65,68,40,20,83,-28.51,32,19.0,-3.0,-1009.0,11:36:39.580307,192.168.0.113
1646,3,3,-4,42,"-2,-2,-178",1,0,0,0,0,0,65,68,40,20,83,-28.56,32,-1.0,-4.0,-1006.0,11:36:39.682234,192.168.0.113
1652,3,3,-4,42,"-2,-2,-178",1,0,0,0,0,0,65,68,40,20,83,-28.48,32,10.0,10.0,-1028.0,11:36:39.784189,192.168.0.113
1657,3,3,-4,42,"-2,-2,-178",0,0,0,0,0,0,65,68,40,20,83,-28.56,33,11.0,8.0,-995.0,11:36:39.886215,192.168.0.113
1662,3,3,-4,42,"-2,-2,-178",0,0,0,0,0,0,65,68,40,20,83,-28.48,33,7.0,7.0,-1008.0,11:36:39.988318,192.168.0.113
1667,3,3,-6,41,"-3,-3,-174",0,0,0,0,0,0,65,68,40,20,83,-28.5,33,18.0,8.0,-997.0,11:36:40.090215,192.168.0.113
1672,3,3,-6,41,"-3,-3,-174",1,0,0,0,0,0,65,68,40,20,83,-28.47,33,26.0,9.0,-1013.0,11:36:40.192180,192.168.0.113
1678,3,3,-6,41,"-3,-3,-174",1,0,0,0,0,0,65,68,41,20,83,-28.54,33,20.0,13.0,-997.0,11:36:40.294222,192.168.0.113
1683,3,3,-6,41,"-3,-3,-174",1,0,0,0,0,0,65,68,41,20,83,-28.58,33,7.0,11.0,-996.0,11:36:40.396550,192.168.0.113
1688,3,4,-6,41,"-3,-3,-173",0,0,0,0,0,0,65,68,41,20,83,-28.47,33,24.0,-11.0,-999.0,11:36:40.498217,192.168.0.113
1693,3,4,-6,41,"-3,-3,-173",0,-1,0,0,0,0,65,68,41,20,83,-28.48,33,10.0,14.0,-983.0,11:36:40.600217,192.168.0.113
1698,3,4,-6,41,"-3,-3,-173",0,0,0,0,0,0,65,68,41,30,83,-28.5,33,25.0,0.0,-1011.0,11:36:40.702157,192.168.0.113
1703,3,4,-6,41,"-3,-3,-173",1,0,0,0,0,0,65,68,42,30,83,-28.47,33,15.0,14.0,-992.0,11:36:40.804203,192.168.0.113
1708,3,4,-6,42,"-2,-2,-175",1,0,0,0,0,0,65,68,42,30,83,-28.41,34,17.0,0.0,-983.0,11:36:40.906053,192.168.0.113
1714,3,4,-6,42,"-2,-2,-175",1,-1,0,0,0,0,65,68,42,30,83,-28.45,34,9.0,7.0,-1006.0,11:36:41.008123,192.168.0.113
1719,3,4,-6,42,"-2,-2,-175",0,-1,0,0,0,0,65,68,42,30,83,-28.48,34,11.0,13.0,-1005.0,11:36:41.110230,192.168.0.113
1724,3,5,-7,43,"-3,-3,-174",1,0,0,0,0,0,66,67,43,30,83,-28.46,34,29.0,7.0,-979.0,11:36:41.212156,192.168.0.113
1728,3,5,-7,43,"-3,-3,-174",1,0,0,0,0,0,66,67,43,30,83,-28.5,34,18.0,15.0,-995.0,11:36:41.314142,192.168.0.113
1734,3,5,-7,43,"-3,-3,-174",1,0,0,0,0,0,66,67,42,30,83,-28.53,34,5.0,6.0,-1010.0,11:36:41.416149,192.168.0.113
1739,3,5,-7,43,"-3,-3,-174",1,0,0,0,0,0,66,67,42,30,83,-28.45,34,1.0,9.0,-997.0,11:36:41.518175,192.168.0.113
1744,3,5,-8,43,"-3,-3,-174",0,-1,0,0,0,0,66,67,42,30,83,-28.57,34,14.0,9.0,-976.0,11:36:41.620125,192.168.0.113
1749,3,5,-8,43,"-3,-3,-174",0,-1,0,0,0,0,66,67,42,30,83,-28.61,34,-3.0,22.0,-1015.0,11:36:41.722025,192.168.0.113
1754,3,5,-8,43,"-3,-3,-174",1,0,0,0,0,0,66,67,41,30,83,-28.67,34,14.0,-2.0,-1041.0,11:36:41.824116,192.168.0.113
1759,3,5,-8,43,"-3,-3,-174",0,-1,0,0,0,0,66,67,41,20,83,-28.58,35,12.0,-13.0,-988.0,11:36:41.926098,192.168.0.113
1764,3,4,-8,42,"-3,-3,-174",0,-1,0,0,0,0,66,67,40,20,83,-28.56,35,0.0,-7.0,-1014.0,11:36:42.028112,192.168.0.113
1769,3,4,-8,42,"-3,-3,-174",0,0,0,0,0,0,66,67,41,20,83,-28.6,35,-26.0,-1.0,-983.0,11:36:42.129965,192.168.0.113
1774,3,4,-8,42,"-3,-3,-174",0,0,0,0,0,0,65,68,40,20,83,-28.58,35,-3.0,-11.0,-1007.0,11:36:42.232295,192.168.0.113
1779,3,4,-8,42,"-3,-3,-174",0,0,0,0,0,0,65,68,40,20,83,-28.53,35,34.0,-20.0,-1003.0,11:36:42.334118,192.168.0.113
1784,3,4,-8,42,"-3,-2,-175",0,0,0,0,0,0,65,68,40,20,83,-28.49,35,-14.0,15.0,-963.0,11:36:42.436151,192.168.0.113
1788,3,4,-8,42,"-3,-2,-175",0,0,0,0,0,0,65,68,40,20,83,-28.49,35,-6.0,14.0,-1006.0,11:36:42.538058,192.168.0.113
1791,3,4,-8,42,"-3,-2,-175",0,0,0,0,0,0,65,68,39,20,83,-28.48,35,26.0,-16.0,-1007.0,11:36:42.588927,192.168.0.113
1796,3,4,-7,41,"0,-2,-174",0,0,0,0,0,0,65,68,39,20,83,-28.54,35,-7.0,17.0,-1011.0,11:36:42.690960,192.168.0.113
1801,3,4,-7,41,"0,-2,-174",0,-1,0,0,0,0,65,68,39,20,83,-28.53,35,-8.0,0.0,-989.0,11:36:42.793072,192.168.0.113
1806,3,4,-7,41,"0,-2,-174",0,0,0,0,0,0,65,68,39,20,83,-28.46,36,2.0,2.0,-1000.0,11:36:42.895099,192.168.0.113
1811,3,4,-7,41,"0,-2,-174",0,0,0,0,0,0,65,68,39,20,83,-28.48,36,13.0,-15.0,-1006.0,11:36:42.996811,192.168.0.113
1816,3,3,-4,40,"-2,-2,-176",0,1,0,0,0,0,65,68,39,20,83,-28.52,36,-10.0,-6.0,-1014.0,11:36:43.099006,192.168.0.113
1822,3,3,-4,40,"-2,-2,-176",0,0,0,0,0,0,66,68,39,20,83,-28.39,36,9.0,-19.0,-971.0,11:36:43.201022,192.168.0.113
1827,3,3,-4,40,"-2,-2,-176",0,0,0,0,0,0,66,68,38,20,83,-28.46,36,-11.0,16.0,-1029.0,11:36:43.303039,192.168.0.113
1832,3,3,-4,40,"-2,-2,-176",0,0,0,0,0,0,66,68,39,20,83,-28.4,36,14.0,-3.0,-964.0,11:36:43.405198,192.168.0.113
1837,3,3,-1,40,"-2,-2,-176",0,0,0,0,0,0,66,68,38,20,83,-28.6,36,9.0,6.0,-1015.0,11:36:43.507117,192.168.0.113
1842,3,3,-1,40,"-2,-2,-176",0,0,0,0,0,0,66,68,37,20,83,-28.45,36,2.0,7.0,-1016.0,11:36:43.609186,192.168.0.113
1847,3,3,-1,40,"-2,-2,-176",0,0,0,0,0,0,66,68,38,20,83,-28.62,36,2.0,11.0,-983.0,11:36:43.711083,192.168.0.113
1853,3,3,-1,40,"-2,-2,-176",0,0,0,0,0,0,66,68,38,20,83,-28.59,36,-8.0,9.0,-995.0,11:36:43.813096,192.168.0.113
1858,3,3,0,40,"0,-2,-176",0,0,0,0,0,0,66,68,39,20,83,-28.64,37,0.0,-5.0,-977.0,11:36:43.915254,192.168.0.113
1863,3,3,0,40,"0,-2,-176",0,0,0,0,0,0,66,68,38,20,83,-28.38,37,-1.0,1.0,-986.0,11:36:44.017051,192.168.0.113
1868,3,3,0,40,"0,-2,-176",0,0,0,0,0,0,66,68,38,20,83,-28.48,37,5.0,1.0,-1018.0,11:36:44.119221,192.168.0.113
1873,3,3,-1,40,"-1,-2,-175",0,0,0,0,0,0,65,68,38,20,83,-28.61,37,-11.0,13.0,-1002.0,11:36:44.221095,192.168.0.113
1878,3,3,-1,40,"-1,-2,-175",0,0,0,0,0,0,65,68,38,20,83,-28.31,37,7.0,-15.0,-1000.0,11:36:44.327167,192.168.0.113
1883,3,3,-1,40,"-1,-2,-175",0,-1,0,0,0,0,65,68,39,20,83,-28.42,37,-17.0,1.0,-1026.0,11:36:44.425272,192.168.0.113
1888,3,3,-1,40,"-1,-2,-175",0,0,0,0,0,0,65,68,38,20,83,-28.54,37,11.0,0.0,-956.0,11:36:44.526893,192.168.0.113
1893,3,3,-2,40,"-2,-3,-176",0,0,0,0,0,0,65,68,38,20,83,-28.48,37,-5.0,-8.0,-1012.0,11:36:44.629053,192.168.0.113
1898,3,3,-2,40,"-2,-3,-176",0,0,0,0,0,0,65,68,37,20,83,-28.6,37,-16.0,9.0,-995.0,11:36:44.730999,192.168.0.113
1904,3,3,-2,40,"-2,-3,-176",0,0,0,0,0,0,65,68,38,20,83,-28.46,37,0.0,-6.0,-988.0,11:36:44.832959,192.168.0.113
1908,3,3,-2,40,"-2,-3,-176",0,0,0,0,0,0,65,68,38,20,83,-28.43,38,-6.0,2.0,-1023.0,11:36:44.935029,192.168.0.113
1914,3,2,-2,39,"-2,-2,-176",0,0,0,0,0,0,65,68,37,20,83,-28.42,38,0.0,11.0,-1039.0,11:36:45.037053,192.168.0.113
1919,3,2,-2,39,"-2,-2,-176",0,0,0,0,0,0,65,68,37,20,83,-28.43,38,11.0,8.0,-986.0,11:36:45.139192,192.168.0.113
1924,3,2,-2,39,"-2,-2,-176",0,0,0,0,0,0,65,67,37,20,83,-28.42,38,-6.0,20.0,-1021.0,11:36:45.241114,192.168.0.113
1929,3,2,-2,39,"-2,-2,-176",0,0,0,0,0,0,65,67,37,20,83,-28.46,38,20.0,13.0,-969.0,11:36:45.342660,192.168.0.113
1934,3,1,-1,39,"-1,-2,-176",0,-1,0,0,0,0,65,67,37,20,83,-28.44,38,1.0,24.0,-1017.0,11:36:45.444826,192.168.0.113
1938,3,1,-1,39,"-1,-2,-176",0,0,0,0,0,0,65,67,37,20,83,-28.39,38,-23.0,14.0,-998.0,11:36:45.547199,192.168.0.113
1944,3,1,-1,39,"-1,-2,-176",0,-1,0,0,0,0,65,67,37,20,83,-28.6,38,0.0,-12.0,-1027.0,11:36:45.648786,192.168.0.113
1949,3,2,0,39,"0,-2,-179",0,-2,0,0,0,0,65,67,37,20,83,-28.7,38,-11.0,15.0,-1021.0,11:36:45.750895,192.168.0.113
1954,3,2,0,39,"0,-2,-179",0,0,0,0,0,0,65,67,37,20,83,-28.59,38,-17.0,17.0,-1029.0,11:36:45.852970,192.168.0.113
1959,3,2,0,39,"0,-2,-179",0,0,0,0,0,0,65,67,38,20,83,-28.56,39,0.0,-3.0,-978.0,11:36:45.954892,192.168.0.113
1964,3,2,0,39,"0,-2,-179",0,0,0,0,0,0,65,67,38,20,83,-28.47,39,-14.0,16.0,-977.0,11:36:46.056920,192.168.0.113
1966,3,3,-1,39,"-1,-2,180",0,0,0,0,0,0,65,67,38,20,83,-28.51,39,-10.0,5.0,-1000.0,11:36:46.108526,192.168.0.113
1971,3,3,-1,39,"-1,-2,180",0,0,0,0,0,0,65,68,39,20,83,-28.57,39,11.0,7.0,-995.0,11:36:46.211083,192.168.0.113
1976,3,3,-1,39,"-1,-2,180",0,0,0,0,0,0,65,68,39,20,83,-28.57,39,-2.0,9.0,-998.0,11:36:46.312173,192.168.0.113
1981,3,3,-1,39,"-1,-2,180",0,0,0,0,0,0,65,68,39,20,83,-28.59,39,-7.0,12.0,-1010.0,11:36:46.413869,192.168.0.113
1986,3,2,-3,40,"-2,-3,-175",0,0,0,0,0,0,65,68,39,20,83,-28.49,39,0.0,25.0,-968.0,11:36:46.515821,192.168.0.113
1992,3,2,-3,40,"-2,-3,-175",0,0,0,0,0,0,65,68,39,20,83,-28.54,39,11.0,-4.0,-979.0,11:36:46.618345,192.168.0.113
1997,3,2,-3,40,"-2,-3,-175",0,0,0,0,0,0,65,68,38,20,83,-28.44,39,12.0,-1.0,-989.0,11:36:46.719777,192.168.0.113
2002,3,2,-3,40,"-2,-3,-175",0,0,0,0,0,0,65,68,39,20,83,-28.44,39,33.0,-5.0,-984.0,11:36:46.821922,192.168.0.113
2007,3,2,-3,41,"-4,-3,-174",0,0,0,0,0,0,65,68,38,20,83,-28.54,40,7.0,-3.0,-1004.0,11:36:46.923849,192.168.0.113
2012,3,2,-3,41,"-4,-3,-174",1,0,0,0,0,0,65,68,38,20,83,-28.55,40,-6.0,5.0,-1031.0,11:36:47.025663,192.168.0.113
2017,3,2,-3,41,"-4,-3,-174",2,0,0,0,0,0,65,68,37,20,83,-28.54,40,3.0,10.0,-1008.0,11:36:47.128086,192.168.0.113
2022,3,5,-1,40,"-1,-2,-177",1,0,0,0,0,0,65,69,37,20,83,-28.49,40,9.0,11.0,-966.0,11:36:47.229915,192.168.0.113
2027,3,5,-1,40,"-1,-2,-177",0,-1,0,0,0,0,65,69,37,20,83,-28.44,40,21.0,4.0,-1006.0,11:36:47.331873,192.168.0.113
2033,3,5,-1,40,"-1,-2,-177",0,0,0,0,0,0,65,69,37,20,83,-28.42,40,18.0,0.0,-981.0,11:36:47.433933,192.168.0.113
2037,3,5,-1,40,"-1,-2,-177",1,0,0,0,0,0,65,69,37,20,83,-28.41,40,0.0,-7.0,-960.0,11:36:47.535334,192.168.0.113
2043,3,5,-1,40,"-1,-2,-177",1,0,0,0,0,0,65,69,37,20,83,-28.46,40,26.0,-3.0,-971.0,11:36:47.637950,192.168.0.113
2048,3,5,-1,40,"-1,-2,-177",0,0,0,0,0,0,65,69,36,20,83,-28.38,40,18.0,-13.0,-1009.0,11:36:47.740170,192.168.0.113
2053,3,5,-1,40,"-1,-2,-177",1,0,0,0,0,0,65,69,36,20,83,-28.66,40,-11.0,4.0,-1043.0,11:36:47.841928,192.168.0.113
2058,3,5,-1,40,"-1,-2,-177",0,0,0,0,0,0,65,69,35,20,83,-28.55,41,9.0,-23.0,-978.0,11:36:47.943783,192.168.0.113
2064,3,6,0,39,"-2,-1,-177",0,0,0,0,0,0,65,69,35,20,83,-28.49,41,-20.0,8.0,-997.0,11:36:48.045827,192.168.0.113
2069,3,6,0,39,"-2,-1,-177",0,0,0,0,0,0,65,69,36,20,83,-28.49,41,30.0,-33.0,-963.0,11:36:48.148049,192.168.0.113
2074,3,6,0,39,"-2,-1,-177",0,0,0,0,0,0,66,69,37,20,83,-28.47,41,12.0,-4.0,-1016.0,11:36:48.249943,192.168.0.113
2078,3,6,0,39,"-2,-1,-177",0,0,0,0,0,0,66,69,38,20,83,-28.46,41,2.0,-2.0,-1022.0,11:36:48.352005,192.168.0.113
2084,3,5,0,39,"0,-2,-176",0,0,0,0,0,0,66,69,38,20,83,-28.46,41,-6.0,-3.0,-980.0,11:36:48.453817,192.168.0.113
2088,3,5,0,39,"0,-2,-176",0,0,0,0,0,0,66,69,39,20,83,-28.38,41,1.0,11.0,-1005.0,11:36:48.555841,192.168.0.113
2094,3,5,0,39,"0,-2,-176",0,1,0,0,0,0,66,69,39,20,83,-28.33,41,3.0,7.0,-979.0,11:36:48.657829,192.168.0.113
2099,3,4,1,41,"-1,-2,-175",0,0,0,0,0,0,66,69,39,20,83,-28.38,41,-18.0,-3.0,-982.0,11:36:48.759861,192.168.0.113
2104,3,4,1,41,"-1,-2,-175",0,0,0,0,0,0,66,69,38,20,83,-28.43,41,-6.0,-9.0,-997.0,11:36:48.861833,192.168.0.113
2109,3,4,1,41,"-1,-2,-175",0,0,0,0,0,0,66,69,39,20,83,-28.47,42,-19.0,-22.0,-1031.0,11:36:48.963639,192.168.0.113
2114,3,4,1,41,"-1,-2,-175",0,0,0,0,0,0,66,69,40,20,83,-28.47,42,-1.0,-16.0,-1009.0,11:36:49.065640,192.168.0.113
2119,3,4,3,41,"-1,-2,-177",0,0,0,0,0,0,66,69,40,20,83,-28.56,42,0.0,-7.0,-998.0,11:36:49.167823,192.168.0.113
2124,3,4,3,41,"-1,-2,-177",0,1,0,0,0,0,66,69,40,20,83,-28.42,42,-10.0,7.0,-1026.0,11:36:49.269844,192.168.0.113
2129,3,4,3,41,"-1,-2,-177",0,1,0,0,0,0,66,69,41,20,83,-28.4,42,-13.0,-7.0,-1012.0,11:36:49.371846,192.168.0.113
2134,3,4,3,41,"-1,-2,-177",0,0,0,0,0,0,66,69,40,20,83,-28.42,42,-1.0,8.0,-977.0,11:36:49.473609,192.168.0.113
2136,3,4,3,42,"0,-2,-175",0,0,0,0,0,0,66,69,40,20,83,-28.37,42,3.0,-17.0,-979.0,11:36:49.524895,192.168.0.113
2141,3,4,3,42,"0,-2,-175",0,0,0,0,0,0,66,69,40,20,83,-28.49,42,-8.0,17.0,-994.0,11:36:49.626823,192.168.0.113
2147,3,4,3,42,"0,-2,-175",0,0,0,0,0,0,66,69,40,20,83,-28.46,42,21.0,4.0,-1027.0,11:36:49.728736,192.168.0.113
2152,3,4,3,42,"0,-2,-175",0,0,0,0,0,0,66,69,40,20,83,-28.4,42,3.0,-7.0,-1012.0,11:36:49.830810,192.168.0.113
2156,3,4,2,42,"-1,-3,-175",0,0,0,0,0,0,66,69,40,20,83,-28.47,43,12.0,3.0,-998.0,11:36:49.933409,192.168.0.113
2161,3,4,2,42,"-1,-3,-175",0,0,0,0,0,0,66,69,40,20,83,-28.45,43,31.0,-23.0,-964.0,11:36:50.034866,192.168.0.113
2166,3,4,2,42,"-1,-3,-175",1,0,0,0,0,0,66,69,40,20,83,-28.42,43,9.0,-20.0,-996.0,11:36:50.136752,192.168.0.113
2172,3,4,2,42,"-1,-2,-177",0,0,0,0,0,0,66,69,40,20,83,-28.41,43,4.0,-15.0,-981.0,11:36:50.239113,192.168.0.113
2177,3,4,2,42,"-1,-2,-177",0,0,0,0,0,0,66,69,39,20,83,-28.46,43,-16.0,-20.0,-1020.0,11:36:50.340573,192.168.0.113
2182,3,4,2,42,"-1,-2,-177",1,0,0,0,0,0,66,69,39,20,83,-28.44,43,18.0,8.0,-998.0,11:36:50.443109,192.168.0.113
2187,3,4,2,42,"-1,-2,-177",0,1,0,0,0,0,66,69,39,20,83,-28.45,43,15.0,-4.0,-1028.0,11:36:50.544801,192.168.0.113
2192,3,6,2,41,"-1,-2,-176",0,0,0,0,0,0,66,69,38,20,83,-28.42,43,19.0,-7.0,-1002.0,11:36:50.646779,192.168.0.113
2197,3,6,2,41,"-1,-2,-176",0,0,0,0,0,0,66,69,37,20,83,-28.51,43,1.0,0.0,-989.0,11:36:50.748581,192.168.0.113
2202,3,6,2,41,"-1,-2,-176",0,0,0,0,0,0,66,69,37,20,83,-28.53,43,14.0,1.0,-1007.0,11:36:50.850929,192.168.0.113
2207,3,6,2,41,"-1,-2,-176",0,0,0,0,0,0,66,69,36,20,83,-28.43,44,4.0,-17.0,-1022.0,11:36:50.953676,192.168.0.113
2213,3,5,1,40,"-2,-3,-176",0,0,0,0,0,0,66,69,36,20,83,-28.51,44,17.0,-29.0,-985.0,11:36:51.054766,192.168.0.113
2218,3,5,1,40,"-2,-3,-176",0,0,0,0,0,0,66,69,37,20,83,-28.46,44,17.0,9.0,-998.0,11:36:51.156798,192.168.0.113
2223,3,5,1,40,"-2,-3,-176",0,1,0,0,0,0,66,68,37,20,83,-28.52,44,17.0,-6.0,-1000.0,11:36:51.258851,192.168.0.113
2228,3,5,1,40,"-2,-3,-176",0,1,0,0,0,0,66,68,37,20,83,-28.43,44,13.0,-3.0,-995.0,11:36:51.360668,192.168.0.113
2233,3,5,1,40,"-1,-2,-177",0,0,0,0,0,0,66,68,37,20,83,-28.4,44,0.0,-13.0,-986.0,11:36:51.462847,192.168.0.113
2239,3,5,1,40,"-1,-2,-177",0,0,0,0,0,0,66,68,36,20,83,-28.37,44,23.0,-20.0,-1011.0,11:36:51.564737,192.168.0.113
2244,3,5,1,40,"-1,-2,-177",0,0,0,0,0,0,66,68,36,20,83,-28.56,44,13.0,-23.0,-997.0,11:36:51.666666,192.168.0.113
2249,3,4,2,40,"-1,-2,-176",0,0,0,0,0,0,66,68,36,20,83,-28.49,44,-11.0,19.0,-1018.0,11:36:51.768670,192.168.0.113
2254,3,4,2,40,"-1,-2,-176",0,0,0,0,0,0,66,68,36,20,83,-28.53,45,14.0,8.0,-1020.0,11:36:51.870934,192.168.0.113
2259,3,4,2,40,"-1,-2,-176",0,0,0,0,0,0,66,68,36,20,83,-28.49,45,22.0,-28.0,-999.0,11:36:51.973828,192.168.0.113
2264,3,4,2,40,"-1,-2,-176",1,0,0,0,0,0,66,68,36,20,83,-28.46,45,36.0,7.0,-1000.0,11:36:52.074459,192.168.0.113
2269,3,4,2,40,"-1,-2,-177",0,0,0,0,0,0,66,68,36,20,83,-28.46,45,21.0,-8.0,-1005.0,11:36:52.176591,192.168.0.113
2274,3,4,2,40,"-1,-2,-177",1,0,0,0,0,0,66,69,36,20,83,-28.43,45,0.0,14.0,-1003.0,11:36:52.278706,192.168.0.113
2279,3,4,2,40,"-1,-2,-177",1,0,0,0,0,0,66,69,35,20,83,-28.3,45,-13.0,-4.0,-1003.0,11:36:52.380586,192.168.0.113
2283,3,4,2,40,"-1,-2,-177",0,0,0,0,0,0,66,69,35,20,83,-28.56,45,13.0,-3.0,-998.0,11:36:52.482941,192.168.0.113
2289,3,7,4,38,"1,-1,178",0,0,0,0,0,0,66,69,35,20,83,-28.62,45,-15.0,4.0,-1056.0,11:36:52.584420,192.168.0.113
2294,3,7,4,38,"1,-1,178",0,0,0,0,0,0,66,69,36,20,83,-28.53,45,-17.0,8.0,-979.0,11:36:52.686650,192.168.0.113
2299,3,7,4,38,"1,-1,178",-1,0,0,0,0,0,66,69,37,20,83,-28.36,45,9.0,-20.0,-976.0,11:36:52.788721,192.168.0.113
2304,3,7,4,38,"1,-1,178",0,0,0,0,0,0,66,69,38,20,83,-28.38,46,-7.0,-40.0,-969.0,11:36:52.891489,192.168.0.113
2309,3,4,1,39,"-1,-2,-177",0,0,0,0,0,0,66,69,38,20,83,-28.41,46,-6.0,-14.0,-991.0,11:36:52.992686,192.168.0.113
2314,3,4,1,39,"-1,-2,-177",0,0,0,0,0,0,66,69,37,20,83,-28.52,46,-43.0,2.0,-987.0,11:36:53.094670,192.168.0.113
2316,3,4,1,39,"-1,-2,-177",0,0,0,0,0,0,66,69,37,20,83,-28.51,46,-21.0,-21.0,-1003.0,11:36:53.145652,192.168.0.113
2324,3,2,0,39,"-1,-1,-178",0,0,0,0,0,0,66,69,37,20,83,-28.48,46,-17.0,29.0,-990.0,11:36:53.298463,192.168.0.113
2326,3,2,0,39,"-1,-1,-178",-1,0,0,0,0,0,66,69,36,20,83,-28.43,46,-15.0,-7.0,-1009.0,11:36:53.349232,192.168.0.113
2331,3,2,0,39,"-1,-1,-178",0,0,0,0,0,0,66,69,36,20,83,-28.35,46,-1.0,28.0,-1012.0,11:36:53.451417,192.168.0.113
2336,3,2,0,39,"-1,-1,-178",0,0,0,0,0,0,66,69,36,20,83,-28.4,46,-13.0,10.0,-1015.0,11:36:53.553382,192.168.0.113
2341,3,0,1,39,"0,-2,-177",-1,0,0,0,0,0,66,69,36,20,83,-28.55,46,-28.0,7.0,-1003.0,11:36:53.655721,192.168.0.113
2347,3,0,1,39,"0,-2,-177",-1,-1,0,0,0,0,66,69,38,20,83,-28.59,46,5.0,6.0,-1004.0,11:36:53.758301,192.168.0.113
2352,3,0,1,39,"0,-2,-177",0,-1,0,0,0,0,66,69,38,20,83,-28.61,47,-38.0,5.0,-971.0,11:36:53.861018,192.168.0.113
2357,3,0,1,39,"0,-2,-177",-1,-1,0,0,0,0,66,69,39,20,83,-28.5,47,-18.0,-4.0,-1016.0,11:36:53.961627,192.168.0.113
2362,3,0,1,39,"1,-2,-178",-1,0,0,0,0,0,66,69,39,20,83,-28.48,47,-5.0,20.0,-1009.0,11:36:54.063711,192.168.0.113
2367,3,0,1,39,"1,-2,-178",-1,0,0,0,0,0,66,69,39,20,83,-28.45,47,-14.0,13.0,-968.0,11:36:54.165697,192.168.0.113
2372,3,0,1,39,"1,-2,-178",-1,0,0,0,0,0,66,69,39,20,83,-28.36,47,-2.0,17.0,-1006.0,11:36:54.267901,192.168.0.113
2377,3,0,1,39,"1,-2,-178",0,0,0,0,0,0,66,69,38,20,83,-28.37,47,6.0,11.0,-1029.0,11:36:54.370287,192.168.0.113
2383,3,-1,0,40,"0,-1,179",0,0,0,0,0,0,66,69,38,20,83,-28.33,47,-23.0,-2.0,-982.0,11:36:54.472087,192.168.0.113
2387,3,-1,0,40,"0,-1,179",0,0,0,0,0,0,66,69,37,20,83,-28.44,47,-1.0,24.0,-1025.0,11:36:54.573720,192.168.0.113
2392,3,-1,0,40,"0,-1,179",0,0,0,0,0,0,66,69,37,20,83,-28.44,47,9.0,8.0,-1032.0,11:36:54.675549,192.168.0.113
2398,3,-1,0,39,"0,-2,-179",0,0,0,0,0,0,66,69,37,20,83,-28.35,47,28.0,20.0,-1001.0,11:36:54.778149,192.168.0.113
2403,3,-1,0,39,"0,-2,-179",0,-1,0,0,0,0,66,69,37,20,83,-28.34,48,12.0,29.0,-997.0,11:36:54.879673,192.168.0.113
2408,3,-1,0,39,"0,-2,-179",1,-1,0,0,0,0,66,69,37,20,83,-28.36,48,-5.0,2.0,-966.0,11:36:54.983250,192.168.0.113
2413,3,-1,0,39,"0,-2,-179",1,-1,0,0,0,0,66,69,36,20,83,-28.36,48,8.0,9.0,-1003.0,11:36:55.090707,192.168.0.113
2419,3,-1,-2,38,"0,-2,-177",0,-1,0,0,0,0,66,69,35,20,83,-28.38,48,20.0,26.0,-996.0,11:36:55.185593,192.168.0.113
2424,3,-1,-2,38,"0,-2,-177",0,0,0,0,0,0,66,69,35,20,83,-28.48,48,-21.0,16.0,-1040.0,11:36:55.287577,192.168.0.113
2428,3,-1,-2,38,"0,-2,-177",0,-1,0,0,0,0,66,69,35,20,83,-28.45,48,-52.0,-15.0,-1033.0,11:36:55.389524,192.168.0.113
2433,3,-1,-2,38,"0,-2,-177",0,-1,0,0,0,0,66,69,37,20,83,-28.56,48,8.0,-20.0,-1021.0,11:36:55.491553,192.168.0.113
2438,3,1,-2,38,"-2,-2,180",-1,0,0,0,0,0,66,69,36,20,83,-28.6,48,-10.0,11.0,-1020.0,11:36:55.593609,192.168.0.113
2444,3,1,-2,38,"-2,-2,180",0,0,0,0,0,0,66,69,36,20,83,-28.55,48,-9.0,-18.0,-1032.0,11:36:55.695521,192.168.0.113
2449,3,1,-2,38,"-2,-2,180",-1,0,0,0,0,0,66,69,37,20,83,-28.46,48,-25.0,40.0,-993.0,11:36:55.798752,192.168.0.113
2454,3,0,-2,38,"0,-2,-177",0,0,0,0,0,0,66,69,37,20,83,-28.32,49,18.0,34.0,-1003.0,11:36:55.899393,192.168.0.113
2459,3,0,-2,38,"0,-2,-177",0,0,0,0,0,0,66,69,37,20,83,-28.46,49,-45.0,16.0,-1022.0,11:36:56.001419,192.168.0.113
2464,3,0,-2,38,"0,-2,-177",0,-1,0,0,0,0,66,69,37,20,83,-28.38,49,5.0,24.0,-992.0,11:36:56.103490,192.168.0.113
2469,3,0,-2,38,"0,-2,-177",0,-1,0,0,0,0,66,69,37,20,83,-28.38,49,15.0,-14.0,-992.0,11:36:56.205568,192.168.0.113
2473,3,0,-1,39,"0,-2,-175",0,0,0,0,0,0,67,69,37,20,83,-28.4,49,2.0,20.0,-1009.0,11:36:56.307599,192.168.0.113
2479,3,0,-1,39,"0,-2,-175",0,0,0,0,0,0,67,69,37,20,83,-28.41,49,-2.0,1.0,-1025.0,11:36:56.409725,192.168.0.113
2484,3,0,-1,39,"0,-2,-175",-1,0,0,0,0,0,67,69,36,20,83,-28.37,49,-12.0,14.0,-1018.0,11:36:56.511068,192.168.0.113
2489,3,0,-1,39,"-1,-2,-177",-1,0,0,0,0,0,67,69,37,20,83,-28.37,49,10.0,-2.0,-1002.0,11:36:56.613364,192.168.0.113
2491,3,0,-1,39,"-1,-2,-177",0,-1,0,0,0,0,67,69,37,20,83,-28.38,49,-6.0,13.0,-1034.0,11:36:56.665004,192.168.0.113
2497,3,0,-1,39,"-1,-2,-177",0,0,0,0,0,0,67,69,36,20,83,-28.43,49,0.0,-7.0,-976.0,11:36:56.766414,192.168.0.113
2502,3,0,-1,39,"-1,-2,-177",0,0,0,0,0,0,67,69,36,20,83,-28.4,50,8.0,-5.0,-1023.0,11:36:56.868410,192.168.0.113
2507,3,0,0,39,"1,-2,-178",0,0,0,0,0,0,67,69,36,20,83,-28.48,50,16.0,0.0,-1013.0,11:36:56.970726,192.168.0.113
2512,3,0,0,39,"1,-2,-178",0,0,0,0,0,0,67,69,37,20,83,-28.49,50,38.0,9.0,-1005.0,11:36:57.072405,192.168.0.113
2517,3,0,0,39,"1,-2,-178",0,0,0,0,0,0,67,69,37,20,83,-28.39,50,16.0,7.0,-982.0,11:36:57.174458,192.168.0.113
2522,3,0,0,39,"1,-2,-178",1,0,0,0,0,0,66,69,38,20,83,-28.4,50,-3.0,16.0,-986.0,11:36:57.276430,192.168.0.113
2527,3,0,1,39,"0,-2,-177",0,0,0,0,0,0,66,69,37,20,83,-28.31,50,10.0,22.0,-1005.0,11:36:57.378460,192.168.0.113
2532,3,0,1,39,"0,-2,-177",0,0,0,0,0,0,66,69,38,20,83,-28.41,50,-7.0,16.0,-997.0,11:36:57.481325,192.168.0.113
2537,3,0,1,39,"0,-2,-177",0,0,0,0,0,0,66,69,38,20,83,-28.43,50,14.0,12.0,-992.0,11:36:57.582272,192.168.0.113
2542,3,0,1,39,"0,-2,-177",1,0,0,0,0,0,66,69,38,20,83,-28.49,50,28.0,5.0,-1000.0,11:36:57.684677,192.168.0.113
2547,3,1,1,39,"-2,-2,-176",0,0,0,0,0,0,66,69,38,20,83,-28.35,50,39.0,14.0,-973.0,11:36:57.786497,192.168.0.113
2552,3,1,1,39,"-2,-2,-176",1,0,0,0,0,0,66,69,38,20,83,-28.43,51,32.0,-6.0,-1000.0,11:36:57.888289,192.168.0.113
2557,3,1,1,39,"-2,-2,-176",1,0,0,0,0,0,66,69,37,20,83,-28.28,51,18.0,-7.0,-979.0,11:36:57.990617,192.168.0.113
2562,3,3,1,40,"-2,-2,-177",1,0,0,0,0,0,66,69,38,20,83,-28.38,51,15.0,21.0,-1002.0,11:36:58.092441,192.168.0.113
2567,3,3,1,40,"-2,-2,-177",1,0,0,0,0,0,66,69,38,20,83,-28.34,51,31.0,-8.0,-1000.0,11:36:58.194592,192.168.0.113
2573,3,3,1,40,"-2,-2,-177",1,0,0,0,0,0,67,70,38,20,83,-28.38,51,18.0,10.0,-992.0,11:36:58.297175,192.168.0.113
2578,3,3,1,40,"-2,-2,-177",1,0,0,0,0,0,67,70,38,20,83,-28.34,51,12.0,11.0,-1004.0,11:36:58.398414,192.168.0.113
2583,3,5,0,40,"-2,-2,-178",2,0,0,0,0,0,67,70,38,20,83,-28.38,51,7.0,8.0,-1034.0,11:36:58.500480,192.168.0.113
2588,3,5,0,40,"-2,-2,-178",2,0,0,0,0,0,67,70,38,20,83,-28.31,51,15.0,20.0,-997.0,11:36:58.602596,192.168.0.113
2593,3,5,0,40,"-2,-2,-178",2,0,0,0,0,0,67,70,37,20,83,-28.43,51,17.0,30.0,-996.0,11:36:58.704489,192.168.0.113
2598,3,5,0,40,"-2,-2,-178",1,0,0,0,0,0,67,70,37,20,83,-28.54,51,-9.0,31.0,-1002.0,11:36:58.806134,192.168.0.113
2603,3,9,0,39,"-2,-3,-177",0,0,0,0,0,0,67,70,37,20,83,-28.4,52,-12.0,15.0,-1037.0,11:36:58.908333,192.168.0.113
2609,3,9,0,39,"-2,-3,-177",0,-1,0,0,0,0,67,70,37,20,83,-28.39,52,-9.0,-19.0,-976.0,11:36:59.010494,192.168.0.113
2614,3,9,0,39,"-2,-3,-177",0,-1,0,0,0,0,67,70,37,20,83,-28.26,52,-12.0,12.0,-1035.0,11:36:59.112455,192.168.0.113
2619,3,9,0,39,"-2,-3,-177",1,0,0,0,0,0,67,70,36,20,83,-28.36,52,-3.0,10.0,-1000.0,11:36:59.214304,192.168.0.113
2624,3,9,0,39,"-1,-3,-176",0,0,0,0,0,0,66,68,37,20,83,-28.38,52,4.0,7.0,-1027.0,11:36:59.316061,192.168.0.113
2629,3,9,0,39,"-1,-3,-176",-1,0,0,0,0,0,66,68,39,20,83,-28.4,52,30.0,-2.0,-1003.0,11:36:59.418274,192.168.0.113
2634,3,9,0,39,"-1,-3,-176",-1,0,0,0,0,0,66,68,39,20,83,-28.46,52,18.0,13.0,-998.0,11:36:59.520611,192.168.0.113
2639,3,5,0,39,"-1,-3,-178",0,0,0,0,0,0,66,68,39,20,83,-28.37,52,24.0,21.0,-991.0,11:36:59.622353,192.168.0.113
2644,3,5,0,39,"-1,-3,-178",1,0,0,0,0,0,66,68,38,20,83,-28.41,52,20.0,6.0,-996.0,11:36:59.724177,192.168.0.113
2649,3,5,0,39,"-1,-3,-178",0,0,0,0,0,0,66,68,39,20,83,-28.55,52,6.0,-10.0,-1000.0,11:36:59.827787,192.168.0.113
2654,3,5,0,39,"-1,-3,-178",1,0,0,0,0,0,66,68,39,20,83,-28.48,53,12.0,5.0,-1014.0,11:36:59.928480,192.168.0.113
2659,3,3,0,40,"-2,-2,-178",1,0,0,0,0,0,66,68,39,20,83,-28.49,53,-17.0,1.0,-997.0,11:37:00.033653,192.168.0.113
2664,3,3,0,40,"-2,-2,-178",0,0,0,0,0,0,66,68,39,20,83,-28.54,53,11.0,-1.0,-979.0,11:37:00.132394,192.168.0.113
2667,3,3,0,40,"-2,-2,-178",0,0,0,0,0,0,66,68,40,20,83,-28.44,53,-5.0,7.0,-967.0,11:37:00.183330,192.168.0.113
2674,3,3,0,40,"-2,-2,-178",0,0,0,0,0,0,66,69,40,20,83,-28.4,53,-9.0,11.0,-1005.0,11:37:00.336457,192.168.0.113
2679,3,4,0,41,"-2,-2,-177",0,0,0,0,0,0,66,69,40,20,83,-28.49,53,13.0,-5.0,-1011.0,11:37:00.438389,192.168.0.113
