,mid,x,y,z,mpry,pitch,roll,yaw,vgx,vgy,vgz,templ,temph,tof,h,bat,baro,time,agx,agy,agz,timestamp,address
2,-1,-100,-100,-100,"0,0,0",0,0,0,0,0,0,59,62,10,0,83,-28.44,0,6.0,-12.0,-1000.0,11:36:06.683308,192.168.0.112
7,-1,-100,-100,-100,"0,0,0",0,0,0,0,0,0,59,62,10,0,83,-28.46,0,4.0,-10.0,-998.0,11:36:06.785257,192.168.0.112
12,-1,-100,-100,-100,"0,0,0",0,0,0,0,0,0,59,62,10,0,83,-28.46,0,2.0,-13.0,-1003.0,11:36:06.887211,192.168.0.112
17,-1,-100,-100,-100,"0,0,0",0,0,0,0,0,0,59,62,10,0,83,-28.46,0,17.0,-22.0,-995.0,11:36:06.989411,192.168.0.112
22,-1,-100,-100,-100,"0,0,0",0,0,0,0,0,0,59,62,10,0,83,-28.46,0,22.0,1.0,-1005.0,11:36:07.091353,192.168.0.112
27,-1,-100,-100,-100,"0,0,0",0,0,0,0,0,0,59,62,10,0,83,-28.46,0,13.0,-13.0,-1038.0,11:36:07.193289,192.168.0.112
32,-1,-100,-100,-100,"0,0,0",0,0,0,0,0,0,59,62,10,0,83,-28.46,0,23.0,2.0,-1188.0,11:36:07.295268,192.168.0.112
37,-1,-100,-100,-100,"0,0,0",-1,0,0,0,0,2,59,62,10,0,83,-28.46,0,22.0,1.0,-1366.0,11:36:07.397413,192.168.0.112
43,-1,-100,-100,-100,"0,0,0",1,0,0,-1,0,5,59,62,10,0,83,-28.46,0,-9.0,-13.0,-1208.0,11:36:07.499300,192.168.0.112
48,-1,-100,-100,-100,"0,0,0",2,0,0,0,0,7,59,62,17,0,83,-28.12,0,2.0,-11.0,-1084.0,11:36:07.601002,192.168.0.112
53,-1,-100,-100,-100,"0,0,0",1,0,0,0,0,8,59,62,27,10,83,-28.05,0,7.0,-3.0,-1011.0,11:36:07.703364,192.168.0.112
58,-1,-100,-100,-100,"0,0,0",1,0,0,0,0,8,59,62,32,20,83,-27.95,0,20.0,-8.0,-965.0,11:36:07.804752,192.168.0.112
63,-1,-100,-100,-100,"0,0,0",1,0,0,0,0,7,59,62,41,30,83,-27.87,1,13.0,-7.0,-909.0,11:36:07.906792,192.168.0.112
69,-1,-100,-100,-100,"0,0,0",0,0,0,0,0,6,59,62,50,30,83,-27.82,1,21.0,-2.0,-892.0,11:36:08.012502,192.168.0.112
74,-1,-100,-100,-100,"0,0,0",0,0,0,0,0,5,59,62,56,40,83,-27.79,1,17.0,-5.0,-892.0,11:36:08.110834,192.168.0.112
79,-1,-100,-100,-100,"0,0,0",0,0,0,0,0,4,60,63,63,40,83,-27.7,1,10.0,2.0,-886.0,11:36:08.212790,192.168.0.112
84,-1,-100,-100,-100,"0,0,0",-1,0,0,0,0,3,60,63,67,50,83,-27.68,1,14.0,0.0,-906.0,11:36:08.314810,192.168.0.112
89,-1,-100,-100,-100,"0,0,0",0,0,0,0,0,2,60,63,72,50,83,-27.61,1,10.0,4.0,-935.0,11:36:08.417297,192.168.0.112
94,2,-3,0,57,"0,3,-179",0,0,0,0,0,1,60,63,74,50,83,-27.6,1,22.0,-9.0,-930.0,11:36:08.519258,192.168.0.112
100,2,-3,0,57,"0,3,-179",0,0,0,0,0,1,60,63,77,60,83,-27.57,1,14.0,-4.0,-959.0,11:36:08.621135,192.168.0.112
104,2,-3,0,57,"0,3,-179",0,0,0,0,0,0,60,63,78,60,83,-27.53,1,9.0,-1.0,-965.0,11:36:08.723273,192.168.0.112
110,2,-3,0,57,"0,3,-179",0,0,0,0,0,0,60,63,79,60,83,-27.54,1,10.0,0.0,-969.0,11:36:08.825095,192.168.0.112
115,2,-2,3,72,"3,3,179",0,0,0,0,0,0,60,63,81,60,83,-27.52,2,13.0,-11.0,-967.0,11:36:08.927046,192.168.0.112
120,2,-2,3,72,"3,3,179",0,0,0,0,0,0,60,63,82,60,83,-27.53,2,11.0,-1.0,-994.0,11:36:09.030949,192.168.0.112
125,2,-2,3,72,"3,3,179",0,0,0,0,0,0,60,63,83,60,83,-27.45,2,8.0,1.0,-989.0,11:36:09.131264,192.168.0.112
127,2,-2,3,72,"3,3,179",0,0,0,0,0,0,60,62,84,60,83,-27.48,2,9.0,-3.0,-990.0,11:36:09.182387,192.168.0.112
132,2,-12,-11,77,"-1,4,-169",0,0,0,0,0,0,60,62,85,60,83,-27.46,2,3.0,0.0,-1005.0,11:36:09.286657,192.168.0.112
137,2,-12,-11,77,"-1,4,-169",0,0,0,0,0,0,60,62,85,60,83,-27.49,2,3.0,7.0,-992.0,11:36:09.386306,192.168.0.112
142,2,-12,-11,77,"-1,4,-169",0,0,0,0,0,0,60,62,86,70,83,-27.46,2,2.0,2.0,-978.0,11:36:09.488371,192.168.0.112
147,2,-12,-11,77,"-1,4,-169",0,0,0,0,0,0,60,62,85,70,83,-27.44,2,0.0,3.0,-1001.0,11:36:09.590511,192.168.0.112
152,2,-12,-11,77,"-1,4,-169",0,0,0,0,0,0,60,62,86,70,83,-27.4,2,0.0,-3.0,-1005.0,11:36:09.692396,192.168.0.112
157,2,-12,-11,77,"-1,4,-169",0,0,0,0,0,0,60,62,86,70,83,-27.4,2,1.0,-4.0,-993.0,11:36:09.796544,192.168.0.112
162,2,-12,-11,77,"-1,4,-169",0,0,0,0,0,0,60,62,86,70,83,-27.42,3,-1.0,3.0,-992.0,11:36:09.896482,192.168.0.112
167,2,-8,5,84,"4,3,178",0,0,0,0,0,0,60,62,86,70,83,-27.43,3,5.0,-1.0,-987.0,11:36:09.998021,192.168.0.112
172,2,-8,5,84,"4,3,178",0,0,0,0,0,0,60,62,86,70,83,-27.45,3,0.0,-1.0,-991.0,11:36:10.100045,192.168.0.112
178,2,-8,5,84,"4,3,178",0,0,0,0,0,0,60,63,85,70,83,-27.41,3,-10.0,0.0,-1005.0,11:36:10.202366,192.168.0.112
184,2,-8,5,84,"4,3,178",0,0,0,0,0,0,60,63,85,70,83,-27.4,3,14.0,-17.0,-992.0,11:36:10.307356,192.168.0.112
188,2,-8,5,84,"4,3,178",0,0,0,0,0,0,60,63,85,70,83,-27.52,3,5.0,-6.0,-996.0,11:36:10.406418,192.168.0.112
194,2,-8,5,84,"4,3,178",0,0,0,0,0,0,60,63,84,70,83,-27.39,3,9.0,-5.0,-1000.0,11:36:10.508324,192.168.0.112
199,2,-8,5,84,"4,3,178",0,0,0,0,0,0,60,63,84,70,83,-27.49,3,10.0,-16.0,-1002.0,11:36:10.609927,192.168.0.112
204,2,-8,5,84,"4,3,178",0,0,0,0,0,0,60,63,84,70,83,-27.45,3,7.0,-4.0,-997.0,11:36:10.711851,192.168.0.112
209,2,10,-4,82,"17,4,-173",0,0,0,0,0,0,60,63,83,70,83,-27.47,3,2.0,0.0,-1002.0,11:36:10.815694,192.168.0.112
214,2,10,-4,82,"17,4,-173",0,0,0,0,0,0,60,63,83,70,83,-27.43,4,-6.0,7.0,-1010.0,11:36:10.916382,192.168.0.112
219,2,10,-4,82,"17,4,-173",0,0,0,0,0,0,60,63,83,70,83,-27.45,4,0.0,0.0,-999.0,11:36:11.018460,192.168.0.112
224,2,10,-4,82,"17,4,-173",0,0,0,0,0,0,60,63,83,70,83,-27.48,4,7.0,-16.0,-984.0,11:36:11.120437,192.168.0.112
229,2,10,-4,82,"17,4,-173",0,0,0,0,0,0,60,63,82,70,83,-27.5,4,6.0,-13.0,-999.0,11:36:11.222322,192.168.0.112
234,2,10,-4,82,"17,4,-173",0,0,0,0,0,0,60,63,82,60,83,-27.42,4,2.0,-4.0,-993.0,11:36:11.324282,192.168.0.112
239,2,10,-4,82,"17,4,-173",0,0,0,0,0,0,60,63,82,60,83,-27.47,4,7.0,-3.0,-1015.0,11:36:11.426396,192.168.0.112
244,2,10,-4,82,"17,4,-173",0,0,0,0,0,0,60,63,81,60,83,-27.44,4,-1.0,-8.0,-1002.0,11:36:11.528182,192.168.0.112
249,2,10,-4,82,"17,4,-173",0,0,0,0,0,0,60,63,81,60,83,-27.44,4,7.0,-3.0,-999.0,11:36:11.630330,192.168.0.112
252,2,10,-4,82,"17,4,-173",-1,0,0,0,0,0,60,63,81,60,83,-27.46,4,-15.0,-1.0,-1001.0,11:36:11.683175,192.168.0.112
257,2,10,-4,82,"17,4,-173",-1,0,0,0,0,0,60,63,81,60,83,-27.48,4,-6.0,-5.0,-1013.0,11:36:11.785570,192.168.0.112
262,2,10,-4,82,"17,4,-173",0,0,0,0,0,0,60,63,81,60,83,-27.56,5,5.0,-25.0,-992.0,11:36:11.885146,192.168.0.112
267,2,-16,6,78,"1,3,177",0,0,0,0,0,0,60,63,80,60,83,-27.5,5,0.0,-5.0,-1003.0,11:36:11.987102,192.168.0.112
272,2,-16,6,78,"1,3,177",0,0,0,0,0,0,60,63,80,60,83,-27.48,5,-1.0,-8.0,-1013.0,11:36:12.089146,192.168.0.112
277,2,-16,6,78,"1,3,177",0,0,0,0,0,0,60,63,80,60,83,-27.47,5,2.0,-8.0,-1007.0,11:36:12.195255,192.168.0.112
282,2,-16,6,78,"1,3,177",0,0,0,0,0,0,60,63,80,60,83,-27.45,5,0.0,-4.0,-992.0,11:36:12.293223,192.168.0.112
288,2,-16,6,78,"1,3,177",0,0,0,0,0,0,60,63,81,60,83,-27.49,5,7.0,-11.0,-1001.0,11:36:12.401693,192.168.0.112
292,2,-16,6,78,"1,3,177",0,0,0,0,0,0,60,63,81,60,83,-27.5,5,-11.0,0.0,-1000.0,11:36:12.499007,192.168.0.112
297,2,-16,6,78,"1,3,177",0,0,0,0,0,0,60,63,81,60,83,-27.5,5,-1.0,-1.0,-997.0,11:36:12.601333,192.168.0.112
303,2,-16,6,78,"1,3,177",0,0,0,0,0,0,60,63,81,60,83,-27.41,5,0.0,7.0,-1003.0,11:36:12.701030,192.168.0.112
308,2,-16,6,78,"1,2,177",-1,0,0,0,0,0,60,63,80,60,83,-27.4,5,-8.0,-5.0,-993.0,11:36:12.806309,192.168.0.112
313,2,-16,6,78,"1,2,177",-1,0,0,0,0,0,60,63,81,60,83,-27.44,6,4.0,-2.0,-987.0,11:36:12.906474,192.168.0.112
318,2,-16,6,78,"1,2,177",-1,0,0,0,0,0,60,63,81,60,83,-27.5,6,-23.0,4.0,-1001.0,11:36:13.007647,192.168.0.112
324,2,-16,6,78,"1,2,177",-1,0,0,0,0,0,60,63,80,60,83,-27.45,6,-9.0,-5.0,-990.0,11:36:13.109223,192.168.0.112
329,2,-10,8,79,"6,2,175",-1,0,0,0,0,0,61,63,80,60,83,-27.45,6,-10.0,4.0,-1009.0,11:36:13.211176,192.168.0.112
334,2,-10,8,79,"6,2,175",-1,0,0,0,0,0,61,63,80,60,83,-27.48,6,5.0,0.0,-990.0,11:36:13.313222,192.168.0.112
339,2,-10,8,79,"6,2,175",0,0,0,0,0,0,61,63,80,60,83,-27.52,6,-5.0,5.0,-878.0,11:36:13.415011,192.168.0.112
344,2,-10,8,79,"6,2,175",0,1,0,0,0,-1,61,63,78,60,83,-27.49,6,-9.0,8.0,-906.0,11:36:13.517582,192.168.0.112
349,2,-9,10,79,"7,2,174",0,0,0,0,0,-2,61,63,76,60,83,-27.49,6,1.0,-7.0,-932.0,11:36:13.618604,192.168.0.112
355,2,-9,10,79,"7,2,174",-1,0,0,0,0,-2,61,63,74,60,83,-27.53,6,5.0,-14.0,-958.0,11:36:13.724781,192.168.0.112
359,2,-9,10,79,"7,2,174",-1,0,0,0,0,-3,61,63,70,50,83,-27.53,6,-1.0,-9.0,-990.0,11:36:13.822916,192.168.0.112
364,2,-9,10,79,"7,2,174",-1,0,0,0,0,-3,61,63,67,50,83,-27.57,7,-6.0,1.0,-1015.0,11:36:13.924824,192.168.0.112
369,2,-9,10,79,"7,2,174",-1,0,0,0,0,-3,61,63,64,50,83,-27.61,7,6.0,0.0,-1039.0,11:36:14.026677,192.168.0.112
374,2,-9,10,79,"7,2,174",-1,0,0,0,0,-3,61,63,60,40,83,-27.69,7,-1.0,0.0,-1026.0,11:36:14.129055,192.168.0.112
379,2,-9,10,79,"7,2,174",-1,0,0,0,0,-2,60,63,57,40,83,-27.64,7,1.0,-2.0,-1025.0,11:36:14.231249,192.168.0.112
382,2,-9,10,79,"7,2,174",-1,0,0,0,0,-2,60,63,55,40,83,-27.73,7,-3.0,20.0,-1024.0,11:36:14.282316,192.168.0.112
387,2,-17,3,61,"2,2,177",-1,0,0,0,0,-2,60,63,52,40,83,-27.75,7,-2.0,6.0,-1027.0,11:36:14.384371,192.168.0.112
392,2,-17,3,61,"2,2,177",-1,0,0,0,0,-2,60,63,49,30,83,-27.67,7,-4.0,7.0,-1019.0,11:36:14.486298,192.168.0.112
397,2,-17,3,61,"2,2,177",-1,-1,0,0,0,-1,60,63,48,30,83,-27.65,7,10.0,-14.0,-1018.0,11:36:14.589038,192.168.0.112
402,2,-17,3,61,"2,2,177",-1,-1,0,-1,0,-1,60,63,47,30,83,-27.65,7,4.0,-3.0,-1016.0,11:36:14.690254,192.168.0.112
407,2,-18,2,52,"2,1,175",-1,0,0,-1,0,-1,60,63,45,30,83,-27.75,7,4.0,3.0,-1022.0,11:36:14.792183,192.168.0.112
412,2,-18,2,52,"2,1,175",-1,0,0,-1,0,-1,60,63,44,30,83,-27.68,8,2.0,0.0,-1007.0,11:36:14.894225,192.168.0.112
417,2,-18,2,52,"2,1,175",-1,0,0,-1,0,-1,60,63,44,30,83,-27.84,8,7.0,-2.0,-1027.0,11:36:14.996225,192.168.0.112
422,2,-17,-3,45,"1,2,177",-1,0,0,-1,0,0,60,63,43,30,83,-27.85,8,-7.0,9.0,-1019.0,11:36:15.100636,192.168.0.112
427,2,-17,-3,45,"1,2,177",0,0,0,-1,0,0,60,63,42,20,83,-27.79,8,-1.0,1.0,-1008.0,11:36:15.200183,192.168.0.112
433,2,-17,-3,45,"1,2,177",0,0,0,-1,0,0,60,63,42,20,83,-27.79,8,26.0,-16.0,-1006.0,11:36:15.302995,192.168.0.112
438,2,-17,-3,45,"1,2,177",0,0,0,-1,0,0,60,63,41,20,83,-27.86,8,3.0,0.0,-1015.0,11:36:15.404506,192.168.0.112
443,2,-14,-5,41,"0,3,180",0,0,0,-1,0,0,60,63,40,20,83,-27.75,8,-1.0,-9.0,-1020.0,11:36:15.506204,192.168.0.112
448,2,-14,-5,41,"0,3,180",3,0,0,0,0,0,60,63,40,20,83,-27.89,8,2.0,1.0,-1034.0,11:36:15.608154,192.168.0.112
454,2,-14,-5,41,"0,3,180",1,0,0,0,0,0,60,63,40,20,83,-27.84,8,22.0,2.0,-1009.0,11:36:15.710078,192.168.0.112
459,2,-14,-5,41,"0,3,180",0,0,0,0,0,0,60,63,40,20,83,-27.86,8,33.0,0.0,-1026.0,11:36:15.812219,192.168.0.112
464,2,-9,-8,39,"1,4,-177",0,0,0,0,0,0,60,63,40,20,83,-27.77,9,18.0,-4.0,-986.0,11:36:15.913973,192.168.0.112
469,2,-9,-8,39,"1,4,-177",0,0,0,0,0,0,60,63,41,20,83,-27.84,9,24.0,-7.0,-980.0,11:36:16.016290,192.168.0.112
474,2,-9,-8,39,"1,4,-177",0,0,0,0,0,0,60,63,41,20,83,-27.76,9,33.0,-11.0,-990.0,11:36:16.118179,192.168.0.112
479,2,-7,-6,40,"4,3,-178",0,0,0,0,0,0,61,64,42,20,83,-27.75,9,11.0,8.0,-992.0,11:36:16.220245,192.168.0.112
484,2,-7,-6,40,"4,3,-178",0,0,0,0,0,0,61,64,42,20,83,-27.75,9,28.0,0.0,-1015.0,11:36:16.322040,192.168.0.112
489,2,-7,-6,40,"4,3,-178",0,0,0,0,0,0,61,64,43,20,83,-27.86,9,9.0,0.0,-987.0,11:36:16.424240,192.168.0.112
494,2,-7,-6,40,"4,3,-178",0,0,0,0,0,0,61,64,42,20,83,-27.81,9,9.0,-3.0,-1001.0,11:36:16.525820,192.168.0.112
499,2,-7,-6,40,"4,3,-178",0,0,0,0,0,0,61,64,42,20,83,-27.8,9,7.0,3.0,-1002.0,11:36:16.628105,192.168.0.112
504,2,-7,-6,40,"4,3,-178",0,0,0,0,0,0,61,64,43,20,83,-27.85,9,3.0,3.0,-1000.0,11:36:16.730111,192.168.0.112
509,2,-7,-6,40,"4,3,-178",0,0,0,0,0,0,61,64,43,20,83,-27.77,9,21.0,-7.0,-1001.0,11:36:16.832189,192.168.0.112
512,2,-7,-6,40,"4,3,-178",0,0,0,0,0,0,61,64,42,20,83,-27.73,10,21.0,-13.0,-988.0,11:36:16.882920,192.168.0.112
517,2,-12,-9,41,"2,4,-175",0,0,0,0,0,0,61,64,42,20,83,-27.8,10,14.0,-7.0,-1007.0,11:36:16.984959,192.168.0.112
522,2,-12,-9,41,"2,4,-175",0,0,0,0,0,0,61,64,42,20,83,-27.8,10,5.0,0.0,-1007.0,11:36:17.086915,192.168.0.112
530,2,-12,-9,41,"2,4,-175",0,0,0,0,0,0,61,63,42,20,83,-27.83,10,11.0,-3.0,-997.0,11:36:17.240242,192.168.0.112
535,2,-19,-5,41,"0,2,179",-1,0,0,0,0,0,61,63,41,20,83,-27.82,10,4.0,0.0,-989.0,11:36:17.342194,192.168.0.112
537,2,-19,-5,41,"0,2,179",0,0,0,0,0,0,61,63,41,20,83,-27.82,10,2.0,1.0,-995.0,11:36:17.394623,192.168.0.112
542,2,-19,-5,41,"0,2,179",-1,0,0,0,0,0,61,63,41,20,83,-27.8,10,4.0,-2.0,-979.0,11:36:17.495000,192.168.0.112
547,2,-19,-5,41,"0,2,179",-3,0,0,0,0,0,61,63,41,20,83,-27.81,10,0.0,0.0,-998.0,11:36:17.597618,192.168.0.112
552,2,-19,-5,41,"0,2,179",-3,0,0,0,0,0,61,63,40,20,83,-27.82,10,-5.0,4.0,-1008.0,11:36:17.698891,192.168.0.112
557,2,-19,-5,41,"0,2,179",-2,0,0,-1,0,0,61,63,39,20,83,-27.77,10,-6.0,10.0,-1000.0,11:36:17.800825,192.168.0.112
562,2,-19,-5,41,"0,2,179",-2,0,0,-1,0,0,61,63,39,20,83,-27.79,11,-6.0,6.0,-1008.0,11:36:17.902935,192.168.0.112
567,2,-19,-5,41,"0,2,179",-1,0,0,-1,0,0,61,63,39,20,83,-27.85,11,-17.0,7.0,-1011.0,11:36:18.004868,192.168.0.112
572,2,-19,-5,41,"0,2,179",-1,0,0,-1,0,0,61,63,38,20,83,-27.78,11,0.0,8.0,-1008.0,11:36:18.107109,192.168.0.112
577,2,-19,-5,41,"0,2,179",-1,0,0,-1,0,0,61,63,38,20,83,-27.81,11,1.0,7.0,-1001.0,11:36:18.208959,192.168.0.112
584,2,-19,-5,41,"0,2,179",0,0,0,-1,0,0,61,63,38,20,83,-27.85,11,0.0,3.0,-999.0,11:36:18.310703,192.168.0.112
589,2,-19,-5,41,"0,2,179",0,0,0,-1,0,0,61,63,38,20,83,-27.85,11,-2.0,4.0,-1002.0,11:36:18.412975,192.168.0.112
594,2,-19,-5,41,"0,2,179",0,0,0,-1,0,0,61,63,38,20,83,-27.75,11,0.0,13.0,-992.0,11:36:18.514925,192.168.0.112
599,2,-19,-5,41,"0,2,179",-1,0,0,-1,0,0,61,63,38,20,83,-27.81,11,-6.0,9.0,-1000.0,11:36:18.616862,192.168.0.112
603,2,-19,-5,41,"0,2,179",-1,0,0,-1,0,0,61,63,38,20,83,-27.76,11,8.0,4.0,-988.0,11:36:18.718856,192.168.0.112
609,2,-12,-6,37,"2,4,-177",0,0,0,-1,0,0,61,63,37,20,83,-27.77,11,1.0,7.0,-998.0,11:36:18.820933,192.168.0.112
614,2,-12,-6,37,"2,4,-177",0,0,0,-1,0,0,61,63,37,20,83,-27.78,12,4.0,6.0,-996.0,11:36:18.922813,192.168.0.112
619,2,-12,-6,37,"2,4,-177",0,0,0,-1,0,0,61,63,37,20,83,-27.92,12,1.0,-4.0,-1021.0,11:36:19.024754,192.168.0.112
624,2,-12,-6,37,"2,4,-177",0,0,0,-1,0,0,61,63,37,20,83,-27.78,12,8.0,-4.0,-1004.0,11:36:19.126877,192.168.0.112
629,2,-12,-6,37,"2,4,-177",0,0,0,-1,0,0,61,64,37,20,83,-27.86,12,-3.0,-9.0,-992.0,11:36:19.228920,192.168.0.112
635,2,-12,-6,37,"2,4,-177",0,0,0,-1,0,0,61,64,38,20,83,-27.87,12,0.0,6.0,-985.0,11:36:19.334382,192.168.0.112
640,2,-12,-6,37,"2,4,-177",-1,0,0,-1,0,0,61,64,38,20,83,-27.83,12,3.0,-9.0,-1007.0,11:36:19.433583,192.168.0.112
645,2,-8,-5,36,"0,3,180",-1,0,0,0,0,0,61,64,38,20,83,-27.88,12,6.0,6.0,-1004.0,11:36:19.534938,192.168.0.112
650,2,-8,-5,36,"0,3,180",-1,0,0,-1,0,0,61,64,37,20,83,-27.79,12,18.0,7.0,-1018.0,11:36:19.637312,192.168.0.112
655,2,-8,-5,36,"0,3,180",0,0,0,-1,0,0,61,64,37,20,83,-27.88,12,-7.0,-5.0,-1024.0,11:36:19.738949,192.168.0.112
660,2,-8,-5,36,"0,3,180",0,0,0,-1,0,0,61,64,37,20,83,-27.9,12,22.0,-9.0,-960.0,11:36:19.840738,192.168.0.112
665,2,-6,-3,36,"1,2,179",0,0,0,0,0,0,61,64,37,20,83,-27.81,13,6.0,-1.0,-1024.0,11:36:19.942976,192.168.0.112
670,2,-6,-3,36,"1,2,179",0,0,0,0,0,0,61,64,37,20,83,-27.85,13,1.0,3.0,-1026.0,11:36:20.044830,192.168.0.112
675,2,-6,-3,36,"1,2,179",2,0,0,0,0,0,61,64,37,20,83,-27.82,13,2.0,-3.0,-999.0,11:36:20.147015,192.168.0.112
680,2,-6,-3,36,"1,2,179",0,0,0,0,0,0,61,64,37,20,83,-27.92,13,41.0,-13.0,-1030.0,11:36:20.248827,192.168.0.112
685,2,-5,-2,36,"0,2,178",0,0,0,0,0,0,61,64,37,20,83,-27.87,13,8.0,5.0,-993.0,11:36:20.350825,192.168.0.112
690,2,-5,-2,36,"0,2,178",0,0,0,0,0,0,61,64,37,20,83,-27.83,13,33.0,2.0,-974.0,11:36:20.452797,192.168.0.112
692,2,-5,-2,36,"0,2,178",0,0,0,0,0,0,61,64,37,20,83,-27.77,13,9.0,19.0,-978.0,11:36:20.504019,192.168.0.112
697,2,-5,-3,36,"0,2,179",1,0,0,0,0,0,61,64,38,20,83,-27.81,13,20.0,8.0,-1008.0,11:36:20.605928,192.168.0.112
702,2,-5,-3,36,"0,2,179",0,0,0,0,0,0,61,64,37,20,83,-27.78,13,30.0,-7.0,-968.0,11:36:20.708067,192.168.0.112
708,2,-5,-3,36,"0,2,179",0,0,0,0,0,0,61,64,37,20,83,-27.7,13,28.0,-16.0,-984.0,11:36:20.809922,192.168.0.112
713,2,-5,-3,36,"0,2,179",0,0,0,0,0,0,61,64,37,20,83,-27.8,14,41.0,-22.0,-1029.0,11:36:20.911953,192.168.0.112
718,2,-8,-4,36,"0,3,180",0,0,0,0,0,0,61,64,36,20,83,-27.82,14,50.0,-2.0,-1010.0,11:36:21.013984,192.168.0.112
723,2,-8,-4,36,"0,3,180",0,1,0,0,0,0,61,64,36,20,83,-27.63,14,63.0,-7.0,-1032.0,11:36:21.116035,192.168.0.112
728,2,-8,-4,36,"0,3,180",1,2,0,0,0,0,61,63,36,20,83,-27.91,14,58.0,6.0,-990.0,11:36:21.218008,192.168.0.112
733,2,-8,-4,36,"0,3,180",0,0,0,0,0,0,61,63,37,20,83,-27.83,14,23.0,-9.0,-990.0,11:36:21.319784,192.168.0.112
738,2,-11,-2,35,"0,2,180",0,0,0,0,0,0,61,63,37,20,83,-27.78,14,26.0,2.0,-994.0,11:36:21.422069,192.168.0.112
743,2,-11,-2,35,"0,2,180",0,0,0,0,0,0,61,63,37,20,83,-27.82,14,19.0,4.0,-981.0,11:36:21.523878,192.168.0.112
748,2,-11,-2,35,"0,2,180",0,0,0,0,0,0,61,63,37,20,83,-27.75,14,17.0,-6.0,-1013.0,11:36:21.625867,192.168.0.112
753,2,-11,-2,35,"0,2,180",0,0,0,0,0,0,61,63,37,20,83,-27.66,14,24.0,-8.0,-980.0,11:36:21.727902,192.168.0.112
758,2,-11,-2,35,"0,2,179",0,0,0,0,0,0,61,63,37,20,83,-27.65,14,25.0,9.0,-1004.0,11:36:21.829967,192.168.0.112
763,2,-11,-2,35,"0,2,179",0,0,0,-1,0,0,61,63,37,20,83,-27.68,15,29.0,7.0,-990.0,11:36:21.931988,192.168.0.112
769,2,-11,-2,35,"0,2,179",0,0,0,0,0,0,61,63,37,20,83,-27.74,15,30.0,15.0,-991.0,11:36:22.033926,192.168.0.112
774,2,-10,-3,36,"1,2,-177",0,0,0,0,0,0,61,63,38,20,83,-27.85,15,26.0,-4.0,-1058.0,11:36:22.135883,192.168.0.112
779,2,-10,-3,36,"1,2,-177",0,0,0,-1,0,0,61,63,39,20,83,-27.87,15,26.0,-1.0,-989.0,11:36:22.238100,192.168.0.112
785,2,-10,-3,36,"1,2,-177",0,0,0,-1,0,0,61,63,40,20,83,-27.82,15,5.0,-13.0,-1022.0,11:36:22.340954,192.168.0.112
790,2,-10,-3,36,"1,2,-177",0,0,0,-1,0,0,61,63,40,20,83,-27.85,15,6.0,2.0,-993.0,11:36:22.441938,192.168.0.112
795,2,-10,-1,36,"0,2,178",0,0,0,0,0,0,61,63,40,20,83,-27.78,15,-15.0,1.0,-996.0,11:36:22.543543,192.168.0.112
800,2,-10,-1,36,"0,2,178",0,0,0,0,0,0,61,63,41,20,83,-27.77,15,1.0,10.0,-971.0,11:36:22.645814,192.168.0.112
805,2,-10,-1,36,"0,2,178",-1,0,0,0,0,0,61,63,41,20,83,-27.82,15,4.0,9.0,-986.0,11:36:22.747811,192.168.0.112
810,2,-10,-1,36,"0,2,178",-1,0,0,0,0,0,61,63,41,20,83,-27.9,15,15.0,-1.0,-978.0,11:36:22.850072,192.168.0.112
815,2,-5,-1,39,"3,2,180",-1,0,0,0,0,0,61,63,41,20,83,-27.92,16,9.0,-1.0,-1028.0,11:36:22.951965,192.168.0.112
820,2,-5,-1,39,"3,2,180",-1,0,0,0,0,0,61,63,41,20,83,-27.85,16,7.0,6.0,-1014.0,11:36:23.063837,192.168.0.112
825,2,-5,-1,39,"3,2,180",-1,0,0,0,0,0,61,63,40,20,83,-27.81,16,29.0,6.0,-977.0,11:36:23.155962,192.168.0.112
830,2,-5,-1,39,"3,2,180",0,0,0,0,0,0,61,63,40,20,83,-27.69,16,10.0,9.0,-982.0,11:36:23.257931,192.168.0.112
835,2,-5,-1,39,"3,2,180",0,0,0,-1,0,0,61,63,40,20,83,-27.75,16,0.0,17.0,-1013.0,11:36:23.360568,192.168.0.112
840,2,-5,-1,39,"3,2,180",2,0,0,0,0,0,61,63,40,20,83,-27.74,16,32.0,12.0,-954.0,11:36:23.461806,192.168.0.112
845,2,-5,-1,39,"3,2,180",1,0,0,0,0,0,61,63,39,20,83,-27.79,16,10.0,7.0,-998.0,11:36:23.563846,192.168.0.112
850,2,-5,-1,39,"3,2,180",0,0,0,0,0,0,61,63,39,20,83,-27.77,16,25.0,13.0,-1007.0,11:36:23.665747,192.168.0.112
855,2,-5,-1,39,"3,2,180",0,0,0,0,0,0,61,63,39,20,83,-27.75,16,14.0,13.0,-997.0,11:36:23.767764,192.168.0.112
858,2,-5,-1,39,"3,2,180",0,0,0,0,0,0,61,63,39,20,83,-27.72,16,29.0,3.0,-1030.0,11:36:23.818743,192.168.0.112
863,2,-5,-1,39,"3,2,180",0,0,0,0,0,0,61,63,39,20,83,-27.77,17,17.0,0.0,-1000.0,11:36:23.921824,192.168.0.112
868,2,-4,-1,39,"3,2,180",0,0,0,0,0,0,61,63,40,20,83,-27.8,17,19.0,-7.0,-990.0,11:36:24.024328,192.168.0.112
873,2,-4,-1,39,"3,2,180",0,0,0,0,0,0,61,63,39,20,83,-27.75,17,1.0,16.0,-989.0,11:36:24.124715,192.168.0.112
878,2,-4,-1,39,"3,2,180",0,0,0,0,0,0,61,63,38,20,83,-27.7,17,8.0,-16.0,-1000.0,11:36:24.226692,192.168.0.112
883,2,-4,-1,39,"3,2,180",0,1,0,0,0,0,61,63,38,20,83,-27.6,17,19.0,-23.0,-1049.0,11:36:24.328578,192.168.0.112
888,2,-10,0,38,"0,1,178",0,2,0,0,0,0,61,63,38,20,83,-27.81,17,18.0,-17.0,-1008.0,11:36:24.431912,192.168.0.112
893,2,-10,0,38,"0,1,178",-1,2,0,0,0,0,61,63,39,20,83,-27.84,17,27.0,-18.0,-997.0,11:36:24.532598,192.168.0.112
898,2,-10,0,38,"0,1,178",-3,1,0,0,0,0,61,63,41,20,83,-27.74,17,32.0,-18.0,-989.0,11:36:24.634584,192.168.0.112
903,2,-12,0,37,"3,2,-176",-3,1,0,0,0,0,61,63,41,20,83,-27.7,17,17.0,-26.0,-979.0,11:36:24.736806,192.168.0.112
908,2,-12,0,37,"3,2,-176",-1,1,0,-1,0,0,61,63,37,20,83,-27.4,17,12.0,-15.0,-965.0,11:36:24.838482,192.168.0.112
913,2,-12,0,37,"3,2,-176",0,0,0,-1,0,0,61,63,36,20,83,-27.41,18,16.0,0.0,-1011.0,11:36:24.940619,192.168.0.112
918,2,-12,0,37,"3,2,-176",0,1,0,-1,0,0,61,63,36,20,83,-27.29,18,27.0,-11.0,-987.0,11:36:25.042835,192.168.0.112
923,2,-12,0,37,"3,2,-176",-1,2,0,-1,0,0,61,63,36,20,83,-27.29,18,29.0,-23.0,-984.0,11:36:25.149598,192.168.0.112
928,2,-12,0,37,"3,2,-176",0,0,0,-1,0,0,61,63,35,20,83,-27.28,18,26.0,-5.0,-1013.0,11:36:25.246730,192.168.0.112
934,2,-12,0,37,"3,2,-176",0,0,0,-1,0,0,61,63,36,20,83,-27.51,18,39.0,-12.0,-1017.0,11:36:25.348569,192.168.0.112
940,2,-12,0,37,"3,2,-176",0,0,0,-1,0,0,61,63,35,20,83,-27.76,18,28.0,-7.0,-1008.0,11:36:25.450730,192.168.0.112
945,2,-12,0,37,"3,2,-176",0,0,0,-1,0,0,61,63,35,20,83,-27.95,18,31.0,-5.0,-1026.0,11:36:25.553088,192.168.0.112
950,2,-12,0,37,"3,2,-176",1,0,0,-1,0,0,61,63,35,20,83,-28.13,18,33.0,-7.0,-994.0,11:36:25.654682,192.168.0.112
955,2,-12,0,37,"3,2,-176",2,0,0,-1,0,0,61,63,36,20,83,-28.21,18,26.0,-10.0,-954.0,11:36:25.756712,192.168.0.112
960,2,-10,3,36,"0,2,178",2,1,0,0,0,0,61,63,36,20,83,-28.25,19,64.0,-11.0,-963.0,11:36:25.858677,192.168.0.112
965,2,-10,3,36,"0,2,178",2,0,0,0,0,0,61,63,36,20,83,-28.16,19,53.0,9.0,-989.0,11:36:25.960721,192.168.0.112
970,2,-10,3,36,"0,2,178",1,0,0,0,0,0,61,63,36,20,83,-28.29,19,36.0,0.0,-1020.0,11:36:26.062661,192.168.0.112
975,2,-10,3,36,"0,2,178",2,0,0,0,0,0,61,63,36,20,83,-28.23,19,25.0,2.0,-1002.0,11:36:26.164528,192.168.0.112
980,2,-8,3,36,"-2,2,-178",1,0,0,0,0,0,61,65,36,20,83,-28.09,19,29.0,-14.0,-1005.0,11:36:26.266547,192.168.0.112
985,2,-8,3,36,"-2,2,-178",0,0,0,0,0,0,61,65,37,20,83,-28.15,19,25.0,2.0,-1012.0,11:36:26.368556,192.168.0.112
990,2,-8,3,36,"-2,2,-178",0,0,0,0,0,0,61,65,38,20,83,-28.04,19,33.0,-2.0,-983.0,11:36:26.470673,192.168.0.112
995,2,-8,3,36,"-2,2,-178",0,0,0,0,0,0,61,65,39,20,83,-28.05,19,33.0,3.0,-996.0,11:36:26.572559,192.168.0.112
1000,2,-8,1,38,"0,2,-175",0,0,0,0,0,0,61,65,39,20,83,-28.03,19,39.0,-17.0,-988.0,11:36:26.674756,192.168.0.112
1005,2,-8,1,38,"0,2,-175",0,0,0,0,0,0,61,65,39,20,83,-28.09,19,38.0,-15.0,-1022.0,11:36:26.776536,192.168.0.112
1010,2,-8,1,38,"0,2,-175",0,0,0,0,0,0,61,65,39,20,83,-28.08,20,33.0,8.0,-983.0,11:36:26.878380,192.168.0.112
1015,2,-12,4,37,"0,2,180",0,1,0,0,0,0,61,65,41,20,83,-28.01,20,29.0,8.0,-961.0,11:36:26.980501,192.168.0.112
1020,2,-12,4,37,"0,2,180",0,0,0,0,0,0,61,65,44,20,83,-28.1,20,43.0,-15.0,-1015.0,11:36:27.082423,192.168.0.112
1025,2,-12,4,37,"0,2,180",0,0,0,0,0,0,61,65,43,20,83,-28.1,20,30.0,4.0,-979.0,11:36:27.184489,192.168.0.112
1030,2,-12,4,37,"0,2,180",0,0,0,0,0,0,61,64,42,20,83,-28.1,20,35.0,-3.0,-1005.0,11:36:27.286610,192.168.0.112
1035,2,-16,5,38,"0,1,178",0,0,0,0,0,0,61,64,42,20,83,-28.08,20,19.0,-3.0,-1055.0,11:36:27.391528,192.168.0.112
1040,2,-16,5,38,"0,1,178",0,0,0,0,0,0,61,64,42,20,83,-28.11,20,20.0,5.0,-984.0,11:36:27.490548,192.168.0.112
1043,2,-16,5,38,"0,1,178",0,0,0,0,0,0,61,64,42,20,83,-28.03,20,46.0,15.0,-1002.0,11:36:27.541376,192.168.0.112
1048,2,-16,5,38,"0,1,178",0,0,0,0,0,0,61,64,41,20,83,-28.05,20,50.0,9.0,-1006.0,11:36:27.645559,192.168.0.112
1053,2,-17,1,39,"2,3,-177",0,-1,0,0,0,0,61,64,41,20,83,-28.05,20,19.0,-8.0,-972.0,11:36:27.745666,192.168.0.112
1058,2,-17,1,39,"2,3,-177",0,0,0,0,0,0,61,64,40,20,83,-28.03,21,21.0,-3.0,-1013.0,11:36:27.847803,192.168.0.112
1063,2,-17,1,39,"2,3,-177",0,0,0,0,0,0,61,64,40,20,83,-27.87,21,31.0,-6.0,-994.0,11:36:27.949800,192.168.0.112
1068,2,-17,1,39,"2,3,-177",0,0,0,0,0,0,61,64,40,20,83,-28.03,21,36.0,0.0,-1000.0,11:36:28.051359,192.168.0.112
1073,2,-17,1,39,"2,3,-177",0,1,0,0,0,0,61,64,38,20,83,-27.94,21,7.0,26.0,-1028.0,11:36:28.153675,192.168.0.112
1078,2,-17,1,39,"2,3,-177",0,0,0,0,0,0,62,63,38,20,83,-27.98,21,29.0,15.0,-991.0,11:36:28.255885,192.168.0.112
1083,2,-17,1,39,"2,3,-177",0,0,0,0,0,0,62,63,38,20,83,-28.1,21,27.0,-12.0,-991.0,11:36:28.357587,192.168.0.112
1088,2,-17,1,39,"2,3,-177",0,0,0,0,0,0,62,63,37,20,83,-28.01,21,29.0,-13.0,-1025.0,11:36:28.459547,192.168.0.112
1093,2,-17,1,39,"2,3,-177",0,1,0,0,0,0,62,63,36,20,83,-28.14,21,34.0,-3.0,-1034.0,11:36:28.561525,192.168.0.112
1099,2,-17,1,39,"2,3,-177",0,0,0,0,0,0,62,63,37,20,83,-28.16,21,26.0,-7.0,-1023.0,11:36:28.663570,192.168.0.112
1104,2,-17,1,39,"2,3,-177",0,0,0,0,0,0,62,63,37,20,83,-28.14,21,8.0,-4.0,-1006.0,11:36:28.765369,192.168.0.112
1109,2,-17,1,39,"2,3,-177",0,1,0,0,0,0,62,63,36,20,83,-28.24,22,12.0,-9.0,-1003.0,11:36:28.868232,192.168.0.112
1114,2,-17,1,39,"2,3,-177",-1,1,0,0,0,0,62,63,36,20,83,-28.29,22,12.0,-4.0,-975.0,11:36:28.972538,192.168.0.112
1120,2,-17,1,39,"2,3,-177",-1,1,0,0,0,0,62,63,36,20,83,-28.19,22,25.0,0.0,-1027.0,11:36:29.072297,192.168.0.112
1125,2,-17,1,39,"2,3,-177",0,1,0,-1,0,0,62,63,36,20,83,-27.53,22,27.0,-21.0,-1016.0,11:36:29.173486,192.168.0.112
1130,2,-17,1,39,"2,3,-177",0,1,0,-1,0,0,62,64,37,20,83,-28.11,22,61.0,-17.0,-999.0,11:36:29.275847,192.168.0.112
1135,2,-17,1,39,"2,3,-177",0,0,0,-1,0,0,62,64,38,20,83,-27.76,22,-9.0,8.0,-982.0,11:36:29.377784,192.168.0.112
1140,2,-17,1,39,"2,3,-177",0,0,0,-1,0,0,62,64,38,20,83,-27.62,22,25.0,-13.0,-1051.0,11:36:29.479409,192.168.0.112
1145,2,-17,1,39,"2,3,-177",0,0,0,-1,0,0,62,64,37,20,83,-27.68,22,22.0,-14.0,-1017.0,11:36:29.581497,192.168.0.112
1150,2,-17,1,39,"2,3,-177",0,0,0,-1,0,0,62,64,38,20,83,-27.77,22,30.0,12.0,-988.0,11:36:29.683333,192.168.0.112
1155,2,-17,1,39,"2,3,-177",0,0,0,-1,0,0,62,64,38,20,83,-27.76,22,12.0,-1.0,-1009.0,11:36:29.785450,192.168.0.112
1160,2,-17,1,39,"2,3,-177",0,0,0,-1,0,0,62,64,38,20,83,-27.85,23,18.0,-14.0,-1001.0,11:36:29.887428,192.168.0.112
1165,2,-17,1,39,"2,3,-177",0,0,0,-1,0,0,62,64,39,20,83,-27.69,23,20.0,-7.0,-993.0,11:36:29.989543,192.168.0.112
1170,2,-17,1,39,"2,3,-177",0,0,0,-1,0,0,62,64,39,20,83,-27.75,23,25.0,-7.0,-1001.0,11:36:30.091395,192.168.0.112
1175,2,-17,1,39,"2,3,-177",0,0,0,-1,0,0,62,64,39,20,83,-27.74,23,17.0,-3.0,-986.0,11:36:30.194111,192.168.0.112
1180,2,-17,1,39,"2,3,-177",-1,0,0,-1,0,0,62,63,39,20,83,-27.75,23,22.0,-6.0,-972.0,11:36:30.295329,192.168.0.112
1185,2,-17,1,39,"2,3,-177",0,0,0,-1,0,0,62,63,38,20,83,-27.74,23,14.0,1.0,-1016.0,11:36:30.397856,192.168.0.112
1190,2,-17,1,39,"2,3,-177",0,0,0,-1,0,0,62,63,37,20,83,-27.8,23,16.0,-9.0,-1025.0,11:36:30.499536,192.168.0.112
1195,2,-18,0,35,"-1,3,-175",0,0,0,-1,0,0,62,63,38,20,83,-27.72,23,30.0,-10.0,-1009.0,11:36:30.601303,192.168.0.112
1200,2,-18,0,35,"-1,3,-175",0,0,0,-1,0,0,62,63,38,20,83,-27.72,23,-5.0,6.0,-1004.0,11:36:30.703245,192.168.0.112
1205,2,-18,0,35,"-1,3,-175",0,0,0,0,0,0,62,63,38,20,83,-27.87,23,10.0,-3.0,-1006.0,11:36:30.805317,192.168.0.112
1210,2,-14,2,37,"1,2,-177",0,0,0,0,0,0,62,63,38,20,83,-27.79,24,-2.0,2.0,-1012.0,11:36:30.907231,192.168.0.112
1213,2,-14,2,37,"1,2,-177",-1,0,0,0,0,0,62,63,38,20,83,-27.77,24,27.0,-22.0,-992.0,11:36:30.958469,192.168.0.112
1218,2,-14,2,37,"1,2,-177",-1,0,0,0,0,0,62,63,38,20,83,-27.82,24,11.0,-6.0,-1001.0,11:36:31.060384,192.168.0.112
1223,2,-14,2,37,"1,2,-177",0,0,0,0,0,0,62,63,39,20,83,-27.79,24,-4.0,-14.0,-1003.0,11:36:31.162333,192.168.0.112
1228,2,-12,3,38,"4,2,-178",0,2,0,0,0,0,61,64,39,20,83,-27.81,24,0.0,2.0,-1008.0,11:36:31.264240,192.168.0.112
1233,2,-12,3,38,"4,2,-178",-1,3,0,0,0,0,61,64,39,20,83,-27.82,24,-4.0,2.0,-1005.0,11:36:31.366349,192.168.0.112
1238,2,-12,3,38,"4,2,-178",-1,1,0,0,0,0,61,64,39,20,83,-27.85,24,-10.0,-6.0,-1028.0,11:36:31.468339,192.168.0.112
1243,2,-12,3,38,"4,2,-178",-1,0,0,0,0,0,61,64,39,20,83,-27.76,24,5.0,-30.0,-1007.0,11:36:31.570354,192.168.0.112
1248,2,-15,6,37,"0,1,178",-1,0,0,0,0,0,61,64,40,20,83,-27.8,24,-10.0,-12.0,-1017.0,11:36:31.672308,192.168.0.112
1253,2,-15,6,37,"0,1,178",-2,0,0,0,0,0,61,64,40,20,83,-27.76,24,9.0,-16.0,-972.0,11:36:31.774447,192.168.0.112
1258,2,-15,6,37,"0,1,178",-1,0,0,-1,0,0,61,64,39,20,83,-27.87,25,5.0,5.0,-1007.0,11:36:31.876395,192.168.0.112
1264,2,-17,5,36,"-1,1,176",-1,0,0,-1,0,0,61,64,39,20,83,-27.8,25,10.0,-1.0,-1019.0,11:36:31.978430,192.168.0.112
1269,2,-17,5,36,"-1,1,176",0,0,0,-1,0,0,61,64,39,20,83,-27.7,25,18.0,-7.0,-978.0,11:36:32.080434,192.168.0.112
1274,2,-17,5,36,"-1,1,176",0,0,0,-1,0,0,61,64,40,20,83,-27.69,25,13.0,2.0,-1004.0,11:36:32.182362,192.168.0.112
1279,2,-17,5,36,"-1,1,176",3,0,0,-1,0,0,62,64,39,20,83,-27.81,25,33.0,-12.0,-1003.0,11:36:32.284360,192.168.0.112
1284,2,-17,5,36,"-2,1,178",2,1,0,0,0,0,62,64,39,20,83,-27.78,25,33.0,-18.0,-1018.0,11:36:32.389615,192.168.0.112
1290,2,-17,5,36,"-2,1,178",0,0,0,0,0,0,62,64,39,20,83,-27.8,25,15.0,-9.0,-989.0,11:36:32.488276,192.168.0.112
1295,2,-17,5,36,"-2,1,178",0,1,0,0,0,0,62,64,39,20,83,-27.8,25,24.0,-5.0,-1007.0,11:36:32.590260,192.168.0.112
1300,2,-17,5,36,"-2,1,178",0,0,0,0,0,0,62,64,39,20,83,-27.71,25,36.0,-14.0,-1006.0,11:36:32.692234,192.168.0.112
1305,2,-17,5,36,"-2,1,178",0,0,0,0,0,0,62,64,41,20,83,-27.66,25,22.0,11.0,-978.0,11:36:32.794397,192.168.0.112
1310,2,-17,5,36,"-2,1,178",0,-1,0,0,0,0,62,64,39,20,83,-27.58,26,16.0,-7.0,-1023.0,11:36:32.896460,192.168.0.112
1315,2,-17,5,36,"-2,1,178",0,0,0,0,0,0,62,64,43,20,83,-27.75,26,24.0,7.0,-991.0,11:36:32.998291,192.168.0.112
1320,2,-16,5,37,"-1,1,178",0,0,0,0,0,0,62,64,42,20,83,-27.67,26,26.0,-11.0,-994.0,11:36:33.100331,192.168.0.112
1325,2,-16,5,37,"-1,1,178",0,0,0,0,0,0,62,64,42,20,83,-27.71,26,17.0,0.0,-980.0,11:36:33.202299,192.168.0.112
1330,2,-16,5,37,"-1,1,178",0,0,0,0,0,0,62,64,41,20,83,-27.69,26,20.0,-15.0,-1034.0,11:36:33.304223,192.168.0.112
1335,2,-16,5,37,"-1,1,178",-2,1,0,0,0,0,62,64,40,20,83,-27.73,26,14.0,17.0,-982.0,11:36:33.406279,192.168.0.112
1340,2,-16,5,37,"-1,1,178",-3,2,0,0,0,0,62,64,41,20,83,-27.76,26,4.0,-4.0,-988.0,11:36:33.508160,192.168.0.112
1345,2,-16,5,37,"-1,1,178",-2,1,0,0,0,0,62,64,40,20,83,-27.72,26,9.0,0.0,-995.0,11:36:33.610402,192.168.0.112
1350,2,-16,5,37,"-1,1,178",-2,0,0,0,0,0,62,64,41,20,83,-27.84,26,-5.0,0.0,-995.0,11:36:33.712325,192.168.0.112
1355,2,-16,5,37,"-1,1,178",-1,0,0,-1,0,0,62,64,41,20,83,-27.78,26,-4.0,-7.0,-1006.0,11:36:33.814180,192.168.0.112
1360,2,-16,5,37,"-1,1,178",-1,-1,0,-1,0,0,62,64,40,20,83,-27.78,27,0.0,-5.0,-989.0,11:36:33.916337,192.168.0.112
1365,2,-16,5,37,"-1,1,178",-1,0,0,-1,0,0,62,64,41,20,83,-27.71,27,8.0,-10.0,-999.0,11:36:34.018096,192.168.0.112
1370,2,-16,5,37,"-1,1,178",-1,0,0,-1,0,0,62,64,41,20,83,-27.75,27,-3.0,1.0,-1002.0,11:36:34.124785,192.168.0.112
1375,2,-16,5,37,"-1,1,178",-1,0,0,-1,0,0,62,64,41,20,83,-27.8,27,0.0,10.0,-1002.0,11:36:34.222237,192.168.0.112
1380,2,-16,5,37,"-1,1,178",-1,0,0,-1,0,0,62,65,41,20,83,-27.75,27,-3.0,-5.0,-1007.0,11:36:34.324356,192.168.0.112
1385,2,-16,5,37,"-1,1,178",-1,0,0,-1,0,0,62,65,41,20,83,-27.77,27,4.0,-2.0,-1010.0,11:36:34.426347,192.168.0.112
1388,2,-16,5,37,"-1,1,178",-1,0,0,-1,0,0,62,65,41,20,83,-27.81,27,9.0,-9.0,-1001.0,11:36:34.477790,192.168.0.112
1393,2,-16,5,37,"-1,1,178",-1,0,0,-1,0,0,62,65,40,20,83,-27.82,27,4.0,-3.0,-980.0,11:36:34.579298,192.168.0.112
1398,2,-16,5,37,"-1,1,178",0,0,0,-1,0,0,62,65,40,20,83,-27.76,27,-3.0,-4.0,-991.0,11:36:34.681356,192.168.0.112
1404,2,-16,5,37,"-1,1,178",0,0,0,-1,0,0,62,65,40,20,83,-27.83,27,-5.0,1.0,-997.0,11:36:34.786783,192.168.0.112
1408,2,-16,5,37,"-1,1,178",-1,0,0,-1,0,0,62,65,38,20,83,-27.82,28,32.0,-3.0,-987.0,11:36:34.885522,192.168.0.112
1413,2,-16,5,37,"-1,1,178",-1,0,0,-1,0,0,62,65,38,20,83,-27.73,28,40.0,0.0,-995.0,11:36:34.987261,192.168.0.112
1418,2,-16,5,37,"-1,1,178",0,0,0,-1,0,0,62,65,38,20,83,-27.83,28,35.0,31.0,-994.0,11:36:35.089529,192.168.0.112
1423,2,-16,5,37,"-1,1,178",2,0,0,-1,0,0,62,65,38,20,83,-27.74,28,29.0,-12.0,-1051.0,11:36:35.191128,192.168.0.112
1428,2,-16,4,36,"0,0,179",3,0,0,0,0,0,62,64,38,20,83,-27.79,28,9.0,28.0,-997.0,11:36:35.293260,192.168.0.112
1434,2,-16,4,36,"0,0,179",2,0,0,0,0,0,62,64,38,20,83,-27.78,28,22.0,0.0,-975.0,11:36:35.395345,192.168.0.112
1439,2,-16,4,36,"0,0,179",0,0,0,0,0,0,62,64,39,20,83,-27.7,28,25.0,2.0,-980.0,11:36:35.497568,192.168.0.112
1444,2,-16,4,36,"0,0,179",0,0,0,0,0,0,62,64,39,20,83,-27.81,28,59.0,-4.0,-1001.0,11:36:35.599273,192.168.0.112
1449,2,-16,4,36,"0,0,179",0,0,0,0,0,0,62,64,39,20,83,-27.76,28,28.0,11.0,-982.0,11:36:35.701308,192.168.0.112
1454,2,-16,4,36,"0,0,179",0,0,0,0,0,0,62,64,41,20,83,-27.7,28,23.0,7.0,-1008.0,11:36:35.803222,192.168.0.112
1459,2,-16,4,36,"0,0,179",0,0,0,0,0,0,62,64,40,20,83,-27.76,29,1.0,-9.0,-995.0,11:36:35.905240,192.168.0.112
1464,2,-16,3,36,"-2,1,179",0,0,0,0,0,0,62,64,38,20,83,-27.8,29,31.0,-1.0,-993.0,11:36:36.007265,192.168.0.112
1470,2,-16,3,36,"-2,1,179",0,0,0,0,0,0,62,64,42,20,83,-27.78,29,11.0,2.0,-998.0,11:36:36.109191,192.168.0.112
1475,2,-16,3,36,"-2,1,179",0,0,0,0,0,0,62,64,41,20,83,-27.73,29,16.0,-10.0,-985.0,11:36:36.213733,192.168.0.112
1480,2,-16,3,36,"-2,1,179",0,0,0,0,0,0,62,65,41,20,83,-27.78,29,36.0,-11.0,-1011.0,11:36:36.313285,192.168.0.112
1485,2,-18,4,36,"-1,0,176",-1,0,0,0,0,0,62,65,41,20,83,-27.74,29,26.0,-7.0,-999.0,11:36:36.415137,192.168.0.112
1490,2,-18,4,36,"-1,0,176",-3,0,0,0,0,0,62,65,40,20,83,-27.74,29,13.0,-11.0,-971.0,11:36:36.517654,192.168.0.112
1495,2,-18,4,36,"-1,0,176",-2,0,0,0,0,0,62,65,40,20,83,-27.78,29,-3.0,17.0,-1005.0,11:36:36.619137,192.168.0.112
1500,2,-18,4,36,"-1,0,176",-1,0,0,0,0,0,62,65,40,20,83,-27.74,29,0.0,1.0,-1006.0,11:36:36.721077,192.168.0.112
1505,2,-18,4,36,"-1,0,176",-1,0,0,0,0,0,62,65,40,20,83,-27.78,29,11.0,-5.0,-998.0,11:36:36.823302,192.168.0.112
1510,2,-18,4,36,"-1,0,176",-1,0,0,0,0,0,62,65,40,20,83,-27.8,30,-5.0,21.0,-1008.0,11:36:36.925221,192.168.0.112
1515,2,-18,4,36,"-1,0,176",-1,0,0,0,0,0,62,65,40,20,83,-27.81,30,6.0,0.0,-973.0,11:36:37.030614,192.168.0.112
1520,2,-18,4,36,"-1,0,176",-1,0,0,0,0,0,62,65,40,20,83,-27.69,30,10.0,5.0,-1003.0,11:36:37.129217,192.168.0.112
1525,2,-18,4,36,"-1,0,176",-1,0,0,-1,0,0,62,65,40,20,83,-27.75,30,20.0,9.0,-1007.0,11:36:37.231230,192.168.0.112
1530,2,-18,4,36,"-1,0,176",-1,0,0,-1,0,0,62,65,40,20,83,-27.72,30,7.0,0.0,-998.0,11:36:37.333251,192.168.0.112
1535,2,-18,4,36,"-1,0,176",0,0,0,-1,0,0,62,65,39,20,83,-27.79,30,14.0,3.0,-1013.0,11:36:37.435047,192.168.0.112
1540,2,-18,4,36,"-1,0,176",0,0,0,-1,0,0,62,65,40,20,83,-27.75,30,9.0,7.0,-1018.0,11:36:37.537382,192.168.0.112
1545,2,-18,4,36,"-1,0,176",0,0,0,-1,0,0,62,65,40,20,83,-27.8,30,6.0,7.0,-1025.0,11:36:37.639114,192.168.0.112
1550,2,-18,4,36,"-1,0,176",-1,0,0,-1,0,0,62,65,39,20,83,-27.83,30,8.0,18.0,-998.0,11:36:37.741409,192.168.0.112
1553,2,-18,4,36,"-1,0,176",0,0,0,-1,0,0,62,65,40,20,83,-27.73,30,14.0,6.0,-988.0,11:36:37.792155,192.168.0.112
1558,2,-18,4,36,"-1,0,176",0,0,0,-1,0,0,62,65,40,20,83,-27.77,31,-22.0,16.0,-992.0,11:36:37.894111,192.168.0.112
1563,2,-18,4,36,"-1,0,176",-1,0,0,0,0,0,62,65,39,20,83,-27.74,31,8.0,-11.0,-1010.0,11:36:37.996175,192.168.0.112
1568,2,-18,4,36,"-1,0,176",-1,0,0,0,0,0,62,65,40,20,83,-27.77,31,0.0,1.0,-1006.0,11:36:38.098325,192.168.0.112
1573,2,-18,4,36,"-1,0,176",0,0,0,0,0,0,62,65,39,20,83,-27.76,31,4.0,-4.0,-1006.0,11:36:38.200261,192.168.0.112
1578,2,-18,4,36,"-1,0,176",2,0,0,0,0,0,62,64,35,20,83,-27.78,31,4.0,-15.0,-1026.0,11:36:38.302229,192.168.0.112
1583,2,-18,0,36,"-1,2,-175",1,0,0,0,0,0,62,64,35,20,83,-27.78,31,6.0,0.0,-995.0,11:36:38.404208,192.168.0.112
1588,2,-18,0,36,"-1,2,-175",0,0,0,0,0,0,62,64,37,20,83,-27.75,31,12.0,1.0,-1010.0,11:36:38.506152,192.168.0.112
1593,2,-18,0,36,"-1,2,-175",0,0,0,0,0,0,62,64,41,20,83,-27.71,31,7.0,-10.0,-972.0,11:36:38.608068,192.168.0.112
1598,2,-18,0,36,"-1,2,-175",0,0,0,0,0,0,62,64,41,20,83,-27.8,31,-6.0,-5.0,-983.0,11:36:38.710131,192.168.0.112
1604,2,-17,6,36,"-2,0,179",0,0,0,0,0,0,62,64,41,20,83,-27.76,31,14.0,-2.0,-1004.0,11:36:38.812219,192.168.0.112
1609,2,-17,6,36,"-2,0,179",0,0,0,0,0,0,62,64,41,20,83,-27.81,32,10.0,-9.0,-996.0,11:36:38.914065,192.168.0.112
1614,2,-17,6,36,"-2,0,179",-1,0,0,0,0,0,62,64,41,20,83,-27.77,32,5.0,-12.0,-994.0,11:36:39.016115,192.168.0.112
1619,2,-17,6,36,"-2,0,179",-1,1,0,0,0,0,62,64,36,20,83,-27.78,32,11.0,-8.0,-995.0,11:36:39.118118,192.168.0.112
1624,2,-17,6,36,"-2,0,179",-1,1,0,0,0,0,62,64,36,20,83,-27.78,32,0.0,-17.0,-1013.0,11:36:39.220141,192.168.0.112
1629,2,-17,6,36,"-2,0,179",-1,1,0,0,0,0,63,64,38,20,83,-27.67,32,13.0,-15.0,-995.0,11:36:39.322149,192.168.0.112
1634,2,-17,6,36,"-2,0,179",-1,1,0,0,0,0,63,64,38,20,83,-27.74,32,-6.0,-10.0,-1009.0,11:36:39.424194,192.168.0.112
1639,2,-17,6,36,"-2,0,179",-3,3,0,0,0,0,63,64,39,20,83,-27.69,32,8.0,-1.0,-999.0,11:36:39.526345,192.168.0.112
1645,2,-17,6,36,"-2,0,179",-2,2,0,0,0,0,63,64,39,20,83,-27.66,32,-5.0,-5.0,-1005.0,11:36:39.629445,192.168.0.112
1650,2,-17,6,36,"-2,0,179",-1,1,0,0,0,0,63,64,39,20,83,-27.69,32,0.0,-1.0,-1021.0,11:36:39.734308,192.168.0.112
1655,2,-17,6,36,"-2,0,179",-1,1,0,0,0,0,63,64,39,20,83,-27.67,32,16.0,-42.0,-1003.0,11:36:39.832084,192.168.0.112
1660,2,-17,6,36,"-2,0,179",-1,1,0,0,0,0,63,64,39,20,83,-27.65,33,-8.0,-12.0,-1024.0,11:36:39.934138,192.168.0.112
1665,2,-17,6,36,"-2,0,179",-1,1,0,-1,0,0,63,64,40,20,83,-27.72,33,-5.0,7.0,-1005.0,11:36:40.036133,192.168.0.112
1670,2,-17,6,36,"-2,0,179",-1,1,0,-1,0,0,63,64,45,20,83,-27.72,33,10.0,-16.0,-980.0,11:36:40.138186,192.168.0.112
1675,2,-17,6,36,"-2,0,179",0,0,0,-1,0,0,63,64,44,20,83,-27.82,33,11.0,-8.0,-1000.0,11:36:40.240078,192.168.0.112
1680,2,-17,6,36,"-2,0,179",0,0,0,-1,0,0,62,66,43,20,83,-27.79,33,-6.0,-9.0,-992.0,11:36:40.342044,192.168.0.112
1685,2,-17,6,36,"-2,0,179",0,0,0,-1,0,0,62,66,42,20,83,-27.71,33,12.0,-7.0,-990.0,11:36:40.444307,192.168.0.112
1690,2,-17,6,36,"-2,0,179",-1,-1,0,-1,0,0,62,66,42,20,83,-27.77,33,3.0,-15.0,-1035.0,11:36:40.546161,192.168.0.112
1695,2,-17,6,36,"-2,0,179",0,0,0,-1,0,0,62,66,42,20,83,-27.79,33,10.0,-8.0,-1019.0,11:36:40.647936,192.168.0.112
1700,2,-17,6,36,"-2,0,179",0,0,0,-1,0,0,62,66,41,20,83,-27.78,33,12.0,-22.0,-975.0,11:36:40.750380,192.168.0.112
1705,2,-17,6,36,"-2,0,179",0,0,0,-1,0,0,62,66,41,20,83,-27.81,33,10.0,-10.0,-974.0,11:36:40.852116,192.168.0.112
1710,2,-17,6,36,"-2,0,179",0,0,0,-1,0,0,62,66,41,20,83,-27.76,34,14.0,-6.0,-997.0,11:36:40.954106,192.168.0.112
1713,2,-17,6,36,"-2,0,179",0,0,0,0,0,0,62,66,40,20,83,-27.8,34,10.0,-21.0,-973.0,11:36:41.004994,192.168.0.112
1718,2,-17,6,36,"-2,0,179",-1,0,0,-1,0,0,62,66,40,20,83,-27.7,34,24.0,1.0,-1001.0,11:36:41.107054,192.168.0.112
1723,2,-17,6,36,"-2,0,179",0,0,0,-1,0,0,62,66,40,20,83,-27.8,34,34.0,-10.0,-1046.0,11:36:41.208986,192.168.0.112
1730,2,-17,6,36,"-2,0,179",0,0,0,-1,0,0,62,65,40,20,83,-27.69,34,16.0,-22.0,-1010.0,11:36:41.361974,192.168.0.112
1733,2,-17,6,36,"-2,0,179",1,0,0,-1,0,0,62,65,40,20,83,-27.82,34,21.0,-4.0,-985.0,11:36:41.413979,192.168.0.112
1738,2,-17,6,36,"-2,0,179",1,0,0,-1,0,0,62,65,40,20,83,-27.72,34,32.0,-20.0,-1011.0,11:36:41.514893,192.168.0.112
1743,2,-17,6,36,"-2,0,179",2,0,0,0,0,0,62,65,39,20,83,-27.76,34,28.0,-19.0,-995.0,11:36:41.617290,192.168.0.112
1748,2,-17,6,36,"-2,0,179",2,1,0,0,0,0,62,65,39,20,83,-27.76,34,29.0,0.0,-936.0,11:36:41.719102,192.168.0.112
1753,2,-17,6,36,"-2,0,179",0,0,0,0,0,0,62,65,40,20,83,-27.74,34,34.0,2.0,-992.0,11:36:41.821036,192.168.0.112
1758,2,-19,2,36,"-1,1,-177",0,0,0,0,0,0,62,65,40,20,83,-27.73,35,0.0,13.0,-1003.0,11:36:41.922990,192.168.0.112
1763,2,-19,2,36,"-1,1,-177",0,0,0,0,0,0,62,65,39,20,83,-27.78,35,18.0,12.0,-1026.0,11:36:42.025304,192.168.0.112
1768,2,-19,2,36,"-1,1,-177",0,0,0,0,0,0,62,65,39,20,83,-27.82,35,12.0,-4.0,-1010.0,11:36:42.126989,192.168.0.112
1773,2,-19,2,36,"-1,1,-177",0,0,0,0,0,0,62,65,38,20,83,-27.78,35,22.0,0.0,-1001.0,11:36:42.229003,192.168.0.112
1778,2,-19,2,36,"-1,1,-177",0,0,0,0,0,0,62,65,38,20,83,-27.81,35,11.0,0.0,-982.0,11:36:42.330988,192.168.0.112
1783,2,-19,2,36,"-1,1,-177",0,0,0,0,0,0,62,65,38,20,83,-27.73,35,29.0,4.0,-1017.0,11:36:42.433056,192.168.0.112
1789,2,-19,2,36,"-1,1,-177",-1,0,0,0,0,0,62,65,37,20,83,-27.73,35,22.0,-7.0,-992.0,11:36:42.538129,192.168.0.112
1794,2,-19,2,36,"-1,1,-177",0,0,0,0,0,0,62,65,38,20,83,-27.75,35,20.0,7.0,-1014.0,11:36:42.637346,192.168.0.112
1799,2,-19,2,36,"-1,1,-177",0,0,0,0,0,0,62,65,37,20,83,-27.71,35,11.0,2.0,-991.0,11:36:42.738980,192.168.0.112
1804,2,-19,2,36,"-1,1,-177",-2,1,0,0,0,0,62,65,37,20,83,-27.75,35,10.0,7.0,-1045.0,11:36:42.840929,192.168.0.112
1809,2,-19,2,36,"-1,1,-177",-2,1,0,0,0,0,62,65,38,20,83,-27.69,36,17.0,2.0,-1004.0,11:36:42.942924,192.168.0.112
1814,2,-19,2,36,"-1,1,-177",-1,0,0,0,0,0,62,65,37,20,83,-27.71,36,10.0,5.0,-1016.0,11:36:43.044960,192.168.0.112
1819,2,-19,2,36,"-1,1,-177",0,-1,0,-1,0,0,62,65,38,20,83,-27.77,36,9.0,-4.0,-1033.0,11:36:43.147055,192.168.0.112
1825,2,-19,2,36,"-1,1,-177",0,0,0,-1,0,0,62,65,39,20,83,-27.79,36,-2.0,13.0,-1021.0,11:36:43.248816,192.168.0.112
1830,2,-19,2,36,"-1,1,-177",0,0,0,-1,0,0,63,65,39,20,83,-27.75,36,33.0,-10.0,-979.0,11:36:43.350924,192.168.0.112
1835,2,-19,2,36,"-1,1,-177",0,0,0,-1,0,0,63,65,39,20,83,-27.67,36,8.0,18.0,-998.0,11:36:43.452945,192.168.0.112
1840,2,-19,2,36,"-1,1,-177",0,0,0,-1,0,0,63,65,39,20,83,-27.69,36,21.0,-11.0,-992.0,11:36:43.555002,192.168.0.112
1845,2,-19,2,36,"-1,1,-177",0,0,0,-1,0,0,63,65,39,20,83,-27.74,36,-2.0,10.0,-1016.0,11:36:43.657447,192.168.0.112
1850,2,-19,2,36,"-1,1,-177",0,0,0,-1,0,0,63,65,39,20,83,-27.71,36,31.0,-11.0,-1005.0,11:36:43.758951,192.168.0.112
1855,2,-19,2,36,"-1,1,-177",0,0,0,-1,0,0,63,65,39,20,83,-27.77,36,28.0,1.0,-1022.0,11:36:43.860849,192.168.0.112
1860,2,-19,2,36,"-1,1,-177",0,0,0,-1,0,0,63,65,39,20,83,-27.78,37,26.0,0.0,-1003.0,11:36:43.962921,192.168.0.112
1865,2,-19,2,36,"-1,1,-177",0,0,0,-1,0,0,63,65,39,20,83,-27.76,37,1.0,14.0,-1005.0,11:36:44.064896,192.168.0.112
1870,2,-19,2,36,"-1,1,-177",2,0,0,0,0,0,63,65,39,20,83,-27.71,37,26.0,0.0,-1003.0,11:36:44.166960,192.168.0.112
1875,2,-19,2,36,"-1,1,-177",1,0,0,0,0,0,63,65,39,20,83,-27.7,37,1.0,14.0,-1005.0,11:36:44.268986,192.168.0.112
1880,2,-19,2,36,"-1,1,-177",0,0,0,0,0,0,62,65,39,20,83,-27.69,37,21.0,-6.0,-997.0,11:36:44.371038,192.168.0.112
1885,2,-19,2,36,"-1,1,-177",0,0,0,0,0,0,62,65,39,20,83,-27.76,37,35.0,-10.0,-999.0,11:36:44.472840,192.168.0.112
1890,2,-19,2,36,"-1,1,-177",0,0,0,0,0,0,62,65,39,20,83,-27.76,37,26.0,-2.0,-1042.0,11:36:44.580462,192.168.0.112
1895,2,-19,2,36,"-1,1,-177",0,1,0,0,0,0,62,65,39,20,83,-27.74,37,30.0,-4.0,-1009.0,11:36:44.676894,192.168.0.112
1900,2,-19,2,36,"-1,1,-177",0,0,0,0,0,0,62,65,39,20,83,-27.76,37,18.0,-1.0,-999.0,11:36:44.778977,192.168.0.112
1903,2,-19,2,36,"-1,1,-177",0,0,0,0,0,0,62,65,39,20,83,-27.79,38,31.0,-2.0,-1015.0,11:36:44.829919,192.168.0.112
1909,2,-19,2,36,"-1,1,-177",0,0,0,0,0,0,62,65,39,20,83,-27.73,38,19.0,1.0,-1017.0,11:36:44.936138,192.168.0.112
1913,2,-19,2,36,"-1,1,-177",0,0,0,0,0,0,62,65,39,20,83,-27.77,38,4.0,-1.0,-1006.0,11:36:45.033984,192.168.0.112
1918,2,-19,2,36,"-1,1,-177",0,0,0,0,0,0,62,65,40,20,83,-27.68,38,9.0,-6.0,-990.0,11:36:45.135770,192.168.0.112
1923,2,-19,2,36,"-1,1,-177",-3,1,0,0,0,0,62,65,39,20,83,-27.69,38,10.0,-3.0,-989.0,11:36:45.237902,192.168.0.112
1928,2,-19,2,36,"-1,1,-177",-3,1,0,0,0,0,62,65,39,20,83,-27.71,38,24.0,-3.0,-1001.0,11:36:45.340995,192.168.0.112
1933,2,-19,2,36,"-1,1,-177",-1,1,0,0,0,0,62,65,39,20,83,-27.72,38,12.0,-5.0,-993.0,11:36:45.442837,192.168.0.112
1939,2,-19,2,36,"-1,1,-177",0,0,0,-1,0,0,62,65,40,20,83,-27.7,38,-16.0,1.0,-996.0,11:36:45.547464,192.168.0.112
1943,2,-19,2,36,"-1,1,-177",0,-1,0,-1,0,0,62,65,40,20,83,-27.75,38,8.0,-16.0,-1013.0,11:36:45.645742,192.168.0.112
1948,2,-19,2,36,"-1,1,-177",0,-1,0,-1,0,0,62,65,38,20,83,-27.71,38,-1.0,-16.0,-992.0,11:36:45.747873,192.168.0.112
1953,2,-19,2,36,"-1,1,-177",0,0,0,-1,0,0,62,65,39,20,83,-27.79,39,0.0,0.0,-996.0,11:36:45.849873,192.168.0.112
1958,2,-19,2,36,"-1,1,-177",-1,0,0,-1,0,0,62,65,39,20,83,-27.77,39,8.0,22.0,-985.0,11:36:45.952015,192.168.0.112
1963,2,-19,2,36,"-1,1,-177",0,0,0,-1,0,0,62,65,39,20,83,-27.76,39,1.0,0.0,-994.0,11:36:46.053803,192.168.0.112
1969,2,-19,2,36,"-1,1,-177",0,0,0,-1,0,0,62,65,39,20,83,-27.8,39,3.0,-22.0,-1001.0,11:36:46.157851,192.168.0.112
1974,2,-19,2,36,"-1,1,-177",0,0,0,0,0,0,62,65,39,20,83,-27.78,39,12.0,-13.0,-979.0,11:36:46.261204,192.168.0.112
1979,2,-19,2,36,"-1,1,-177",0,0,0,0,0,0,62,65,39,20,83,-27.68,39,15.0,-9.0,-1015.0,11:36:46.359706,192.168.0.112
1984,2,-19,2,36,"-1,1,-177",0,0,0,0,0,0,62,65,39,20,83,-27.77,39,17.0,-8.0,-1005.0,11:36:46.461976,192.168.0.112
1990,2,-19,2,36,"-1,1,-177",0,0,0,0,0,0,62,65,39,20,83,-27.77,39,8.0,1.0,-979.0,11:36:46.563888,192.168.0.112
1995,2,-19,2,36,"-1,1,-177",0,0,0,0,0,0,62,65,39,20,83,-27.73,39,2.0,-13.0,-992.0,11:36:46.665706,192.168.0.112
2000,2,-19,2,36,"-1,1,-177",0,1,0,0,0,0,62,65,40,20,83,-27.81,39,15.0,-15.0,-987.0,11:36:46.767698,192.168.0.112
2005,2,-19,2,36,"-1,1,-177",2,3,0,0,0,0,62,65,39,20,83,-27.74,40,6.0,6.0,-1005.0,11:36:46.869864,192.168.0.112
2010,-1,-100,-100,-100,"0,0,0",0,2,0,0,0,0,62,65,36,20,83,-27.73,40,3.0,-3.0,-992.0,11:36:46.971738,192.168.0.112
2015,-1,-100,-100,-100,"0,0,0",-1,0,0,0,0,0,62,65,39,20,83,-27.71,40,11.0,-1.0,-1001.0,11:36:47.073629,192.168.0.112
2020,-1,-100,-100,-100,"0,0,0",-3,-1,0,0,0,0,62,65,38,20,83,-27.73,40,36.0,-29.0,-1001.0,11:36:47.176888,192.168.0.112
2025,-1,-100,-100,-100,"0,0,0",-1,0,0,0,0,0,62,65,38,20,83,-27.73,40,16.0,-23.0,-999.0,11:36:47.278715,192.168.0.112
2030,-1,-100,-100,-100,"0,0,0",-1,0,0,0,0,0,63,65,40,20,83,-27.73,40,11.0,-12.0,-1003.0,11:36:47.379969,192.168.0.112
2035,-1,-100,-100,-100,"0,0,0",-1,1,0,0,0,0,63,65,40,20,82,-27.66,40,3.0,-18.0,-1008.0,11:36:47.481979,192.168.0.112
2040,-1,-100,-100,-100,"0,0,0",0,1,0,-1,0,0,63,65,40,20,82,-27.72,40,22.0,-14.0,-983.0,11:36:47.583549,192.168.0.112
2045,-1,-100,-100,-100,"0,0,0",3,1,0,0,0,0,63,65,41,20,82,-27.72,40,-6.0,6.0,-1034.0,11:36:47.685864,192.168.0.112
2050,-1,-100,-100,-100,"0,0,0",1,0,0,0,0,0,63,65,38,20,82,-27.68,40,-1.0,-5.0,-986.0,11:36:47.787873,192.168.0.112
2055,-1,-100,-100,-100,"0,0,0",0,0,0,0,0,0,63,65,39,20,82,-27.75,41,20.0,-23.0,-986.0,11:36:47.889858,192.168.0.112
2060,-1,-100,-100,-100,"0,0,0",0,0,0,0,0,0,63,65,39,20,82,-27.72,41,16.0,-18.0,-970.0,11:36:47.991933,192.168.0.112
2063,-1,-100,-100,-100,"0,0,0",0,0,0,0,0,0,63,65,38,20,82,-27.58,41,6.0,-5.0,-985.0,11:36:48.042947,192.168.0.112
2068,-1,-100,-100,-100,"0,0,0",0,0,0,0,0,0,63,65,38,20,82,-27.68,41,15.0,-17.0,-978.0,11:36:48.144821,192.168.0.112
2073,-1,-100,-100,-100,"0,0,0",-1,1,0,0,0,0,63,65,38,20,82,-27.68,41,35.0,-23.0,-997.0,11:36:48.246895,192.168.0.112
2080,-1,-100,-100,-100,"0,0,0",-1,1,0,0,0,0,63,65,37,20,82,-27.68,41,12.0,7.0,-1007.0,11:36:48.399872,192.168.0.112
2083,-1,-100,-100,-100,"0,0,0",-1,0,0,0,0,0,63,65,39,20,82,-27.71,41,2.0,-2.0,-1021.0,11:36:48.450864,192.168.0.112
2089,-1,-100,-100,-100,"0,0,0",-1,0,0,0,0,0,63,65,40,20,82,-27.78,41,8.0,-5.0,-1010.0,11:36:48.556047,192.168.0.112
2093,-1,-100,-100,-100,"0,0,0",-1,1,0,0,0,0,63,65,40,20,82,-27.69,41,4.0,1.0,-1014.0,11:36:48.654844,192.168.0.112
2098,-1,-100,-100,-100,"0,0,0",-1,1,0,0,0,0,63,65,40,20,82,-27.71,41,-1.0,0.0,-1006.0,11:36:48.757090,192.168.0.112
2103,-1,-100,-100,-100,"0,0,0",-2,1,0,0,0,0,63,65,40,20,82,-27.68,42,16.0,4.0,-997.0,11:36:48.858879,192.168.0.112
2108,-1,-100,-100,-100,"0,0,0",-3,1,0,0,0,0,63,65,40,20,82,-27.66,42,3.0,-9.0,-998.0,11:36:48.960718,192.168.0.112
2113,-1,-100,-100,-100,"0,0,0",-2,1,0,0,0,0,63,65,41,20,82,-27.7,42,-10.0,-4.0,-988.0,11:36:49.062813,192.168.0.112
2118,-1,-100,-100,-100,"0,0,0",-2,0,0,0,0,0,63,65,41,20,82,-27.68,42,9.0,-4.0,-987.0,11:36:49.164752,192.168.0.112
2123,-1,-100,-100,-100,"0,0,0",-1,0,0,0,0,0,63,65,40,20,82,-27.74,42,-23.0,8.0,-1003.0,11:36:49.266741,192.168.0.112
2128,-1,-100,-100,-100,"0,0,0",-2,0,0,0,0,0,63,65,40,20,82,-27.78,42,2.0,-9.0,-1001.0,11:36:49.368870,192.168.0.112
2133,-1,-100,-100,-100,"0,0,0",-1,0,0,0,0,0,63,65,40,20,82,-27.74,42,7.0,-17.0,-975.0,11:36:49.470859,192.168.0.112
2139,-1,-100,-100,-100,"0,0,0",-1,0,0,0,0,0,63,65,40,20,82,-27.68,42,2.0,-5.0,-996.0,11:36:49.572743,192.168.0.112
2144,-1,-100,-100,-100,"0,0,0",-1,0,0,-1,0,0,63,65,40,20,82,-27.72,42,0.0,3.0,-997.0,11:36:49.674566,192.168.0.112
2149,-1,-100,-100,-100,"0,0,0",-1,0,0,-1,0,0,63,65,40,20,82,-27.66,42,3.0,-5.0,-1001.0,11:36:49.776957,192.168.0.112
2154,-1,-100,-100,-100,"0,0,0",-1,0,0,-1,0,0,63,65,40,20,82,-27.65,43,-1.0,7.0,-1007.0,11:36:49.879117,192.168.0.112
2159,-1,-100,-100,-100,"0,0,0",-1,0,0,-1,0,0,63,65,41,20,82,-27.67,43,-6.0,0.0,-1007.0,11:36:49.981325,192.168.0.112
2164,-1,-100,-100,-100,"0,0,0",0,0,0,-1,0,0,63,65,41,20,82,-27.7,43,-20.0,15.0,-997.0,11:36:50.083829,192.168.0.112
2170,-1,-100,-100,-100,"0,0,0",-1,0,0,-1,0,0,63,65,46,20,82,-27.68,43,-4.0,6.0,-999.0,11:36:50.186148,192.168.0.112
2174,-1,-100,-100,-100,"0,0,0",0,0,0,-1,0,0,63,65,45,20,82,-27.75,43,-1.0,13.0,-992.0,11:36:50.288544,192.168.0.112
2180,-1,-100,-100,-100,"0,0,0",0,0,0,-1,0,0,62,66,45,20,82,-27.72,43,-5.0,21.0,-1002.0,11:36:50.390952,192.168.0.112
2185,-1,-100,-100,-100,"0,0,0",0,0,0,-1,0,0,62,66,44,20,82,-27.67,43,8.0,2.0,-989.0,11:36:50.490791,192.168.0.112
2190,-1,-100,-100,-100,"0,0,0",0,0,0,-1,0,0,62,66,43,20,82,-27.69,43,17.0,11.0,-972.0,11:36:50.592800,192.168.0.112
2195,-1,-100,-100,-100,"0,0,0",0,0,0,-1,0,0,62,66,43,20,82,-27.74,43,-5.0,17.0,-961.0,11:36:50.694641,192.168.0.112
2200,-1,-100,-100,-100,"0,0,0",0,0,0,-1,0,0,62,66,42,20,82,-27.76,43,23.0,10.0,-975.0,11:36:50.796826,192.168.0.112
2205,-1,-100,-100,-100,"0,0,0",2,0,0,0,0,0,62,66,41,20,82,-27.77,44,18.0,3.0,-1037.0,11:36:50.912469,192.168.0.112
2210,-1,-100,-100,-100,"0,0,0",1,0,0,0,0,0,62,66,41,20,82,-27.7,44,20.0,0.0,-992.0,11:36:51.000644,192.168.0.112
2215,-1,-100,-100,-100,"0,0,0",1,0,0,0,0,0,62,66,41,20,82,-27.75,44,16.0,-6.0,-989.0,11:36:51.102799,192.168.0.112
2220,-1,-100,-100,-100,"0,0,0",0,0,0,0,0,0,62,66,40,20,82,-27.74,44,38.0,-7.0,-966.0,11:36:51.204780,192.168.0.112
2225,-1,-100,-100,-100,"0,0,0",0,1,0,0,0,0,62,66,39,20,82,-27.71,44,35.0,-6.0,-1016.0,11:36:51.306890,192.168.0.112
2230,-1,-100,-100,-100,"0,0,0",0,0,0,0,0,0,63,65,40,20,82,-27.67,44,23.0,-4.0,-1002.0,11:36:51.408718,192.168.0.112
2235,-1,-100,-100,-100,"0,0,0",0,0,0,0,0,0,63,65,40,20,82,-27.58,44,53.0,-11.0,-993.0,11:36:51.513624,192.168.0.112
2238,-1,-100,-100,-100,"0,0,0",0,0,0,0,0,0,63,65,41,20,82,-27.6,44,29.0,-1.0,-1003.0,11:36:51.561603,192.168.0.112
2243,-1,-100,-100,-100,"0,0,0",0,0,0,0,0,0,63,65,41,20,82,-27.85,44,42.0,0.0,-1008.0,11:36:51.663532,192.168.0.112
2248,-1,-100,-100,-100,"0,0,0",1,1,0,0,0,0,63,65,41,20,82,-27.73,44,9.0,8.0,-969.0,11:36:51.765761,192.168.0.112
2253,-1,-100,-100,-100,"0,0,0",1,0,0,0,0,0,63,65,42,20,82,-27.63,45,-6.0,-15.0,-1005.0,11:36:51.867508,192.168.0.112
2258,-1,-100,-100,-100,"0,0,0",0,0,0,0,0,0,63,65,42,20,82,-27.62,45,21.0,-22.0,-965.0,11:36:51.973547,192.168.0.112
2263,-1,-100,-100,-100,"0,0,0",-1,0,0,0,0,0,63,65,40,20,82,-27.56,45,22.0,0.0,-1012.0,11:36:52.073645,192.168.0.112
2268,-1,-100,-100,-100,"0,0,0",-2,0,0,0,0,0,63,65,40,20,82,-27.64,45,31.0,-13.0,-974.0,11:36:52.173639,192.168.0.112
2273,-1,-100,-100,-100,"0,0,0",0,0,0,0,0,0,63,65,41,20,82,-27.59,45,-6.0,13.0,-991.0,11:36:52.275679,192.168.0.112
2278,-1,-100,-100,-100,"0,0,0",0,0,0,0,0,0,63,66,41,20,82,-27.56,45,47.0,2.0,-987.0,11:36:52.377615,192.168.0.112
2284,-1,-100,-100,-100,"0,0,0",-1,0,0,0,0,0,63,66,39,20,82,-27.75,45,27.0,-19.0,-993.0,11:36:52.483203,192.168.0.112
2288,-1,-100,-100,-100,"0,0,0",-1,1,0,0,0,0,63,66,39,20,82,-27.71,45,30.0,-27.0,-1001.0,11:36:52.581437,192.168.0.112
2293,-1,-100,-100,-100,"0,0,0",0,2,0,0,0,0,63,66,39,20,82,-27.71,45,0.0,16.0,-1000.0,11:36:52.683584,192.168.0.112
2298,-1,-100,-100,-100,"0,0,0",0,0,0,0,0,0,63,66,39,20,82,-27.7,45,7.0,-11.0,-1025.0,11:36:52.785587,192.168.0.112
2303,-1,-100,-100,-100,"0,0,0",0,-1,0,0,0,0,63,66,38,20,82,-27.71,46,2.0,0.0,-1014.0,11:36:52.887506,192.168.0.112
2308,-1,-100,-100,-100,"0,0,0",-1,0,0,0,0,0,63,66,39,20,82,-27.73,46,20.0,-12.0,-991.0,11:36:52.989731,192.168.0.112
2313,-1,-100,-100,-100,"0,0,0",0,0,0,-1,0,0,63,66,39,20,82,-27.77,46,24.0,-16.0,-1017.0,11:36:53.091518,192.168.0.112
2319,-1,-100,-100,-100,"0,0,0",0,0,0,-1,0,0,63,66,40,20,82,-27.74,46,22.0,-9.0,-986.0,11:36:53.193875,192.168.0.112
2323,-1,-100,-100,-100,"0,0,0",1,0,0,0,0,0,63,66,40,20,82,-27.72,46,25.0,-11.0,-1007.0,11:36:53.295447,192.168.0.112
2329,-1,-100,-100,-100,"0,0,0",2,0,0,0,0,0,63,66,40,20,81,-27.73,46,15.0,-2.0,-970.0,11:36:53.397095,192.168.0.112
2335,-1,-100,-100,-100,"0,0,0",0,1,0,0,0,0,63,66,39,20,81,-27.67,46,16.0,-14.0,-1029.0,11:36:53.499378,192.168.0.112
2340,-1,-100,-100,-100,"0,0,0",0,0,0,0,0,0,63,66,39,20,81,-27.68,46,17.0,-22.0,-1009.0,11:36:53.601618,192.168.0.112
2345,-1,-100,-100,-100,"0,0,0",0,0,0,0,0,0,63,66,40,20,81,-27.61,46,35.0,-11.0,-949.0,11:36:53.705705,192.168.0.112
2350,-1,-100,-100,-100,"0,0,0",0,0,0,0,0,0,63,66,40,20,81,-27.66,46,42.0,3.0,-989.0,11:36:53.805555,192.168.0.112
2355,-1,-100,-100,-100,"0,0,0",0,0,0,0,0,0,63,66,39,20,81,-27.75,47,27.0,9.0,-967.0,11:36:53.907701,192.168.0.112
2360,-1,-100,-100,-100,"0,0,0",0,1,0,0,0,0,63,66,35,20,81,-27.69,47,22.0,9.0,-971.0,11:36:54.011107,192.168.0.112
2365,-1,-100,-100,-100,"0,0,0",0,0,0,0,0,0,63,66,35,20,81,-27.64,47,20.0,7.0,-1013.0,11:36:54.111687,192.168.0.112
2370,-1,-100,-100,-100,"0,0,0",0,0,0,0,0,0,63,66,34,20,81,-27.6,47,40.0,-5.0,-985.0,11:36:54.213452,192.168.0.112
2375,-1,-100,-100,-100,"0,0,0",0,0,0,0,0,0,63,66,34,20,81,-27.71,47,32.0,-3.0,-994.0,11:36:54.315689,192.168.0.112
2380,-1,-100,-100,-100,"0,0,0",0,0,0,0,0,0,63,66,34,20,81,-27.69,47,30.0,-12.0,-991.0,11:36:54.417599,192.168.0.112
2385,-1,-100,-100,-100,"0,0,0",0,0,0,0,0,0,63,66,34,20,81,-27.64,47,32.0,-13.0,-1039.0,11:36:54.519139,192.168.0.112
2390,-1,-100,-100,-100,"0,0,0",0,1,0,0,0,0,63,66,34,20,81,-27.72,47,34.0,1.0,-1020.0,11:36:54.621557,192.168.0.112
2395,-1,-100,-100,-100,"0,0,0",-1,2,0,0,0,0,63,66,34,20,81,-27.69,47,26.0,2.0,-1025.0,11:36:54.727126,192.168.0.112
2400,-1,-100,-100,-100,"0,0,0",0,1,0,0,0,0,63,66,35,20,81,-27.7,47,22.0,-16.0,-992.0,11:36:54.825596,192.168.0.112
2405,-1,-100,-100,-100,"0,0,0",0,0,0,0,0,0,63,66,36,20,81,-27.66,48,11.0,-2.0,-1000.0,11:36:54.927395,192.168.0.112
2410,-1,-100,-100,-100,"0,0,0",0,0,0,0,0,0,63,66,42,20,81,-27.63,48,41.0,-22.0,-959.0,11:36:55.029536,192.168.0.112
2415,-1,-100,-100,-100,"0,0,0",0,0,0,0,0,0,63,66,41,20,81,-27.63,48,16.0,-15.0,-1005.0,11:36:55.133855,192.168.0.112
2418,-1,-100,-100,-100,"0,0,0",0,0,0,-1,0,0,63,66,42,20,81,-27.62,48,7.0,2.0,-990.0,11:36:55.182610,192.168.0.112
2423,-1,-100,-100,-100,"0,0,0",0,0,0,-1,0,0,63,66,42,20,81,-27.76,48,5.0,6.0,-981.0,11:36:55.284527,192.168.0.112
2430,-1,-100,-100,-100,"0,0,0",0,0,0,-1,0,0,63,66,42,20,81,-27.71,48,30.0,-18.0,-992.0,11:36:55.437516,192.168.0.112
2435,-1,-100,-100,-100,"0,0,0",0,0,0,-1,0,0,63,66,42,20,81,-27.65,48,19.0,-9.0,-958.0,11:36:55.539342,192.168.0.112
2440,-1,-100,-100,-100,"0,0,0",1,0,0,0,0,0,63,66,41,20,81,-27.65,48,2.0,2.0,-1008.0,11:36:55.641446,192.168.0.112
2443,-1,-100,-100,-100,"0,0,0",2,0,0,0,0,0,63,66,41,20,81,-27.73,48,31.0,-26.0,-993.0,11:36:55.692597,192.168.0.112
2448,-1,-100,-100,-100,"0,0,0",0,0,0,0,0,0,63,66,41,20,81,-27.66,48,3.0,4.0,-1039.0,11:36:55.794966,192.168.0.112
2453,-1,-100,-100,-100,"0,0,0",0,0,0,0,0,0,63,66,41,20,81,-27.64,49,14.0,2.0,-992.0,11:36:55.896613,192.168.0.112
2458,-1,-100,-100,-100,"0,0,0",0,0,0,0,0,0,63,66,41,20,81,-27.73,49,30.0,-10.0,-1012.0,11:36:56.000258,192.168.0.112
2463,-1,-100,-100,-100,"0,0,0",0,0,0,0,0,0,63,66,40,20,81,-27.75,49,25.0,-14.0,-982.0,11:36:56.100708,192.168.0.112
2468,-1,-100,-100,-100,"0,0,0",0,0,0,0,0,0,63,66,41,20,81,-27.73,49,30.0,-31.0,-991.0,11:36:56.203064,192.168.0.112
2474,-1,-100,-100,-100,"0,0,0",0,1,0,0,0,0,63,66,35,20,81,-27.76,49,8.0,-9.0,-1002.0,11:36:56.307802,192.168.0.112
2478,-1,-100,-100,-100,"0,0,0",0,1,0,0,0,0,63,65,35,20,81,-27.77,49,13.0,0.0,-993.0,11:36:56.406558,192.168.0.112
2483,-1,-100,-100,-100,"0,0,0",0,1,0,0,0,0,63,65,36,20,81,-27.63,49,13.0,-3.0,-1019.0,11:36:56.508291,192.168.0.112
2488,-1,-100,-100,-100,"0,0,0",0,1,0,0,0,0,63,65,36,20,81,-27.68,49,10.0,10.0,-1011.0,11:36:56.611299,192.168.0.112
2494,-1,-100,-100,-100,"0,0,0",0,1,0,0,0,0,63,65,35,20,81,-27.7,49,18.0,-23.0,-1030.0,11:36:56.712282,192.168.0.112
2499,-1,-100,-100,-100,"0,0,0",-1,1,0,0,0,0,63,65,37,20,81,-27.75,49,27.0,-13.0,-1029.0,11:36:56.814763,192.168.0.112
2504,-1,-100,-100,-100,"0,0,0",-2,2,0,0,0,0,63,65,37,20,81,-27.68,50,21.0,-20.0,-1016.0,11:36:56.918160,192.168.0.112
2509,-1,-100,-100,-100,"0,0,0",-1,2,0,0,0,0,63,65,37,20,81,-27.68,50,27.0,-19.0,-1002.0,11:36:57.018607,192.168.0.112
2514,-1,-100,-100,-100,"0,0,0",0,1,0,-1,0,0,63,65,38,20,81,-27.66,50,18.0,-22.0,-994.0,11:36:57.120531,192.168.0.112
2520,-1,-100,-100,-100,"0,0,0",0,1,0,-1,0,0,63,65,39,20,81,-27.71,50,16.0,-22.0,-1008.0,11:36:57.222328,192.168.0.112
2525,-1,-100,-100,-100,"0,0,0",0,1,0,-1,0,0,63,65,39,20,81,-27.65,50,21.0,-7.0,-1023.0,11:36:57.324416,192.168.0.112
2530,-1,-100,-100,-100,"0,0,0",0,1,0,-1,0,0,64,65,40,20,81,-27.67,50,27.0,-5.0,-967.0,11:36:57.426443,192.168.0.112
2535,-1,-100,-100,-100,"0,0,0",0,0,0,0,0,0,64,65,44,20,81,-27.62,50,13.0,-21.0,-992.0,11:36:57.529698,192.168.0.112
2540,-1,-100,-100,-100,"0,0,0",0,0,0,0,0,0,64,65,44,20,81,-27.62,50,30.0,-23.0,-976.0,11:36:57.630506,192.168.0.112
2545,-1,-100,-100,-100,"0,0,0",0,0,0,0,0,0,64,65,43,20,81,-27.6,50,31.0,-25.0,-1001.0,11:36:57.732480,192.168.0.112
2550,-1,-100,-100,-100,"0,0,0",0,0,0,0,0,0,64,65,43,20,81,-27.68,50,51.0,-31.0,-968.0,11:36:57.835082,192.168.0.112
2555,-1,-100,-100,-100,"0,0,0",1,1,0,0,0,0,64,65,42,20,81,-27.68,51,19.0,-17.0,-1019.0,11:36:57.940996,192.168.0.112
2560,-1,-100,-100,-100,"0,0,0",2,1,0,0,0,0,64,65,42,20,81,-27.63,51,23.0,4.0,-982.0,11:36:58.038448,192.168.0.112
2565,-1,-100,-100,-100,"0,0,0",1,0,0,0,0,0,64,65,43,20,81,-27.68,51,38.0,-8.0,-1000.0,11:36:58.140440,192.168.0.112
2570,-1,-100,-100,-100,"0,0,0",1,0,0,0,0,0,64,65,43,20,81,-27.69,51,31.0,-8.0,-983.0,11:36:58.242430,192.168.0.112
2575,-1,-100,-100,-100,"0,0,0",0,0,0,0,0,0,64,65,43,20,81,-27.74,51,28.0,-11.0,-1001.0,11:36:58.348136,192.168.0.112
2580,-1,-100,-100,-100,"0,0,0",0,0,0,0,0,0,64,66,43,20,81,-27.71,51,17.0,18.0,-1006.0,11:36:58.448340,192.168.0.112
2585,-1,-100,-100,-100,"0,0,0",0,0,0,0,0,0,64,66,42,20,81,-27.75,51,15.0,7.0,-970.0,11:36:58.548421,192.168.0.112
2590,-1,-100,-100,-100,"0,0,0",0,0,0,0,0,0,64,66,42,20,81,-27.67,51,38.0,-20.0,-1005.0,11:36:58.650370,192.168.0.112
2595,-1,-100,-100,-100,"0,0,0",0,0,0,0,0,0,64,66,42,20,81,-27.7,51,34.0,-10.0,-993.0,11:36:58.752396,192.168.0.112
2600,-1,-100,-100,-100,"0,0,0",0,0,0,0,0,0,64,66,42,20,81,-27.75,51,36.0,-14.0,-1004.0,11:36:58.854464,192.168.0.112
2605,-1,-100,-100,-100,"0,0,0",0,0,0,0,0,0,64,66,41,20,81,-27.61,52,28.0,-1.0,-1001.0,11:36:58.956769,192.168.0.112
2608,-1,-100,-100,-100,"0,0,0",0,0,0,0,0,0,64,66,37,20,81,-27.69,52,16.0,-2.0,-993.0,11:36:59.007334,192.168.0.112
2613,-1,-100,-100,-100,"0,0,0",0,0,0,0,0,0,64,66,37,20,81,-27.65,52,27.0,-13.0,-992.0,11:36:59.109437,192.168.0.112
2618,-1,-100,-100,-100,"0,0,0",-2,0,0,0,0,0,64,66,39,20,81,-27.64,52,24.0,-27.0,-1012.0,11:36:59.211212,192.168.0.112
2623,-1,-100,-100,-100,"0,0,0",-1,2,0,0,0,0,64,66,39,20,81,-27.61,52,-3.0,-1.0,-996.0,11:36:59.313174,192.168.0.112
2628,-1,-100,-100,-100,"0,0,0",0,3,0,0,0,0,63,65,39,20,81,-27.67,52,11.0,-21.0,-1001.0,11:36:59.415348,192.168.0.112
2633,-1,-100,-100,-100,"0,0,0",0,2,0,0,0,0,63,65,39,20,81,-27.67,52,4.0,-14.0,-1011.0,11:36:59.517242,192.168.0.112
2638,-1,-100,-100,-100,"0,0,0",0,1,0,0,0,0,63,65,40,20,81,-27.71,52,1.0,-8.0,-1006.0,11:36:59.619215,192.168.0.112
2643,-1,-100,-100,-100,"0,0,0",0,1,0,0,0,0,63,65,39,20,81,-27.7,52,-5.0,-16.0,-987.0,11:36:59.723595,192.168.0.112
2648,-1,-100,-100,-100,"0,0,0",0,1,0,0,0,0,63,65,43,20,81,-27.7,52,21.0,-15.0,-1008.0,11:36:59.823342,192.168.0.112
2653,-1,-100,-100,-100,"0,0,0",0,0,0,0,0,0,63,65,43,20,81,-27.66,53,0.0,-14.0,-978.0,11:36:59.926248,192.168.0.112
2658,-1,-100,-100,-100,"0,0,0",1,0,0,0,0,0,63,65,41,20,81,-27.58,53,13.0,-28.0,-1000.0,11:37:00.028174,192.168.0.112
2663,-1,-100,-100,-100,"0,0,0",2,1,0,0,0,0,63,65,41,20,81,-27.75,53,4.0,0.0,-1005.0,11:37:00.130317,192.168.0.112
2669,-1,-100,-100,-100,"0,0,0",1,0,0,0,0,0,63,65,42,20,81,-27.61,53,20.0,-7.0,-1017.0,11:37:00.232389,192.168.0.112
