,mid,x,y,z,mpry,pitch,roll,yaw,vgx,vgy,vgz,templ,temph,tof,h,bat,baro,time,agx,agy,agz,timestamp,address
0,-1,-100,-100,-100,"0,0,0",0,0,0,0,0,0,61,63,10,0,78,-28.58,0,5.0,-6.0,-1000.0,11:36:06.613231,192.168.0.115
5,-1,-100,-100,-100,"0,0,0",0,0,0,0,0,0,61,63,10,0,78,-28.6,0,4.0,-6.0,-1000.0,11:36:06.716267,192.168.0.115
10,-1,-100,-100,-100,"0,0,0",0,0,0,0,0,0,61,63,10,0,78,-28.6,0,6.0,-8.0,-999.0,11:36:06.818355,192.168.0.115
15,-1,-100,-100,-100,"0,0,0",0,0,0,0,0,0,61,63,10,0,78,-28.61,0,8.0,-2.0,-999.0,11:36:06.920334,192.168.0.115
20,-1,-100,-100,-100,"0,0,0",0,0,0,0,0,0,61,63,10,0,78,-28.61,0,1.0,3.0,-999.0,11:36:07.022557,192.168.0.115
25,-1,-100,-100,-100,"0,0,0",0,0,0,0,0,0,61,63,10,0,78,-28.61,0,14.0,-8.0,-1007.0,11:36:07.125534,192.168.0.115
30,-1,-100,-100,-100,"0,0,0",0,0,0,0,0,0,61,63,10,0,78,-28.61,0,-11.0,3.0,-996.0,11:36:07.226432,192.168.0.115
35,-1,-100,-100,-100,"0,0,0",0,0,0,0,0,0,61,63,10,0,78,-28.61,0,-4.0,14.0,-1112.0,11:36:07.328370,192.168.0.115
40,-1,-100,-100,-100,"0,0,0",0,0,-1,0,0,1,61,63,10,0,78,-28.61,0,21.0,-7.0,-1224.0,11:36:07.430413,192.168.0.115
42,-1,-100,-100,-100,"0,0,0",0,0,-1,0,0,4,61,63,10,0,78,-28.61,0,2.0,0.0,-1259.0,11:36:07.481424,192.168.0.115
47,-1,-100,-100,-100,"0,0,0",0,0,-1,0,0,7,61,63,10,0,78,-28.54,0,-6.0,0.0,-1148.0,11:36:07.583096,192.168.0.115
52,-1,-100,-100,-100,"0,0,0",0,0,0,0,0,7,61,63,20,10,78,-28.3,0,-7.0,-1.0,-1039.0,11:36:07.685598,192.168.0.115
57,-1,-100,-100,-100,"0,0,0",0,0,0,0,0,8,61,63,29,20,78,-28.23,1,0.0,6.0,-1003.0,11:36:07.787168,192.168.0.115
62,-1,-100,-100,-100,"0,0,0",0,0,-1,0,0,7,61,63,37,20,78,-28.14,1,-7.0,32.0,-964.0,11:36:07.889414,192.168.0.115
68,-1,-100,-100,-100,"0,0,0",0,0,-1,0,0,7,61,63,46,30,78,-28.03,1,-9.0,9.0,-930.0,11:36:07.991966,192.168.0.115
73,-1,-100,-100,-100,"0,0,0",0,0,-1,0,0,6,61,63,53,40,78,-27.97,1,-20.0,9.0,-897.0,11:36:08.094374,192.168.0.115
78,-1,-100,-100,-100,"0,0,0",0,0,-1,0,0,5,61,63,59,40,78,-27.95,1,-10.0,1.0,-888.0,11:36:08.196839,192.168.0.115
83,-1,-100,-100,-100,"0,0,0",0,0,-1,0,0,3,61,63,65,50,78,-27.89,1,6.0,5.0,-896.0,11:36:08.296696,192.168.0.115
88,5,-1,0,42,"2,2,180",0,0,-1,0,0,3,61,63,69,50,78,-27.83,1,-25.0,7.0,-921.0,11:36:08.399190,192.168.0.115
93,5,-1,0,42,"2,2,180",0,0,-1,0,0,2,61,63,72,50,78,-27.78,1,-3.0,11.0,-926.0,11:36:08.501334,192.168.0.115
98,5,-1,0,42,"2,2,180",0,0,-1,0,0,1,61,63,76,60,78,-27.71,1,-7.0,6.0,-937.0,11:36:08.602961,192.168.0.115
103,5,-1,0,42,"2,2,180",0,0,-1,0,0,1,61,63,77,60,78,-27.65,1,0.0,-8.0,-950.0,11:36:08.705272,192.168.0.115
108,5,-1,0,68,"1,2,-178",0,0,-1,0,0,0,61,63,79,60,78,-27.71,2,8.0,2.0,-968.0,11:36:08.807066,192.168.0.115
113,5,-1,0,68,"1,2,-178",0,0,-1,0,0,0,61,63,81,60,78,-27.67,2,-11.0,17.0,-983.0,11:36:08.908810,192.168.0.115
118,5,-1,0,68,"1,2,-178",0,0,-1,0,0,0,61,63,81,60,77,-27.64,2,-17.0,6.0,-975.0,11:36:09.011130,192.168.0.115
124,5,-1,-1,79,"1,2,-176",0,0,-1,0,0,0,61,63,82,60,77,-27.62,2,-10.0,12.0,-984.0,11:36:09.114633,192.168.0.115
130,5,-1,-1,79,"1,2,-176",0,0,-1,0,0,0,61,63,83,60,77,-27.66,2,-8.0,9.0,-993.0,11:36:09.215204,192.168.0.115
136,5,-1,-1,79,"1,2,-176",0,0,-1,0,0,0,61,63,84,60,77,-27.73,2,1.0,-8.0,-984.0,11:36:09.318042,192.168.0.115
140,5,-1,-1,79,"1,2,-176",0,0,-1,0,0,0,61,63,85,60,77,-27.64,2,-12.0,9.0,-987.0,11:36:09.419067,192.168.0.115
145,5,-1,-1,79,"1,2,-176",0,0,-1,0,0,0,61,63,85,70,77,-27.63,2,-11.0,6.0,-991.0,11:36:09.520975,192.168.0.115
150,5,-1,-1,79,"1,2,-176",0,0,-1,0,0,0,61,63,86,70,77,-27.63,2,6.0,8.0,-990.0,11:36:09.623237,192.168.0.115
155,5,-1,-1,79,"1,2,-176",0,0,-1,0,0,0,61,64,86,70,77,-27.64,2,-2.0,4.0,-991.0,11:36:09.725192,192.168.0.115
160,5,-1,-1,79,"1,2,-176",0,0,-1,0,0,0,61,64,86,70,77,-27.63,3,-8.0,6.0,-984.0,11:36:09.835560,192.168.0.115
165,5,-1,-1,79,"1,2,-176",0,0,-1,0,0,0,61,64,86,70,77,-27.54,3,5.0,-3.0,-993.0,11:36:09.928773,192.168.0.115
170,5,-1,-1,79,"1,2,-176",0,0,-1,0,0,0,61,64,86,70,77,-27.62,3,4.0,-1.0,-993.0,11:36:10.030729,192.168.0.115
175,5,-1,-1,79,"1,2,-176",0,0,-1,0,0,0,61,64,86,70,77,-27.56,3,7.0,-6.0,-984.0,11:36:10.133117,192.168.0.115
177,5,-1,-1,79,"1,2,-176",0,0,-1,0,0,0,61,64,86,70,77,-27.58,3,-1.0,-3.0,-991.0,11:36:10.184346,192.168.0.115
182,5,-4,2,88,"0,2,-174",0,0,-1,0,0,0,61,64,85,70,77,-27.67,3,-6.0,-2.0,-999.0,11:36:10.285949,192.168.0.115
187,5,-4,2,88,"0,2,-174",0,0,-1,0,0,0,61,64,85,70,77,-27.58,3,-20.0,-2.0,-998.0,11:36:10.392158,192.168.0.115
193,5,-4,2,88,"0,2,-174",0,0,-1,0,0,0,61,64,84,70,77,-27.56,3,-2.0,-2.0,-1001.0,11:36:10.490349,192.168.0.115
198,5,-4,2,88,"0,2,-174",0,0,-1,0,0,0,61,64,83,70,77,-27.63,3,0.0,-8.0,-998.0,11:36:10.592104,192.168.0.115
203,5,1,10,87,"4,1,179",0,0,-1,0,0,0,62,63,83,70,77,-27.64,3,-1.0,-2.0,-1005.0,11:36:10.695011,192.168.0.115
208,5,1,10,87,"4,1,179",0,0,-1,0,0,0,62,63,83,70,77,-27.67,4,-5.0,1.0,-998.0,11:36:10.797072,192.168.0.115
213,5,1,10,87,"4,1,179",0,0,-1,0,0,0,62,63,82,70,77,-27.7,4,-20.0,0.0,-994.0,11:36:10.898404,192.168.0.115
218,5,1,10,87,"4,1,179",0,0,-1,0,0,0,62,63,82,70,77,-27.68,4,-14.0,-7.0,-1015.0,11:36:11.000309,192.168.0.115
223,5,-5,5,85,"0,2,-177",0,0,-1,0,0,0,62,63,81,60,77,-27.72,4,-4.0,-6.0,-1004.0,11:36:11.102281,192.168.0.115
228,5,-5,5,85,"0,2,-177",0,0,-1,0,0,0,62,63,81,60,77,-27.65,4,-4.0,-8.0,-1008.0,11:36:11.204230,192.168.0.115
233,5,-5,5,85,"0,2,-177",0,0,-1,0,0,0,62,63,80,60,77,-27.69,4,-8.0,-8.0,-1000.0,11:36:11.306282,192.168.0.115
238,5,-5,5,85,"0,2,-177",0,0,0,0,0,0,62,63,80,60,77,-27.6,4,7.0,-7.0,-1000.0,11:36:11.408241,192.168.0.115
243,5,0,11,83,"3,1,179",0,0,0,0,0,0,62,63,79,60,77,-27.66,4,-15.0,-10.0,-991.0,11:36:11.510090,192.168.0.115
248,5,0,11,83,"3,1,179",0,0,0,0,0,0,62,63,80,60,77,-27.66,4,-24.0,-5.0,-999.0,11:36:11.612455,192.168.0.115
254,5,0,11,83,"3,1,179",0,0,0,0,0,0,62,64,79,60,77,-27.6,4,-5.0,-16.0,-1002.0,11:36:11.714323,192.168.0.115
260,5,0,11,83,"3,1,179",0,0,0,0,0,0,62,64,79,60,77,-27.59,5,-9.0,8.0,-1010.0,11:36:11.819843,192.168.0.115
265,5,-3,2,82,"1,2,-174",0,0,0,0,0,0,62,64,79,60,77,-27.65,5,-6.0,-13.0,-999.0,11:36:11.918315,192.168.0.115
270,5,-3,2,82,"1,2,-174",0,0,0,0,0,0,62,64,80,60,77,-27.64,5,-14.0,0.0,-1001.0,11:36:12.020315,192.168.0.115
275,5,-3,2,82,"1,2,-174",0,0,0,0,0,0,62,64,79,60,77,-27.61,5,-3.0,-4.0,-992.0,11:36:12.122236,192.168.0.115
280,5,-3,2,82,"1,2,-174",0,0,0,0,0,0,62,64,79,60,77,-27.67,5,-8.0,-7.0,-999.0,11:36:12.224068,192.168.0.115
285,5,-6,5,81,"0,1,-176",0,0,0,0,0,0,62,64,79,60,77,-27.61,5,-4.0,-4.0,-983.0,11:36:12.326292,192.168.0.115
290,5,-6,5,81,"0,1,-176",0,0,0,0,0,0,62,64,79,60,77,-27.63,5,-11.0,0.0,-1007.0,11:36:12.428514,192.168.0.115
295,5,-6,5,81,"0,1,-176",0,0,0,0,0,0,62,64,78,60,77,-27.7,5,-24.0,3.0,-1008.0,11:36:12.530074,192.168.0.115
300,5,-6,5,81,"0,1,-176",0,0,0,0,0,0,62,64,79,60,77,-27.59,5,-22.0,1.0,-999.0,11:36:12.632122,192.168.0.115
302,5,-6,5,81,"0,1,-176",0,0,0,0,0,0,62,65,80,60,77,-27.63,5,4.0,0.0,-997.0,11:36:12.683767,192.168.0.115
307,5,-6,5,81,"0,1,-176",0,0,0,0,0,0,62,65,79,60,77,-27.65,6,3.0,-9.0,-994.0,11:36:12.785729,192.168.0.115
312,5,-6,5,81,"0,1,-176",0,0,0,0,0,0,62,65,80,60,77,-27.65,6,-10.0,7.0,-989.0,11:36:12.889674,192.168.0.115
317,5,-3,2,82,"2,2,-173",0,0,0,0,0,0,62,65,79,60,77,-27.66,6,-8.0,-4.0,-996.0,11:36:12.990226,192.168.0.115
323,5,-3,2,82,"2,2,-173",0,0,0,0,0,0,62,65,80,60,77,-27.59,6,-16.0,8.0,-989.0,11:36:13.091096,192.168.0.115
328,5,-3,2,82,"2,2,-173",0,0,0,0,0,0,62,65,80,60,77,-27.56,6,-13.0,6.0,-1001.0,11:36:13.192827,192.168.0.115
333,5,-3,2,82,"2,2,-173",0,0,-1,0,0,0,62,65,80,60,77,-27.56,6,-27.0,5.0,-1011.0,11:36:13.295206,192.168.0.115
338,5,-3,2,82,"2,2,-173",0,0,-1,0,0,0,62,65,80,60,77,-27.63,6,-6.0,0.0,-891.0,11:36:13.397085,192.168.0.115
343,5,-3,2,82,"2,2,-173",0,0,-1,0,0,-1,62,65,78,60,77,-27.64,6,-1.0,-4.0,-906.0,11:36:13.499029,192.168.0.115
348,5,-3,2,82,"2,2,-173",0,0,-1,0,0,-2,62,65,76,60,77,-27.65,6,-12.0,3.0,-918.0,11:36:13.600973,192.168.0.115
353,5,-3,2,82,"2,2,-173",0,0,-1,0,0,-2,62,64,73,60,77,-27.7,6,9.0,-4.0,-948.0,11:36:13.702812,192.168.0.115
358,5,-3,2,82,"2,2,-173",0,0,-1,0,0,-3,62,64,69,50,77,-27.7,7,-25.0,6.0,-983.0,11:36:13.806935,192.168.0.115
363,5,-3,2,82,"2,2,-173",-1,0,-1,0,0,-3,62,64,65,50,77,-27.73,7,-13.0,6.0,-1006.0,11:36:13.906910,192.168.0.115
368,5,-3,2,82,"2,2,-173",-1,0,-1,0,0,-3,62,64,62,50,77,-27.75,7,-9.0,1.0,-1023.0,11:36:14.008754,192.168.0.115
373,5,-3,2,82,"2,2,-173",-1,0,-1,0,0,-3,62,64,59,40,77,-27.85,7,-25.0,9.0,-1029.0,11:36:14.110784,192.168.0.115
378,5,-2,8,73,"4,2,180",-1,0,-1,0,0,-2,62,64,57,40,77,-27.88,7,-2.0,-6.0,-1028.0,11:36:14.212928,192.168.0.115
385,5,-2,8,73,"4,2,180",-1,0,-1,0,0,-2,62,64,54,40,77,-27.89,7,-10.0,0.0,-1028.0,11:36:14.315126,192.168.0.115
390,5,-2,8,73,"4,2,180",-1,0,-1,0,0,-2,62,64,51,40,77,-27.95,7,-16.0,6.0,-1028.0,11:36:14.416975,192.168.0.115
395,5,-2,8,73,"4,2,180",-1,0,-1,0,0,-1,62,64,49,30,77,-27.99,7,-13.0,19.0,-1047.0,11:36:14.519144,192.168.0.115
400,5,-8,8,60,"2,2,-178",-1,0,-1,0,0,-1,62,64,47,30,77,-27.99,7,-2.0,2.0,-1027.0,11:36:14.621054,192.168.0.115
405,5,-8,8,60,"2,2,-178",-1,0,-1,0,0,-1,62,64,45,30,77,-27.95,7,-16.0,12.0,-1024.0,11:36:14.722937,192.168.0.115
410,5,-8,8,60,"2,2,-178",0,0,-1,0,0,-1,62,64,43,30,77,-27.95,8,-19.0,0.0,-1020.0,11:36:14.825265,192.168.0.115
415,5,-7,9,50,"1,2,-178",0,0,-1,0,0,-1,62,64,42,30,77,-28.01,8,-18.0,7.0,-1050.0,11:36:14.927092,192.168.0.115
420,5,-7,9,50,"1,2,-178",0,0,-1,0,0,0,62,64,41,30,77,-28.06,8,2.0,7.0,-1036.0,11:36:15.029189,192.168.0.115
425,5,-7,9,50,"1,2,-178",0,0,0,0,0,0,62,64,40,30,77,-27.97,8,-10.0,0.0,-1007.0,11:36:15.131012,192.168.0.115
430,5,-7,9,50,"1,2,-178",0,0,0,0,0,0,62,64,41,30,77,-28.0,8,-9.0,15.0,-1013.0,11:36:15.233000,192.168.0.115
431,5,-6,9,45,"0,2,-178",0,0,0,0,0,0,62,64,40,20,77,-28.09,8,-22.0,14.0,-1013.0,11:36:15.284153,192.168.0.115
436,5,-6,9,45,"0,2,-178",0,0,-1,0,0,0,62,64,40,20,77,-28.04,8,-2.0,23.0,-1024.0,11:36:15.386509,192.168.0.115
441,5,-6,9,45,"0,2,-178",0,0,-1,0,0,0,62,64,41,20,77,-28.0,8,-8.0,9.0,-1006.0,11:36:15.488058,192.168.0.115
446,5,-6,9,45,"0,2,-178",-1,0,-1,0,0,0,62,64,41,20,77,-27.98,8,-25.0,9.0,-996.0,11:36:15.590147,192.168.0.115
452,5,-7,10,42,"0,2,180",-1,0,-1,0,0,0,61,64,41,20,77,-27.93,8,-11.0,16.0,-1001.0,11:36:15.692035,192.168.0.115
457,5,-7,10,42,"0,2,180",0,0,-1,0,0,0,61,64,41,20,77,-28.05,9,-35.0,16.0,-993.0,11:36:15.794159,192.168.0.115
463,5,-7,10,42,"0,2,180",-1,0,-1,0,0,0,61,64,41,20,77,-27.97,9,8.0,-4.0,-994.0,11:36:15.896141,192.168.0.115
468,5,-7,10,42,"0,2,180",-1,0,-1,0,0,0,61,64,42,20,77,-28.01,9,0.0,4.0,-998.0,11:36:15.998267,192.168.0.115
473,5,-8,11,42,"1,2,180",-1,0,-1,0,0,0,61,64,42,30,77,-27.96,9,-32.0,10.0,-994.0,11:36:16.100129,192.168.0.115
478,5,-8,11,42,"1,2,180",-1,0,-1,0,0,0,61,64,42,30,77,-28.01,9,0.0,3.0,-992.0,11:36:16.202182,192.168.0.115
483,5,-8,11,42,"1,2,180",-1,0,-1,0,0,0,61,64,42,30,77,-28.0,9,0.0,-1.0,-1005.0,11:36:16.304098,192.168.0.115
488,5,-13,10,42,"-1,2,-177",-1,0,-1,0,0,0,61,64,42,30,77,-28.01,9,-23.0,9.0,-990.0,11:36:16.406134,192.168.0.115
493,5,-13,10,42,"-1,2,-177",-1,0,-1,0,0,0,61,64,42,30,77,-27.97,9,-12.0,3.0,-991.0,11:36:16.507651,192.168.0.115
498,5,-13,10,42,"-1,2,-177",-1,0,-1,0,0,0,61,64,42,30,77,-27.95,9,-5.0,3.0,-991.0,11:36:16.610027,192.168.0.115
503,5,-13,10,42,"-1,2,-177",-1,0,-1,0,0,0,62,64,42,30,77,-28.02,9,-18.0,1.0,-994.0,11:36:16.712096,192.168.0.115
508,5,-15,9,43,"-2,3,-175",-1,0,-1,0,0,0,62,64,43,30,77,-27.94,10,-27.0,0.0,-990.0,11:36:16.814971,192.168.0.115
515,5,-15,9,43,"-2,3,-175",-1,0,-1,0,0,0,62,64,43,30,77,-27.95,10,-4.0,-2.0,-997.0,11:36:16.916112,192.168.0.115
520,5,-15,9,43,"-2,3,-175",-1,0,-1,0,0,0,62,64,43,30,77,-27.97,10,0.0,-5.0,-1008.0,11:36:17.018166,192.168.0.115
525,5,-15,9,43,"-2,3,-175",-1,0,-1,0,0,0,62,64,43,30,77,-27.92,10,-6.0,3.0,-993.0,11:36:17.120101,192.168.0.115
529,5,-13,14,44,"0,2,179",-1,0,-1,0,0,0,62,64,43,30,77,-27.93,10,-17.0,-1.0,-1000.0,11:36:17.222230,192.168.0.115
534,5,-13,14,44,"0,2,179",-1,0,-1,0,0,0,62,64,43,30,77,-27.92,10,-20.0,3.0,-996.0,11:36:17.323990,192.168.0.115
540,5,-13,14,44,"0,2,179",-1,0,-1,0,0,0,62,64,43,30,77,-27.85,10,1.0,-7.0,-1008.0,11:36:17.426068,192.168.0.115
545,5,-13,15,45,"2,1,179",-2,1,-1,0,0,0,62,64,42,30,77,-27.95,10,-20.0,2.0,-985.0,11:36:17.527881,192.168.0.115
550,5,-13,15,45,"2,1,179",-3,3,-1,0,0,0,62,64,42,30,77,-27.91,10,-4.0,9.0,-971.0,11:36:17.630015,192.168.0.115
555,5,-13,15,45,"2,1,179",-2,2,-1,0,0,0,63,65,41,20,77,-27.99,10,-17.0,5.0,-996.0,11:36:17.732034,192.168.0.115
560,5,-13,15,45,"2,1,179",-2,1,-1,0,-1,0,63,65,40,20,77,-28.02,11,-27.0,-5.0,-1004.0,11:36:17.834026,192.168.0.115
565,5,-12,12,46,"4,3,-175",-1,1,-1,0,-1,0,63,65,40,20,77,-27.89,11,-28.0,-3.0,-1006.0,11:36:17.935994,192.168.0.115
570,5,-12,12,46,"4,3,-175",-1,0,-1,0,-1,0,63,65,40,20,77,-27.96,11,-28.0,-17.0,-994.0,11:36:18.038124,192.168.0.115
575,5,-12,12,46,"4,3,-175",-1,0,-1,0,-1,0,63,65,39,20,77,-27.98,11,-32.0,-7.0,-1022.0,11:36:18.140083,192.168.0.115
580,5,-12,12,46,"4,3,-175",-1,0,-1,0,-1,0,63,65,38,20,77,-28.0,11,-14.0,-11.0,-1002.0,11:36:18.242119,192.168.0.115
583,5,-12,12,46,"4,3,-175",-1,0,-1,0,-1,0,63,65,38,20,77,-28.01,11,-43.0,-13.0,-982.0,11:36:18.293563,192.168.0.115
587,5,-12,12,46,"4,3,-175",-2,1,-1,0,-1,0,63,65,38,20,77,-28.01,11,2.0,-5.0,-998.0,11:36:18.394865,192.168.0.115
592,5,-12,12,46,"4,3,-175",-1,0,-1,0,-1,0,63,65,37,20,77,-27.9,11,-5.0,5.0,-1008.0,11:36:18.496812,192.168.0.115
597,5,-10,9,40,"1,2,180",-1,0,-1,-1,-1,0,63,65,38,20,77,-27.97,11,-11.0,-7.0,-1003.0,11:36:18.598774,192.168.0.115
605,5,-10,9,40,"1,2,180",-1,0,-1,0,-1,0,63,65,37,20,77,-28.05,11,-31.0,-8.0,-1005.0,11:36:18.751884,192.168.0.115
607,5,-10,9,40,"1,2,180",-1,0,-1,0,0,0,63,65,37,20,77,-27.98,12,-5.0,-3.0,-994.0,11:36:18.802982,192.168.0.115
612,5,-10,9,40,"1,2,180",-1,0,-1,0,0,0,63,65,36,20,77,-28.03,12,-11.0,-11.0,-995.0,11:36:18.904805,192.168.0.115
617,5,-7,5,39,"1,2,-178",-1,0,-1,0,0,0,63,65,36,20,77,-28.02,12,-5.0,-7.0,-1020.0,11:36:19.007120,192.168.0.115
622,5,-7,5,39,"1,2,-178",-1,-1,-1,0,0,0,63,65,37,20,77,-28.06,12,-16.0,-1.0,-986.0,11:36:19.108818,192.168.0.115
628,5,-7,5,39,"1,2,-178",0,0,-1,0,0,0,63,65,37,20,77,-28.03,12,-17.0,-7.0,-1007.0,11:36:19.210905,192.168.0.115
633,5,-7,5,39,"1,2,-178",0,0,-1,0,0,0,63,65,37,20,77,-28.07,12,-21.0,4.0,-1000.0,11:36:19.312867,192.168.0.115
639,5,-4,3,39,"2,2,180",0,0,-1,0,0,0,63,65,37,20,77,-28.03,12,-12.0,-10.0,-984.0,11:36:19.414802,192.168.0.115
644,5,-4,3,39,"2,2,180",0,0,-1,0,0,0,63,65,38,20,77,-28.0,12,-4.0,-6.0,-992.0,11:36:19.516774,192.168.0.115
649,5,-4,3,39,"2,2,180",-1,0,-1,0,0,0,63,65,38,20,77,-28.01,12,-19.0,1.0,-1002.0,11:36:19.618909,192.168.0.115
654,5,-4,3,39,"2,2,180",0,0,-1,0,0,0,62,65,38,20,77,-27.93,12,-6.0,-3.0,-980.0,11:36:19.720853,192.168.0.115
659,5,-4,3,39,"2,2,180",-1,0,-1,0,0,0,62,65,37,20,77,-27.93,13,-21.0,4.0,-1008.0,11:36:19.822642,192.168.0.115
664,5,-4,3,39,"2,2,180",-1,0,-1,0,0,0,62,65,37,20,77,-28.04,13,-16.0,-3.0,-997.0,11:36:19.924795,192.168.0.115
669,5,-4,3,39,"2,2,180",-1,0,-1,0,0,0,62,65,37,20,77,-27.95,13,-8.0,-6.0,-1009.0,11:36:20.026681,192.168.0.115
674,5,-4,3,39,"2,2,180",-1,1,-1,0,0,0,62,65,37,20,77,-27.96,13,18.0,0.0,-1005.0,11:36:20.129000,192.168.0.115
679,5,-4,3,39,"2,2,180",-1,1,-1,0,0,0,62,65,38,20,77,-27.99,13,-10.0,-10.0,-997.0,11:36:20.230884,192.168.0.115
684,5,-4,3,39,"2,2,180",-1,1,-1,0,0,0,62,65,38,20,77,-28.03,13,-20.0,-10.0,-1002.0,11:36:20.332712,192.168.0.115
689,5,-4,3,39,"2,2,180",-1,1,-1,0,0,0,62,65,38,20,77,-28.05,13,-8.0,-5.0,-999.0,11:36:20.434848,192.168.0.115
695,5,-6,6,40,"2,2,-177",-1,0,-1,0,0,0,62,65,38,20,77,-27.98,13,-10.0,5.0,-1008.0,11:36:20.536991,192.168.0.115
700,5,-6,6,40,"2,2,-177",-1,0,-1,0,0,0,62,65,38,20,77,-27.99,13,-29.0,11.0,-992.0,11:36:20.638970,192.168.0.115
705,5,-6,6,40,"2,2,-177",-1,0,-1,0,0,0,62,65,38,20,77,-27.95,13,-12.0,4.0,-993.0,11:36:20.740849,192.168.0.115
710,5,-6,6,40,"2,2,-177",-1,0,-1,0,0,0,62,65,38,20,77,-27.95,14,-17.0,9.0,-1015.0,11:36:20.842782,192.168.0.115
715,5,-9,9,39,"1,2,-178",-1,0,-1,0,0,0,62,65,38,20,77,-27.94,14,12.0,-3.0,-1006.0,11:36:20.945167,192.168.0.115
720,5,-9,9,39,"1,2,-178",-1,0,-1,0,0,0,62,65,38,20,77,-28.0,14,4.0,-9.0,-991.0,11:36:21.046772,192.168.0.115
725,5,-9,9,39,"1,2,-178",-1,0,-1,0,0,0,62,65,39,20,77,-27.94,14,-19.0,3.0,-995.0,11:36:21.148861,192.168.0.115
730,5,-11,9,39,"0,2,-179",-1,1,-1,0,0,0,62,65,39,20,77,-27.99,14,0.0,-5.0,-998.0,11:36:21.250593,192.168.0.115
735,5,-11,9,39,"0,2,-179",-3,2,-1,0,0,0,62,65,39,20,77,-28.0,14,-14.0,-9.0,-986.0,11:36:21.352708,192.168.0.115
740,5,-11,9,39,"0,2,-179",-3,2,-1,0,0,0,62,65,38,20,77,-27.97,14,-8.0,-20.0,-991.0,11:36:21.454825,192.168.0.115
745,5,-11,9,39,"0,2,-179",-2,1,-1,0,0,0,62,65,38,20,77,-28.03,14,14.0,-10.0,-1017.0,11:36:21.556734,192.168.0.115
750,5,-12,10,40,"1,2,-178",-1,1,-1,0,0,0,62,65,38,20,77,-28.11,14,-31.0,-15.0,-997.0,11:36:21.658793,192.168.0.115
755,5,-12,10,40,"1,2,-178",-1,1,-1,0,0,0,62,65,38,20,77,-28.01,14,-24.0,0.0,-1005.0,11:36:21.760766,192.168.0.115
760,5,-12,10,40,"1,2,-178",-1,1,-1,0,0,0,62,65,37,20,77,-28.07,15,-26.0,-23.0,-1023.0,11:36:21.862670,192.168.0.115
765,5,-12,10,40,"1,2,-178",-1,1,-1,0,0,0,62,65,37,20,77,-28.06,15,-13.0,-20.0,-1006.0,11:36:21.964594,192.168.0.115
770,5,-11,8,39,"0,2,-178",-1,1,-1,0,0,0,62,65,37,20,77,-28.01,15,-17.0,-11.0,-1008.0,11:36:22.066691,192.168.0.115
775,5,-11,8,39,"0,2,-178",-1,0,-1,0,0,0,62,65,37,20,77,-28.02,15,-25.0,-12.0,-1018.0,11:36:22.168540,192.168.0.115
780,5,-11,8,39,"0,2,-178",0,-1,-1,0,0,0,62,65,37,20,77,-28.04,15,-14.0,-18.0,-1016.0,11:36:22.270780,192.168.0.115
783,5,-11,8,39,"0,2,-178",0,0,-1,0,0,0,62,65,38,20,77,-28.03,15,-41.0,0.0,-1010.0,11:36:22.322009,192.168.0.115
789,5,-6,5,39,"2,2,-177",0,0,-1,0,0,0,62,65,38,20,77,-28.02,15,-39.0,-2.0,-992.0,11:36:22.424986,192.168.0.115
793,5,-6,5,39,"2,2,-177",0,0,-1,0,0,0,62,65,38,20,77,-27.99,15,0.0,-9.0,-1004.0,11:36:22.525858,192.168.0.115
799,5,-6,5,39,"2,2,-177",0,0,-1,0,0,0,62,65,38,20,77,-28.05,15,-5.0,-19.0,-1006.0,11:36:22.627751,192.168.0.115
804,5,-4,3,39,"0,2,-177",0,0,-1,0,0,0,63,65,38,20,77,-28.03,15,-9.0,5.0,-1006.0,11:36:22.730041,192.168.0.115
809,5,-4,3,39,"0,2,-177",0,0,-1,0,0,0,63,65,38,20,77,-28.05,16,-20.0,7.0,-998.0,11:36:22.831835,192.168.0.115
814,5,-4,3,39,"0,2,-177",0,0,-1,0,0,0,63,65,38,20,77,-28.0,16,-8.0,7.0,-998.0,11:36:22.934269,192.168.0.115
819,5,-4,3,39,"0,2,-177",0,0,-1,0,0,0,63,65,38,20,77,-28.0,16,-23.0,0.0,-986.0,11:36:23.035789,192.168.0.115
824,5,-4,3,39,"0,2,-177",-1,0,-1,0,0,0,63,65,38,20,77,-28.08,16,-26.0,14.0,-999.0,11:36:23.137822,192.168.0.115
829,5,-4,3,39,"0,2,-177",-1,0,-1,0,0,0,63,65,38,20,77,-28.02,16,-19.0,20.0,-1000.0,11:36:23.239763,192.168.0.115
834,5,-4,3,39,"0,2,-177",-1,0,-1,0,0,0,63,65,38,20,77,-28.01,16,-22.0,7.0,-994.0,11:36:23.341839,192.168.0.115
839,5,-4,3,39,"0,2,-177",-1,0,-1,0,0,0,63,65,38,20,77,-28.07,16,-11.0,2.0,-982.0,11:36:23.443817,192.168.0.115
844,5,-5,6,40,"2,2,-178",-1,0,-1,0,0,0,63,65,38,20,77,-28.0,16,-16.0,0.0,-1004.0,11:36:23.546078,192.168.0.115
849,5,-5,6,40,"2,2,-178",-1,0,-1,0,0,0,63,65,38,20,77,-27.97,16,-16.0,-4.0,-996.0,11:36:23.647791,192.168.0.115
854,5,-5,6,40,"2,2,-178",-1,0,-1,0,0,0,63,65,38,20,77,-27.99,16,-17.0,-3.0,-989.0,11:36:23.749892,192.168.0.115
860,5,-5,6,40,"2,2,-178",-1,0,-1,0,0,0,63,65,37,20,77,-27.95,17,-44.0,-9.0,-974.0,11:36:23.851817,192.168.0.115
865,5,-8,6,40,"2,2,-179",-1,0,-1,0,0,0,63,65,37,20,77,-27.97,17,-27.0,0.0,-989.0,11:36:23.953831,192.168.0.115
870,5,-8,6,40,"2,2,-179",-1,0,-1,0,0,0,63,65,37,20,77,-27.96,17,-21.0,0.0,-975.0,11:36:24.055609,192.168.0.115
875,5,-8,6,40,"2,2,-179",-2,0,-1,0,0,0,63,65,37,20,77,-28.02,17,-16.0,-16.0,-983.0,11:36:24.157737,192.168.0.115
880,5,-10,7,39,"0,2,180",-2,0,-1,0,0,0,63,65,36,20,77,-27.97,17,-21.0,23.0,-1023.0,11:36:24.259772,192.168.0.115
885,5,-10,7,39,"0,2,180",-2,0,-1,0,0,0,63,65,36,20,77,-28.0,17,-36.0,-2.0,-996.0,11:36:24.361766,192.168.0.115
890,5,-10,7,39,"0,2,180",-2,0,-1,0,0,0,63,65,36,20,77,-27.99,17,-36.0,-9.0,-1003.0,11:36:24.463777,192.168.0.115
895,5,-10,7,39,"0,2,180",-2,0,-1,0,0,0,63,65,36,20,77,-27.95,17,-29.0,26.0,-1035.0,11:36:24.565869,192.168.0.115
900,5,-13,8,37,"0,2,179",-5,2,-1,0,0,0,63,65,36,20,77,-27.98,17,-16.0,-6.0,-987.0,11:36:24.667369,192.168.0.115
905,5,-13,8,37,"0,2,179",-3,2,-1,0,0,0,64,66,36,20,77,-27.82,17,-18.0,-21.0,-988.0,11:36:24.769878,192.168.0.115
910,5,-13,8,37,"0,2,179",-2,1,-1,-1,0,0,64,66,36,20,77,-27.57,18,-20.0,-21.0,-997.0,11:36:24.872056,192.168.0.115
915,5,-13,8,37,"0,2,179",-2,1,-1,-1,0,0,64,66,36,20,77,-27.49,18,-25.0,-12.0,-1000.0,11:36:24.973838,192.168.0.115
920,5,-15,11,36,"3,1,177",-1,1,-1,-1,0,0,64,66,36,20,77,-27.5,18,-41.0,6.0,-984.0,11:36:25.075889,192.168.0.115
925,5,-15,11,36,"3,1,177",-1,1,-1,-1,0,0,64,66,36,20,77,-27.47,18,-33.0,-19.0,-1001.0,11:36:25.178064,192.168.0.115
930,5,-15,11,36,"3,1,177",-1,1,-1,-1,0,0,64,66,36,20,77,-27.54,18,-55.0,-31.0,-990.0,11:36:25.279690,192.168.0.115
932,5,-15,11,36,"3,1,177",-1,0,-1,-1,0,0,64,66,36,20,77,-27.72,18,0.0,-18.0,-1024.0,11:36:25.330619,192.168.0.115
938,5,-15,11,36,"3,1,177",-1,0,-1,-1,0,0,64,66,36,20,77,-27.94,18,-34.0,-3.0,-1000.0,11:36:25.432715,192.168.0.115
943,5,-15,11,36,"3,1,177",-1,0,-1,-1,0,0,64,66,36,20,77,-28.11,18,4.0,-12.0,-1006.0,11:36:25.534396,192.168.0.115
948,5,-15,11,36,"3,1,177",-1,-1,-1,-1,0,0,64,66,36,20,77,-28.31,18,-2.0,-20.0,-979.0,11:36:25.636418,192.168.0.115
954,5,-6,5,38,"2,2,-178",0,0,-1,0,0,0,63,66,36,20,77,-28.43,18,-6.0,-13.0,-1009.0,11:36:25.739480,192.168.0.115
958,5,-6,5,38,"2,2,-178",0,0,-1,0,0,0,63,66,36,20,77,-28.45,19,-15.0,5.0,-1004.0,11:36:25.840766,192.168.0.115
963,5,-6,5,38,"2,2,-178",0,0,-1,0,0,0,63,66,36,20,77,-28.45,19,-1.0,0.0,-991.0,11:36:25.942992,192.168.0.115
968,5,-6,5,38,"2,2,-178",0,0,-1,0,0,0,63,66,37,20,77,-28.45,19,1.0,-8.0,-999.0,11:36:26.044714,192.168.0.115
973,5,-6,5,38,"2,2,-178",-1,0,-1,0,0,0,63,66,36,20,77,-28.41,19,-19.0,-10.0,-994.0,11:36:26.146576,192.168.0.115
979,5,-6,5,38,"2,2,-178",-1,0,-1,0,0,0,63,66,36,20,77,-28.36,19,0.0,-6.0,-1004.0,11:36:26.248221,192.168.0.115
984,5,-6,5,38,"2,2,-178",-1,0,-1,0,0,0,63,66,36,20,77,-28.35,19,-21.0,13.0,-1008.0,11:36:26.350510,192.168.0.115
989,5,-6,5,38,"2,2,-178",-1,0,-1,0,0,0,63,66,36,20,77,-28.22,19,-9.0,4.0,-1000.0,11:36:26.452514,192.168.0.115
994,5,-3,5,38,"2,1,-178",0,0,-1,0,0,0,63,66,36,20,77,-28.16,19,18.0,-21.0,-999.0,11:36:26.554502,192.168.0.115
999,5,-3,5,38,"2,1,-178",0,0,-1,0,0,0,63,66,37,20,77,-28.14,19,-10.0,0.0,-987.0,11:36:26.656446,192.168.0.115
1004,5,-3,5,38,"2,1,-178",0,0,-1,0,0,0,63,66,37,20,77,-28.19,19,-2.0,2.0,-1009.0,11:36:26.758470,192.168.0.115
1009,5,-3,5,38,"2,1,-178",0,0,-1,0,0,0,63,66,37,20,77,-28.2,20,-3.0,-30.0,-999.0,11:36:26.860476,192.168.0.115
1014,5,-3,5,38,"2,1,-178",-1,0,-1,0,0,0,63,66,37,20,77,-28.27,20,-1.0,-17.0,-989.0,11:36:26.962627,192.168.0.115
1019,5,-3,5,38,"2,1,-178",-1,1,-1,0,0,0,63,66,37,20,77,-28.26,20,-9.0,-3.0,-999.0,11:36:27.064529,192.168.0.115
1024,5,-3,5,38,"2,1,-178",-1,1,-1,0,0,0,63,66,38,20,77,-28.15,20,4.0,-19.0,-981.0,11:36:27.166325,192.168.0.115
1029,5,-6,7,39,"1,2,-177",0,1,-1,0,0,0,63,66,38,20,77,-28.22,20,0.0,-18.0,-994.0,11:36:27.268608,192.168.0.115
1034,5,-6,7,39,"1,2,-177",0,1,-1,0,0,0,63,66,38,20,77,-28.26,20,-7.0,-18.0,-1008.0,11:36:27.370446,192.168.0.115
1039,5,-6,7,39,"1,2,-177",0,1,-1,0,0,0,63,66,38,20,77,-28.31,20,-25.0,-13.0,-978.0,11:36:27.472456,192.168.0.115
1045,5,-6,7,39,"1,2,-177",0,1,-1,0,0,0,63,66,38,20,77,-28.27,20,-17.0,1.0,-1008.0,11:36:27.574057,192.168.0.115
1050,5,-7,10,39,"1,2,-179",-1,1,-1,0,0,0,63,66,38,20,77,-28.27,20,1.0,-2.0,-1017.0,11:36:27.676319,192.168.0.115
1055,5,-7,10,39,"1,2,-179",-1,1,-1,0,0,0,64,66,39,20,77,-28.23,20,11.0,-3.0,-1030.0,11:36:27.778564,192.168.0.115
1060,5,-7,10,39,"1,2,-179",-1,1,-1,0,0,0,64,66,39,20,77,-28.24,21,-6.0,-26.0,-990.0,11:36:27.880501,192.168.0.115
1065,5,-7,10,39,"1,2,-179",0,1,-1,0,0,0,64,66,39,20,77,-28.24,21,-2.0,-11.0,-999.0,11:36:27.982630,192.168.0.115
1070,5,-9,9,40,"0,2,-176",-1,1,-1,0,0,0,64,66,39,20,77,-28.27,21,-17.0,-14.0,-992.0,11:36:28.084431,192.168.0.115
1075,5,-9,9,40,"0,2,-176",-1,1,-1,0,0,0,64,66,39,20,77,-28.21,21,-7.0,-19.0,-1006.0,11:36:28.186426,192.168.0.115
1080,5,-9,9,40,"0,2,-176",0,0,-1,0,0,0,64,66,39,20,77,-28.18,21,-3.0,-5.0,-1000.0,11:36:28.288452,192.168.0.115
1085,5,-9,11,40,"0,1,180",0,0,-1,0,0,0,64,66,39,20,77,-28.22,21,1.0,-7.0,-999.0,11:36:28.390473,192.168.0.115
1090,5,-9,11,40,"0,1,180",0,0,-1,0,0,0,64,66,39,20,77,-28.18,21,-18.0,-13.0,-971.0,11:36:28.494366,192.168.0.115
1095,5,-9,11,40,"0,1,180",0,0,-1,0,0,0,64,66,39,20,77,-28.19,21,0.0,-2.0,-989.0,11:36:28.596045,192.168.0.115
1100,5,-9,11,40,"0,1,180",0,1,-1,0,0,0,64,66,39,20,77,-28.22,21,-4.0,-10.0,-1013.0,11:36:28.696489,192.168.0.115
1105,5,-9,9,41,"0,2,-178",0,1,-1,0,0,0,64,66,39,20,77,-28.22,21,3.0,-27.0,-998.0,11:36:28.799119,192.168.0.115
1110,5,-9,9,41,"0,2,-178",0,1,-1,0,0,0,64,66,39,20,77,-28.32,22,20.0,-6.0,-1018.0,11:36:28.900489,192.168.0.115
1115,5,-9,9,41,"0,2,-178",-2,3,-1,0,0,0,64,66,39,20,77,-28.48,22,4.0,-10.0,-996.0,11:36:29.002983,192.168.0.115
1118,5,-9,9,41,"0,2,-178",-2,3,-1,0,0,0,64,66,39,20,77,-28.35,22,-10.0,-16.0,-999.0,11:36:29.053564,192.168.0.115
1123,5,-8,10,40,"0,2,180",-1,1,-1,-1,-1,0,64,66,38,20,77,-27.72,22,-2.0,-6.0,-1028.0,11:36:29.155640,192.168.0.115
1128,5,-8,10,40,"0,2,180",0,0,-1,-1,-1,0,64,66,38,20,77,-28.32,22,16.0,-11.0,-1009.0,11:36:29.257841,192.168.0.115
1134,5,-8,10,40,"0,2,180",0,0,-1,-1,0,0,64,66,39,20,77,-28.02,22,5.0,-17.0,-995.0,11:36:29.359581,192.168.0.115
1139,5,-7,8,40,"1,2,-177",0,1,0,0,0,0,64,66,38,20,77,-27.8,22,7.0,-3.0,-986.0,11:36:29.461569,192.168.0.115
1144,5,-7,8,40,"1,2,-177",0,1,0,0,0,0,64,66,38,20,77,-27.82,22,-10.0,-16.0,-1004.0,11:36:29.563611,192.168.0.115
1149,5,-7,8,40,"1,2,-177",1,1,0,0,0,0,64,66,39,20,77,-27.93,22,16.0,-10.0,-973.0,11:36:29.666506,192.168.0.115
1154,5,-7,8,40,"1,2,-177",0,-1,0,0,0,0,64,66,38,20,77,-27.84,23,4.0,-25.0,-1002.0,11:36:29.767471,192.168.0.115
1158,5,-7,8,40,"1,2,-177",0,0,0,0,0,0,64,66,38,20,77,-27.94,23,-2.0,-18.0,-996.0,11:36:29.869698,192.168.0.115
1164,5,-7,8,40,"1,2,-177",0,0,0,0,0,0,64,66,39,20,77,-27.78,23,4.0,-4.0,-1000.0,11:36:29.971490,192.168.0.115
1169,5,-7,8,40,"1,2,-177",0,0,0,0,0,0,64,66,39,20,77,-27.83,23,33.0,-28.0,-995.0,11:36:30.073571,192.168.0.115
1174,5,-7,8,40,"1,2,-177",0,0,0,0,0,0,64,66,39,20,77,-27.86,23,-16.0,-4.0,-1001.0,11:36:30.175703,192.168.0.115
1179,5,-7,8,40,"1,2,-177",0,0,0,0,0,0,64,66,39,20,77,-27.86,23,17.0,-20.0,-1018.0,11:36:30.277604,192.168.0.115
1184,5,-7,8,40,"1,2,-177",0,0,0,0,0,0,64,66,39,20,77,-27.96,23,4.0,-8.0,-1005.0,11:36:30.379512,192.168.0.115
1189,5,-7,8,40,"1,2,-177",0,1,0,0,0,0,64,66,39,20,77,-27.85,23,18.0,-1.0,-1008.0,11:36:30.481542,192.168.0.115
1194,5,-7,8,40,"1,2,-177",0,1,0,0,0,0,64,66,39,20,77,-27.9,23,5.0,-16.0,-1002.0,11:36:30.591737,192.168.0.115
1199,5,-2,2,41,"1,1,-178",0,0,0,0,0,0,64,66,40,20,77,-27.93,23,-14.0,-11.0,-1009.0,11:36:30.685859,192.168.0.115
1204,5,-2,2,41,"1,1,-178",-1,0,0,0,0,0,65,67,39,20,77,-27.92,24,-31.0,-15.0,-998.0,11:36:30.787383,192.168.0.115
1209,5,-2,2,41,"1,1,-178",-1,1,-1,0,0,0,65,67,39,20,77,-27.96,24,-14.0,-10.0,-985.0,11:36:30.889565,192.168.0.115
1215,5,-3,3,41,"1,1,-177",-1,1,-1,0,0,0,65,67,38,20,77,-27.94,24,21.0,-8.0,-986.0,11:36:30.991577,192.168.0.115
1220,5,-3,3,41,"1,1,-177",-1,1,-1,0,0,0,65,67,38,20,77,-27.99,24,-6.0,-13.0,-1012.0,11:36:31.093527,192.168.0.115
1225,5,-3,3,41,"1,1,-177",-1,0,-1,0,0,0,65,67,38,20,77,-27.99,24,12.0,-15.0,-1001.0,11:36:31.195628,192.168.0.115
1230,5,-3,3,41,"1,1,-177",0,0,-1,0,0,0,65,67,38,20,77,-27.92,24,7.0,-22.0,-989.0,11:36:31.297555,192.168.0.115
1235,5,-5,5,40,"2,2,-177",0,1,-1,0,0,0,65,67,38,20,77,-27.95,24,15.0,-5.0,-1006.0,11:36:31.399522,192.168.0.115
1240,5,-5,5,40,"2,2,-177",0,1,-1,0,0,0,65,67,38,20,77,-27.93,24,-18.0,-8.0,-981.0,11:36:31.501567,192.168.0.115
1245,5,-5,5,40,"2,2,-177",0,0,-1,0,0,0,65,67,38,20,77,-27.98,24,-1.0,1.0,-1000.0,11:36:31.603457,192.168.0.115
1250,5,-5,5,40,"2,2,-177",0,0,-1,0,0,0,65,67,38,20,77,-27.95,24,-7.0,-9.0,-981.0,11:36:31.705485,192.168.0.115
1255,5,-6,7,40,"2,1,180",0,0,-1,0,0,0,65,66,38,20,77,-27.98,25,8.0,-19.0,-1001.0,11:36:31.807312,192.168.0.115
1260,5,-6,7,40,"2,1,180",0,0,-1,0,0,0,65,66,38,20,77,-27.99,25,-17.0,-5.0,-999.0,11:36:31.912497,192.168.0.115
1265,5,-6,7,40,"2,1,180",-1,0,-1,0,0,0,65,66,38,20,77,-27.93,25,-6.0,2.0,-997.0,11:36:32.011471,192.168.0.115
1270,5,-6,7,40,"2,1,180",-1,0,-1,0,0,0,65,66,38,20,77,-27.93,25,-14.0,-15.0,-1001.0,11:36:32.113280,192.168.0.115
1275,5,-7,6,40,"1,2,-178",-1,0,-1,0,0,0,65,66,38,20,77,-27.92,25,-20.0,-6.0,-994.0,11:36:32.215405,192.168.0.115
1280,5,-7,6,40,"1,2,-178",-1,0,-1,0,0,0,65,66,38,20,77,-27.9,25,-21.0,-13.0,-981.0,11:36:32.317661,192.168.0.115
1285,5,-7,6,40,"1,2,-178",-1,0,-1,0,0,0,65,66,38,20,77,-27.9,25,-21.0,-7.0,-986.0,11:36:32.419139,192.168.0.115
1288,5,-8,6,40,"1,2,-178",-1,0,-1,0,0,0,65,66,38,20,77,-27.91,25,0.0,-10.0,-990.0,11:36:32.470898,192.168.0.115
1294,5,-8,6,40,"1,2,-178",-1,0,-1,0,0,0,65,66,38,20,77,-27.91,25,-21.0,-1.0,-1003.0,11:36:32.573250,192.168.0.115
1298,5,-8,6,40,"1,2,-178",0,0,-1,0,0,0,65,66,38,20,77,-27.96,25,-19.0,-13.0,-999.0,11:36:32.675842,192.168.0.115
1303,5,-8,6,40,"1,2,-178",0,0,-1,0,0,0,64,67,38,20,77,-27.91,26,-4.0,-4.0,-1009.0,11:36:32.778124,192.168.0.115
1308,5,-8,6,40,"1,2,-179",0,0,-1,0,0,0,64,67,38,20,77,-27.92,26,-17.0,-21.0,-992.0,11:36:32.880490,192.168.0.115
1313,5,-8,6,40,"1,2,-179",0,1,0,0,0,0,64,67,38,20,77,-27.9,26,0.0,-20.0,-1013.0,11:36:32.982782,192.168.0.115
1319,5,-8,6,40,"1,2,-179",0,1,0,0,0,0,64,67,38,20,77,-27.9,26,-9.0,-22.0,-997.0,11:36:33.082220,192.168.0.115
1324,5,-8,6,40,"1,2,-179",0,1,0,0,0,0,64,67,38,20,77,-27.98,26,-12.0,0.0,-992.0,11:36:33.184229,192.168.0.115
1328,5,-8,6,40,"1,2,-179",0,0,0,0,0,0,64,67,38,20,77,-27.94,26,-6.0,0.0,-989.0,11:36:33.286192,192.168.0.115
1334,5,-8,6,40,"1,2,-179",-1,1,0,0,0,0,64,67,38,20,77,-27.93,26,1.0,-2.0,-989.0,11:36:33.388682,192.168.0.115
1339,5,-8,6,40,"1,2,-179",-2,2,0,0,0,0,64,67,39,20,77,-27.89,26,-8.0,3.0,-985.0,11:36:33.490210,192.168.0.115
1344,5,-6,6,41,"1,1,-177",-1,1,0,0,0,0,64,67,39,20,77,-27.88,26,-26.0,-6.0,-1001.0,11:36:33.592260,192.168.0.115
1349,5,-6,6,41,"1,1,-177",0,1,0,0,0,0,64,67,39,20,77,-27.92,26,23.0,-4.0,-1006.0,11:36:33.694283,192.168.0.115
1354,5,-6,6,41,"1,1,-177",0,1,0,0,0,0,64,67,39,20,77,-27.85,27,-2.0,3.0,-992.0,11:36:33.796238,192.168.0.115
1359,5,-6,6,41,"1,1,-177",0,0,0,0,0,0,64,67,39,20,77,-27.89,27,-5.0,-3.0,-986.0,11:36:33.898749,192.168.0.115
1364,5,-5,6,41,"2,1,-177",1,0,0,0,0,0,64,67,39,20,77,-27.83,27,-12.0,7.0,-978.0,11:36:34.000163,192.168.0.115
1369,5,-5,6,41,"2,1,-177",0,-1,0,0,0,0,64,67,39,20,77,-27.93,27,18.0,-12.0,-1030.0,11:36:34.102262,192.168.0.115
1374,5,-5,6,41,"2,1,-177",0,0,0,0,0,0,64,67,39,20,77,-27.92,27,2.0,-13.0,-991.0,11:36:34.204171,192.168.0.115
1379,5,-5,6,41,"2,1,-177",0,0,0,0,0,0,64,67,39,20,77,-27.91,27,-23.0,11.0,-985.0,11:36:34.306129,192.168.0.115
1384,5,-5,6,41,"2,1,-177",0,0,0,0,0,0,64,67,39,20,77,-27.94,27,16.0,0.0,-995.0,11:36:34.408286,192.168.0.115
1390,5,-5,6,41,"2,1,-177",0,0,0,0,0,0,64,67,39,20,77,-27.89,27,-2.0,0.0,-1000.0,11:36:34.510112,192.168.0.115
1395,5,-5,6,41,"2,1,-177",0,0,0,0,0,0,64,67,39,20,77,-27.92,27,16.0,-11.0,-1007.0,11:36:34.612259,192.168.0.115
1400,5,-5,6,41,"2,1,-177",0,0,0,0,0,0,64,67,39,20,77,-27.91,27,6.0,0.0,-995.0,11:36:34.714257,192.168.0.115
1405,5,-1,3,41,"0,1,-179",0,0,-1,0,0,0,65,66,39,20,77,-27.89,28,3.0,1.0,-1007.0,11:36:34.816255,192.168.0.115
1410,5,-1,3,41,"0,1,-179",0,0,-1,0,0,0,65,66,39,20,77,-27.89,28,10.0,1.0,-998.0,11:36:34.918256,192.168.0.115
1415,5,-1,3,41,"0,1,-179",0,0,-1,0,0,0,65,66,39,20,77,-27.88,28,5.0,-8.0,-1006.0,11:36:35.020210,192.168.0.115
1420,5,-1,2,41,"0,1,-178",0,0,0,0,0,0,65,66,40,20,77,-27.94,28,13.0,0.0,-1000.0,11:36:35.122160,192.168.0.115
1425,5,-1,2,41,"0,1,-178",0,0,0,0,0,0,65,66,39,20,77,-27.97,28,-29.0,-8.0,-982.0,11:36:35.224188,192.168.0.115
1430,5,-1,2,41,"0,1,-178",0,0,0,0,0,0,65,66,40,20,77,-28.01,28,8.0,0.0,-997.0,11:36:35.326261,192.168.0.115
1435,5,-1,2,41,"0,1,-178",0,0,0,0,0,0,65,66,40,20,77,-27.92,28,18.0,-2.0,-1014.0,11:36:35.428307,192.168.0.115
1440,5,-5,3,41,"-3,1,-178",0,0,0,0,0,0,65,66,40,20,77,-27.96,28,-7.0,-6.0,-998.0,11:36:35.529922,192.168.0.115
1445,5,-5,3,41,"-3,1,-178",0,0,0,0,0,0,65,66,39,20,77,-27.97,28,-1.0,8.0,-990.0,11:36:35.632179,192.168.0.115
1450,5,-5,3,41,"-3,1,-178",0,0,0,0,0,0,65,66,39,20,77,-27.92,28,8.0,-13.0,-1009.0,11:36:35.734369,192.168.0.115
1455,5,-1,5,41,"3,1,179",0,1,0,0,0,0,65,67,39,20,77,-27.93,29,2.0,2.0,-994.0,11:36:35.836555,192.168.0.115
1460,5,-1,5,41,"3,1,179",0,0,0,0,0,0,65,67,40,20,77,-27.94,29,5.0,-1.0,-1006.0,11:36:35.938202,192.168.0.115
1465,5,-1,5,41,"3,1,179",0,0,-1,0,0,0,65,67,40,20,77,-27.98,29,-12.0,19.0,-1006.0,11:36:36.040492,192.168.0.115
1469,5,-1,5,41,"3,1,179",0,0,-1,0,0,0,65,67,40,20,77,-27.91,29,17.0,-4.0,-998.0,11:36:36.092308,192.168.0.115
1474,5,-3,5,42,"1,1,-177",0,0,-1,0,0,0,65,67,40,20,77,-27.95,29,-14.0,6.0,-1007.0,11:36:36.194695,192.168.0.115
1479,5,-3,5,42,"1,1,-177",0,0,-1,0,0,0,65,67,41,20,77,-27.94,29,-12.0,17.0,-1005.0,11:36:36.296636,192.168.0.115
1483,5,-3,5,42,"1,1,-177",0,0,-1,0,0,0,65,67,41,20,77,-27.94,29,-17.0,18.0,-1008.0,11:36:36.397463,192.168.0.115
1489,5,-3,5,42,"1,1,-177",0,0,-1,0,0,0,65,67,41,20,77,-27.92,29,-19.0,13.0,-986.0,11:36:36.501000,192.168.0.115
1494,5,-3,4,42,"2,2,-177",0,0,-1,0,0,0,65,67,41,20,77,-27.89,29,4.0,6.0,-994.0,11:36:36.601220,192.168.0.115
1499,5,-3,4,42,"2,2,-177",0,0,-1,0,0,0,65,67,40,20,77,-27.87,29,-24.0,4.0,-972.0,11:36:36.703454,192.168.0.115
1504,5,-3,4,42,"2,2,-177",0,0,-1,0,0,0,65,67,41,20,77,-27.91,30,-7.0,11.0,-1004.0,11:36:36.805201,192.168.0.115
1509,5,-3,3,42,"2,2,-177",0,0,-1,0,0,0,65,67,40,20,77,-27.93,30,15.0,-8.0,-1007.0,11:36:36.907156,192.168.0.115
1514,5,-3,3,42,"2,2,-177",0,0,-1,0,0,0,65,67,40,20,77,-27.93,30,2.0,1.0,-1003.0,11:36:37.009336,192.168.0.115
1519,5,-3,3,42,"2,2,-177",0,0,-1,0,0,0,65,67,40,20,77,-27.85,30,-32.0,15.0,-987.0,11:36:37.111390,192.168.0.115
1524,5,-3,3,42,"2,2,-177",0,0,-1,0,0,0,65,67,40,20,77,-27.85,30,1.0,12.0,-1002.0,11:36:37.213338,192.168.0.115
1529,5,-4,3,42,"2,2,-178",0,0,-1,0,0,0,65,67,40,20,77,-27.9,30,16.0,-7.0,-994.0,11:36:37.315129,192.168.0.115
1534,5,-4,3,42,"2,2,-178",0,0,-1,0,0,0,65,67,40,20,77,-27.97,30,-1.0,5.0,-1001.0,11:36:37.417287,192.168.0.115
1539,5,-4,3,42,"2,2,-178",0,0,-1,0,0,0,65,67,40,20,77,-27.9,30,-6.0,4.0,-1006.0,11:36:37.519366,192.168.0.115
1544,5,-4,3,42,"2,2,-178",0,0,-1,0,0,0,65,67,40,20,77,-27.95,30,-2.0,4.0,-991.0,11:36:37.621125,192.168.0.115
1549,5,-4,3,42,"1,2,-178",0,0,-1,0,0,0,65,67,40,20,77,-27.9,30,-9.0,4.0,-996.0,11:36:37.723349,192.168.0.115
1555,5,-4,3,42,"1,2,-178",0,0,-1,0,0,0,65,68,40,20,77,-27.96,31,-7.0,-7.0,-997.0,11:36:37.825885,192.168.0.115
1560,5,-4,3,42,"1,2,-178",0,0,-1,0,0,0,65,68,39,20,77,-27.92,31,-4.0,5.0,-984.0,11:36:37.927167,192.168.0.115
1565,5,-4,3,42,"1,2,-178",0,0,-1,0,0,0,65,68,39,20,77,-27.93,31,-26.0,5.0,-997.0,11:36:38.029285,192.168.0.115
1570,5,-6,5,42,"1,2,-178",0,0,-1,0,0,0,65,68,40,20,77,-27.94,31,14.0,18.0,-992.0,11:36:38.131264,192.168.0.115
1575,5,-6,5,42,"1,2,-178",0,0,-1,0,0,0,65,68,39,20,77,-27.86,31,-15.0,2.0,-998.0,11:36:38.233360,192.168.0.115
1580,5,-6,5,42,"1,2,-178",0,0,-1,0,0,0,65,68,40,20,77,-27.87,31,-3.0,-6.0,-1032.0,11:36:38.335234,192.168.0.115
1585,5,-6,6,42,"1,2,-178",-1,0,0,0,0,0,65,68,40,20,77,-27.91,31,-20.0,-5.0,-999.0,11:36:38.437297,192.168.0.115
1590,5,-6,6,42,"1,2,-178",0,0,0,0,0,0,65,68,40,20,77,-27.98,31,-2.0,-12.0,-1001.0,11:36:38.539312,192.168.0.115
1595,5,-6,6,42,"1,2,-178",0,0,0,0,0,0,65,68,40,20,77,-27.86,31,-24.0,-6.0,-988.0,11:36:38.641246,192.168.0.115
1600,5,-6,6,42,"1,2,-178",-1,0,0,0,0,0,65,68,40,20,77,-27.92,31,-30.0,-8.0,-994.0,11:36:38.744684,192.168.0.115
1605,5,-6,6,42,"1,1,-178",-1,0,0,0,0,0,65,68,41,20,77,-27.86,32,23.0,-8.0,-990.0,11:36:38.845719,192.168.0.115
1610,5,-6,6,42,"1,1,-178",-1,0,0,0,0,0,65,68,41,20,77,-27.92,32,-7.0,0.0,-1008.0,11:36:38.947091,192.168.0.115
1615,5,-6,6,42,"1,1,-178",-1,0,0,0,0,0,65,68,41,20,77,-27.91,32,11.0,-29.0,-1000.0,11:36:39.051253,192.168.0.115
1620,5,-6,6,42,"1,1,-178",-1,0,0,0,0,0,65,68,41,20,77,-27.92,32,-24.0,-2.0,-991.0,11:36:39.150776,192.168.0.115
1625,5,-6,6,43,"2,1,-177",-1,0,0,0,0,0,65,68,41,20,77,-27.91,32,-27.0,5.0,-995.0,11:36:39.253239,192.168.0.115
1630,5,-6,6,43,"2,1,-177",-1,0,0,0,0,0,65,68,42,20,77,-27.85,32,0.0,-22.0,-1003.0,11:36:39.354902,192.168.0.115
1635,5,-6,6,43,"2,1,-177",-2,1,0,0,0,0,65,68,41,20,77,-27.91,32,2.0,-4.0,-968.0,11:36:39.457363,192.168.0.115
1640,5,-6,6,43,"2,1,-177",-3,2,0,0,0,0,65,68,42,20,77,-27.82,32,-5.0,-5.0,-988.0,11:36:39.559276,192.168.0.115
1643,5,-7,7,43,"2,1,-177",-2,1,0,0,0,0,65,68,41,20,77,-27.83,32,-41.0,1.0,-992.0,11:36:39.610034,192.168.0.115
1648,5,-7,7,43,"2,1,-177",-1,1,0,0,0,0,65,68,41,20,77,-27.82,32,-28.0,-12.0,-990.0,11:36:39.712100,192.168.0.115
1654,5,-7,7,43,"2,1,-177",-1,0,0,0,0,0,65,67,40,20,77,-27.89,33,-28.0,-12.0,-1000.0,11:36:39.813863,192.168.0.115
1659,5,-8,7,43,"3,1,-176",-1,0,0,0,0,0,65,67,40,20,77,-27.88,33,12.0,-14.0,-1013.0,11:36:39.916073,192.168.0.115
1664,5,-8,7,43,"3,1,-176",-1,0,0,0,0,0,65,67,40,20,77,-27.9,33,-5.0,-19.0,-988.0,11:36:40.018064,192.168.0.115
1669,5,-8,7,43,"3,1,-176",-1,0,0,0,0,0,65,67,40,20,77,-27.93,33,-16.0,-12.0,-993.0,11:36:40.120180,192.168.0.115
1674,5,-8,7,43,"3,1,-176",0,-1,0,0,0,0,65,67,40,20,77,-27.9,33,-45.0,-12.0,-1004.0,11:36:40.221936,192.168.0.115
1679,5,-4,5,42,"3,1,-177",0,0,0,0,0,0,65,67,40,20,77,-27.92,33,-8.0,-14.0,-1019.0,11:36:40.323887,192.168.0.115
1684,5,-4,5,42,"3,1,-177",0,0,0,0,0,0,65,67,40,20,77,-27.9,33,8.0,-12.0,-1012.0,11:36:40.425988,192.168.0.115
1689,5,-4,5,42,"3,1,-177",0,0,0,0,0,0,65,67,40,20,77,-27.9,33,-14.0,-9.0,-1006.0,11:36:40.528079,192.168.0.115
1694,5,-4,5,42,"3,1,-177",0,0,0,0,0,0,65,67,39,20,77,-27.86,33,-17.0,-19.0,-999.0,11:36:40.629969,192.168.0.115
1699,5,-6,1,42,"-4,1,-176",0,0,0,0,0,0,65,67,39,20,77,-27.87,33,-7.0,0.0,-984.0,11:36:40.731903,192.168.0.115
1704,5,-6,1,42,"-4,1,-176",0,0,0,0,0,0,65,67,39,20,77,-27.92,34,-10.0,-1.0,-997.0,11:36:40.833957,192.168.0.115
1709,5,-6,1,42,"-4,1,-176",0,0,0,0,0,0,65,67,39,20,77,-27.94,34,-7.0,-3.0,-997.0,11:36:40.935833,192.168.0.115
1715,5,-1,3,42,"2,1,-176",0,0,0,0,0,0,65,67,39,20,77,-27.91,34,9.0,-2.0,-1004.0,11:36:41.037876,192.168.0.115
1720,5,-1,3,42,"2,1,-176",0,0,0,0,0,0,65,67,39,20,77,-27.95,34,1.0,-7.0,-1000.0,11:36:41.140014,192.168.0.115
1725,5,-1,3,42,"2,1,-176",0,0,0,0,0,0,65,67,40,20,77,-27.95,34,10.0,-4.0,-1008.0,11:36:41.241998,192.168.0.115
1729,5,-1,3,42,"2,1,-176",0,0,-1,0,0,0,65,67,40,20,77,-27.9,34,-18.0,6.0,-992.0,11:36:41.343849,192.168.0.115
1735,5,-2,5,42,"2,1,-178",-1,0,-1,0,0,0,65,67,40,20,77,-27.95,34,4.0,-8.0,-1008.0,11:36:41.445913,192.168.0.115
1740,5,-2,5,42,"2,1,-178",-1,0,-1,0,0,0,65,67,40,20,77,-27.87,34,-20.0,13.0,-1009.0,11:36:41.548501,192.168.0.115
1745,5,-2,5,42,"2,1,-178",-1,0,-1,0,0,0,65,67,40,20,77,-28.0,34,-30.0,-2.0,-997.0,11:36:41.650004,192.168.0.115
1750,5,-2,5,42,"2,1,-178",0,0,-1,0,0,0,65,67,40,20,77,-27.95,34,-25.0,3.0,-996.0,11:36:41.751815,192.168.0.115
1755,5,-3,5,42,"2,2,-178",0,0,-1,0,0,0,66,67,40,20,77,-27.92,35,-37.0,-1.0,-991.0,11:36:41.853726,192.168.0.115
1760,5,-3,5,42,"2,2,-178",-1,0,-1,0,0,0,66,67,40,20,77,-27.89,35,-11.0,-1.0,-1001.0,11:36:41.955833,192.168.0.115
1765,5,-3,5,42,"2,2,-178",0,0,-1,0,0,0,66,67,40,20,77,-27.93,35,17.0,-15.0,-993.0,11:36:42.057924,192.168.0.115
1770,5,-3,5,42,"2,2,-178",0,1,-1,0,0,0,66,67,40,20,77,-27.86,35,-14.0,-17.0,-997.0,11:36:42.159991,192.168.0.115
1775,5,-3,5,42,"2,2,-178",0,1,-1,0,0,0,66,67,40,20,77,-27.95,35,-17.0,-13.0,-1006.0,11:36:42.261903,192.168.0.115
1780,5,-3,5,42,"2,2,-178",0,1,-1,0,0,0,66,67,40,20,77,-27.88,35,-14.0,-10.0,-991.0,11:36:42.363955,192.168.0.115
1785,5,-3,5,42,"2,2,-178",0,1,-1,0,0,0,66,67,40,20,77,-27.86,35,-2.0,-21.0,-995.0,11:36:42.465524,192.168.0.115
1790,5,-3,5,42,"2,2,-178",0,1,-1,0,0,0,66,67,40,20,77,-27.91,35,-2.0,5.0,-1007.0,11:36:42.572738,192.168.0.115
1795,5,-4,7,42,"1,2,-177",0,1,-1,0,0,0,66,67,40,20,77,-27.89,35,-26.0,-16.0,-1000.0,11:36:42.669903,192.168.0.115
1800,5,-4,7,42,"1,2,-177",0,1,-1,0,0,0,66,67,40,20,77,-27.91,35,-24.0,-11.0,-984.0,11:36:42.775202,192.168.0.115
1805,5,-4,7,42,"1,2,-177",0,3,-1,0,0,0,65,67,39,20,77,-27.86,36,0.0,-13.0,-976.0,11:36:42.873945,192.168.0.115
1810,5,-5,9,42,"0,2,-177",0,2,-1,0,0,0,65,67,39,20,77,-27.88,36,12.0,-18.0,-1004.0,11:36:42.975537,192.168.0.115
1815,5,-5,9,42,"0,2,-177",0,1,-1,0,0,0,65,67,39,20,77,-27.85,36,-27.0,-12.0,-1002.0,11:36:43.077840,192.168.0.115
1820,5,-5,9,42,"0,2,-177",-2,1,-1,0,0,0,65,67,38,20,77,-27.92,36,3.0,-9.0,-1003.0,11:36:43.181840,192.168.0.115
1824,5,-5,9,42,"0,2,-177",-2,1,-1,0,0,0,65,67,38,20,77,-27.88,36,-17.0,-13.0,-1006.0,11:36:43.231101,192.168.0.115
1829,5,-5,9,42,"0,2,-177",0,1,-1,0,0,0,65,67,39,20,77,-27.88,36,-20.0,-15.0,-1004.0,11:36:43.333189,192.168.0.115
1834,5,-5,9,42,"0,2,-177",0,0,-1,0,0,0,65,67,38,20,77,-27.9,36,8.0,-33.0,-1016.0,11:36:43.435159,192.168.0.115
1839,5,-5,9,42,"0,2,-177",0,0,-1,0,0,0,65,67,39,20,77,-27.92,36,-17.0,-6.0,-1007.0,11:36:43.537226,192.168.0.115
1844,5,-5,9,42,"0,2,-177",0,-1,-1,0,0,0,65,67,39,20,77,-27.93,36,-9.0,-4.0,-1012.0,11:36:43.639009,192.168.0.115
1849,5,-7,6,40,"-1,2,-178",0,0,0,0,0,0,65,67,39,20,77,-27.95,36,4.0,-13.0,-994.0,11:36:43.741021,192.168.0.115
1854,5,-7,6,40,"-1,2,-178",0,0,-1,0,0,0,65,67,39,20,77,-27.84,37,-14.0,-5.0,-994.0,11:36:43.843064,192.168.0.115
1859,5,-7,6,40,"-1,2,-178",0,0,-1,0,0,0,65,67,39,20,77,-27.9,37,-35.0,7.0,-1001.0,11:36:43.945063,192.168.0.115
1864,5,-7,6,40,"-1,2,-178",0,0,-1,0,0,0,65,67,38,20,77,-27.89,37,-8.0,-10.0,-1002.0,11:36:44.046964,192.168.0.115
1869,5,-7,6,40,"-1,2,-178",0,0,-1,0,0,0,65,67,38,20,77,-27.92,37,-16.0,0.0,-997.0,11:36:44.149102,192.168.0.115
1874,5,-7,6,40,"-1,2,-178",0,0,-1,0,0,0,65,67,37,20,77,-27.96,37,-2.0,7.0,-1010.0,11:36:44.250995,192.168.0.115
1879,5,-7,6,40,"-1,2,-178",-1,0,-1,0,0,0,65,67,37,20,77,-27.95,37,-26.0,10.0,-998.0,11:36:44.352994,192.168.0.115
1884,5,-7,6,40,"-1,2,-178",-1,0,-1,0,0,0,65,67,37,20,77,-27.96,37,-8.0,-10.0,-1009.0,11:36:44.454953,192.168.0.115
1889,5,-7,6,40,"-1,2,-178",-1,0,-1,0,0,0,65,67,37,20,77,-27.98,37,-27.0,1.0,-1003.0,11:36:44.557162,192.168.0.115
1894,5,-7,6,40,"-1,2,-178",-1,0,-1,0,0,0,65,67,37,20,77,-27.95,37,12.0,-1.0,-1012.0,11:36:44.658835,192.168.0.115
1899,5,-7,6,40,"-1,2,-178",-1,0,-1,0,0,0,65,67,37,20,77,-27.9,37,-9.0,0.0,-1007.0,11:36:44.760769,192.168.0.115
1905,5,-7,6,40,"-1,2,-178",-1,0,-1,0,0,0,65,67,37,20,77,-27.83,38,-26.0,11.0,-1004.0,11:36:44.863026,192.168.0.115
1910,5,-7,6,40,"-1,2,-178",-1,0,-1,0,0,0,65,67,37,20,77,-27.86,38,-15.0,5.0,-996.0,11:36:44.964649,192.168.0.115
1915,5,-7,6,40,"-1,2,-178",-1,0,-1,0,0,0,65,67,37,20,77,-27.77,38,-11.0,1.0,-995.0,11:36:45.068139,192.168.0.115
1920,5,-7,6,40,"-1,2,-178",0,0,-1,0,0,0,65,67,37,20,77,-27.89,38,-12.0,-6.0,-1010.0,11:36:45.169160,192.168.0.115
1925,5,-6,5,39,"2,2,-178",-1,0,-1,0,0,0,65,67,38,20,77,-27.88,38,6.0,-10.0,-1000.0,11:36:45.270914,192.168.0.115
1930,5,-6,5,39,"2,2,-178",-4,2,-1,0,0,0,65,67,38,20,77,-27.87,38,-9.0,-8.0,-989.0,11:36:45.373065,192.168.0.115
1935,5,-6,5,39,"2,2,-178",-3,1,-1,0,0,0,65,67,37,20,77,-27.86,38,-17.0,-19.0,-1028.0,11:36:45.475927,192.168.0.115
1940,5,-7,6,39,"2,2,-178",-1,1,0,-1,0,0,65,67,37,20,77,-27.8,38,-11.0,-23.0,-977.0,11:36:45.578095,192.168.0.115
1945,5,-7,6,39,"2,2,-178",-1,0,0,-1,0,0,65,67,38,20,77,-27.84,38,10.0,-9.0,-1010.0,11:36:45.680549,192.168.0.115
1950,5,-7,6,39,"2,2,-178",-1,0,0,-1,0,0,65,67,38,20,77,-27.83,38,-10.0,-7.0,-1006.0,11:36:45.782890,192.168.0.115
1955,5,-7,6,39,"2,2,-178",0,0,0,-1,0,0,66,68,37,20,77,-27.93,39,-29.0,10.0,-1013.0,11:36:45.889420,192.168.0.115
1960,5,-4,6,39,"3,1,180",0,-1,0,-1,0,0,66,68,37,20,77,-27.94,39,-15.0,15.0,-980.0,11:36:45.984630,192.168.0.115
1965,5,-4,6,39,"3,1,180",1,0,-1,-1,0,0,66,68,38,20,77,-27.97,39,-12.0,-3.0,-1021.0,11:36:46.086868,192.168.0.115
1970,5,-4,6,39,"3,1,180",1,0,-1,0,0,0,66,68,38,20,77,-27.92,39,-26.0,-3.0,-997.0,11:36:46.188715,192.168.0.115
1975,5,-4,6,39,"3,1,180",0,0,-1,0,0,0,66,68,38,20,77,-27.91,39,-11.0,-3.0,-1007.0,11:36:46.290859,192.168.0.115
1980,5,-4,6,39,"3,1,180",0,0,-1,0,0,0,66,68,38,20,77,-27.92,39,-7.0,-5.0,-990.0,11:36:46.392911,192.168.0.115
1985,5,-4,6,39,"3,1,180",0,0,-1,0,0,0,66,68,38,20,77,-27.91,39,18.0,-7.0,-1002.0,11:36:46.495013,192.168.0.115
1988,5,-4,6,39,"3,1,180",0,0,-1,0,0,0,66,68,38,20,77,-27.89,39,-26.0,-9.0,-985.0,11:36:46.545806,192.168.0.115
1994,5,-4,6,39,"3,1,180",0,0,-1,0,0,0,66,68,37,20,77,-27.85,39,-6.0,0.0,-989.0,11:36:46.648396,192.168.0.115
1999,5,-4,6,39,"3,1,180",0,0,-1,0,0,0,66,68,37,20,77,-27.9,39,22.0,-12.0,-1013.0,11:36:46.749695,192.168.0.115
2004,5,-4,6,39,"3,1,180",0,0,-1,0,0,0,66,68,37,20,77,-27.88,40,35.0,-19.0,-1010.0,11:36:46.851754,192.168.0.115
2009,5,-4,6,39,"3,1,180",0,0,-1,0,0,0,66,68,37,20,77,-27.86,40,-2.0,7.0,-1012.0,11:36:46.953809,192.168.0.115
2014,5,1,4,40,"0,2,-177",0,1,-1,0,0,0,66,68,37,20,77,-27.86,40,7.0,-19.0,-986.0,11:36:47.055459,192.168.0.115
2019,5,1,4,40,"0,2,-177",0,0,-1,0,0,0,66,68,37,20,77,-27.86,40,-15.0,-3.0,-981.0,11:36:47.157597,192.168.0.115
2024,5,1,4,40,"0,2,-177",0,0,-1,0,0,0,66,68,37,20,77,-27.82,40,7.0,-19.0,-986.0,11:36:47.259782,192.168.0.115
2029,5,1,4,40,"0,2,-177",0,0,-1,0,0,0,66,68,37,20,77,-27.84,40,10.0,-12.0,-1007.0,11:36:47.361877,192.168.0.115
2034,5,1,5,40,"0,2,-177",0,1,-1,0,0,0,66,68,37,20,77,-27.81,40,-4.0,-8.0,-997.0,11:36:47.463734,192.168.0.115
2039,5,1,5,40,"0,2,-177",0,1,-1,0,0,0,66,68,37,20,77,-27.8,40,9.0,-14.0,-999.0,11:36:47.565298,192.168.0.115
2044,5,1,5,40,"0,2,-177",0,1,-1,0,0,0,66,68,37,20,77,-27.89,40,1.0,-20.0,-986.0,11:36:47.667600,192.168.0.115
2049,5,1,5,40,"0,2,-177",0,1,-1,0,0,0,66,68,37,20,77,-27.92,40,-29.0,1.0,-1006.0,11:36:47.769609,192.168.0.115
2054,5,1,6,40,"0,2,-177",0,0,-1,0,0,0,66,68,37,20,77,-27.86,41,2.0,-12.0,-1003.0,11:36:47.871656,192.168.0.115
2059,5,1,6,40,"0,2,-177",0,1,-1,0,0,0,66,68,37,20,77,-27.8,41,2.0,-4.0,-1010.0,11:36:47.973762,192.168.0.115
2065,5,1,6,40,"0,2,-177",0,1,-1,0,0,0,66,68,37,20,77,-27.86,41,-3.0,1.0,-1013.0,11:36:48.079158,192.168.0.115
2070,5,2,6,40,"1,2,-176",0,1,-1,0,0,0,66,68,37,20,77,-27.82,41,5.0,-8.0,-991.0,11:36:48.177683,192.168.0.115
2075,5,2,6,40,"1,2,-176",0,1,-1,0,0,0,66,68,37,20,77,-27.81,41,-8.0,4.0,-994.0,11:36:48.279616,192.168.0.115
2079,5,2,6,40,"1,2,-176",0,1,-1,0,0,0,66,68,37,20,77,-27.82,41,-12.0,-10.0,-1007.0,11:36:48.381832,192.168.0.115
2085,5,2,6,40,"1,2,-176",0,0,-1,0,0,0,66,68,37,20,77,-27.9,41,-24.0,0.0,-997.0,11:36:48.484093,192.168.0.115
2090,5,2,6,40,"1,2,-176",0,0,-1,0,0,0,66,68,37,20,77,-27.88,41,-23.0,-7.0,-986.0,11:36:48.585332,192.168.0.115
2095,5,2,6,40,"1,2,-176",0,0,-1,0,0,0,66,68,37,20,77,-27.8,41,-16.0,-10.0,-1000.0,11:36:48.687526,192.168.0.115
2100,5,2,6,40,"1,2,-176",0,0,-1,0,0,0,66,68,37,20,77,-27.79,41,-16.0,0.0,-1003.0,11:36:48.789601,192.168.0.115
2105,5,2,6,40,"1,2,-176",0,1,-1,0,0,0,65,69,36,20,77,-27.82,42,9.0,-16.0,-1008.0,11:36:48.893733,192.168.0.115
2110,5,3,7,40,"1,2,-177",0,1,-1,0,0,0,65,69,36,20,77,-27.91,42,24.0,-6.0,-1013.0,11:36:48.993625,192.168.0.115
2115,5,3,7,40,"1,2,-177",0,1,-1,0,0,0,65,69,37,20,77,-27.84,42,2.0,-18.0,-1007.0,11:36:49.095652,192.168.0.115
2120,5,3,7,40,"1,2,-177",0,0,-1,0,0,0,65,69,37,20,77,-27.83,42,33.0,-40.0,-1017.0,11:36:49.197647,192.168.0.115
2125,5,3,7,40,"1,2,-177",0,1,-1,0,0,0,65,69,37,20,77,-27.91,42,5.0,-16.0,-1003.0,11:36:49.299260,192.168.0.115
2130,5,3,7,40,"1,2,-177",0,1,0,0,0,0,65,69,37,20,77,-27.88,42,15.0,-18.0,-991.0,11:36:49.401862,192.168.0.115
2135,5,3,7,40,"1,2,-177",0,0,0,0,0,0,65,69,37,20,77,-27.88,42,0.0,-8.0,-1009.0,11:36:49.504386,192.168.0.115
2140,5,3,7,40,"1,2,-177",0,0,0,0,0,0,65,69,37,20,77,-27.85,42,0.0,-39.0,-979.0,11:36:49.606577,192.168.0.115
2145,5,3,7,40,"1,2,-177",0,0,0,0,0,0,65,69,37,20,77,-27.84,42,-21.0,6.0,-1015.0,11:36:49.708669,192.168.0.115
2150,5,3,7,40,"1,2,-177",0,0,0,0,0,0,65,69,37,20,77,-27.89,43,-39.0,-3.0,-999.0,11:36:49.810816,192.168.0.115
2155,5,3,7,40,"1,2,-177",-1,0,0,0,0,0,66,68,37,20,77,-27.86,43,-10.0,5.0,-995.0,11:36:49.912625,192.168.0.115
2160,5,3,7,40,"1,2,-177",-1,0,0,0,0,0,66,68,37,20,77,-27.83,43,17.0,-10.0,-998.0,11:36:50.014607,192.168.0.115
2165,5,3,7,40,"1,2,-177",0,0,-1,0,0,0,66,68,37,20,77,-27.87,43,8.0,-32.0,-1009.0,11:36:50.116882,192.168.0.115
2168,5,3,7,40,"1,2,-177",0,1,-1,0,0,0,66,68,37,20,77,-27.89,43,-10.0,-2.0,-999.0,11:36:50.167697,192.168.0.115
2176,5,3,7,40,"1,2,-177",0,0,-1,0,0,0,66,68,37,20,77,-27.91,43,-18.0,7.0,-1006.0,11:36:50.328085,192.168.0.115
2179,5,3,7,40,"1,2,-177",0,0,-1,0,0,0,66,68,37,20,77,-27.84,43,-13.0,3.0,-1009.0,11:36:50.372786,192.168.0.115
2184,5,2,4,40,"2,2,-177",0,0,-1,0,0,0,66,68,37,20,77,-27.86,43,-4.0,4.0,-1013.0,11:36:50.473560,192.168.0.115
2189,5,2,4,40,"2,2,-177",0,0,-1,0,0,0,66,68,38,20,77,-27.92,43,-6.0,17.0,-1010.0,11:36:50.575733,192.168.0.115
2194,5,2,4,40,"2,2,-177",0,0,-1,0,0,0,66,68,38,20,77,-27.92,43,-28.0,12.0,-977.0,11:36:50.677370,192.168.0.115
2199,5,2,4,40,"2,2,-177",-1,0,-1,0,0,0,66,68,38,20,77,-27.9,44,-37.0,16.0,-984.0,11:36:50.779446,192.168.0.115
2204,5,2,4,40,"2,2,-177",-1,0,-1,0,0,0,65,68,38,20,77,-27.91,44,-7.0,-1.0,-1007.0,11:36:50.883343,192.168.0.115
2209,5,2,4,40,"2,2,-177",0,0,-1,0,0,0,65,68,38,20,77,-27.85,44,0.0,-3.0,-1002.0,11:36:50.984024,192.168.0.115
2214,5,2,4,40,"2,2,-177",0,0,-1,0,0,0,65,68,38,20,77,-27.93,44,-11.0,-4.0,-992.0,11:36:51.085524,192.168.0.115
2219,5,2,5,41,"2,2,-177",0,0,-1,0,0,0,65,68,38,20,77,-27.81,44,-18.0,11.0,-999.0,11:36:51.187625,192.168.0.115
2224,5,2,5,41,"2,2,-177",0,0,-1,0,0,0,65,68,38,20,77,-27.83,44,-17.0,-4.0,-991.0,11:36:51.289649,192.168.0.115
2229,5,2,5,41,"2,2,-177",0,0,-1,0,0,0,65,68,38,20,77,-27.8,44,-26.0,10.0,-983.0,11:36:51.391580,192.168.0.115
2234,5,2,5,41,"2,2,-177",0,0,-1,0,0,0,65,68,38,20,77,-27.88,44,-15.0,4.0,-1008.0,11:36:51.493906,192.168.0.115
2240,5,2,6,41,"2,2,-176",-1,0,-1,0,0,0,65,68,38,20,77,-27.86,44,1.0,-3.0,-1005.0,11:36:51.595884,192.168.0.115
2245,5,2,6,41,"2,2,-176",0,0,-1,0,0,0,65,68,38,20,77,-27.89,44,-14.0,2.0,-997.0,11:36:51.697573,192.168.0.115
2250,5,2,6,41,"2,2,-176",0,0,0,0,0,0,65,68,38,20,77,-27.93,45,-16.0,4.0,-998.0,11:36:51.800653,192.168.0.115
2255,5,2,6,41,"2,2,-176",-1,0,0,0,0,0,66,68,38,20,77,-27.92,45,4.0,-11.0,-1008.0,11:36:51.901585,192.168.0.115
2260,5,1,7,41,"1,2,-177",0,0,0,0,0,0,66,68,38,20,77,-27.76,45,14.0,10.0,-1020.0,11:36:52.003474,192.168.0.115
2265,5,1,7,41,"1,2,-177",0,1,0,0,0,0,66,68,38,20,77,-27.82,45,10.0,11.0,-1013.0,11:36:52.105713,192.168.0.115
2270,5,1,7,41,"1,2,-177",0,1,0,0,0,0,66,68,38,20,77,-27.85,45,-25.0,15.0,-996.0,11:36:52.207553,192.168.0.115
2275,5,1,7,41,"1,2,-177",0,0,0,0,0,0,66,68,38,20,77,-27.85,45,-30.0,6.0,-1003.0,11:36:52.309671,192.168.0.115
2280,5,2,6,41,"1,2,-177",0,0,-1,0,0,0,66,68,38,20,77,-27.8,45,-15.0,-2.0,-1026.0,11:36:52.411898,192.168.0.115
2285,5,2,6,41,"1,2,-177",0,0,-1,0,0,0,66,68,39,20,77,-27.89,45,-9.0,-4.0,-989.0,11:36:52.513306,192.168.0.115
2290,5,2,6,41,"1,2,-177",0,-1,-1,0,0,0,66,68,38,20,77,-27.85,45,-13.0,-8.0,-989.0,11:36:52.615474,192.168.0.115
2295,5,2,6,41,"1,2,-177",0,0,-1,0,0,0,66,68,39,20,77,-27.84,45,-31.0,8.0,-1009.0,11:36:52.717471,192.168.0.115
2300,5,2,6,41,"1,2,-177",0,0,-1,0,0,0,66,68,39,20,77,-27.85,46,-1.0,-9.0,-983.0,11:36:52.819506,192.168.0.115
2305,5,2,6,41,"1,2,-177",0,0,-1,0,0,0,65,68,39,20,77,-27.84,46,-15.0,1.0,-988.0,11:36:52.921520,192.168.0.115
2310,5,2,6,41,"1,2,-177",0,0,-1,0,0,0,65,68,39,20,77,-27.82,46,-12.0,0.0,-995.0,11:36:53.024241,192.168.0.115
2315,5,1,4,42,"0,2,-178",0,0,-1,0,0,0,65,68,39,20,77,-27.81,46,-11.0,-7.0,-989.0,11:36:53.125581,192.168.0.115
2320,5,1,4,42,"0,2,-178",0,0,0,0,0,0,65,68,40,20,77,-27.81,46,-10.0,5.0,-991.0,11:36:53.227576,192.168.0.115
2325,5,1,4,42,"0,2,-178",0,0,-1,0,0,0,65,68,40,20,77,-27.77,46,-5.0,7.0,-1005.0,11:36:53.331349,192.168.0.115
2330,5,1,4,42,"0,2,-178",0,0,-1,0,0,0,65,68,40,20,77,-27.88,46,-14.0,8.0,-1009.0,11:36:53.431058,192.168.0.115
2333,5,1,3,42,"1,2,-178",0,0,0,0,0,0,65,68,40,20,77,-27.84,46,-2.0,0.0,-997.0,11:36:53.482094,192.168.0.115
2338,5,1,3,42,"1,2,-178",0,0,0,0,0,0,65,68,40,20,77,-27.82,46,-9.0,13.0,-999.0,11:36:53.584252,192.168.0.115
2343,5,1,3,42,"1,2,-178",0,0,0,0,0,0,65,68,39,20,77,-27.83,46,22.0,1.0,-1005.0,11:36:53.686541,192.168.0.115
2349,5,1,3,42,"1,2,-178",0,0,0,0,0,0,65,68,39,20,77,-27.9,47,-19.0,-6.0,-1015.0,11:36:53.788465,192.168.0.115
2354,5,1,3,42,"2,2,-178",0,0,0,0,0,0,66,68,39,20,77,-27.8,47,-11.0,3.0,-1009.0,11:36:53.894725,192.168.0.115
2359,5,1,3,42,"2,2,-178",0,0,0,0,0,0,66,68,39,20,77,-27.86,47,-26.0,12.0,-1009.0,11:36:53.992559,192.168.0.115
2364,5,1,3,42,"2,2,-178",0,0,0,0,0,0,66,68,39,20,77,-27.81,47,-10.0,10.0,-995.0,11:36:54.096529,192.168.0.115
2369,5,1,3,42,"0,2,-178",0,0,0,0,0,0,66,68,39,20,77,-27.83,47,-5.0,6.0,-987.0,11:36:54.197444,192.168.0.115
2374,5,1,3,42,"0,2,-178",0,0,-1,0,0,0,66,68,39,20,77,-27.79,47,-30.0,31.0,-1013.0,11:36:54.297975,192.168.0.115
2379,5,1,3,42,"0,2,-178",0,0,-1,0,0,0,66,68,39,20,77,-27.78,47,-26.0,41.0,-1006.0,11:36:54.400434,192.168.0.115
2384,5,1,3,42,"0,2,-178",0,0,0,0,0,0,66,68,39,20,77,-27.82,47,-7.0,10.0,-992.0,11:36:54.502364,192.168.0.115
2389,5,1,3,42,"1,2,-178",0,0,0,0,0,0,66,68,38,20,77,-27.85,47,-9.0,23.0,-1013.0,11:36:54.604383,192.168.0.115
2394,5,1,3,42,"1,2,-178",0,0,0,0,0,0,66,68,38,20,77,-27.85,47,-8.0,24.0,-1003.0,11:36:54.707834,192.168.0.115
2399,5,1,3,42,"1,2,-178",0,0,0,0,0,0,66,68,38,20,77,-27.85,48,-29.0,-3.0,-990.0,11:36:54.808395,192.168.0.115
2404,5,1,3,42,"1,2,-178",0,0,-1,0,0,0,66,68,38,20,77,-27.79,48,22.0,4.0,-1000.0,11:36:54.910415,192.168.0.115
2409,5,1,3,42,"1,2,-178",0,0,-1,0,0,0,66,68,38,20,77,-27.83,48,37.0,13.0,-1000.0,11:36:55.012470,192.168.0.115
2414,5,1,3,42,"1,2,-178",0,0,-1,0,0,0,66,68,37,20,77,-27.82,48,-21.0,16.0,-1007.0,11:36:55.114475,192.168.0.115
2420,5,1,3,42,"1,2,-178",0,0,-1,0,0,0,66,68,37,20,77,-27.86,48,-2.0,12.0,-1013.0,11:36:55.216776,192.168.0.115
2425,5,1,3,42,"1,2,-178",0,0,0,0,0,0,66,68,37,20,77,-27.83,48,-12.0,7.0,-1007.0,11:36:55.318288,192.168.0.115
2429,5,1,3,42,"1,2,-178",0,0,0,0,0,0,66,68,36,20,77,-27.83,48,0.0,2.0,-993.0,11:36:55.420396,192.168.0.115
2434,5,1,3,42,"1,2,-178",0,0,-1,0,0,0,66,68,36,20,77,-27.83,48,-5.0,4.0,-1010.0,11:36:55.522301,192.168.0.115
2439,5,1,3,42,"1,2,-178",0,0,-1,0,0,0,66,68,36,20,77,-27.84,48,-22.0,10.0,-1009.0,11:36:55.625241,192.168.0.115
2445,5,1,3,42,"1,2,-178",0,0,-1,0,0,0,66,68,36,20,77,-27.88,48,0.0,24.0,-986.0,11:36:55.726462,192.168.0.115
2450,5,1,3,39,"0,2,180",0,0,-1,0,0,0,66,68,36,20,77,-27.89,49,-1.0,16.0,-1003.0,11:36:55.828476,192.168.0.115
2455,5,1,3,39,"0,2,180",0,0,-1,0,0,0,66,68,36,20,77,-27.84,49,-24.0,15.0,-999.0,11:36:55.930398,192.168.0.115
2460,5,1,3,39,"0,2,180",0,0,0,0,0,0,66,68,36,20,77,-27.83,49,-38.0,19.0,-1007.0,11:36:56.032397,192.168.0.115
2465,5,1,3,39,"0,2,180",0,0,0,0,0,0,66,68,36,20,77,-27.88,49,-7.0,23.0,-1004.0,11:36:56.135165,192.168.0.115
2470,5,1,3,39,"0,2,180",0,0,0,0,0,0,66,68,36,20,77,-27.83,49,9.0,22.0,-1014.0,11:36:56.236672,192.168.0.115
2475,5,1,3,39,"0,2,180",0,0,0,0,0,0,66,68,36,20,77,-27.85,49,-9.0,24.0,-1018.0,11:36:56.339308,192.168.0.115
2480,5,1,3,39,"0,2,180",0,0,0,0,0,0,66,68,37,20,77,-27.83,49,-15.0,28.0,-1009.0,11:36:56.440293,192.168.0.115
2485,5,1,3,39,"0,2,180",0,-1,0,0,0,0,66,68,37,20,77,-27.77,49,5.0,5.0,-994.0,11:36:56.542288,192.168.0.115
2490,5,1,3,39,"0,2,180",0,-1,0,0,0,0,66,68,37,20,77,-27.8,49,-13.0,13.0,-990.0,11:36:56.644224,192.168.0.115
2495,5,1,3,39,"0,2,180",0,-1,-1,0,0,0,66,68,37,20,77,-27.89,49,-6.0,17.0,-984.0,11:36:56.746150,192.168.0.115
2500,5,1,3,39,"0,2,180",0,-1,-1,0,0,0,66,68,37,20,77,-27.84,50,-18.0,18.0,-1006.0,11:36:56.848417,192.168.0.115
2505,5,1,3,39,"0,2,180",0,0,-1,0,0,0,66,68,38,20,77,-27.85,50,10.0,3.0,-999.0,11:36:56.950364,192.168.0.115
2510,5,1,3,39,"0,2,180",0,0,0,0,0,0,66,68,38,20,77,-27.8,50,-14.0,24.0,-998.0,11:36:57.052453,192.168.0.115
2515,5,1,3,39,"0,2,180",0,0,0,0,0,0,66,68,37,20,77,-27.76,50,2.0,7.0,-1003.0,11:36:57.154628,192.168.0.115
2519,5,2,2,41,"0,2,-179",0,0,0,0,0,0,66,68,37,20,77,-27.76,50,-2.0,28.0,-1002.0,11:36:57.205504,192.168.0.115
2524,5,2,2,41,"0,2,-179",0,0,0,0,0,0,66,68,37,20,77,-27.81,50,-16.0,10.0,-997.0,11:36:57.307298,192.168.0.115
2529,5,2,2,41,"0,2,-179",0,0,0,0,0,0,66,68,37,20,77,-27.77,50,0.0,7.0,-997.0,11:36:57.409383,192.168.0.115
2534,5,2,2,41,"0,2,-179",0,0,0,0,0,0,66,68,37,20,77,-27.83,50,-13.0,19.0,-1003.0,11:36:57.512209,192.168.0.115
2539,5,2,3,41,"0,2,-178",0,0,0,0,0,0,66,68,37,20,77,-27.84,50,-30.0,26.0,-1019.0,11:36:57.613126,192.168.0.115
2544,5,2,3,41,"0,2,-178",0,0,-1,0,0,0,66,68,37,20,77,-27.81,50,-4.0,11.0,-996.0,11:36:57.715253,192.168.0.115
2549,5,2,3,41,"0,2,-178",0,0,-1,0,0,0,66,68,38,20,77,-27.82,51,-41.0,27.0,-995.0,11:36:57.817169,192.168.0.115
2554,5,2,3,41,"0,2,-178",0,0,-1,0,0,0,66,68,37,20,77,-27.8,51,-29.0,14.0,-999.0,11:36:57.921334,192.168.0.115
2559,5,2,3,41,"0,2,-178",0,0,0,0,0,0,66,68,38,20,77,-27.8,51,-2.0,3.0,-998.0,11:36:58.021400,192.168.0.115
2564,5,2,3,41,"0,2,-178",0,0,0,0,0,0,66,68,38,20,77,-27.8,51,-14.0,16.0,-1005.0,11:36:58.124653,192.168.0.115
2569,5,2,3,41,"0,2,-178",0,0,0,0,0,0,66,68,38,20,77,-27.76,51,-20.0,14.0,-995.0,11:36:58.225375,192.168.0.115
2574,5,2,3,41,"0,2,-178",0,0,0,0,0,0,66,68,38,20,77,-27.79,51,1.0,3.0,-994.0,11:36:58.327432,192.168.0.115
2579,5,0,4,40,"0,2,-178",0,0,0,0,0,0,66,68,38,20,77,-27.77,51,9.0,6.0,-1007.0,11:36:58.429385,192.168.0.115
2584,5,0,4,40,"0,2,-178",0,0,0,0,0,0,66,68,39,20,77,-27.75,51,11.0,1.0,-1008.0,11:36:58.531281,192.168.0.115
2589,5,0,4,40,"0,2,-178",0,0,0,0,0,0,66,68,39,20,77,-27.76,51,-22.0,12.0,-995.0,11:36:58.633905,192.168.0.115
2594,5,-1,4,41,"-2,2,180",0,0,0,0,0,0,66,68,39,20,77,-27.81,51,-10.0,14.0,-1008.0,11:36:58.735269,192.168.0.115
2599,5,-1,4,41,"-2,2,180",0,0,0,0,0,0,66,68,39,20,77,-27.79,52,-33.0,20.0,-999.0,11:36:58.837104,192.168.0.115
2604,5,-1,4,41,"-2,2,180",0,0,0,0,0,0,66,69,39,20,77,-27.79,52,21.0,5.0,-1002.0,11:36:58.939272,192.168.0.115
2610,5,-1,4,41,"-2,2,180",0,0,0,0,0,0,66,69,39,20,77,-27.83,52,-44.0,10.0,-1016.0,11:36:59.040963,192.168.0.115
2615,5,0,4,41,"0,2,-178",0,1,0,0,0,0,66,69,39,20,77,-27.87,52,-8.0,14.0,-999.0,11:36:59.144314,192.168.0.115
2620,5,0,4,41,"0,2,-178",-1,1,0,0,0,0,66,69,38,20,77,-27.83,52,-30.0,2.0,-993.0,11:36:59.244903,192.168.0.115
2625,5,0,4,41,"0,2,-178",-1,0,0,0,0,0,66,69,38,20,77,-27.81,52,-14.0,6.0,-1015.0,11:36:59.346970,192.168.0.115
2630,5,0,4,41,"0,2,-178",-1,0,0,0,0,0,66,69,38,20,77,-27.82,52,-41.0,15.0,-988.0,11:36:59.449213,192.168.0.115
2635,5,0,4,41,"1,2,-177",-1,0,0,0,0,0,66,69,39,20,77,-27.86,52,-11.0,-20.0,-997.0,11:36:59.552646,192.168.0.115
2640,5,0,4,41,"1,2,-177",-1,-1,0,0,0,0,66,69,39,20,77,-27.88,52,-23.0,11.0,-1001.0,11:36:59.653400,192.168.0.115
2645,5,0,4,41,"1,2,-177",-1,0,0,0,0,0,66,69,39,20,77,-27.83,52,-19.0,-4.0,-1005.0,11:36:59.755657,192.168.0.115
2650,5,0,4,41,"1,2,-177",-1,0,0,0,0,0,66,69,39,20,77,-27.88,53,-10.0,-1.0,-997.0,11:36:59.857252,192.168.0.115
2655,5,0,4,41,"1,2,-177",-1,0,-1,0,0,0,66,69,39,20,76,-27.93,53,-35.0,14.0,-1009.0,11:36:59.959674,192.168.0.115
2660,5,0,4,41,"1,2,-177",-1,0,-1,0,0,0,66,69,39,20,76,-27.84,53,13.0,2.0,-1011.0,11:37:00.061211,192.168.0.115
2665,5,0,4,41,"1,2,-177",-1,0,-1,0,0,0,66,69,39,20,76,-27.83,53,-19.0,10.0,-1004.0,11:37:00.163479,192.168.0.115
2670,5,-3,4,41,"3,2,-178",-1,0,-1,0,0,0,66,69,39,20,76,-27.83,53,-40.0,11.0,-993.0,11:37:00.265060,192.168.0.115
2675,5,-3,4,41,"3,2,-178",-1,0,-1,0,0,0,66,69,39,20,76,-27.79,53,0.0,-19.0,-993.0,11:37:00.367286,192.168.0.115
2680,5,-3,4,41,"3,2,-178",-1,0,-1,0,0,0,66,69,39,20,76,-27.81,53,-12.0,-13.0,-995.0,11:37:00.469284,192.168.0.115
2684,5,-3,4,41,"3,2,-178",-1,0,-1,0,0,0,66,69,39,20,76,-27.81,53,-2.0,-9.0,-984.0,11:37:00.520193,192.168.0.115
2689,5,-3,4,41,"3,2,-178",-1,1,-1,0,0,0,66,69,39,20,76,-27.84,53,18.0,-13.0,-1007.0,11:37:00.622204,192.168.0.115
