,mid,x,y,z,mpry,pitch,roll,yaw,vgx,vgy,vgz,templ,temph,tof,h,bat,baro,time,agx,agy,agz,timestamp,address
1,-1,-100,-100,-100,"0,0,0",0,0,0,0,0,0,80,82,6553,0,80,-29.13,0,8.0,5.0,-999.0,11:36:06.614568,192.168.0.114
6,-1,-100,-100,-100,"0,0,0",0,0,0,0,0,0,80,82,6553,0,80,-29.1,0,6.0,5.0,-1001.0,11:36:06.716609,192.168.0.114
11,-1,-100,-100,-100,"0,0,0",0,0,0,0,0,0,80,82,6553,0,80,-29.09,0,11.0,3.0,-997.0,11:36:06.818712,192.168.0.114
16,-1,-100,-100,-100,"0,0,0",0,0,0,0,0,0,80,82,6553,0,80,-29.09,0,6.0,3.0,-996.0,11:36:06.920822,192.168.0.114
21,-1,-100,-100,-100,"0,0,0",0,0,0,0,0,0,80,82,6553,0,80,-29.09,0,4.0,0.0,-1002.0,11:36:07.022786,192.168.0.114
26,-1,-100,-100,-100,"0,0,0",0,0,0,0,0,0,80,82,6553,0,80,-29.09,0,-4.0,-9.0,-992.0,11:36:07.125736,192.168.0.114
31,-1,-100,-100,-100,"0,0,0",0,0,0,0,0,0,80,82,6553,0,80,-29.09,0,-16.0,-2.0,-1006.0,11:36:07.226763,192.168.0.114
36,-1,-100,-100,-100,"0,0,0",0,0,0,0,0,0,80,82,10,0,80,-29.09,0,-12.0,12.0,-1174.0,11:36:07.328829,192.168.0.114
41,-1,-100,-100,-100,"0,0,0",0,0,0,0,0,3,80,82,10,0,80,-29.09,0,21.0,11.0,-1402.0,11:36:07.430961,192.168.0.114
46,-1,-100,-100,-100,"0,0,0",0,0,0,0,0,6,80,82,10,0,80,-29.09,0,22.0,-13.0,-1228.0,11:36:07.532690,192.168.0.114
51,-1,-100,-100,-100,"0,0,0",0,0,0,0,0,8,80,82,19,10,80,-28.76,0,-12.0,-5.0,-1082.0,11:36:07.635219,192.168.0.114
56,-1,-100,-100,-100,"0,0,0",0,0,0,0,0,8,80,82,24,20,80,-28.6,0,0.0,5.0,-1006.0,11:36:07.737106,192.168.0.114
61,-1,-100,-100,-100,"0,0,0",0,0,0,0,0,8,80,82,33,30,80,-28.59,1,15.0,0.0,-970.0,11:36:07.838597,192.168.0.114
66,-1,-100,-100,-100,"0,0,0",0,0,0,0,0,8,80,82,43,30,80,-28.56,1,16.0,2.0,-945.0,11:36:07.941091,192.168.0.114
71,-1,-100,-100,-100,"0,0,0",0,0,0,0,0,7,80,82,50,40,80,-28.42,1,-7.0,-5.0,-905.0,11:36:08.042932,192.168.0.114
76,-1,-100,-100,-100,"0,0,0",0,0,0,0,0,6,80,82,55,50,80,-28.41,1,0.0,1.0,-879.0,11:36:08.144538,192.168.0.114
81,-1,-100,-100,-100,"0,0,0",0,0,0,0,0,4,80,82,60,50,80,-28.32,1,-3.0,10.0,-869.0,11:36:08.246672,192.168.0.114
86,-1,-100,-100,-100,"0,0,0",0,0,0,0,0,3,80,82,64,60,80,-28.2,1,-5.0,-4.0,-898.0,11:36:08.349015,192.168.0.114
91,4,0,0,46,"0,-2,-177",0,0,0,0,0,2,80,82,67,60,80,-28.2,1,8.0,-7.0,-918.0,11:36:08.451115,192.168.0.114
96,4,0,0,46,"0,-2,-177",0,0,0,0,0,2,80,82,69,60,80,-28.2,1,-3.0,-12.0,-923.0,11:36:08.553044,192.168.0.114
99,4,0,0,46,"0,-2,-177",0,0,0,0,0,1,80,82,71,70,80,-28.12,1,5.0,-15.0,-944.0,11:36:08.603823,192.168.0.114
106,4,-1,0,67,"0,-2,-178",0,0,0,0,0,1,80,83,72,70,80,-28.16,1,15.0,-18.0,-971.0,11:36:08.757047,192.168.0.114
109,4,-1,0,67,"0,-2,-178",0,0,0,0,0,0,80,83,73,70,80,-28.15,2,-1.0,0.0,-992.0,11:36:08.807802,192.168.0.114
114,4,-1,0,67,"0,-2,-178",0,0,0,0,0,0,80,83,73,70,80,-28.12,2,3.0,-18.0,-981.0,11:36:08.909496,192.168.0.114
119,4,-1,0,67,"0,-2,-178",0,0,0,0,0,0,80,83,73,70,80,-28.12,2,6.0,-4.0,-1010.0,11:36:09.011802,192.168.0.114
123,4,-1,0,67,"0,-2,-178",0,0,0,0,0,0,80,83,75,70,80,-28.17,2,-1.0,-17.0,-1002.0,11:36:09.114393,192.168.0.114
131,4,-1,0,67,"0,-2,-178",0,0,0,0,0,0,80,83,76,70,80,-28.11,2,-7.0,-15.0,-985.0,11:36:09.215858,192.168.0.114
135,4,-1,0,67,"0,-2,-178",0,0,0,0,0,0,80,83,77,70,80,-28.19,2,2.0,-3.0,-1020.0,11:36:09.317801,192.168.0.114
141,4,-1,0,67,"0,-2,-178",0,0,0,0,0,0,80,83,77,70,80,-28.14,2,-16.0,-11.0,-981.0,11:36:09.419827,192.168.0.114
146,4,-4,0,76,"0,-3,-177",0,0,0,0,0,0,80,83,78,70,80,-28.12,2,14.0,-3.0,-998.0,11:36:09.521593,192.168.0.114
151,4,-4,0,76,"0,-3,-177",0,0,0,0,0,0,80,83,79,70,80,-28.06,2,-4.0,-1.0,-984.0,11:36:09.623788,192.168.0.114
156,4,-4,0,76,"0,-3,-177",0,0,0,0,0,0,80,83,79,80,80,-28.08,2,0.0,5.0,-995.0,11:36:09.725749,192.168.0.114
161,4,-4,0,76,"0,-3,-177",0,0,0,0,0,0,80,83,79,80,80,-28.16,3,-14.0,13.0,-997.0,11:36:09.836039,192.168.0.114
166,4,-1,-2,79,"1,-2,-177",0,0,0,0,0,0,80,83,80,80,80,-28.11,3,8.0,2.0,-1017.0,11:36:09.929441,192.168.0.114
171,4,-1,-2,79,"1,-2,-177",0,0,0,0,0,0,80,83,81,80,80,-28.19,3,-7.0,8.0,-997.0,11:36:10.031377,192.168.0.114
176,4,-1,-2,79,"1,-2,-177",0,0,0,0,0,0,80,83,81,80,80,-28.19,3,-11.0,-3.0,-992.0,11:36:10.135145,192.168.0.114
181,4,-3,-1,81,"0,-2,-177",0,0,0,0,0,0,80,83,81,80,80,-28.18,3,-20.0,-1.0,-994.0,11:36:10.236240,192.168.0.114
186,4,-3,-1,81,"0,-2,-177",0,0,0,0,0,0,80,83,80,80,80,-28.11,3,0.0,-11.0,-1006.0,11:36:10.338458,192.168.0.114
191,4,-3,-1,81,"0,-2,-177",0,0,0,0,0,0,80,83,81,80,80,-28.12,3,7.0,0.0,-976.0,11:36:10.440692,192.168.0.114
196,4,-3,-1,81,"0,-2,-177",0,0,0,0,0,0,80,83,80,80,80,-28.16,3,-10.0,6.0,-991.0,11:36:10.542831,192.168.0.114
201,4,-2,0,82,"0,-2,-179",0,0,0,0,0,0,80,83,80,80,80,-28.07,3,-1.0,-6.0,-1019.0,11:36:10.643658,192.168.0.114
206,4,-2,0,82,"0,-2,-179",0,0,0,0,0,0,80,82,79,80,80,-27.94,3,0.0,-4.0,-1011.0,11:36:10.745792,192.168.0.114
211,4,-2,0,82,"0,-2,-179",0,0,0,0,0,0,80,82,79,80,80,-28.11,4,-23.0,1.0,-1006.0,11:36:10.847832,192.168.0.114
216,4,-2,0,82,"0,-2,-179",0,0,0,0,0,0,80,82,80,80,80,-28.11,4,-9.0,-2.0,-982.0,11:36:10.949983,192.168.0.114
221,4,-2,-1,81,"0,-2,-178",0,0,0,0,0,0,80,82,80,80,80,-27.96,4,-11.0,-7.0,-1027.0,11:36:11.052005,192.168.0.114
226,4,-2,-1,81,"0,-2,-178",0,0,0,0,0,0,80,82,79,80,80,-28.03,4,-14.0,1.0,-1024.0,11:36:11.154054,192.168.0.114
231,4,-2,-1,81,"0,-2,-178",0,0,0,0,0,0,80,82,80,80,80,-28.05,4,-11.0,9.0,-1005.0,11:36:11.261747,192.168.0.114
236,4,-2,-1,81,"0,-2,-177",0,0,0,0,0,0,80,82,80,80,80,-28.01,4,0.0,5.0,-1004.0,11:36:11.360004,192.168.0.114
241,4,-2,-1,81,"0,-2,-177",0,0,0,0,0,0,80,82,81,80,80,-28.02,4,14.0,-5.0,-993.0,11:36:11.459865,192.168.0.114
246,4,-2,-1,81,"0,-2,-177",0,0,0,0,0,0,80,82,81,80,80,-28.06,4,0.0,7.0,-996.0,11:36:11.561892,192.168.0.114
251,4,-2,-1,81,"0,-2,-177",0,0,0,0,0,0,80,82,81,80,80,-28.04,4,-9.0,0.0,-1013.0,11:36:11.664052,192.168.0.114
256,4,-4,-1,82,"0,-2,-178",0,0,0,0,0,0,80,81,82,80,80,-28.08,4,3.0,-8.0,-1010.0,11:36:11.765975,192.168.0.114
261,4,-4,-1,82,"0,-2,-178",0,0,0,0,0,0,80,81,82,80,80,-28.1,5,-10.0,2.0,-1004.0,11:36:11.867903,192.168.0.114
266,4,-4,-1,82,"0,-2,-178",0,0,0,0,0,0,80,81,81,80,80,-28.0,5,2.0,4.0,-1003.0,11:36:11.983415,192.168.0.114
271,4,-4,-1,82,"0,-2,-178",0,0,0,0,0,0,80,81,82,80,80,-27.99,5,11.0,-8.0,-1010.0,11:36:12.071983,192.168.0.114
276,4,-2,-1,83,"0,-2,-178",0,0,0,0,0,0,80,81,82,80,80,-28.04,5,15.0,6.0,-1024.0,11:36:12.174457,192.168.0.114
281,4,-2,-1,83,"0,-2,-178",0,0,0,0,0,0,80,81,83,80,80,-28.02,5,-13.0,-2.0,-998.0,11:36:12.224391,192.168.0.114
286,4,-2,-1,83,"0,-2,-178",0,0,0,0,0,0,80,81,82,80,80,-28.02,5,4.0,12.0,-1000.0,11:36:12.326880,192.168.0.114
291,4,-3,-3,83,"-1,-2,-177",0,0,0,0,0,0,80,81,83,80,80,-28.05,5,8.0,3.0,-998.0,11:36:12.428720,192.168.0.114
296,4,-3,-3,83,"-1,-2,-177",0,0,0,0,0,0,80,81,84,80,80,-27.97,5,20.0,1.0,-978.0,11:36:12.530628,192.168.0.114
301,4,-3,-3,83,"-1,-2,-177",0,0,0,0,0,0,80,81,84,80,80,-28.0,5,0.0,12.0,-994.0,11:36:12.632635,192.168.0.114
306,4,-3,-3,83,"-1,-2,-177",0,0,0,0,0,0,80,82,83,80,80,-28.11,5,0.0,17.0,-1007.0,11:36:12.734841,192.168.0.114
311,4,-2,-3,85,"-1,-2,-177",0,0,0,0,0,0,80,82,85,80,80,-28.06,6,-7.0,7.0,-998.0,11:36:12.837202,192.168.0.114
316,4,-2,-3,85,"-1,-2,-177",0,0,0,0,0,0,80,82,83,80,80,-28.02,6,-8.0,5.0,-996.0,11:36:12.940679,192.168.0.114
321,4,-2,-3,85,"-1,-2,-177",0,0,0,0,0,0,80,82,83,80,80,-28.05,6,-15.0,16.0,-979.0,11:36:13.040712,192.168.0.114
326,4,-2,-3,85,"-1,-2,-177",0,0,0,0,0,0,80,82,83,80,80,-28.0,6,-7.0,9.0,-1004.0,11:36:13.142765,192.168.0.114
331,4,-1,-3,85,"-1,-2,-177",0,0,0,0,0,0,80,82,83,80,80,-28.04,6,2.0,0.0,-1015.0,11:36:13.244914,192.168.0.114
336,4,-1,-3,85,"-1,-2,-177",0,0,0,0,0,0,80,82,82,80,80,-28.08,6,2.0,4.0,-928.0,11:36:13.347044,192.168.0.114
341,4,-1,-3,85,"-1,-2,-177",0,0,0,0,0,0,80,82,81,80,80,-28.1,6,14.0,2.0,-892.0,11:36:13.448835,192.168.0.114
346,4,-2,-2,84,"-1,-2,-177",0,0,0,0,0,-1,80,82,79,80,80,-28.07,6,26.0,0.0,-933.0,11:36:13.550957,192.168.0.114
351,4,-2,-2,84,"-1,-2,-177",0,0,0,0,0,-2,80,82,77,70,80,-28.13,6,-4.0,-9.0,-936.0,11:36:13.652490,192.168.0.114
356,4,-2,-2,84,"-1,-2,-177",0,0,0,0,0,-3,79,81,73,70,80,-28.23,6,17.0,-7.0,-972.0,11:36:13.754974,192.168.0.114
361,4,-2,-2,84,"-1,-2,-177",0,0,0,0,0,-3,79,81,69,70,80,-28.26,7,17.0,14.0,-1012.0,11:36:13.856688,192.168.0.114
366,4,-3,-3,80,"-1,-2,-176",0,0,0,0,0,-3,79,81,65,60,80,-28.18,7,6.0,-11.0,-1013.0,11:36:13.958939,192.168.0.114
371,4,-3,-3,80,"-1,-2,-176",0,0,0,0,0,-3,79,81,61,60,80,-28.3,7,-12.0,8.0,-1058.0,11:36:14.061109,192.168.0.114
376,4,-3,-3,80,"-1,-2,-176",0,0,0,0,0,-3,79,81,57,60,80,-28.36,7,3.0,-2.0,-1014.0,11:36:14.162846,192.168.0.114
381,4,-3,-3,80,"-1,-2,-176",0,0,0,0,0,-2,79,81,55,50,80,-28.36,7,-23.0,4.0,-1022.0,11:36:14.267133,192.168.0.114
386,4,-3,0,68,"-1,-2,-177",0,0,0,0,0,-2,79,81,52,50,80,-28.44,7,8.0,-3.0,-1023.0,11:36:14.366949,192.168.0.114
391,4,-3,0,68,"-1,-2,-177",0,0,0,0,0,-2,79,81,49,50,80,-28.28,7,3.0,-4.0,-1040.0,11:36:14.468854,192.168.0.114
396,4,-3,0,68,"-1,-2,-177",0,0,0,0,0,-2,79,81,48,50,80,-28.38,7,-14.0,-7.0,-1051.0,11:36:14.570837,192.168.0.114
401,4,-2,0,54,"0,-2,-178",-1,1,0,0,0,-1,79,81,46,40,80,-28.32,7,23.0,-2.0,-1019.0,11:36:14.672719,192.168.0.114
406,4,-2,0,54,"0,-2,-178",-2,0,0,0,0,-1,79,82,44,40,80,-28.32,7,18.0,-6.0,-1036.0,11:36:14.774978,192.168.0.114
411,4,-2,0,54,"0,-2,-178",-1,0,0,0,0,-1,79,82,43,40,80,-28.37,8,-40.0,43.0,-1061.0,11:36:14.876504,192.168.0.114
416,4,-2,0,54,"0,-2,-178",1,-1,0,0,0,0,79,82,42,40,80,-28.43,8,-3.0,-16.0,-1057.0,11:36:14.978822,192.168.0.114
421,4,-3,0,47,"2,-2,-177",0,-1,0,0,0,0,79,82,42,40,80,-28.45,8,-2.0,-13.0,-1035.0,11:36:15.080561,192.168.0.114
426,4,-3,0,47,"2,-2,-177",0,0,0,0,0,0,79,82,41,40,80,-28.41,8,-6.0,-2.0,-1011.0,11:36:15.182945,192.168.0.114
432,4,-3,0,47,"2,-2,-177",0,0,0,0,0,0,79,82,41,40,80,-28.42,8,-16.0,-5.0,-982.0,11:36:15.284631,192.168.0.114
437,4,-3,0,47,"2,-2,-177",0,0,0,0,0,0,79,82,41,40,80,-28.51,8,-25.0,1.0,-996.0,11:36:15.387254,192.168.0.114
442,4,-1,-3,44,"2,-2,-178",0,0,0,0,0,0,79,82,41,40,80,-28.43,8,-4.0,-7.0,-1006.0,11:36:15.488343,192.168.0.114
447,4,-1,-3,44,"2,-2,-178",0,0,0,0,0,0,79,82,42,40,80,-28.43,8,0.0,-12.0,-1002.0,11:36:15.590496,192.168.0.114
453,4,-1,-3,44,"2,-2,-178",0,0,0,0,0,0,79,82,43,40,80,-28.41,8,-10.0,-3.0,-991.0,11:36:15.692579,192.168.0.114
458,4,-1,-3,44,"2,-2,-178",0,0,0,0,0,0,80,81,43,40,80,-28.43,8,-29.0,-10.0,-988.0,11:36:15.794657,192.168.0.114
461,4,-3,-1,44,"1,-2,180",0,0,0,0,0,0,80,81,43,40,80,-28.38,9,-21.0,-3.0,-1001.0,11:36:15.845741,192.168.0.114
466,4,-3,-1,44,"1,-2,180",0,0,0,0,0,0,80,81,43,40,80,-28.45,9,-34.0,-4.0,-994.0,11:36:15.947630,192.168.0.114
471,4,-3,-1,44,"1,-2,180",-1,0,0,0,0,0,80,81,43,40,80,-28.44,9,-16.0,12.0,-1009.0,11:36:16.050923,192.168.0.114
476,4,-3,-2,45,"1,-2,-179",-1,0,0,0,0,0,80,81,43,40,80,-28.39,9,-4.0,-12.0,-986.0,11:36:16.152327,192.168.0.114
481,4,-3,-2,45,"1,-2,-179",-1,0,0,0,0,0,80,81,43,40,80,-28.52,9,-7.0,-6.0,-1005.0,11:36:16.258559,192.168.0.114
486,4,-3,-2,45,"1,-2,-179",0,0,0,0,0,0,80,81,43,40,80,-28.47,9,-16.0,-11.0,-1001.0,11:36:16.355719,192.168.0.114
491,4,-3,-2,45,"1,-2,-179",0,0,0,0,0,0,80,81,43,40,80,-28.42,9,-13.0,-3.0,-999.0,11:36:16.457758,192.168.0.114
496,4,-5,-1,45,"3,-2,180",-1,0,0,0,0,0,80,81,44,40,80,-28.36,9,-10.0,-4.0,-990.0,11:36:16.559434,192.168.0.114
501,4,-5,-1,45,"3,-2,180",-1,0,0,0,0,0,80,81,44,40,80,-28.32,9,-39.0,5.0,-991.0,11:36:16.661780,192.168.0.114
506,4,-5,-1,45,"3,-2,180",-1,0,0,0,0,0,79,80,44,40,80,-28.4,9,-12.0,-15.0,-978.0,11:36:16.763697,192.168.0.114
511,4,-5,-1,45,"3,-2,180",-1,0,0,0,0,0,79,80,44,40,80,-28.41,10,-26.0,0.0,-1012.0,11:36:16.865724,192.168.0.114
516,4,-6,0,46,"2,-2,-179",-1,0,0,0,0,0,79,80,44,40,80,-28.4,10,0.0,9.0,-1014.0,11:36:16.967804,192.168.0.114
521,4,-6,0,46,"2,-2,-179",-1,0,0,0,0,0,79,80,44,40,80,-28.45,10,-15.0,4.0,-1001.0,11:36:17.071888,192.168.0.114
526,4,-6,0,46,"2,-2,-179",-1,0,0,0,0,0,79,80,44,40,80,-28.49,10,-5.0,0.0,-999.0,11:36:17.171852,192.168.0.114
531,4,-6,-1,46,"3,-2,-179",-1,0,0,0,0,0,79,80,45,40,80,-28.45,10,-7.0,-8.0,-1030.0,11:36:17.273477,192.168.0.114
536,4,-6,-1,46,"3,-2,-179",-1,0,0,0,0,0,79,80,45,40,80,-28.41,10,-33.0,20.0,-1004.0,11:36:17.376438,192.168.0.114
541,4,-6,-1,46,"3,-2,-179",-1,0,0,0,0,0,79,80,45,40,80,-28.38,10,-10.0,2.0,-960.0,11:36:17.477570,192.168.0.114
546,4,-6,-1,46,"3,-2,-179",-1,0,0,0,0,0,79,80,44,40,80,-28.39,10,-14.0,-5.0,-972.0,11:36:17.579222,192.168.0.114
551,4,-7,0,46,"1,-2,180",-1,0,0,0,0,0,79,80,44,40,80,-28.33,10,-26.0,6.0,-988.0,11:36:17.681726,192.168.0.114
556,4,-7,0,46,"1,-2,180",-1,0,0,0,0,0,79,80,43,40,80,-28.33,10,-6.0,-21.0,-1020.0,11:36:17.783422,192.168.0.114
561,4,-7,0,46,"1,-2,180",-1,0,0,0,0,0,79,80,42,40,80,-28.36,11,-23.0,4.0,-1013.0,11:36:17.886080,192.168.0.114
566,4,-7,0,46,"1,-2,180",0,0,0,0,0,0,79,80,42,40,80,-28.46,11,-36.0,6.0,-1011.0,11:36:17.987781,192.168.0.114
571,4,-7,0,46,"2,-2,-179",0,0,0,0,0,0,79,80,42,40,80,-28.35,11,-15.0,16.0,-977.0,11:36:18.092378,192.168.0.114
576,4,-7,0,46,"2,-2,-179",0,0,0,0,0,0,79,80,41,40,80,-28.38,11,-8.0,-12.0,-988.0,11:36:18.191715,192.168.0.114
582,4,-7,0,46,"2,-2,-179",-1,0,0,0,0,0,79,80,41,40,80,-28.37,11,-25.0,-8.0,-1002.0,11:36:18.293421,192.168.0.114
588,4,-4,-1,44,"0,-2,179",-1,0,0,0,0,0,79,80,41,40,80,-28.37,11,17.0,-18.0,-1022.0,11:36:18.395654,192.168.0.114
593,4,-4,-1,44,"0,-2,179",0,0,0,0,0,0,79,80,41,40,80,-28.33,11,-8.0,11.0,-996.0,11:36:18.497347,192.168.0.114
598,4,-4,-1,44,"0,-2,179",0,0,0,0,0,0,79,80,42,40,80,-28.36,11,18.0,-17.0,-1013.0,11:36:18.599339,192.168.0.114
602,4,-4,-1,44,"0,-2,179",0,0,0,0,0,0,79,80,41,40,80,-28.42,11,-1.0,-20.0,-1012.0,11:36:18.702022,192.168.0.114
608,4,-5,-2,43,"2,-2,180",0,0,0,0,0,0,79,80,41,40,80,-28.42,11,4.0,1.0,-1006.0,11:36:18.803188,192.168.0.114
613,4,-5,-2,43,"2,-2,180",0,0,0,0,0,0,79,80,41,40,80,-28.41,12,-16.0,-4.0,-1011.0,11:36:18.905534,192.168.0.114
618,4,-5,-2,43,"2,-2,180",0,0,0,0,0,0,79,80,41,40,80,-28.42,12,8.0,-4.0,-990.0,11:36:19.007339,192.168.0.114
623,4,-5,-2,43,"2,-2,180",0,0,0,0,0,0,79,80,41,40,80,-28.38,12,-16.0,-3.0,-998.0,11:36:19.109179,192.168.0.114
626,4,-4,-2,43,"1,-3,-179",0,0,0,0,0,0,79,80,40,40,80,-28.45,12,-4.0,-7.0,-1008.0,11:36:19.160496,192.168.0.114
631,4,-4,-2,43,"1,-3,-179",0,0,0,0,0,0,79,80,40,40,80,-28.45,12,-10.0,-4.0,-1026.0,11:36:19.263380,192.168.0.114
636,4,-4,-2,43,"1,-3,-179",0,1,0,0,0,0,79,80,41,40,80,-28.45,12,-22.0,-27.0,-1030.0,11:36:19.364448,192.168.0.114
641,4,-4,-1,43,"1,-2,-179",0,1,0,0,0,0,79,80,41,40,80,-28.41,12,-25.0,-29.0,-977.0,11:36:19.466674,192.168.0.114
646,4,-4,-1,43,"1,-2,-179",-1,0,0,0,0,0,79,80,41,40,80,-28.54,12,-11.0,-14.0,-989.0,11:36:19.568555,192.168.0.114
651,4,-4,-1,43,"1,-2,-179",-1,0,0,0,0,0,79,80,41,40,80,-28.6,12,-46.0,-18.0,-1014.0,11:36:19.670602,192.168.0.114
656,4,-4,-1,43,"1,-2,-179",-1,1,0,0,0,0,78,80,42,40,80,-28.52,12,-9.0,-8.0,-989.0,11:36:19.773024,192.168.0.114
661,4,-4,-1,43,"1,-2,-178",-1,1,0,0,0,0,78,80,42,40,80,-28.69,13,-21.0,-2.0,-991.0,11:36:19.875336,192.168.0.114
666,4,-4,-1,43,"1,-2,-178",-1,0,0,0,0,0,78,80,42,40,80,-28.54,13,5.0,-5.0,-1000.0,11:36:19.977607,192.168.0.114
671,4,-4,-1,43,"1,-2,-178",-1,0,0,0,0,0,78,80,43,40,80,-28.56,13,-8.0,-8.0,-960.0,11:36:20.080189,192.168.0.114
676,4,-4,-1,43,"1,-2,-178",0,0,0,0,0,0,78,80,43,40,80,-28.52,13,-4.0,-20.0,-981.0,11:36:20.182499,192.168.0.114
681,4,-5,0,44,"1,-3,-177",-1,0,0,0,0,0,78,80,42,40,80,-28.58,13,-13.0,-10.0,-985.0,11:36:20.284894,192.168.0.114
686,4,-5,0,44,"1,-3,-177",0,0,0,0,0,0,78,80,44,40,80,-28.43,13,-8.0,-11.0,-1001.0,11:36:20.384683,192.168.0.114
691,4,-5,0,44,"1,-3,-177",-1,0,0,0,0,0,78,80,43,40,80,-28.4,13,-4.0,-23.0,-1001.0,11:36:20.486715,192.168.0.114
696,4,-6,0,45,"2,-3,179",0,0,0,0,0,0,78,80,43,40,80,-28.35,13,-21.0,-4.0,-985.0,11:36:20.588675,192.168.0.114
701,4,-6,0,45,"2,-3,179",0,0,1,0,0,0,78,80,42,40,80,-28.43,13,0.0,1.0,-1007.0,11:36:20.690710,192.168.0.114
707,4,-6,0,45,"2,-3,179",0,0,1,0,0,0,78,80,42,40,80,-28.49,13,12.0,-6.0,-997.0,11:36:20.792819,192.168.0.114
712,4,-6,0,45,"2,-3,179",0,0,0,0,0,0,78,80,42,40,80,-28.53,14,8.0,-2.0,-1014.0,11:36:20.894774,192.168.0.114
717,4,-6,0,44,"1,-3,-178",0,0,0,0,0,0,78,80,42,40,80,-28.28,14,-6.0,16.0,-1015.0,11:36:20.996149,192.168.0.114
722,4,-6,0,44,"1,-3,-178",-1,0,0,0,0,0,78,80,43,40,80,-28.39,14,-54.0,33.0,-1005.0,11:36:21.098659,192.168.0.114
727,4,-6,0,44,"1,-3,-178",-1,-1,0,0,0,0,78,80,43,40,80,-28.5,14,-11.0,-9.0,-1040.0,11:36:21.200630,192.168.0.114
732,4,-6,0,44,"1,-3,-178",-1,0,0,0,0,0,78,80,43,40,80,-28.35,14,1.0,-1.0,-1042.0,11:36:21.302608,192.168.0.114
737,4,-6,-1,44,"1,-3,-179",-3,0,0,0,0,0,78,80,43,40,80,-28.46,14,-25.0,-4.0,-951.0,11:36:21.404566,192.168.0.114
742,4,-6,-1,44,"1,-3,-179",-2,0,0,0,0,0,78,80,42,40,80,-28.42,14,-7.0,5.0,-961.0,11:36:21.506963,192.168.0.114
747,4,-6,-1,44,"1,-3,-179",0,0,0,0,0,0,78,80,42,40,80,-28.46,14,4.0,-9.0,-994.0,11:36:21.609329,192.168.0.114
752,4,-5,-2,44,"5,-2,180",0,0,0,0,0,0,78,80,40,40,80,-28.57,14,0.0,-13.0,-1007.0,11:36:21.710565,192.168.0.114
757,4,-5,-2,44,"5,-2,180",0,0,0,0,0,0,77,80,40,40,80,-28.41,14,-6.0,-9.0,-1010.0,11:36:21.812591,192.168.0.114
762,4,-5,-2,44,"5,-2,180",0,0,0,0,0,0,77,80,40,40,80,-28.38,15,-9.0,7.0,-1015.0,11:36:21.914566,192.168.0.114
768,4,-5,-2,44,"5,-2,180",0,0,0,0,0,0,77,80,40,40,80,-28.4,15,-16.0,-11.0,-1028.0,11:36:22.016523,192.168.0.114
773,4,-3,-3,42,"0,-2,180",0,0,0,0,0,0,77,80,40,40,80,-28.48,15,-15.0,2.0,-1008.0,11:36:22.118417,192.168.0.114
778,4,-3,-3,42,"0,-2,180",0,0,0,0,0,0,77,80,40,40,80,-28.37,15,-15.0,9.0,-1021.0,11:36:22.220638,192.168.0.114
784,4,-3,-3,42,"0,-2,180",0,0,0,0,0,0,77,80,40,40,80,-28.48,15,-31.0,11.0,-1003.0,11:36:22.322260,192.168.0.114
788,4,-3,-3,42,"0,-2,180",0,0,0,0,0,0,77,80,40,40,80,-28.4,15,-27.0,1.0,-983.0,11:36:22.424734,192.168.0.114
794,4,-2,-3,40,"0,-2,-179",-1,0,0,0,0,0,77,80,41,40,80,-28.55,15,-26.0,0.0,-1008.0,11:36:22.526121,192.168.0.114
796,4,-2,-3,40,"0,-2,-179",0,0,0,0,0,0,77,80,41,40,80,-28.58,15,-22.0,-3.0,-979.0,11:36:22.577076,192.168.0.114
801,4,-2,-3,40,"0,-2,-179",0,0,0,0,0,0,77,80,40,40,80,-28.53,15,-14.0,10.0,-1029.0,11:36:22.679380,192.168.0.114
806,4,0,-6,40,"3,-2,-178",0,0,0,0,0,0,78,80,41,40,80,-28.57,16,-27.0,3.0,-981.0,11:36:22.781458,192.168.0.114
811,4,0,-6,40,"3,-2,-178",-1,0,0,0,0,0,78,80,40,40,80,-28.5,16,-28.0,20.0,-973.0,11:36:22.883589,192.168.0.114
816,4,0,-6,40,"3,-2,-178",-1,0,0,0,0,0,78,80,41,40,80,-28.48,16,-16.0,5.0,-976.0,11:36:22.985542,192.168.0.114
821,4,0,-6,40,"3,-2,-178",0,0,0,0,0,0,78,80,41,40,80,-28.75,16,-36.0,5.0,-1027.0,11:36:23.087517,192.168.0.114
826,4,-2,-5,40,"1,-3,179",0,0,0,0,0,0,78,80,40,40,80,-28.57,16,-31.0,30.0,-994.0,11:36:23.189488,192.168.0.114
832,4,-2,-5,40,"1,-3,179",0,0,0,0,0,0,78,80,41,40,80,-28.45,16,-18.0,9.0,-1045.0,11:36:23.291368,192.168.0.114
837,4,-2,-5,40,"1,-3,179",-1,-1,0,0,0,0,78,80,40,40,80,-28.49,16,-9.0,-7.0,-1017.0,11:36:23.393500,192.168.0.114
842,4,-2,-5,40,"1,-3,179",-1,-1,0,0,0,0,78,80,40,40,80,-28.44,16,-6.0,-7.0,-964.0,11:36:23.495450,192.168.0.114
847,4,-2,-5,40,"1,-2,180",-1,0,0,0,0,0,78,80,41,40,80,-28.34,16,-2.0,13.0,-961.0,11:36:23.597176,192.168.0.114
852,4,-2,-5,40,"1,-2,180",-1,0,0,0,0,0,78,80,41,40,80,-28.44,16,-10.0,12.0,-1012.0,11:36:23.700096,192.168.0.114
857,4,-2,-5,40,"1,-2,180",0,0,0,0,0,0,78,80,41,40,80,-28.46,17,-1.0,-7.0,-999.0,11:36:23.801313,192.168.0.114
862,4,-2,-8,41,"4,-2,-178",0,-1,0,0,0,0,78,80,40,40,80,-28.36,17,19.0,-2.0,-1013.0,11:36:23.903552,192.168.0.114
867,4,-2,-8,41,"4,-2,-178",0,0,0,0,0,0,78,80,40,40,80,-28.52,17,-36.0,15.0,-1033.0,11:36:24.005430,192.168.0.114
872,4,-2,-8,41,"4,-2,-178",0,0,0,0,0,0,78,80,39,40,80,-28.41,17,-14.0,31.0,-1033.0,11:36:24.107546,192.168.0.114
877,4,-2,-8,41,"4,-2,-178",0,-1,0,0,0,0,78,80,39,40,80,-28.43,17,-3.0,15.0,-952.0,11:36:24.209499,192.168.0.114
882,4,-2,-8,41,"2,-2,-179",0,-1,0,0,0,0,78,80,39,40,80,-28.39,17,-6.0,17.0,-968.0,11:36:24.311307,192.168.0.114
887,4,-2,-8,41,"2,-2,-179",0,-1,0,0,0,0,78,80,38,40,80,-28.13,17,-10.0,19.0,-1013.0,11:36:24.413429,192.168.0.114
892,4,-2,-8,41,"2,-2,-179",0,-1,0,0,0,0,78,80,38,40,80,-28.3,17,-8.0,23.0,-1010.0,11:36:24.515477,192.168.0.114
897,4,-2,-8,41,"2,-2,-179",-1,-3,0,0,0,0,78,80,38,40,80,-28.35,17,-34.0,23.0,-966.0,11:36:24.617488,192.168.0.114
902,4,0,-10,40,"1,-3,-177",0,-1,0,0,0,0,78,80,38,40,80,-28.23,17,-24.0,44.0,-954.0,11:36:24.719265,192.168.0.114
907,4,0,-10,40,"1,-3,-177",0,-1,0,0,0,0,77,79,38,30,80,-28.0,18,-14.0,33.0,-1066.0,11:36:24.821521,192.168.0.114
912,4,0,-10,40,"1,-3,-177",0,-2,0,0,0,0,77,79,38,30,80,-27.87,18,8.0,3.0,-986.0,11:36:24.923291,192.168.0.114
917,4,-1,-7,39,"0,-3,178",0,-1,0,0,0,0,77,79,37,30,80,-27.94,18,-11.0,11.0,-989.0,11:36:25.027757,192.168.0.114
922,4,-1,-7,39,"0,-3,178",0,0,0,0,0,0,77,79,38,30,80,-27.61,18,11.0,14.0,-995.0,11:36:25.127558,192.168.0.114
927,4,-1,-7,39,"0,-3,178",0,0,0,0,0,0,77,79,37,30,80,-27.81,18,19.0,-2.0,-1058.0,11:36:25.230230,192.168.0.114
933,4,-1,-7,39,"0,-3,178",0,2,0,0,0,0,77,79,37,30,80,-27.9,18,22.0,8.0,-996.0,11:36:25.331212,192.168.0.114
939,4,0,-5,38,"0,-2,179",1,0,0,0,0,0,77,79,37,30,80,-28.24,18,-4.0,1.0,-1016.0,11:36:25.433226,192.168.0.114
944,4,0,-5,38,"0,-2,179",1,0,0,0,0,0,77,79,38,30,80,-28.55,18,-3.0,-8.0,-1030.0,11:36:25.535240,192.168.0.114
949,4,0,-5,38,"0,-2,179",0,0,0,0,0,0,77,79,38,30,80,-28.75,18,12.0,0.0,-1012.0,11:36:25.637143,192.168.0.114
953,4,0,-5,38,"0,-2,179",0,0,0,0,0,0,77,79,38,30,80,-28.75,18,1.0,0.0,-969.0,11:36:25.739249,192.168.0.114
959,4,2,-2,37,"-1,-3,-177",0,0,0,0,0,0,78,79,39,30,80,-28.94,19,-16.0,9.0,-979.0,11:36:25.840981,192.168.0.114
964,4,2,-2,37,"-1,-3,-177",0,0,0,0,0,0,78,79,39,30,80,-28.96,19,-14.0,17.0,-976.0,11:36:25.944245,192.168.0.114
969,4,2,-2,37,"-1,-3,-177",0,-1,0,0,0,0,78,79,38,30,80,-28.95,19,-18.0,20.0,-1004.0,11:36:26.045060,192.168.0.114
974,4,4,-3,38,"0,-3,-178",0,-1,0,0,0,0,78,79,38,30,80,-28.89,19,0.0,12.0,-993.0,11:36:26.146980,192.168.0.114
977,4,4,-3,38,"0,-3,-178",0,-1,0,0,0,0,78,79,37,30,80,-28.85,19,-14.0,11.0,-990.0,11:36:26.198427,192.168.0.114
982,4,4,-3,38,"0,-3,-178",0,-1,0,0,0,0,78,79,37,30,80,-28.84,19,-4.0,17.0,-1026.0,11:36:26.300393,192.168.0.114
987,4,4,-3,38,"0,-3,-178",-1,-1,0,0,0,0,78,79,37,30,80,-28.67,19,2.0,6.0,-1016.0,11:36:26.402175,192.168.0.114
992,4,4,-4,39,"0,-2,180",0,-1,0,0,0,0,78,79,37,30,80,-28.73,19,-17.0,8.0,-1019.0,11:36:26.508139,192.168.0.114
997,4,4,-4,39,"0,-2,180",0,0,0,0,0,0,78,79,37,30,80,-28.57,19,12.0,-5.0,-986.0,11:36:26.606192,192.168.0.114
1002,4,4,-4,39,"0,-2,180",0,0,0,0,0,0,78,79,38,30,80,-28.52,19,1.0,10.0,-956.0,11:36:26.708431,192.168.0.114
1007,4,4,-4,39,"0,-2,180",0,0,0,0,0,0,77,79,39,30,80,-28.51,20,2.0,35.0,-989.0,11:36:26.810402,192.168.0.114
1012,4,4,-4,39,"1,-2,179",0,0,0,0,0,0,77,79,39,30,80,-28.66,20,-23.0,42.0,-991.0,11:36:26.912319,192.168.0.114
1017,4,4,-4,39,"1,-2,179",0,-1,0,0,0,0,77,79,38,30,80,-28.62,20,-9.0,15.0,-991.0,11:36:27.014445,192.168.0.114
1022,4,4,-4,39,"1,-2,179",0,-2,0,0,0,0,77,79,37,30,80,-28.62,20,-7.0,28.0,-1021.0,11:36:27.116396,192.168.0.114
1027,4,4,-4,39,"1,-2,179",0,-2,0,0,0,0,77,79,37,30,80,-28.54,20,25.0,-6.0,-972.0,11:36:27.218335,192.168.0.114
1032,4,4,-5,39,"0,-2,-178",0,-1,0,0,0,0,77,79,37,30,80,-28.69,20,3.0,24.0,-996.0,11:36:27.320198,192.168.0.114
1037,4,4,-5,39,"0,-2,-178",0,0,0,0,0,0,77,79,38,30,80,-28.6,20,-15.0,27.0,-1004.0,11:36:27.422129,192.168.0.114
1042,4,4,-5,39,"0,-2,-178",0,0,0,0,0,0,77,79,38,30,80,-28.7,20,13.0,15.0,-1010.0,11:36:27.524274,192.168.0.114
1047,4,6,-8,38,"0,-3,-178",0,-1,0,0,0,0,77,79,38,30,80,-28.7,20,14.0,6.0,-1005.0,11:36:27.626360,192.168.0.114
1052,4,6,-8,38,"0,-3,-178",0,0,0,0,0,0,77,79,38,30,80,-28.68,20,34.0,23.0,-996.0,11:36:27.728355,192.168.0.114
1057,4,6,-8,38,"0,-3,-178",0,0,0,0,0,0,77,79,39,30,80,-28.78,21,7.0,6.0,-993.0,11:36:27.830898,192.168.0.114
1062,4,6,-8,38,"0,-3,-178",0,-1,0,0,0,0,77,79,39,30,80,-28.72,21,-1.0,-19.0,-978.0,11:36:27.932659,192.168.0.114
1067,4,7,-6,39,"1,-3,-179",0,0,0,0,0,0,77,79,39,30,80,-28.61,21,-5.0,16.0,-986.0,11:36:28.034439,192.168.0.114
1072,4,7,-6,39,"1,-3,-179",0,0,0,0,0,0,77,79,39,40,80,-28.73,21,-13.0,-4.0,-998.0,11:36:28.136236,192.168.0.114
1077,4,7,-6,39,"1,-3,-179",0,0,0,0,0,0,77,79,40,40,80,-28.75,21,31.0,6.0,-1023.0,11:36:28.238291,192.168.0.114
1082,4,7,-6,39,"1,-3,-179",0,0,0,0,0,0,77,79,40,40,80,-28.7,21,4.0,7.0,-973.0,11:36:28.340358,192.168.0.114
1087,4,7,-6,40,"0,-2,-179",0,0,0,0,0,0,77,79,41,40,80,-28.68,21,-14.0,3.0,-976.0,11:36:28.442287,192.168.0.114
1092,4,7,-6,40,"0,-2,-179",0,0,0,0,0,0,77,79,41,40,80,-28.76,21,-24.0,24.0,-1009.0,11:36:28.544244,192.168.0.114
1098,4,7,-6,40,"0,-2,-179",0,0,0,0,0,0,77,79,41,40,80,-28.74,21,-28.0,13.0,-994.0,11:36:28.646143,192.168.0.114
1103,4,5,-4,41,"0,-2,-178",0,0,0,0,0,0,77,79,40,40,80,-28.71,21,-17.0,24.0,-1001.0,11:36:28.748441,192.168.0.114
1108,4,5,-4,41,"0,-2,-178",-1,0,0,0,0,0,77,79,40,40,80,-28.76,22,8.0,11.0,-962.0,11:36:28.850310,192.168.0.114
1113,4,5,-4,41,"0,-2,-178",0,0,0,0,0,0,77,79,40,40,80,-28.92,22,-4.0,0.0,-977.0,11:36:28.952245,192.168.0.114
1119,4,5,-4,41,"0,-2,-178",0,0,0,0,0,0,77,79,39,30,80,-29.05,22,-16.0,6.0,-986.0,11:36:29.054125,192.168.0.114
1124,4,4,-3,41,"0,-2,-179",-1,0,0,0,0,0,77,79,38,30,80,-28.49,22,20.0,-2.0,-988.0,11:36:29.157047,192.168.0.114
1129,4,4,-3,41,"0,-2,-179",0,0,0,0,0,0,77,79,38,30,80,-28.48,22,3.0,0.0,-1014.0,11:36:29.258044,192.168.0.114
1131,4,4,-3,41,"0,-2,-179",0,0,0,0,0,0,77,79,37,30,80,-28.76,22,-26.0,1.0,-1027.0,11:36:29.309275,192.168.0.114
1136,4,4,-3,41,"0,-2,-179",0,0,0,0,0,0,77,79,37,30,80,-28.3,22,8.0,-9.0,-992.0,11:36:29.411197,192.168.0.114
1141,4,3,-3,40,"1,-2,-179",0,0,0,0,0,0,77,79,38,30,80,-28.42,22,-21.0,18.0,-1020.0,11:36:29.513223,192.168.0.114
1146,4,3,-3,40,"1,-2,-179",0,0,0,0,0,0,77,79,38,30,80,-28.42,22,4.0,4.0,-1010.0,11:36:29.615171,192.168.0.114
1151,4,3,-3,40,"1,-2,-179",0,0,0,0,0,0,77,79,39,30,80,-28.46,22,-8.0,26.0,-1008.0,11:36:29.716883,192.168.0.114
1159,4,2,-3,39,"0,-3,180",0,0,0,0,0,0,76,79,40,30,80,-28.44,23,26.0,-22.0,-977.0,11:36:29.869907,192.168.0.114
1162,4,2,-3,39,"0,-3,180",0,0,0,0,0,0,76,79,41,40,80,-28.36,23,-7.0,-8.0,-977.0,11:36:29.921340,192.168.0.114
1167,4,2,-3,39,"0,-3,180",1,0,0,0,0,0,76,79,40,40,80,-28.38,23,-5.0,7.0,-997.0,11:36:30.023230,192.168.0.114
1172,4,2,-3,39,"0,-3,180",0,0,0,0,0,0,76,79,40,40,80,-28.46,23,-1.0,2.0,-978.0,11:36:30.125433,192.168.0.114
1177,4,4,-3,40,"0,-2,-179",1,0,0,0,0,0,76,79,39,40,80,-28.48,23,-2.0,2.0,-1028.0,11:36:30.227253,192.168.0.114
1182,4,4,-3,40,"0,-2,-179",0,0,0,0,0,0,76,79,39,40,80,-28.47,23,-14.0,19.0,-980.0,11:36:30.329191,192.168.0.114
1187,4,4,-3,40,"0,-2,-179",0,0,0,0,0,0,76,79,40,40,80,-28.54,23,-9.0,8.0,-1016.0,11:36:30.431263,192.168.0.114
1192,4,4,-3,40,"0,-2,-179",0,0,0,0,0,0,76,79,40,30,80,-28.38,23,-9.0,-3.0,-990.0,11:36:30.533167,192.168.0.114
1197,4,5,-4,40,"0,-2,-178",0,0,0,0,0,0,76,79,40,30,80,-28.41,23,-15.0,27.0,-1037.0,11:36:30.637920,192.168.0.114
1202,4,5,-4,40,"0,-2,-178",0,0,0,0,0,0,76,79,40,30,80,-28.56,23,-32.0,20.0,-994.0,11:36:30.739902,192.168.0.114
1207,4,5,-4,40,"0,-2,-178",-1,0,0,0,0,0,77,79,39,40,80,-28.54,24,-22.0,15.0,-980.0,11:36:30.839011,192.168.0.114
1212,4,5,-4,40,"0,-2,-178",-1,0,0,0,0,0,77,79,39,40,80,-28.51,24,-3.0,22.0,-978.0,11:36:30.941624,192.168.0.114
1217,4,5,-3,40,"0,-3,-178",-2,0,0,0,0,0,77,79,40,40,80,-28.47,24,6.0,14.0,-985.0,11:36:31.043201,192.168.0.114
1222,4,5,-3,40,"0,-3,-178",-1,-1,0,0,0,0,77,79,39,40,80,-28.46,24,1.0,13.0,-956.0,11:36:31.146785,192.168.0.114
1227,4,5,-3,40,"0,-3,-178",0,-1,0,0,0,0,77,79,38,40,80,-28.38,24,5.0,-2.0,-1002.0,11:36:31.247522,192.168.0.114
1232,4,2,-3,40,"1,-2,180",0,-1,0,0,0,0,77,79,38,40,80,-28.63,24,-1.0,12.0,-1050.0,11:36:31.349175,192.168.0.114
1237,4,2,-3,40,"1,-2,180",0,-1,0,0,0,0,77,79,38,30,80,-28.5,24,-8.0,-16.0,-988.0,11:36:31.451212,192.168.0.114
1242,4,2,-3,40,"1,-2,180",0,-1,0,0,0,0,77,79,38,30,80,-28.5,24,3.0,5.0,-1007.0,11:36:31.553217,192.168.0.114
1247,4,2,-3,40,"1,-2,180",0,0,0,0,0,0,77,79,38,30,80,-28.48,24,-14.0,-6.0,-998.0,11:36:31.655264,192.168.0.114
1252,4,3,-4,40,"0,-2,179",0,0,0,0,0,0,77,79,38,30,80,-28.39,24,-6.0,13.0,-1019.0,11:36:31.757163,192.168.0.114
1257,4,3,-4,40,"0,-2,179",0,0,0,0,0,0,77,78,38,30,80,-28.36,25,-25.0,2.0,-1011.0,11:36:31.859173,192.168.0.114
1263,4,3,-4,40,"0,-2,179",-1,-1,0,0,0,0,77,78,38,30,80,-28.5,25,4.0,10.0,-1016.0,11:36:31.961293,192.168.0.114
1268,4,3,-4,40,"0,-2,179",-1,0,0,0,0,0,77,78,40,30,80,-28.4,25,-4.0,8.0,-981.0,11:36:32.063221,192.168.0.114
1273,4,3,-4,39,"0,-2,-178",-1,0,0,0,0,0,77,78,40,30,80,-28.45,25,-26.0,35.0,-965.0,11:36:32.165164,192.168.0.114
1278,4,3,-4,39,"0,-2,-178",0,0,1,0,0,0,77,78,39,30,80,-28.52,25,-1.0,4.0,-999.0,11:36:32.267108,192.168.0.114
1283,4,3,-4,39,"0,-2,-178",-1,0,0,0,0,0,77,78,39,30,80,-28.4,25,0.0,15.0,-1035.0,11:36:32.368985,192.168.0.114
1289,4,2,-3,39,"2,-3,-179",0,0,0,0,0,0,77,78,39,30,80,-28.43,25,25.0,4.0,-991.0,11:36:32.471105,192.168.0.114
1293,4,2,-3,39,"2,-3,-179",0,0,0,0,0,0,77,78,39,30,80,-28.41,25,-5.0,17.0,-1021.0,11:36:32.573026,192.168.0.114
1299,4,2,-3,39,"2,-3,-179",0,0,0,0,0,0,77,78,38,30,80,-28.43,25,-3.0,25.0,-1017.0,11:36:32.676064,192.168.0.114
1304,4,2,-3,39,"2,-3,-179",0,0,0,0,0,0,77,78,38,30,80,-28.52,25,-4.0,16.0,-1021.0,11:36:32.778352,192.168.0.114
1309,4,1,-3,39,"0,-3,180",0,0,0,0,0,0,77,79,38,30,80,-28.51,26,-6.0,10.0,-993.0,11:36:32.880724,192.168.0.114
1314,4,1,-3,39,"0,-3,180",0,0,0,0,0,0,77,79,38,30,80,-28.46,26,-9.0,26.0,-1005.0,11:36:32.983020,192.168.0.114
1316,4,1,-3,39,"0,-3,180",0,0,0,0,0,0,77,79,37,30,80,-28.48,26,-7.0,3.0,-1000.0,11:36:33.032166,192.168.0.114
1322,4,1,-3,39,"0,-3,180",0,-1,0,0,0,0,77,79,37,30,80,-28.5,26,-14.0,15.0,-1003.0,11:36:33.133953,192.168.0.114
1329,4,1,-3,38,"0,-2,179",0,0,0,0,0,0,77,79,37,30,80,-28.44,26,-29.0,31.0,-988.0,11:36:33.286882,192.168.0.114
1332,4,1,-3,38,"0,-2,179",0,-1,0,0,0,0,77,79,36,30,80,-28.48,26,-23.0,21.0,-993.0,11:36:33.338207,192.168.0.114
1337,4,1,-3,38,"0,-2,179",0,-1,0,0,0,0,77,79,36,30,80,-28.51,26,-5.0,0.0,-996.0,11:36:33.440143,192.168.0.114
1342,4,2,-4,38,"0,-2,179",0,-1,0,0,0,0,77,79,36,30,80,-28.57,26,-12.0,0.0,-996.0,11:36:33.542744,192.168.0.114
1347,4,2,-4,38,"0,-2,179",0,0,0,0,0,0,77,79,36,30,80,-28.58,26,-28.0,9.0,-1016.0,11:36:33.644038,192.168.0.114
1352,4,2,-4,38,"0,-2,179",0,0,0,0,0,0,77,79,37,30,80,-28.59,26,-35.0,-1.0,-983.0,11:36:33.746091,192.168.0.114
1357,4,2,-4,38,"0,-2,179",-1,0,0,0,0,0,77,79,38,30,80,-28.59,27,-32.0,9.0,-1002.0,11:36:33.848042,192.168.0.114
1362,4,2,-5,38,"0,-2,180",-1,0,0,0,0,0,77,79,38,30,80,-28.48,27,-15.0,3.0,-1034.0,11:36:33.949994,192.168.0.114
1367,4,2,-5,38,"0,-2,180",-1,0,0,0,0,0,77,79,38,30,80,-28.51,27,-30.0,21.0,-1002.0,11:36:34.052009,192.168.0.114
1372,4,2,-5,38,"0,-2,180",-1,0,0,0,0,0,77,79,39,30,80,-28.54,27,-11.0,13.0,-959.0,11:36:34.154214,192.168.0.114
1377,4,2,-5,38,"0,-2,180",-1,0,0,0,0,0,77,79,38,30,80,-28.55,27,-8.0,24.0,-978.0,11:36:34.256030,192.168.0.114
1382,4,2,-4,38,"2,-2,179",-1,0,0,0,0,0,77,79,38,30,80,-28.52,27,-37.0,18.0,-1003.0,11:36:34.358167,192.168.0.114
1387,4,2,-4,38,"2,-2,179",-2,-1,0,0,0,0,77,79,37,30,80,-28.41,27,-23.0,12.0,-1020.0,11:36:34.460075,192.168.0.114
1392,4,2,-4,38,"2,-2,179",-2,-1,0,0,0,0,77,79,37,30,80,-28.48,27,-8.0,8.0,-988.0,11:36:34.562491,192.168.0.114
1397,4,0,-3,38,"2,-3,-179",-1,0,0,0,0,0,77,79,37,30,80,-28.59,27,-27.0,24.0,-1030.0,11:36:34.664112,192.168.0.114
1402,4,0,-3,38,"2,-3,-179",-1,-1,0,0,0,0,77,79,37,30,80,-28.56,27,-12.0,4.0,-1003.0,11:36:34.766052,192.168.0.114
1407,4,0,-3,38,"2,-3,-179",-1,0,0,0,0,0,76,79,37,30,80,-28.61,28,-25.0,18.0,-994.0,11:36:34.867975,192.168.0.114
1412,4,0,-3,38,"2,-3,-179",0,0,0,0,0,0,76,79,37,30,80,-28.45,28,-23.0,17.0,-1027.0,11:36:34.970056,192.168.0.114
1417,4,0,-4,38,"3,-2,-178",0,0,0,0,0,0,76,79,38,30,80,-28.46,28,-28.0,24.0,-990.0,11:36:35.072157,192.168.0.114
1422,4,0,-4,38,"3,-2,-178",0,0,0,0,0,0,76,79,38,30,80,-28.5,28,-4.0,-7.0,-994.0,11:36:35.174172,192.168.0.114
1427,4,0,-4,38,"3,-2,-178",0,0,0,0,0,0,76,79,39,30,80,-28.49,28,-5.0,-2.0,-976.0,11:36:35.276124,192.168.0.114
1433,4,0,-4,38,"3,-2,-178",0,0,0,0,0,0,76,79,39,30,80,-28.6,28,-35.0,17.0,-987.0,11:36:35.378208,192.168.0.114
1438,4,0,-3,38,"1,-2,179",0,0,0,0,0,0,76,79,39,30,80,-28.61,28,-7.0,12.0,-1026.0,11:36:35.480081,192.168.0.114
1443,4,0,-3,38,"1,-2,179",0,0,0,0,0,0,76,79,39,30,80,-28.5,28,-20.0,0.0,-996.0,11:36:35.583322,192.168.0.114
1448,4,0,-3,38,"1,-2,179",0,0,0,0,0,0,76,79,39,30,80,-28.51,28,5.0,2.0,-982.0,11:36:35.683876,192.168.0.114
1453,4,1,-2,39,"0,-2,179",0,0,0,0,0,0,76,79,39,30,80,-28.52,28,-45.0,21.0,-1038.0,11:36:35.788058,192.168.0.114
1458,4,1,-2,39,"0,-2,179",0,0,0,0,0,0,76,78,39,30,80,-28.55,29,-26.0,15.0,-976.0,11:36:35.888090,192.168.0.114
1463,4,1,-2,39,"0,-2,179",-1,0,0,0,0,0,76,78,39,30,80,-28.48,29,-9.0,8.0,-1002.0,11:36:35.992814,192.168.0.114
1468,4,1,-2,39,"0,-2,179",-1,0,0,0,0,0,76,78,38,30,80,-28.46,29,-9.0,4.0,-994.0,11:36:36.092106,192.168.0.114
1473,4,1,-2,39,"0,-3,-179",0,0,0,0,0,0,76,78,38,30,80,-28.52,29,-20.0,6.0,-1024.0,11:36:36.194422,192.168.0.114
1478,4,1,-2,39,"0,-3,-179",0,0,0,0,0,0,76,78,38,30,80,-28.51,29,-4.0,-5.0,-989.0,11:36:36.296346,192.168.0.114
1484,4,1,-2,39,"0,-3,-179",-1,0,0,0,0,0,76,78,38,30,80,-28.52,29,-1.0,-10.0,-967.0,11:36:36.397681,192.168.0.114
1486,4,1,-2,39,"0,-3,-179",-1,-1,0,0,0,0,76,78,39,30,80,-28.58,29,-27.0,2.0,-1007.0,11:36:36.448998,192.168.0.114
1491,4,1,-2,38,"0,-2,-178",-1,0,0,0,0,0,76,78,38,30,80,-28.53,29,5.0,21.0,-997.0,11:36:36.555284,192.168.0.114
1496,4,1,-2,38,"0,-2,-178",-1,0,0,0,0,0,76,78,39,30,80,-28.46,29,-16.0,15.0,-968.0,11:36:36.653083,192.168.0.114
1501,4,1,-2,38,"0,-2,-178",-1,0,0,0,0,0,76,78,39,30,80,-28.5,29,0.0,12.0,-1006.0,11:36:36.755065,192.168.0.114
1506,4,1,-2,39,"2,-2,180",0,-1,0,0,0,0,76,78,38,30,80,-28.51,30,-8.0,-5.0,-986.0,11:36:36.856877,192.168.0.114
1512,4,1,-2,39,"2,-2,180",0,0,0,0,0,0,76,78,38,30,80,-28.59,30,-9.0,13.0,-987.0,11:36:36.959055,192.168.0.114
1517,4,1,-2,39,"2,-2,180",0,0,0,0,0,0,76,78,37,30,80,-28.51,30,23.0,1.0,-1005.0,11:36:37.060846,192.168.0.114
1522,4,1,-2,39,"2,-2,180",0,0,0,0,0,0,76,78,36,30,80,-28.48,30,14.0,-10.0,-1038.0,11:36:37.163075,192.168.0.114
1527,4,1,-2,38,"0,-3,179",0,0,0,0,0,0,76,78,36,30,80,-28.51,30,-14.0,2.0,-1005.0,11:36:37.265118,192.168.0.114
1532,4,1,-2,38,"0,-3,179",0,0,0,0,0,0,76,78,36,30,80,-28.51,30,7.0,0.0,-992.0,11:36:37.367005,192.168.0.114
1537,4,1,-2,38,"0,-3,179",0,0,0,0,0,0,76,78,36,30,80,-28.56,30,10.0,5.0,-1001.0,11:36:37.469068,192.168.0.114
1542,4,1,-2,38,"0,-3,179",0,0,0,0,0,0,76,78,36,30,80,-28.5,30,-12.0,17.0,-987.0,11:36:37.570487,192.168.0.114
1547,4,2,-2,37,"0,-2,180",0,0,0,0,0,0,76,78,36,30,80,-28.5,30,-27.0,2.0,-998.0,11:36:37.672977,192.168.0.114
1552,4,2,-2,37,"0,-2,180",0,0,0,0,0,0,76,78,36,30,80,-28.52,30,-15.0,26.0,-1019.0,11:36:37.774943,192.168.0.114
1557,4,2,-2,37,"0,-2,180",-1,0,0,0,0,0,76,78,36,30,80,-28.43,31,-16.0,6.0,-961.0,11:36:37.876983,192.168.0.114
1562,4,2,-2,37,"0,-2,180",0,-1,0,0,0,0,76,78,36,30,80,-28.33,31,-6.0,7.0,-1033.0,11:36:37.978947,192.168.0.114
1567,4,3,-3,37,"0,-2,180",0,0,0,0,0,0,76,78,36,30,80,-28.59,31,-38.0,22.0,-1028.0,11:36:38.080932,192.168.0.114
1572,4,3,-3,37,"0,-2,180",-1,0,0,0,0,0,76,78,37,30,80,-28.5,31,-22.0,12.0,-994.0,11:36:38.183000,192.168.0.114
1577,4,3,-3,37,"0,-2,180",-1,-1,0,0,0,0,76,78,37,30,80,-28.33,31,-25.0,20.0,-997.0,11:36:38.285108,192.168.0.114
1582,4,3,-3,37,"1,-2,180",-1,-1,0,0,0,0,76,78,37,30,80,-28.52,31,-19.0,15.0,-996.0,11:36:38.386930,192.168.0.114
1587,4,3,-3,37,"1,-2,180",-1,0,0,0,0,0,76,78,37,30,80,-28.67,31,9.0,24.0,-1033.0,11:36:38.488988,192.168.0.114
1592,4,3,-3,37,"1,-2,180",-1,-1,0,0,0,0,76,78,37,30,80,-28.44,31,-11.0,6.0,-1006.0,11:36:38.590821,192.168.0.114
1597,4,3,-3,37,"1,-2,180",0,-1,0,0,0,0,76,78,38,30,80,-28.48,31,-11.0,13.0,-957.0,11:36:38.693041,192.168.0.114
1603,4,2,-4,38,"1,-3,179",-1,0,0,0,0,0,76,78,37,30,80,-28.41,31,-34.0,15.0,-967.0,11:36:38.795031,192.168.0.114
1608,4,2,-4,38,"1,-3,179",0,-1,0,0,0,0,76,78,37,30,80,-28.56,32,-5.0,-4.0,-956.0,11:36:38.897418,192.168.0.114
1613,4,2,-4,38,"1,-3,179",0,-1,0,0,0,0,76,78,38,30,80,-28.54,32,-12.0,17.0,-963.0,11:36:38.998877,192.168.0.114
1618,4,2,-4,38,"1,-3,179",0,0,0,0,0,0,76,78,39,30,80,-28.39,32,23.0,-15.0,-986.0,11:36:39.103306,192.168.0.114
1623,4,3,-4,39,"1,-2,179",0,0,0,0,0,0,76,78,38,30,80,-28.6,32,-24.0,-4.0,-1011.0,11:36:39.202939,192.168.0.114
1628,4,3,-4,39,"1,-2,179",0,2,0,0,0,0,76,78,38,30,80,-28.49,32,-26.0,2.0,-976.0,11:36:39.304965,192.168.0.114
1633,4,3,-4,39,"1,-2,179",0,0,0,0,0,0,76,78,38,30,80,-28.48,32,-11.0,25.0,-1003.0,11:36:39.406920,192.168.0.114
1638,4,4,-4,39,"0,-3,-176",1,0,0,0,0,0,76,78,37,30,80,-28.5,32,2.0,-7.0,-1022.0,11:36:39.508874,192.168.0.114
1644,4,4,-4,39,"0,-3,-176",2,0,0,0,0,0,76,78,37,30,80,-28.56,32,-10.0,19.0,-1013.0,11:36:39.610700,192.168.0.114
1649,4,4,-4,39,"0,-3,-176",0,0,0,0,0,0,76,78,37,30,80,-28.39,32,-60.0,33.0,-977.0,11:36:39.713208,192.168.0.114
1651,4,4,-4,39,"0,-3,-176",-2,-1,0,0,0,0,76,78,38,30,80,-28.46,32,1.0,13.0,-969.0,11:36:39.763858,192.168.0.114
1656,4,5,-2,38,"-1,-3,-178",-2,0,0,0,0,0,76,77,37,30,80,-28.45,33,6.0,4.0,-1018.0,11:36:39.867044,192.168.0.114
1661,4,5,-2,38,"-1,-3,-178",-1,0,0,0,0,0,76,77,37,30,80,-28.48,33,-25.0,9.0,-996.0,11:36:39.967924,192.168.0.114
1666,4,5,-2,38,"-1,-3,-178",-1,-1,0,0,0,0,76,77,36,30,80,-28.49,33,-14.0,24.0,-1028.0,11:36:40.070000,192.168.0.114
1671,4,5,-2,38,"-1,-3,-178",0,-1,0,0,0,0,76,77,36,30,80,-28.47,33,19.0,-2.0,-1010.0,11:36:40.171681,192.168.0.114
1677,4,2,-2,38,"2,-2,180",0,0,0,0,0,0,76,77,37,30,80,-28.42,33,4.0,2.0,-1023.0,11:36:40.273871,192.168.0.114
1682,4,2,-2,38,"2,-2,180",0,0,0,0,0,0,76,77,38,30,80,-28.47,33,5.0,2.0,-958.0,11:36:40.375866,192.168.0.114
1687,4,2,-2,38,"2,-2,180",0,0,0,0,0,0,76,77,39,30,80,-28.4,33,-6.0,3.0,-1023.0,11:36:40.477861,192.168.0.114
1692,4,3,-4,38,"0,-2,180",0,0,0,0,0,0,76,77,39,30,80,-28.53,33,-26.0,8.0,-976.0,11:36:40.579954,192.168.0.114
1697,4,3,-4,38,"0,-2,180",0,0,0,0,0,0,76,77,39,30,80,-28.51,33,-1.0,7.0,-974.0,11:36:40.681840,192.168.0.114
1702,4,3,-4,38,"0,-2,180",0,0,0,0,0,0,76,77,39,30,80,-28.48,33,-3.0,12.0,-994.0,11:36:40.783794,192.168.0.114
1707,4,3,-4,38,"0,-2,180",0,-1,0,0,0,0,76,78,39,30,80,-28.44,34,-30.0,14.0,-994.0,11:36:40.885865,192.168.0.114
1712,4,4,-4,39,"0,-2,-178",0,0,0,0,0,0,76,78,39,30,80,-28.52,34,-33.0,-15.0,-984.0,11:36:40.987837,192.168.0.114
1717,4,4,-4,39,"0,-2,-178",0,0,0,0,0,0,76,78,38,30,80,-28.51,34,-5.0,1.0,-961.0,11:36:41.089872,192.168.0.114
1722,4,4,-4,39,"0,-2,-178",-1,0,0,0,0,0,76,78,38,30,80,-28.44,34,-6.0,17.0,-989.0,11:36:41.191912,192.168.0.114
1727,4,4,-4,39,"0,-2,-178",-1,0,0,0,0,0,76,78,38,30,80,-28.59,34,-15.0,6.0,-1003.0,11:36:41.293947,192.168.0.114
1732,4,5,-4,39,"0,-2,-178",-1,0,0,0,0,0,76,78,37,30,80,-28.41,34,-36.0,9.0,-998.0,11:36:41.395805,192.168.0.114
1737,4,5,-4,39,"0,-2,-178",-1,0,0,0,0,0,76,78,37,30,80,-28.48,34,-37.0,6.0,-986.0,11:36:41.497721,192.168.0.114
1742,4,5,-4,39,"0,-2,-178",-1,0,0,0,0,0,76,78,38,30,80,-28.57,34,-56.0,2.0,-1003.0,11:36:41.599977,192.168.0.114
1747,4,5,-4,39,"0,-2,-178",-2,-1,0,0,0,0,76,78,39,30,80,-28.56,34,-22.0,5.0,-1023.0,11:36:41.702040,192.168.0.114
1752,4,4,-3,39,"1,-2,-179",-2,0,0,0,0,0,76,78,38,30,80,-28.35,34,-8.0,17.0,-1001.0,11:36:41.803773,192.168.0.114
1757,4,4,-3,39,"1,-2,-179",-1,0,0,0,0,0,76,78,39,30,80,-28.41,35,-42.0,20.0,-991.0,11:36:41.905867,192.168.0.114
1762,4,4,-3,39,"1,-2,-179",-1,-1,0,0,0,0,76,78,39,30,80,-28.53,35,-31.0,3.0,-994.0,11:36:42.007689,192.168.0.114
1767,4,2,-2,39,"2,-2,179",-1,0,0,0,0,0,76,78,38,30,80,-28.8,35,-37.0,17.0,-1022.0,11:36:42.110338,192.168.0.114
1772,4,2,-2,39,"2,-2,179",-1,-1,0,0,0,0,76,78,39,30,80,-28.66,35,-41.0,0.0,-1019.0,11:36:42.212015,192.168.0.114
1777,4,2,-2,39,"2,-2,179",-1,0,0,0,0,0,76,78,38,30,80,-28.66,35,-1.0,21.0,-992.0,11:36:42.313883,192.168.0.114
1782,4,2,-2,39,"2,-2,179",0,0,0,0,0,0,76,78,39,30,80,-28.62,35,-23.0,19.0,-985.0,11:36:42.415832,192.168.0.114
1787,4,1,-3,38,"1,-2,179",0,0,0,0,0,0,76,78,39,30,80,-28.5,35,-30.0,15.0,-995.0,11:36:42.517763,192.168.0.114
1793,4,1,-3,38,"1,-2,179",-1,-1,0,0,0,0,76,78,39,30,80,-28.49,35,-18.0,7.0,-962.0,11:36:42.619841,192.168.0.114
1798,4,1,-3,38,"1,-2,179",-1,-1,0,0,0,0,76,78,38,30,80,-28.38,35,-24.0,15.0,-1004.0,11:36:42.722848,192.168.0.114
1803,4,1,-3,38,"1,-2,179",-2,-1,0,0,0,0,76,78,39,30,80,-28.5,36,-43.0,29.0,-996.0,11:36:42.824878,192.168.0.114
1808,4,1,-4,39,"0,-2,-178",-1,0,0,0,0,0,76,78,40,30,80,-28.47,36,-41.0,22.0,-1008.0,11:36:42.926866,192.168.0.114
1813,4,1,-4,39,"0,-2,-178",-1,-1,0,0,0,0,76,78,40,30,80,-28.4,36,-18.0,1.0,-1002.0,11:36:43.028857,192.168.0.114
1818,4,1,-4,39,"0,-2,-178",-1,0,0,0,0,0,76,78,40,40,80,-28.52,36,-14.0,8.0,-986.0,11:36:43.130835,192.168.0.114
1821,4,1,-4,40,"3,-2,179",-1,0,0,0,0,0,76,78,40,40,80,-28.51,36,-32.0,0.0,-1004.0,11:36:43.182072,192.168.0.114
1826,4,1,-4,40,"3,-2,179",-1,0,0,0,0,0,76,78,40,40,80,-28.46,36,-5.0,-3.0,-982.0,11:36:43.283783,192.168.0.114
1831,4,1,-4,40,"3,-2,179",-1,0,0,0,0,0,76,78,40,40,80,-28.42,36,-24.0,3.0,-1002.0,11:36:43.385834,192.168.0.114
1836,4,1,-4,40,"3,-2,179",0,0,0,0,0,0,76,78,40,40,80,-28.45,36,-22.0,3.0,-1003.0,11:36:43.487877,192.168.0.114
1841,4,2,-4,40,"2,-2,179",0,0,0,0,0,0,76,78,40,40,80,-28.5,36,-34.0,16.0,-996.0,11:36:43.590268,192.168.0.114
1846,4,2,-4,40,"2,-2,179",-1,0,0,0,0,0,76,78,40,40,80,-28.48,36,-8.0,0.0,-1012.0,11:36:43.691634,192.168.0.114
1852,4,2,-4,40,"2,-2,179",-1,0,0,0,0,0,76,78,40,40,80,-28.42,37,-9.0,-2.0,-1000.0,11:36:43.793933,192.168.0.114
1857,4,2,-4,40,"2,-2,179",-1,0,0,0,0,0,75,77,40,40,80,-28.35,37,-2.0,-3.0,-985.0,11:36:43.895785,192.168.0.114
1862,4,2,-3,40,"0,-2,-178",-1,0,0,0,0,0,75,77,40,40,80,-28.54,37,-7.0,15.0,-989.0,11:36:43.997612,192.168.0.114
1867,4,2,-3,40,"0,-2,-178",-1,0,0,0,0,0,75,77,40,40,80,-28.5,37,-7.0,31.0,-1023.0,11:36:44.099712,192.168.0.114
1872,4,2,-3,40,"0,-2,-178",0,0,0,0,0,0,75,77,39,40,80,-28.5,37,-20.0,7.0,-1024.0,11:36:44.201592,192.168.0.114
1877,4,2,-3,40,"1,-2,-179",0,0,0,0,0,0,75,77,40,40,80,-28.45,37,-45.0,12.0,-990.0,11:36:44.305879,192.168.0.114
1882,4,2,-3,40,"1,-2,-179",-1,-1,0,0,0,0,75,77,39,40,80,-28.38,37,-61.0,1.0,-1002.0,11:36:44.405781,192.168.0.114
1887,4,2,-3,40,"1,-2,-179",-1,-1,0,0,0,0,75,77,39,40,80,-28.49,37,-42.0,8.0,-991.0,11:36:44.507803,192.168.0.114
1892,4,2,-3,40,"1,-2,-179",-2,0,0,0,0,0,75,77,40,40,80,-28.42,37,-43.0,-11.0,-975.0,11:36:44.609739,192.168.0.114
1897,4,3,-3,40,"0,-2,-179",-2,0,0,0,0,0,75,77,40,40,80,-28.53,37,-22.0,-10.0,-1007.0,11:36:44.713998,192.168.0.114
1902,4,3,-3,40,"0,-2,-179",-2,0,0,0,0,0,75,77,40,40,80,-28.48,38,-51.0,-6.0,-1031.0,11:36:44.813867,192.168.0.114
1907,4,3,-3,40,"0,-2,-179",-2,0,0,0,0,0,76,78,39,30,80,-28.34,38,-8.0,-29.0,-999.0,11:36:44.915723,192.168.0.114
1912,4,3,-3,40,"0,-2,-179",-2,0,0,0,0,0,76,78,39,30,80,-28.46,38,-26.0,24.0,-1018.0,11:36:45.017586,192.168.0.114
1917,4,2,-3,40,"2,-2,179",-1,0,0,0,0,0,76,78,39,30,80,-28.5,38,-19.0,0.0,-1024.0,11:36:45.120069,192.168.0.114
1922,4,2,-3,40,"2,-2,179",-1,0,0,0,0,0,76,78,39,30,80,-28.42,38,-38.0,26.0,-990.0,11:36:45.221797,192.168.0.114
1927,4,2,-3,40,"2,-2,179",-1,0,0,0,0,0,76,78,39,30,80,-28.42,38,-1.0,-15.0,-1004.0,11:36:45.325236,192.168.0.114
1932,4,2,-2,39,"2,-2,-178",-1,0,0,0,0,0,76,78,39,30,80,-28.42,38,-13.0,1.0,-1012.0,11:36:45.425517,192.168.0.114
1937,4,2,-2,39,"2,-2,-178",-1,0,0,0,0,0,76,78,39,30,80,-28.46,38,-32.0,0.0,-998.0,11:36:45.527604,192.168.0.114
1942,4,2,-2,39,"2,-2,-178",-1,0,0,0,0,0,76,78,39,40,80,-28.46,38,-31.0,13.0,-1006.0,11:36:45.629742,192.168.0.114
1947,4,2,-2,39,"2,-2,-178",0,0,0,0,0,0,76,78,39,40,80,-28.53,38,-59.0,17.0,-998.0,11:36:45.731672,192.168.0.114
1952,4,1,-2,39,"1,-2,-179",-1,0,0,0,0,0,76,78,39,40,80,-28.41,39,-20.0,5.0,-971.0,11:36:45.833802,192.168.0.114
1957,4,1,-2,39,"1,-2,-179",-1,0,0,0,0,0,76,77,39,40,80,-28.48,39,-34.0,0.0,-975.0,11:36:45.935749,192.168.0.114
1962,4,1,-2,39,"1,-2,-179",-1,0,0,0,0,0,76,77,39,40,80,-28.59,39,-26.0,-6.0,-972.0,11:36:46.037527,192.168.0.114
1968,4,1,-2,39,"1,-2,-179",-1,0,0,0,0,0,76,77,39,40,80,-28.49,39,-44.0,11.0,-1001.0,11:36:46.139669,192.168.0.114
1973,4,3,-3,40,"1,-2,-179",-1,0,0,0,0,0,76,77,39,30,80,-28.52,39,-30.0,9.0,-1030.0,11:36:46.242814,192.168.0.114
1978,4,3,-3,40,"1,-2,-179",-1,0,0,0,0,0,76,77,39,30,80,-28.43,39,-29.0,9.0,-995.0,11:36:46.343726,192.168.0.114
1983,4,3,-3,40,"1,-2,-179",-1,0,0,0,0,0,76,77,38,30,80,-28.46,39,-20.0,4.0,-1035.0,11:36:46.445704,192.168.0.114
1989,4,3,-3,39,"1,-2,-179",-1,0,0,0,0,0,76,77,39,30,80,-28.52,39,-11.0,-8.0,-1014.0,11:36:46.547605,192.168.0.114
1991,4,3,-3,39,"1,-2,-179",-1,0,0,0,0,0,76,77,39,30,80,-28.4,39,-39.0,-12.0,-989.0,11:36:46.602097,192.168.0.114
1996,4,3,-3,39,"1,-2,-179",-1,0,0,0,0,0,76,77,39,30,80,-28.51,39,-24.0,0.0,-997.0,11:36:46.701016,192.168.0.114
2001,4,3,-3,39,"1,-2,-179",-1,0,0,0,0,0,76,77,40,40,80,-28.51,40,-13.0,-6.0,-1009.0,11:36:46.803284,192.168.0.114
2006,4,2,-2,39,"2,-2,-179",-1,0,0,0,0,0,76,78,40,40,80,-28.51,40,0.0,1.0,-1003.0,11:36:46.905805,192.168.0.114
2011,4,2,-2,39,"2,-2,-179",0,0,0,0,0,0,76,78,40,40,80,-28.5,40,1.0,5.0,-999.0,11:36:47.006661,192.168.0.114
2016,4,2,-2,39,"2,-2,-179",0,0,0,0,0,0,76,78,40,40,80,-28.56,40,-13.0,5.0,-996.0,11:36:47.109204,192.168.0.114
2021,4,2,-2,39,"2,-2,-179",0,0,0,0,0,0,76,78,41,40,80,-28.4,40,-8.0,22.0,-979.0,11:36:47.210832,192.168.0.114
2026,4,3,-3,40,"1,-3,-179",0,0,0,0,0,0,76,78,40,40,80,-28.43,40,-31.0,13.0,-976.0,11:36:47.312661,192.168.0.114
2032,4,3,-3,40,"1,-3,-179",0,0,0,0,0,0,76,78,40,40,80,-28.44,40,-2.0,0.0,-985.0,11:36:47.415839,192.168.0.114
2036,4,3,-3,40,"1,-3,-179",0,0,0,0,0,0,76,78,40,40,80,-28.45,40,-11.0,21.0,-978.0,11:36:47.516645,192.168.0.114
2042,4,4,-4,41,"0,-3,-179",0,-1,0,0,0,0,76,78,39,40,80,-28.39,40,-2.0,-1.0,-982.0,11:36:47.618427,192.168.0.114
2047,4,4,-4,41,"0,-3,-179",-1,-1,0,0,0,0,76,78,38,40,80,-28.47,40,-3.0,5.0,-991.0,11:36:47.720677,192.168.0.114
2052,4,4,-4,41,"0,-3,-179",-1,0,0,0,0,0,76,78,38,40,80,-28.45,41,-28.0,2.0,-988.0,11:36:47.822775,192.168.0.114
2057,4,4,-4,41,"0,-3,-179",0,0,0,0,0,0,76,77,38,40,80,-28.48,41,-28.0,17.0,-1008.0,11:36:47.924676,192.168.0.114
2062,4,4,-5,41,"1,-2,179",-1,0,0,0,0,0,76,77,37,40,80,-28.48,41,-8.0,15.0,-984.0,11:36:48.026746,192.168.0.114
2067,4,4,-5,41,"1,-2,179",-1,-1,0,0,0,0,76,77,37,30,80,-28.55,41,-21.0,16.0,-1017.0,11:36:48.129071,192.168.0.114
2072,4,4,-5,41,"1,-2,179",-1,0,0,0,0,0,76,77,37,30,80,-28.5,41,-10.0,2.0,-994.0,11:36:48.230771,192.168.0.114
2077,4,4,-5,41,"1,-2,179",-1,0,0,0,0,0,76,77,36,30,80,-28.39,41,-17.0,17.0,-995.0,11:36:48.332589,192.168.0.114
2082,4,3,-6,40,"1,-3,180",-1,0,0,0,0,0,76,77,36,30,80,-28.27,41,10.0,9.0,-1020.0,11:36:48.434791,192.168.0.114
2087,4,3,-6,40,"1,-3,180",0,0,0,0,0,0,76,77,36,30,80,-28.45,41,-21.0,16.0,-1053.0,11:36:48.537219,192.168.0.114
2092,4,3,-6,40,"1,-3,180",-1,0,0,0,0,0,76,77,36,30,80,-28.54,41,-32.0,9.0,-1006.0,11:36:48.638652,192.168.0.114
2097,4,2,-5,39,"1,-3,180",-2,0,0,0,0,0,76,77,37,30,80,-28.6,41,-20.0,6.0,-999.0,11:36:48.740964,192.168.0.114
2102,4,2,-5,39,"1,-3,180",-1,-1,0,0,0,0,76,77,37,30,80,-28.5,42,-15.0,12.0,-984.0,11:36:48.842751,192.168.0.114
2107,4,2,-5,39,"1,-3,180",-1,-2,0,0,0,0,76,77,38,30,80,-28.44,42,-37.0,15.0,-973.0,11:36:48.944637,192.168.0.114
2112,4,2,-5,39,"1,-3,180",-1,-1,0,0,0,0,76,77,38,30,80,-28.44,42,3.0,11.0,-1008.0,11:36:49.046630,192.168.0.114
2117,4,3,-7,39,"3,-2,-178",-1,-2,0,0,0,0,76,77,38,30,80,-28.39,42,-24.0,12.0,-963.0,11:36:49.148632,192.168.0.114
2122,4,3,-7,39,"3,-2,-178",-1,-1,0,0,0,0,76,77,38,30,80,-28.41,42,-32.0,24.0,-1003.0,11:36:49.250599,192.168.0.114
2127,4,3,-7,39,"3,-2,-178",-1,0,0,0,0,0,76,77,38,30,80,-28.33,42,-19.0,37.0,-1037.0,11:36:49.352997,192.168.0.114
2132,4,3,-7,39,"3,-2,-178",0,0,0,0,0,0,76,77,38,30,80,-28.33,42,-54.0,-5.0,-984.0,11:36:49.455718,192.168.0.114
2138,4,2,-6,39,"3,-2,180",-1,0,0,0,0,0,76,77,38,30,80,-28.48,42,-19.0,3.0,-1027.0,11:36:49.556556,192.168.0.114
2143,4,2,-6,39,"3,-2,180",-1,0,0,0,0,0,76,77,38,30,80,-28.37,42,-19.0,-17.0,-982.0,11:36:49.658624,192.168.0.114
2146,4,2,-6,39,"3,-2,180",-1,0,0,0,0,0,76,77,37,30,80,-28.46,42,-11.0,14.0,-991.0,11:36:49.709327,192.168.0.114
2151,4,2,-6,39,"3,-2,180",0,0,0,0,0,0,76,77,37,30,80,-28.38,43,-19.0,35.0,-1049.0,11:36:49.812159,192.168.0.114
2158,4,2,-3,39,"1,-2,-178",0,0,0,0,0,0,75,78,37,30,80,-28.43,43,-15.0,10.0,-1016.0,11:36:49.964471,192.168.0.114
2163,4,2,-3,39,"1,-2,-178",-1,0,0,0,0,0,75,78,36,30,80,-28.34,43,-3.0,15.0,-999.0,11:36:50.066690,192.168.0.114
2169,4,2,-3,39,"1,-2,-178",0,0,0,0,0,0,75,78,36,30,80,-28.5,43,-11.0,13.0,-981.0,11:36:50.168348,192.168.0.114
2171,4,2,-2,38,"0,-3,-178",0,0,0,0,0,0,75,78,36,30,80,-28.54,43,-26.0,17.0,-1044.0,11:36:50.219524,192.168.0.114
2175,4,2,-2,38,"0,-3,-178",0,0,0,0,0,0,75,78,36,30,80,-28.45,43,-31.0,4.0,-1012.0,11:36:50.321691,192.168.0.114
2181,4,2,-2,38,"0,-3,-178",-1,-1,0,0,0,0,75,78,36,30,80,-28.47,43,17.0,-3.0,-1030.0,11:36:50.423557,192.168.0.114
2186,4,2,-2,38,"0,-3,-178",-1,-1,0,0,0,0,75,78,36,30,80,-28.4,43,-12.0,16.0,-1008.0,11:36:50.525469,192.168.0.114
2191,4,3,-2,37,"0,-3,-178",-1,-1,0,0,0,0,75,78,37,30,80,-28.32,43,0.0,-2.0,-1004.0,11:36:50.627348,192.168.0.114
2196,4,3,-2,37,"0,-3,-178",0,0,0,0,0,0,75,78,37,30,80,-28.47,43,15.0,5.0,-980.0,11:36:50.729505,192.168.0.114
2201,4,3,-2,37,"0,-3,-178",0,0,0,0,0,0,75,78,37,30,80,-28.48,44,-20.0,19.0,-1028.0,11:36:50.831522,192.168.0.114
2206,4,3,-2,37,"0,-3,-178",0,0,0,0,0,0,75,78,37,30,80,-28.49,44,-31.0,6.0,-1004.0,11:36:50.939268,192.168.0.114
2212,4,4,-2,38,"1,-3,180",-1,0,0,0,0,0,75,78,36,30,80,-28.48,44,-12.0,18.0,-1001.0,11:36:51.035489,192.168.0.114
2217,4,4,-2,38,"1,-3,180",-1,-2,0,0,0,0,75,78,36,30,80,-28.35,44,-33.0,10.0,-958.0,11:36:51.137506,192.168.0.114
2222,4,4,-2,38,"1,-3,180",-1,-1,0,0,0,0,75,78,37,30,80,-28.44,44,12.0,28.0,-1013.0,11:36:51.239527,192.168.0.114
2227,4,4,-4,38,"1,-2,-178",-1,-1,0,0,0,0,75,78,37,30,80,-28.45,44,-30.0,18.0,-997.0,11:36:51.341599,192.168.0.114
2232,4,4,-4,38,"1,-2,-178",-1,0,0,0,0,0,75,78,37,30,80,-28.44,44,-13.0,6.0,-991.0,11:36:51.444182,192.168.0.114
2237,4,4,-4,38,"1,-2,-178",0,0,0,0,0,0,75,78,38,30,80,-28.37,44,3.0,0.0,-996.0,11:36:51.545510,192.168.0.114
2242,4,4,-4,38,"1,-2,-178",0,0,0,0,0,0,75,78,37,30,80,-28.49,44,-23.0,21.0,-1007.0,11:36:51.647537,192.168.0.114
2247,4,3,-4,39,"1,-2,179",0,0,0,0,0,0,75,78,38,30,80,-28.5,44,-17.0,16.0,-1022.0,11:36:51.749481,192.168.0.114
2252,4,3,-4,39,"1,-2,179",0,-1,0,0,0,0,75,78,37,30,80,-28.44,45,-17.0,26.0,-999.0,11:36:51.851381,192.168.0.114
2257,4,3,-4,39,"1,-2,179",-1,-1,0,0,0,0,75,78,37,30,80,-28.35,45,-17.0,15.0,-991.0,11:36:51.953780,192.168.0.114
2262,4,3,-4,39,"1,-2,179",-1,-1,0,0,0,0,75,78,37,30,80,-28.46,45,-35.0,14.0,-1022.0,11:36:52.055355,192.168.0.114
2267,4,3,-4,39,"0,-3,-179",-1,-1,0,0,0,0,75,78,37,30,80,-28.45,45,-16.0,23.0,-1022.0,11:36:52.157511,192.168.0.114
2272,4,3,-4,39,"0,-3,-179",-1,-1,0,0,0,0,75,78,37,30,80,-28.51,45,-32.0,3.0,-1012.0,11:36:52.259570,192.168.0.114
2277,4,3,-4,39,"0,-3,-179",0,0,0,0,0,0,75,78,37,30,80,-28.42,45,-37.0,38.0,-1028.0,11:36:52.361444,192.168.0.114
2282,4,2,-4,39,"1,-3,179",-1,0,0,0,0,0,75,78,37,30,80,-28.48,45,-9.0,9.0,-990.0,11:36:52.463320,192.168.0.114
2287,4,2,-4,39,"1,-3,179",-1,-1,0,0,0,0,75,78,37,30,80,-28.46,45,-6.0,-10.0,-999.0,11:36:52.565021,192.168.0.114
2292,4,2,-4,39,"1,-3,179",-1,-1,0,0,0,0,75,78,37,30,80,-28.4,45,-22.0,-7.0,-1024.0,11:36:52.667315,192.168.0.114
2297,4,2,-4,39,"1,-3,179",0,0,0,0,0,0,75,78,37,30,80,-28.43,45,-29.0,15.0,-1009.0,11:36:52.769317,192.168.0.114
2302,4,2,-4,39,"1,-2,180",-1,0,0,0,0,0,75,78,38,30,80,-28.45,46,-48.0,9.0,-992.0,11:36:52.871297,192.168.0.114
2307,4,2,-4,39,"1,-2,180",-1,0,0,0,0,0,75,77,39,30,80,-28.4,46,-30.0,7.0,-993.0,11:36:52.973486,192.168.0.114
2312,4,2,-4,39,"1,-2,180",0,0,0,0,0,0,75,77,39,30,80,-28.4,46,-23.0,9.0,-994.0,11:36:53.075480,192.168.0.114
2318,4,2,-4,39,"1,-2,180",-1,0,0,0,0,0,75,77,39,30,80,-28.38,46,15.0,6.0,-995.0,11:36:53.182057,192.168.0.114
2322,4,2,-4,39,"1,-2,180",-1,-1,0,0,0,0,75,77,39,30,80,-28.61,46,-48.0,19.0,-1004.0,11:36:53.279402,192.168.0.114
2328,4,2,-4,39,"1,-2,180",0,0,0,0,0,0,75,77,38,30,80,-28.42,46,-39.0,21.0,-1028.0,11:36:53.381100,192.168.0.114
2334,4,2,-4,39,"1,-2,180",-1,0,0,0,0,0,75,77,39,30,80,-28.43,46,-59.0,23.0,-989.0,11:36:53.482937,192.168.0.114
2339,4,2,-3,39,"2,-2,178",-2,0,0,0,0,0,75,77,39,30,80,-28.31,46,-14.0,6.0,-961.0,11:36:53.585082,192.168.0.114
2344,4,2,-3,39,"2,-2,178",-2,0,0,0,0,0,75,77,39,30,80,-28.33,46,-39.0,20.0,-1007.0,11:36:53.687240,192.168.0.114
2346,4,2,-3,39,"2,-2,178",-1,0,0,0,0,0,75,77,40,30,80,-28.48,46,-24.0,12.0,-1028.0,11:36:53.738488,192.168.0.114
2351,4,2,-3,39,"2,-2,178",-1,-1,0,0,0,0,75,77,39,30,80,-28.46,47,-28.0,11.0,-1010.0,11:36:53.840571,192.168.0.114
2356,4,2,-2,39,"3,-2,179",-1,-1,0,0,0,0,75,77,39,30,80,-28.43,47,2.0,8.0,-1010.0,11:36:53.942279,192.168.0.114
2361,4,2,-2,39,"3,-2,179",-1,0,0,0,0,0,75,77,40,30,80,-28.47,47,-11.0,0.0,-987.0,11:36:54.044406,192.168.0.114
2366,4,2,-2,39,"3,-2,179",-1,-1,0,0,0,0,75,77,40,30,80,-28.38,47,-8.0,0.0,-975.0,11:36:54.146350,192.168.0.114
2371,4,2,-2,39,"3,-2,179",-1,-1,0,0,0,0,75,77,40,30,80,-28.53,47,-49.0,33.0,-987.0,11:36:54.248480,192.168.0.114
2376,4,1,-2,40,"3,-2,179",-1,0,0,0,0,0,75,77,40,30,80,-28.51,47,-30.0,17.0,-978.0,11:36:54.350423,192.168.0.114
2382,4,1,-2,40,"3,-2,179",-1,0,0,0,0,0,75,77,40,30,80,-28.39,47,-7.0,3.0,-981.0,11:36:54.452558,192.168.0.114
2386,4,1,-2,40,"3,-2,179",-1,0,0,0,0,0,75,77,40,30,80,-28.49,47,-19.0,24.0,-974.0,11:36:54.554413,192.168.0.114
2391,4,1,-2,40,"3,-2,179",-1,0,0,0,0,0,75,77,39,30,80,-28.47,47,-34.0,23.0,-986.0,11:36:54.656373,192.168.0.114
2397,4,1,-2,40,"1,-3,179",0,0,0,0,0,0,75,77,39,30,80,-28.44,47,1.0,1.0,-1045.0,11:36:54.758452,192.168.0.114
2402,4,1,-2,40,"1,-3,179",-1,-1,0,0,0,0,75,77,39,30,80,-28.37,48,-42.0,14.0,-1030.0,11:36:54.860568,192.168.0.114
2407,4,1,-2,40,"1,-3,179",-1,-1,0,0,0,0,75,77,39,30,80,-28.42,48,-11.0,15.0,-1010.0,11:36:54.962370,192.168.0.114
2412,4,1,-3,39,"1,-2,-178",-1,-1,0,0,0,0,75,77,39,30,80,-28.42,48,-20.0,7.0,-1027.0,11:36:55.064426,192.168.0.114
2417,4,1,-3,39,"1,-2,-178",-1,-1,0,0,0,0,75,77,39,40,80,-28.37,48,-18.0,2.0,-996.0,11:36:55.166647,192.168.0.114
2422,4,1,-3,39,"1,-2,-178",-1,-1,0,0,0,0,75,77,39,40,80,-28.43,48,-12.0,17.0,-987.0,11:36:55.268385,192.168.0.114
2427,4,1,-3,39,"1,-2,-178",-1,-1,0,0,0,0,75,77,39,40,80,-28.36,48,-16.0,-4.0,-996.0,11:36:55.370283,192.168.0.114
2432,4,1,-3,40,"1,-2,179",-1,-1,0,0,0,0,75,77,40,40,80,-28.39,48,-13.0,0.0,-996.0,11:36:55.472236,192.168.0.114
2437,4,1,-3,40,"1,-2,179",0,0,0,0,0,0,75,77,39,40,80,-28.44,48,-7.0,-6.0,-995.0,11:36:55.574307,192.168.0.114
2442,4,1,-3,40,"1,-2,179",0,0,0,0,0,0,75,77,40,40,80,-28.49,48,-3.0,-16.0,-992.0,11:36:55.676305,192.168.0.114
2447,4,1,-3,40,"1,-2,179",0,0,0,0,0,0,75,77,40,40,80,-28.39,48,-11.0,-7.0,-982.0,11:36:55.778701,192.168.0.114
2452,4,2,-4,41,"1,-2,179",-1,0,0,0,0,0,75,77,40,40,80,-28.43,49,-23.0,-6.0,-993.0,11:36:55.880386,192.168.0.114
2457,4,2,-4,41,"1,-2,179",0,0,0,0,0,0,75,76,40,40,80,-28.46,49,-32.0,8.0,-995.0,11:36:55.982343,192.168.0.114
2462,4,2,-4,41,"1,-2,179",-1,0,0,0,0,0,75,76,40,40,80,-28.4,49,-31.0,-11.0,-978.0,11:36:56.084232,192.168.0.114
2467,4,3,-3,41,"1,-2,-178",0,0,0,0,0,0,75,76,40,40,80,-28.45,49,-14.0,15.0,-995.0,11:36:56.186391,192.168.0.114
2472,4,3,-3,41,"1,-2,-178",0,0,0,0,0,0,75,76,40,40,80,-28.27,49,-12.0,-10.0,-1016.0,11:36:56.288375,192.168.0.114
2477,4,3,-3,41,"1,-2,-178",-1,0,0,0,0,0,75,76,40,40,80,-28.41,49,-35.0,23.0,-999.0,11:36:56.390188,192.168.0.114
2482,4,3,-3,41,"1,-2,-178",-1,-1,0,0,0,0,75,76,40,40,80,-28.29,49,-28.0,9.0,-972.0,11:36:56.495278,192.168.0.114
2487,4,3,-2,40,"0,-2,-178",-1,0,0,0,0,0,75,76,40,40,80,-28.29,49,-31.0,17.0,-945.0,11:36:56.594269,192.168.0.114
2493,4,3,-2,40,"0,-2,-178",-1,0,0,0,0,0,75,76,39,40,80,-28.47,49,-35.0,24.0,-984.0,11:36:56.696397,192.168.0.114
2496,4,3,-2,40,"0,-2,-178",-1,0,0,0,0,0,75,76,39,40,80,-28.39,49,-7.0,-8.0,-995.0,11:36:56.746990,192.168.0.114
2501,4,3,-2,40,"0,-2,-178",-1,0,0,0,0,0,75,76,39,30,80,-28.41,50,-24.0,9.0,-1046.0,11:36:56.849059,192.168.0.114
2506,4,2,-1,40,"2,-2,-179",-1,0,0,0,0,0,75,76,39,30,80,-28.4,50,-13.0,-21.0,-1055.0,11:36:56.951232,192.168.0.114
2511,4,2,-1,40,"2,-2,-179",-1,0,0,0,0,0,75,76,39,30,80,-28.37,50,-5.0,-9.0,-1008.0,11:36:57.053380,192.168.0.114
2516,4,2,-1,40,"2,-2,-179",-1,0,0,0,0,0,75,76,39,30,80,-28.48,50,-14.0,-2.0,-1014.0,11:36:57.155011,192.168.0.114
2521,4,2,-1,39,"2,-2,180",-1,0,0,0,0,0,75,76,39,30,80,-28.36,50,-11.0,-13.0,-974.0,11:36:57.257493,192.168.0.114
2526,4,2,-1,39,"2,-2,180",-1,-1,0,0,0,0,75,76,40,40,80,-28.39,50,-40.0,19.0,-1013.0,11:36:57.359313,192.168.0.114
2531,4,2,-1,39,"2,-2,180",-1,0,0,0,0,0,75,76,40,40,80,-28.26,50,-43.0,13.0,-947.0,11:36:57.461722,192.168.0.114
2536,4,2,-1,39,"2,-2,180",-1,0,0,0,0,0,75,76,40,40,80,-28.29,50,-40.0,8.0,-994.0,11:36:57.562838,192.168.0.114
2541,4,1,-2,39,"1,-2,-179",-1,0,0,0,0,0,75,76,39,40,80,-28.37,50,-17.0,11.0,-1019.0,11:36:57.665299,192.168.0.114
2546,4,1,-2,39,"1,-2,-179",-2,0,0,0,0,0,75,76,40,40,80,-28.39,50,-25.0,19.0,-1009.0,11:36:57.767160,192.168.0.114
2551,4,1,-2,39,"1,-2,-179",-1,0,0,0,0,0,75,76,40,40,80,-28.34,51,-21.0,20.0,-1006.0,11:36:57.869319,192.168.0.114
2556,4,1,-2,39,"1,-2,-179",-1,0,0,0,0,0,75,76,40,40,80,-28.45,51,-29.0,11.0,-980.0,11:36:57.971285,192.168.0.114
2561,4,1,-2,40,"2,-2,-179",-1,-1,0,0,0,0,75,76,40,40,80,-28.44,51,-21.0,11.0,-1016.0,11:36:58.073513,192.168.0.114
2566,4,1,-2,40,"2,-2,-179",-1,-1,0,0,0,0,75,76,40,40,80,-28.34,51,-21.0,-3.0,-1009.0,11:36:58.175687,192.168.0.114
2572,4,1,-2,40,"2,-2,-179",-1,0,0,0,0,0,75,76,40,40,80,-28.41,51,-15.0,2.0,-1005.0,11:36:58.277234,192.168.0.114
2577,4,1,-2,40,"1,-2,179",0,0,0,0,0,0,75,76,40,40,80,-28.54,51,-46.0,9.0,-976.0,11:36:58.379230,192.168.0.114
2582,4,1,-2,40,"1,-2,179",-1,0,0,0,0,0,75,76,40,40,80,-28.43,51,-26.0,5.0,-999.0,11:36:58.482014,192.168.0.114
2587,4,1,-2,40,"1,-2,179",-1,0,0,0,0,0,75,76,40,40,80,-28.42,51,-33.0,21.0,-987.0,11:36:58.583210,192.168.0.114
2592,4,1,-2,40,"1,-2,179",-1,0,0,0,0,0,75,76,40,40,80,-28.32,51,-14.0,24.0,-1021.0,11:36:58.685526,192.168.0.114
2597,4,1,-2,40,"0,-2,-179",-1,0,0,0,0,0,75,76,40,40,80,-28.56,51,-34.0,25.0,-967.0,11:36:58.787504,192.168.0.114
2602,4,1,-2,40,"0,-2,-179",-1,-1,0,0,0,0,75,76,39,40,80,-28.37,52,-32.0,41.0,-1034.0,11:36:58.890364,192.168.0.114
2607,4,1,-2,40,"0,-2,-179",0,-1,0,0,0,0,75,76,39,40,80,-28.26,52,-30.0,44.0,-1044.0,11:36:58.993378,192.168.0.114
2612,4,1,-2,40,"0,-2,-179",0,-1,0,0,0,0,75,76,39,40,80,-28.34,52,-10.0,17.0,-1027.0,11:36:59.095260,192.168.0.114
2617,4,1,-1,40,"1,-2,179",-1,-1,0,0,0,0,75,76,39,40,80,-28.37,52,-22.0,22.0,-1028.0,11:36:59.197464,192.168.0.114
2622,4,1,-1,40,"1,-2,179",-1,-1,0,0,0,0,75,76,40,40,80,-28.26,52,2.0,13.0,-974.0,11:36:59.296855,192.168.0.114
2627,4,1,-1,40,"1,-2,179",-1,-1,0,0,0,0,75,76,39,40,80,-28.31,52,-3.0,18.0,-995.0,11:36:59.402960,192.168.0.114
2632,4,1,-1,40,"1,-2,179",-1,-1,0,0,0,0,75,76,38,40,80,-28.39,52,-10.0,9.0,-993.0,11:36:59.501148,192.168.0.114
2637,4,2,-3,40,"1,-2,178",0,0,0,0,0,0,75,76,39,40,80,-28.35,52,-45.0,11.0,-1008.0,11:36:59.603238,192.168.0.114
2642,4,2,-3,40,"1,-2,178",0,0,0,0,0,0,75,76,39,40,80,-28.41,52,-29.0,18.0,-995.0,11:36:59.705397,192.168.0.114
2647,4,2,-3,40,"1,-2,178",-1,0,0,0,0,0,75,76,39,40,80,-28.42,52,-8.0,3.0,-987.0,11:36:59.807750,192.168.0.114
2652,4,3,-4,40,"0,-1,180",-1,0,0,0,0,0,75,76,39,40,80,-28.36,53,-23.0,1.0,-992.0,11:36:59.910047,192.168.0.114
2657,4,3,-4,40,"0,-1,180",-1,0,0,0,0,0,74,77,39,40,80,-28.43,53,0.0,4.0,-979.0,11:37:00.010882,192.168.0.114
2662,4,3,-4,40,"0,-1,180",0,0,0,0,0,0,74,77,39,40,80,-28.33,53,-13.0,8.0,-999.0,11:37:00.113112,192.168.0.114
2666,4,3,-4,40,"0,-1,180",0,1,0,0,0,0,74,77,40,40,80,-28.51,53,-17.0,2.0,-994.0,11:37:00.163945,192.168.0.114
2671,4,3,-3,40,"1,-2,180",0,0,0,0,0,0,74,77,39,40,80,-28.38,53,-21.0,-10.0,-1010.0,11:37:00.266149,192.168.0.114
2676,4,3,-3,40,"1,-2,180",0,0,0,0,0,0,74,77,40,40,80,-28.36,53,-25.0,14.0,-998.0,11:37:00.368065,192.168.0.114
