,mid,x,y,z,mpry,pitch,roll,yaw,vgx,vgy,vgz,templ,temph,tof,h,bat,baro,time,agx,agy,agz,timestamp,address
4,-1,-100,-100,-100,"0,0,0",0,0,0,0,0,0,60,63,10,0,79,-28.6,0,3.0,3.0,-999.0,11:36:06.701686,192.168.0.111
9,-1,-100,-100,-100,"0,0,0",0,0,0,0,0,0,60,63,10,0,79,-28.59,0,2.0,4.0,-999.0,11:36:06.803546,192.168.0.111
14,-1,-100,-100,-100,"0,0,0",0,0,0,0,0,0,60,63,10,0,79,-28.59,0,-2.0,1.0,-1001.0,11:36:06.905724,192.168.0.111
19,-1,-100,-100,-100,"0,0,0",0,0,0,0,0,0,60,63,10,0,79,-28.59,0,0.0,2.0,-996.0,11:36:07.007506,192.168.0.111
24,-1,-100,-100,-100,"0,0,0",0,0,0,0,0,0,60,63,10,0,79,-28.59,0,-8.0,8.0,-1001.0,11:36:07.109760,192.168.0.111
29,-1,-100,-100,-100,"0,0,0",0,0,0,0,0,0,60,63,10,0,79,-28.59,0,6.0,0.0,-986.0,11:36:07.211692,192.168.0.111
34,-1,-100,-100,-100,"0,0,0",0,0,0,0,0,0,60,63,10,0,79,-28.59,0,11.0,-1.0,-1120.0,11:36:07.313628,192.168.0.111
39,-1,-100,-100,-100,"0,0,0",-1,0,0,0,0,0,60,63,10,0,79,-28.59,0,25.0,0.0,-1288.0,11:36:07.415385,192.168.0.111
45,-1,-100,-100,-100,"0,0,0",0,0,0,0,0,3,60,63,10,0,79,-28.59,0,21.0,-6.0,-1279.0,11:36:07.517811,192.168.0.111
50,-1,-100,-100,-100,"0,0,0",0,0,0,0,0,6,60,63,12,0,79,-28.36,0,11.0,-20.0,-1121.0,11:36:07.619752,192.168.0.111
55,-1,-100,-100,-100,"0,0,0",1,0,0,0,0,8,60,63,20,10,79,-28.24,0,12.0,-11.0,-1037.0,11:36:07.721687,192.168.0.111
60,-1,-100,-100,-100,"0,0,0",1,0,0,0,0,8,60,63,30,10,79,-28.15,0,20.0,-27.0,-974.0,11:36:07.823128,192.168.0.111
65,-1,-100,-100,-100,"0,0,0",1,0,0,0,0,7,60,63,39,20,79,-28.07,1,23.0,-26.0,-925.0,11:36:07.925081,192.168.0.111
67,-1,-100,-100,-100,"0,0,0",1,0,0,0,0,7,60,63,48,30,79,-27.99,1,9.0,-9.0,-907.0,11:36:07.985335,192.168.0.111
72,-1,-100,-100,-100,"0,0,0",1,1,0,0,0,6,60,63,55,30,79,-27.96,1,3.0,-13.0,-884.0,11:36:08.078134,192.168.0.111
77,-1,-100,-100,-100,"0,0,0",1,0,0,0,0,5,60,63,61,40,79,-27.9,1,9.0,4.0,-892.0,11:36:08.180172,192.168.0.111
82,-1,-100,-100,-100,"0,0,0",1,0,0,0,0,4,60,63,66,40,79,-27.87,1,11.0,-6.0,-903.0,11:36:08.283130,192.168.0.111
87,-1,-100,-100,-100,"0,0,0",1,0,0,0,0,3,60,63,70,50,79,-27.76,1,12.0,-8.0,-914.0,11:36:08.384425,192.168.0.111
92,-1,-100,-100,-100,"0,0,0",1,0,0,0,0,2,60,63,73,50,79,-27.75,1,13.0,-15.0,-919.0,11:36:08.486731,192.168.0.111
97,-1,-100,-100,-100,"0,0,0",1,0,0,0,0,1,60,63,75,50,79,-27.74,1,16.0,-7.0,-951.0,11:36:08.589499,192.168.0.111
102,1,2,4,65,"-3,5,179",1,0,0,0,0,1,60,63,77,60,79,-27.76,1,7.0,-5.0,-963.0,11:36:08.690569,192.168.0.111
107,1,2,4,65,"-3,5,179",1,0,0,0,0,0,60,63,79,60,79,-27.75,1,17.0,-8.0,-973.0,11:36:08.793683,192.168.0.111
112,1,2,4,65,"-3,5,179",1,0,0,0,0,0,60,63,80,60,79,-27.74,2,14.0,1.0,-980.0,11:36:08.894700,192.168.0.111
117,1,3,7,78,"-3,5,178",1,0,0,0,0,0,60,63,81,60,79,-27.68,2,17.0,-19.0,-977.0,11:36:08.999640,192.168.0.111
122,1,3,7,78,"-3,5,178",1,0,0,0,0,0,60,63,82,60,79,-27.71,2,6.0,6.0,-985.0,11:36:09.098907,192.168.0.111
129,1,3,7,78,"-3,5,178",1,0,0,0,0,0,60,63,83,60,79,-27.72,2,16.0,1.0,-981.0,11:36:09.204671,192.168.0.111
134,1,3,7,78,"-3,5,178",1,0,0,0,0,0,60,63,84,60,79,-27.69,2,2.0,-5.0,-984.0,11:36:09.302392,192.168.0.111
139,1,3,7,78,"-3,5,178",1,0,0,0,0,0,60,63,85,60,79,-27.7,2,18.0,-17.0,-983.0,11:36:09.404297,192.168.0.111
144,1,3,7,78,"-3,5,178",1,0,0,0,0,0,60,63,85,60,79,-27.63,2,13.0,-2.0,-989.0,11:36:09.506386,192.168.0.111
149,1,3,7,78,"-3,5,178",1,0,0,0,0,0,60,63,85,70,79,-27.61,2,22.0,1.0,-986.0,11:36:09.615648,192.168.0.111
154,1,3,7,78,"-3,5,178",1,0,0,0,0,0,60,63,86,70,79,-27.62,2,13.0,0.0,-988.0,11:36:09.710469,192.168.0.111
159,1,3,7,78,"-3,5,178",1,0,0,0,0,0,60,63,86,70,79,-27.64,2,16.0,-2.0,-989.0,11:36:09.818502,192.168.0.111
164,1,3,7,78,"-3,5,178",1,0,0,0,0,0,60,63,86,70,79,-27.63,3,13.0,-5.0,-990.0,11:36:09.914484,192.168.0.111
169,1,3,7,78,"-3,5,178",1,0,0,0,0,0,60,63,86,70,79,-27.62,3,21.0,-2.0,-996.0,11:36:10.016368,192.168.0.111
174,1,3,7,78,"-3,5,178",1,0,0,0,0,0,60,63,86,70,79,-27.63,3,17.0,1.0,-995.0,11:36:10.118216,192.168.0.111
180,1,3,7,78,"-3,5,178",1,0,0,0,0,0,60,63,85,70,79,-27.7,3,26.0,-6.0,-998.0,11:36:10.220512,192.168.0.111
185,1,3,7,78,"-3,5,178",1,0,0,0,0,0,60,63,85,70,79,-27.65,3,14.0,-3.0,-988.0,11:36:10.322365,192.168.0.111
190,1,3,7,78,"-3,5,178",1,0,0,0,0,0,61,63,84,70,79,-27.74,3,19.0,-9.0,-987.0,11:36:10.424444,192.168.0.111
192,1,3,7,78,"-3,5,178",1,0,0,0,0,0,61,63,84,70,79,-27.69,3,21.0,-13.0,-993.0,11:36:10.475694,192.168.0.111
197,1,3,7,78,"-3,5,178",1,0,0,0,0,0,61,63,84,70,79,-27.77,3,9.0,4.0,-1009.0,11:36:10.577273,192.168.0.111
202,1,3,7,78,"-3,5,178",1,0,0,0,0,0,61,63,83,70,79,-27.73,3,15.0,6.0,-1007.0,11:36:10.680488,192.168.0.111
207,1,3,7,78,"-3,5,178",1,0,0,0,0,0,61,63,83,70,79,-27.69,3,19.0,-2.0,-999.0,11:36:10.781558,192.168.0.111
212,1,3,7,78,"-3,5,178",1,0,0,0,0,0,61,63,83,70,79,-27.67,4,16.0,-5.0,-995.0,11:36:10.883352,192.168.0.111
217,1,5,10,86,"-2,5,177",1,0,0,0,0,0,61,63,83,70,79,-27.64,4,17.0,0.0,-996.0,11:36:10.985465,192.168.0.111
222,1,5,10,86,"-2,5,177",1,0,0,0,0,0,61,63,82,60,79,-27.71,4,19.0,-5.0,-994.0,11:36:11.087487,192.168.0.111
227,1,5,10,86,"-2,5,177",1,0,0,0,0,0,61,63,82,60,79,-27.77,4,10.0,-2.0,-997.0,11:36:11.189588,192.168.0.111
232,1,5,10,86,"-2,5,177",1,0,0,0,0,0,61,63,81,60,79,-27.73,4,12.0,-1.0,-997.0,11:36:11.291388,192.168.0.111
237,1,5,10,85,"-3,5,177",1,0,0,0,0,0,60,63,81,60,79,-27.68,4,22.0,0.0,-1003.0,11:36:11.393500,192.168.0.111
242,1,5,10,85,"-3,5,177",1,0,0,0,0,0,60,63,81,60,79,-27.71,4,21.0,5.0,-998.0,11:36:11.495535,192.168.0.111
247,1,5,10,85,"-3,5,177",1,0,0,0,0,0,60,63,81,60,79,-27.63,4,14.0,-3.0,-997.0,11:36:11.597506,192.168.0.111
253,1,5,10,85,"-3,5,177",1,0,0,0,0,0,60,63,81,60,79,-27.67,4,19.0,-2.0,-1002.0,11:36:11.699257,192.168.0.111
259,1,5,10,85,"-3,5,177",1,0,0,0,0,0,60,63,81,60,79,-27.67,4,12.0,0.0,-1000.0,11:36:11.801455,192.168.0.111
264,1,5,10,85,"-3,5,177",1,0,0,0,0,0,60,63,81,60,79,-27.64,5,21.0,-8.0,-1006.0,11:36:11.903394,192.168.0.111
269,1,5,10,85,"-3,5,177",1,0,0,0,0,0,60,63,81,60,79,-27.71,5,17.0,-2.0,-1002.0,11:36:12.005313,192.168.0.111
274,1,5,10,85,"-3,5,177",1,0,0,0,0,0,60,63,81,60,79,-27.68,5,11.0,4.0,-999.0,11:36:12.107476,192.168.0.111
279,1,5,10,85,"-3,5,177",1,0,0,0,0,0,60,63,81,60,79,-27.62,5,14.0,0.0,-997.0,11:36:12.209162,192.168.0.111
284,1,5,10,85,"-3,5,177",1,0,0,0,0,0,60,63,81,60,79,-27.69,5,21.0,-1.0,-997.0,11:36:12.313518,192.168.0.111
289,1,5,10,85,"-3,5,177",1,0,0,0,0,0,61,63,81,60,79,-27.72,5,16.0,-10.0,-995.0,11:36:12.413435,192.168.0.111
294,1,5,10,85,"-3,5,177",1,0,0,0,0,0,61,63,81,60,79,-27.67,5,14.0,5.0,-999.0,11:36:12.515616,192.168.0.111
299,1,5,10,85,"-3,5,177",1,0,0,0,0,0,61,63,81,60,79,-27.7,5,20.0,-3.0,-996.0,11:36:12.618956,192.168.0.111
305,1,5,10,85,"-3,5,177",1,0,0,0,0,0,61,63,81,60,79,-27.65,5,19.0,-9.0,-992.0,11:36:12.719340,192.168.0.111
310,1,5,10,85,"-3,5,177",1,0,0,0,0,0,61,63,81,60,79,-27.73,5,12.0,12.0,-999.0,11:36:12.823616,192.168.0.111
315,1,5,10,85,"-3,5,177",1,0,0,0,0,0,61,63,82,60,79,-27.69,6,23.0,-8.0,-991.0,11:36:12.923319,192.168.0.111
320,1,8,12,83,"-3,5,177",1,0,0,0,0,0,61,63,81,60,79,-27.69,6,18.0,-2.0,-999.0,11:36:13.025424,192.168.0.111
322,1,8,12,83,"-3,5,177",1,0,0,0,0,0,61,63,81,60,79,-27.64,6,8.0,-9.0,-993.0,11:36:13.076377,192.168.0.111
327,1,8,12,83,"-3,5,177",1,0,0,0,0,0,61,63,82,60,79,-27.68,6,19.0,-6.0,-996.0,11:36:13.178342,192.168.0.111
332,1,8,12,83,"-3,5,177",1,0,0,0,0,0,61,63,82,60,79,-27.72,6,20.0,-15.0,-993.0,11:36:13.280423,192.168.0.111
337,1,9,14,83,"-2,5,176",1,0,0,0,0,0,61,63,82,60,79,-27.69,6,7.0,-10.0,-910.0,11:36:13.382681,192.168.0.111
342,1,9,14,83,"-2,5,176",1,1,0,0,0,0,61,63,80,60,79,-27.81,6,16.0,4.0,-887.0,11:36:13.484295,192.168.0.111
347,1,9,14,83,"-2,5,176",1,1,0,0,0,-1,61,63,79,60,79,-27.75,6,9.0,4.0,-923.0,11:36:13.586259,192.168.0.111
352,1,9,14,83,"-2,5,176",1,1,0,0,0,-2,61,63,76,60,79,-27.76,6,14.0,-3.0,-938.0,11:36:13.688050,192.168.0.111
357,1,9,14,83,"-2,5,176",1,0,0,0,0,-3,61,63,72,60,79,-27.83,6,19.0,-7.0,-971.0,11:36:13.790429,192.168.0.111
362,1,9,14,83,"-2,5,176",1,0,0,0,0,-3,61,63,69,50,79,-27.81,7,20.0,-16.0,-946.0,11:36:13.892247,192.168.0.111
367,1,9,14,83,"-2,5,176",1,1,0,0,0,-3,61,63,65,50,79,-27.83,7,16.0,-5.0,-989.0,11:36:13.994159,192.168.0.111
372,1,9,14,83,"-2,5,176",2,1,0,0,0,-3,61,63,62,50,79,-27.82,7,18.0,5.0,-1021.0,11:36:14.096420,192.168.0.111
377,1,9,14,83,"-2,5,176",2,1,0,0,0,-3,61,63,59,40,79,-27.93,7,9.0,-16.0,-1021.0,11:36:14.198457,192.168.0.111
384,1,9,14,83,"-2,5,176",2,1,0,0,0,-2,61,63,56,40,79,-27.89,7,15.0,-7.0,-1031.0,11:36:14.300401,192.168.0.111
389,1,9,14,83,"-2,5,176",2,1,0,0,0,-2,60,63,54,40,79,-27.93,7,3.0,-2.0,-1034.0,11:36:14.402375,192.168.0.111
394,1,9,14,83,"-2,5,176",2,1,0,0,0,-2,60,63,52,40,79,-27.97,7,24.0,-7.0,-1035.0,11:36:14.505966,192.168.0.111
399,1,22,6,58,"4,4,-177",2,0,0,0,0,-1,60,63,50,30,79,-28.0,7,29.0,-21.0,-1019.0,11:36:14.606472,192.168.0.111
404,1,22,6,58,"4,4,-177",2,0,0,0,0,-1,60,63,48,30,79,-27.97,7,17.0,-4.0,-1023.0,11:36:14.708402,192.168.0.111
409,1,22,6,58,"4,4,-177",2,0,0,0,0,-1,60,63,47,30,79,-27.99,7,25.0,-20.0,-1005.0,11:36:14.810401,192.168.0.111
414,1,22,6,58,"4,4,-177",3,1,0,0,0,-1,60,63,45,30,79,-28.07,8,15.0,-7.0,-1008.0,11:36:14.912307,192.168.0.111
419,1,15,5,52,"0,4,179",2,0,0,0,0,-1,60,63,44,30,79,-28.04,8,25.0,-9.0,-1028.0,11:36:15.015230,192.168.0.111
424,1,15,5,52,"0,4,179",2,0,0,0,0,-1,60,63,43,30,79,-28.08,8,15.0,-8.0,-1007.0,11:36:15.116338,192.168.0.111
429,1,15,5,52,"0,4,179",2,0,0,1,0,0,60,63,42,30,79,-28.04,8,23.0,-3.0,-1011.0,11:36:15.218353,192.168.0.111
435,1,15,5,52,"0,4,179",2,0,0,1,0,0,60,63,42,20,79,-28.13,8,31.0,-12.0,-1012.0,11:36:15.320231,192.168.0.111
440,1,13,1,48,"-3,4,-178",2,0,0,1,0,0,61,63,41,20,79,-28.15,8,11.0,-4.0,-1011.0,11:36:15.422668,192.168.0.111
445,1,13,1,48,"-3,4,-178",1,-1,0,1,0,0,61,63,40,20,79,-28.07,8,15.0,10.0,-980.0,11:36:15.524415,192.168.0.111
450,1,13,1,48,"-3,4,-178",1,0,0,0,0,0,61,63,40,20,79,-28.09,8,23.0,-13.0,-1016.0,11:36:15.626362,192.168.0.111
451,1,12,0,43,"0,4,179",2,0,0,0,0,0,61,63,39,20,79,-28.09,8,22.0,-4.0,-1002.0,11:36:15.677230,192.168.0.111
456,1,12,0,43,"0,4,179",1,0,0,0,0,0,61,63,39,20,79,-28.15,8,19.0,-2.0,-1019.0,11:36:15.779302,192.168.0.111
462,1,12,0,43,"0,4,179",1,0,0,0,0,0,61,63,38,20,79,-28.09,9,24.0,-5.0,-1002.0,11:36:15.881637,192.168.0.111
467,1,12,0,43,"0,4,179",1,0,0,0,0,0,61,63,38,20,79,-28.12,9,14.0,-2.0,-1000.0,11:36:15.984352,192.168.0.111
472,1,10,-1,41,"-1,4,180",2,0,0,0,0,0,61,63,37,20,79,-28.15,9,27.0,-3.0,-1002.0,11:36:16.086449,192.168.0.111
477,1,10,-1,41,"-1,4,180",2,0,0,0,0,0,61,63,37,20,79,-28.16,9,16.0,0.0,-1006.0,11:36:16.193135,192.168.0.111
482,1,10,-1,41,"-1,4,180",1,0,0,0,0,0,61,63,37,20,79,-28.15,9,31.0,4.0,-1020.0,11:36:16.291409,192.168.0.111
487,1,10,-1,41,"-1,4,180",0,0,0,0,0,0,61,63,36,20,79,-28.16,9,11.0,-3.0,-1037.0,11:36:16.393607,192.168.0.111
492,1,8,0,40,"-2,4,179",0,0,0,0,0,0,61,63,37,20,79,-28.16,9,29.0,0.0,-979.0,11:36:16.493290,192.168.0.111
497,1,8,0,40,"-2,4,179",1,0,0,0,0,0,61,63,37,20,79,-28.11,9,21.0,0.0,-1010.0,11:36:16.595073,192.168.0.111
502,1,8,0,40,"-2,4,179",1,0,0,0,0,0,61,63,37,20,79,-28.14,9,20.0,-9.0,-1009.0,11:36:16.697352,192.168.0.111
507,1,8,0,40,"-2,4,179",1,0,0,0,0,0,61,63,37,20,79,-28.11,9,22.0,-2.0,-1011.0,11:36:16.799787,192.168.0.111
514,1,7,2,39,"0,4,180",1,0,0,0,0,0,61,63,37,20,79,-28.05,10,13.0,6.0,-999.0,11:36:16.901424,192.168.0.111
519,1,7,2,39,"0,4,180",1,0,0,0,0,0,61,63,37,20,79,-28.1,10,20.0,-8.0,-988.0,11:36:17.003287,192.168.0.111
524,1,7,2,39,"0,4,180",2,0,0,0,0,0,61,63,37,20,79,-28.07,10,15.0,7.0,-997.0,11:36:17.105336,192.168.0.111
528,1,10,4,39,"-1,4,179",1,0,0,0,0,0,61,63,37,20,79,-28.06,10,14.0,3.0,-993.0,11:36:17.207264,192.168.0.111
533,1,10,4,39,"-1,4,179",2,0,0,0,0,0,61,63,37,20,79,-28.1,10,21.0,-3.0,-991.0,11:36:17.309338,192.168.0.111
539,1,10,4,39,"-1,4,179",2,0,0,0,0,0,61,65,37,20,79,-28.09,10,10.0,7.0,-995.0,11:36:17.411209,192.168.0.111
544,1,10,4,39,"-1,4,179",2,0,0,0,0,0,61,65,37,20,79,-28.09,10,21.0,9.0,-1006.0,11:36:17.513250,192.168.0.111
549,1,13,6,39,"0,4,-178",3,1,0,0,0,0,61,65,37,20,79,-28.15,10,28.0,4.0,-1001.0,11:36:17.615118,192.168.0.111
554,1,13,6,39,"0,4,-178",4,1,0,0,0,0,61,65,37,20,79,-28.12,10,30.0,-12.0,-994.0,11:36:17.717251,192.168.0.111
559,1,13,6,39,"0,4,-178",4,1,0,0,0,0,61,65,37,20,79,-28.1,10,21.0,0.0,-994.0,11:36:17.819560,192.168.0.111
564,1,13,6,39,"0,4,-178",3,0,0,0,0,0,61,65,36,20,79,-28.1,11,27.0,-5.0,-997.0,11:36:17.921480,192.168.0.111
569,1,13,6,39,"0,4,-178",3,0,0,0,0,0,61,65,36,20,79,-28.13,11,21.0,-7.0,-992.0,11:36:18.023240,192.168.0.111
574,1,13,6,39,"0,4,-178",3,0,0,0,0,0,61,65,36,20,79,-28.11,11,31.0,1.0,-995.0,11:36:18.125262,192.168.0.111
579,1,13,6,39,"0,4,-178",3,0,0,0,0,0,61,65,36,20,79,-28.15,11,27.0,-7.0,-1000.0,11:36:18.227203,192.168.0.111
581,1,13,6,39,"0,4,-178",2,0,0,1,0,0,61,65,36,20,79,-28.11,11,25.0,-5.0,-1015.0,11:36:18.278356,192.168.0.111
586,1,13,6,39,"0,4,-178",2,0,0,1,0,0,62,64,36,20,79,-28.19,11,30.0,-12.0,-1014.0,11:36:18.380477,192.168.0.111
591,1,13,6,39,"0,4,-178",2,1,0,1,0,0,62,64,36,20,79,-28.14,11,30.0,-12.0,-988.0,11:36:18.482259,192.168.0.111
596,1,13,6,39,"0,4,-178",2,1,0,1,0,0,62,64,36,20,79,-28.11,11,29.0,-8.0,-994.0,11:36:18.583800,192.168.0.111
601,1,13,6,39,"0,4,-178",2,1,0,1,0,0,62,64,36,20,79,-28.13,11,17.0,-12.0,-998.0,11:36:18.686282,192.168.0.111
606,1,13,6,39,"0,4,-178",1,1,0,1,0,0,62,64,36,20,79,-28.07,11,33.0,0.0,-1004.0,11:36:18.788470,192.168.0.111
611,1,13,6,39,"0,4,-178",2,1,0,1,0,0,62,64,36,20,79,-28.08,12,38.0,-20.0,-999.0,11:36:18.890334,192.168.0.111
616,1,10,6,38,"-3,4,-179",2,0,0,1,0,0,62,64,36,20,79,-28.09,12,21.0,9.0,-985.0,11:36:18.992168,192.168.0.111
621,1,10,6,38,"-3,4,-179",1,0,0,1,0,0,62,64,36,20,79,-28.11,12,29.0,-8.0,-1010.0,11:36:19.094235,192.168.0.111
627,1,10,6,38,"-3,4,-179",1,0,0,1,0,0,62,64,36,20,79,-28.06,12,22.0,-2.0,-987.0,11:36:19.196238,192.168.0.111
632,1,10,6,38,"-3,4,-179",1,2,0,1,0,0,62,64,36,20,79,-28.18,12,28.0,-3.0,-995.0,11:36:19.298136,192.168.0.111
638,1,7,5,38,"-2,4,178",1,2,0,1,0,0,61,64,36,20,79,-28.09,12,24.0,4.0,-995.0,11:36:19.400047,192.168.0.111
643,1,7,5,38,"-2,4,178",0,1,0,1,0,0,61,64,35,20,79,-28.18,12,24.0,-7.0,-1005.0,11:36:19.502433,192.168.0.111
648,1,7,5,38,"-2,4,178",0,0,0,0,0,0,61,64,36,20,79,-28.07,12,24.0,-16.0,-1003.0,11:36:19.604137,192.168.0.111
653,1,7,5,38,"-2,4,178",0,-1,0,0,0,0,61,64,36,20,79,-28.2,12,21.0,4.0,-977.0,11:36:19.706206,192.168.0.111
658,1,4,5,38,"0,4,-177",1,0,0,0,0,0,61,64,36,20,79,-28.15,12,27.0,-13.0,-1006.0,11:36:19.810673,192.168.0.111
663,1,4,5,38,"0,4,-177",1,0,0,0,0,0,61,64,36,20,79,-28.13,13,6.0,3.0,-989.0,11:36:19.911242,192.168.0.111
668,1,4,5,38,"0,4,-177",0,0,0,0,0,0,61,64,36,20,79,-28.12,13,8.0,5.0,-988.0,11:36:20.012360,192.168.0.111
673,1,4,5,38,"0,4,-177",0,0,0,0,0,0,61,64,36,20,79,-28.07,13,0.0,15.0,-995.0,11:36:20.114196,192.168.0.111
678,1,2,5,39,"-1,4,180",0,0,0,0,0,0,61,64,36,20,79,-28.1,13,17.0,5.0,-981.0,11:36:20.217143,192.168.0.111
683,1,2,5,39,"-1,4,180",1,0,0,0,0,0,61,64,36,20,79,-28.13,13,9.0,5.0,-993.0,11:36:20.319152,192.168.0.111
688,1,2,5,39,"-1,4,180",1,0,0,0,0,0,61,65,36,20,79,-28.08,13,22.0,-4.0,-1028.0,11:36:20.421332,192.168.0.111
694,1,3,6,38,"0,4,180",1,0,0,0,0,0,61,65,36,20,79,-28.1,13,15.0,2.0,-993.0,11:36:20.522147,192.168.0.111
699,1,3,6,38,"0,4,180",1,1,0,0,0,0,61,65,35,20,79,-28.1,13,18.0,-3.0,-990.0,11:36:20.623771,192.168.0.111
704,1,3,6,38,"0,4,180",1,0,0,0,0,0,61,65,35,20,79,-28.1,13,22.0,-2.0,-993.0,11:36:20.726168,192.168.0.111
706,1,3,6,38,"0,4,180",1,0,0,0,0,0,61,65,35,20,79,-28.12,13,24.0,-12.0,-993.0,11:36:20.777134,192.168.0.111
711,1,4,8,38,"-1,4,-178",1,0,0,0,0,0,61,65,35,20,79,-28.08,14,27.0,0.0,-999.0,11:36:20.880634,192.168.0.111
716,1,4,8,38,"-1,4,-178",1,0,0,0,0,0,61,65,35,20,79,-28.15,14,0.0,4.0,-992.0,11:36:20.980662,192.168.0.111
721,1,4,8,38,"-1,4,-178",1,0,0,0,0,0,61,65,35,20,79,-28.12,14,24.0,0.0,-1001.0,11:36:21.082986,192.168.0.111
726,1,4,8,38,"-1,4,-178",1,0,0,0,0,0,61,65,35,20,79,-28.15,14,15.0,1.0,-1005.0,11:36:21.185168,192.168.0.111
731,1,6,10,38,"0,4,180",1,1,0,0,0,0,61,65,36,20,79,-28.06,14,9.0,5.0,-994.0,11:36:21.287218,192.168.0.111
736,1,6,10,38,"0,4,180",2,3,0,0,0,0,62,65,36,20,79,-28.07,14,21.0,-5.0,-1019.0,11:36:21.389403,192.168.0.111
741,1,6,10,38,"0,4,180",2,2,0,0,0,0,62,65,36,20,79,-28.12,14,4.0,20.0,-1010.0,11:36:21.491064,192.168.0.111
746,1,6,9,38,"-1,4,-177",1,0,0,0,-1,0,62,65,36,20,79,-28.1,14,17.0,0.0,-1002.0,11:36:21.593685,192.168.0.111
751,1,6,9,38,"-1,4,-177",1,0,0,0,0,0,62,65,36,20,79,-28.11,14,11.0,3.0,-995.0,11:36:21.695006,192.168.0.111
756,1,6,9,38,"-1,4,-177",0,0,0,0,0,0,62,65,37,20,79,-28.1,14,14.0,-8.0,-1006.0,11:36:21.797862,192.168.0.111
761,1,6,9,38,"-1,4,-177",0,0,0,0,0,0,62,65,37,20,79,-28.06,15,3.0,-1.0,-985.0,11:36:21.899256,192.168.0.111
767,1,5,9,39,"-1,4,180",1,0,0,0,0,0,62,65,37,20,79,-28.1,15,16.0,-8.0,-1004.0,11:36:22.001205,192.168.0.111
772,1,5,9,39,"-1,4,180",2,0,0,0,0,0,62,65,37,20,79,-28.1,15,12.0,-6.0,-1002.0,11:36:22.104882,192.168.0.111
777,1,5,9,39,"-1,4,180",3,-1,0,0,0,0,62,65,38,20,79,-28.1,15,16.0,6.0,-1003.0,11:36:22.206463,192.168.0.111
782,1,5,9,39,"-1,4,180",2,0,0,0,0,0,62,65,38,20,79,-28.08,15,17.0,-7.0,-1008.0,11:36:22.308127,192.168.0.111
787,1,5,6,40,"-2,4,180",0,0,0,0,0,0,62,65,39,20,79,-28.1,15,13.0,10.0,-1015.0,11:36:22.410044,192.168.0.111
792,1,5,6,40,"-2,4,180",0,0,0,0,0,0,62,65,39,20,79,-28.07,15,28.0,1.0,-984.0,11:36:22.512586,192.168.0.111
798,1,5,6,40,"-2,4,180",1,0,0,0,0,0,62,65,39,20,79,-28.08,15,18.0,-6.0,-995.0,11:36:22.616616,192.168.0.111
803,1,5,6,40,"-2,4,180",1,0,0,0,0,0,62,65,39,20,79,-28.09,15,9.0,4.0,-1002.0,11:36:22.715932,192.168.0.111
808,1,5,5,41,"0,4,180",1,0,0,0,0,0,62,65,39,20,79,-28.02,15,13.0,3.0,-987.0,11:36:22.818058,192.168.0.111
813,1,5,5,41,"0,4,180",1,0,0,0,0,0,62,65,39,20,79,-28.11,16,17.0,-1.0,-1000.0,11:36:22.920015,192.168.0.111
818,1,5,5,41,"0,4,180",1,0,0,0,0,0,62,65,39,20,79,-28.0,16,25.0,-9.0,-978.0,11:36:23.021894,192.168.0.111
823,1,4,6,42,"-2,4,-178",1,0,0,0,0,0,62,65,39,20,79,-28.0,16,14.0,12.0,-991.0,11:36:23.128738,192.168.0.111
828,1,4,6,42,"-2,4,-178",1,0,0,0,0,0,62,65,39,20,79,-28.02,16,7.0,2.0,-994.0,11:36:23.225895,192.168.0.111
831,1,4,6,42,"-2,4,-178",1,0,0,0,0,0,62,65,39,20,79,-27.99,16,7.0,9.0,-1006.0,11:36:23.276649,192.168.0.111
836,1,4,6,42,"-2,4,-178",0,0,0,0,0,0,62,64,39,20,79,-28.0,16,9.0,-1.0,-994.0,11:36:23.379074,192.168.0.111
841,1,6,9,41,"-1,4,180",1,0,0,0,0,0,62,64,39,20,79,-28.02,16,6.0,7.0,-990.0,11:36:23.481831,192.168.0.111
846,1,6,9,41,"-1,4,180",1,0,0,0,0,0,62,64,38,20,79,-28.05,16,25.0,-3.0,-1005.0,11:36:23.583146,192.168.0.111
851,1,6,9,41,"-1,4,180",1,0,0,0,0,0,62,64,39,20,79,-28.08,16,4.0,11.0,-994.0,11:36:23.686098,192.168.0.111
856,1,6,9,41,"-1,4,180",1,0,0,0,0,0,62,64,39,20,79,-28.03,16,9.0,-3.0,-997.0,11:36:23.787253,192.168.0.111
861,1,7,10,41,"0,4,-179",1,0,0,0,0,0,62,64,39,20,79,-28.03,17,15.0,-3.0,-994.0,11:36:23.888956,192.168.0.111
866,1,7,10,41,"0,4,-179",1,0,0,0,0,0,62,64,39,20,79,-28.02,17,4.0,0.0,-996.0,11:36:23.990976,192.168.0.111
871,1,7,10,41,"0,4,-179",0,1,0,0,0,0,62,64,39,20,79,-28.06,17,3.0,-7.0,-996.0,11:36:24.092922,192.168.0.111
876,1,7,10,41,"0,4,-179",0,0,0,0,0,0,62,64,39,20,79,-28.08,17,16.0,9.0,-991.0,11:36:24.194957,192.168.0.111
881,1,8,11,41,"0,4,180",1,0,0,0,0,0,62,64,39,20,79,-28.04,17,25.0,-2.0,-992.0,11:36:24.296632,192.168.0.111
886,1,8,11,41,"0,4,180",2,0,0,0,0,0,62,65,39,20,79,-28.04,17,17.0,7.0,-994.0,11:36:24.399001,192.168.0.111
891,1,8,11,41,"0,4,180",1,0,0,0,0,0,62,65,39,20,79,-28.06,17,22.0,-9.0,-1020.0,11:36:24.500989,192.168.0.111
896,1,8,11,41,"0,4,-178",2,0,0,0,0,0,62,65,39,20,79,-27.97,17,13.0,-3.0,-1004.0,11:36:24.603038,192.168.0.111
901,1,8,11,41,"0,4,-178",3,1,0,0,0,0,62,65,39,20,79,-27.96,17,18.0,10.0,-995.0,11:36:24.704935,192.168.0.111
906,1,8,11,41,"0,4,-178",3,1,0,0,0,0,62,65,38,20,79,-27.68,17,19.0,3.0,-994.0,11:36:24.806909,192.168.0.111
911,1,8,11,41,"0,4,-178",2,1,0,0,0,0,62,65,38,20,79,-27.57,18,25.0,6.0,-999.0,11:36:24.909201,192.168.0.111
916,1,8,11,41,"0,4,-178",3,1,0,0,0,0,62,65,38,20,79,-27.58,18,34.0,-11.0,-1000.0,11:36:25.010955,192.168.0.111
921,1,8,11,41,"0,4,-178",2,1,0,0,-1,0,62,65,38,20,79,-27.49,18,28.0,8.0,-1018.0,11:36:25.112928,192.168.0.111
926,1,8,11,41,"0,4,-178",1,0,0,1,-1,0,62,65,38,20,79,-27.46,18,20.0,-1.0,-998.0,11:36:25.214881,192.168.0.111
931,1,8,11,41,"0,4,-178",1,0,0,1,-1,0,62,65,37,20,79,-27.57,18,32.0,-12.0,-1007.0,11:36:25.317040,192.168.0.111
937,1,8,9,40,"-2,4,-178",1,0,0,1,-1,0,62,64,38,20,79,-27.84,18,18.0,-16.0,-1003.0,11:36:25.419082,192.168.0.111
942,1,8,9,40,"-2,4,-178",1,0,0,0,0,0,62,64,38,20,79,-28.14,18,17.0,8.0,-975.0,11:36:25.520929,192.168.0.111
947,1,8,9,40,"-2,4,-178",1,0,0,0,0,0,62,64,38,20,79,-28.29,18,27.0,-14.0,-1008.0,11:36:25.622916,192.168.0.111
952,1,8,9,40,"-2,4,-178",0,-1,0,0,0,0,62,64,38,20,79,-28.37,18,21.0,-1.0,-986.0,11:36:25.724793,192.168.0.111
957,1,4,5,40,"-1,4,-179",0,0,0,0,0,0,62,64,38,20,79,-28.46,18,21.0,2.0,-997.0,11:36:25.826897,192.168.0.111
962,1,4,5,40,"-1,4,-179",0,0,0,0,0,0,62,64,38,20,79,-28.5,19,8.0,0.0,-1004.0,11:36:25.929074,192.168.0.111
967,1,4,5,40,"-1,4,-179",0,0,0,0,0,0,62,64,38,20,79,-28.47,19,10.0,9.0,-1006.0,11:36:26.030922,192.168.0.111
972,1,4,5,40,"-1,4,-179",0,0,0,0,0,0,62,64,38,20,79,-28.42,19,25.0,-9.0,-987.0,11:36:26.132992,192.168.0.111
976,1,4,5,40,"-1,4,-179",0,0,0,0,0,0,62,64,38,20,79,-28.35,19,9.0,13.0,-996.0,11:36:26.183974,192.168.0.111
981,1,4,5,40,"-1,4,-179",1,0,0,0,0,0,62,64,39,20,79,-28.26,19,34.0,4.0,-1006.0,11:36:26.285896,192.168.0.111
986,1,4,5,40,"-1,4,-179",1,0,0,0,0,0,62,65,39,20,79,-28.32,19,17.0,0.0,-994.0,11:36:26.387797,192.168.0.111
991,1,1,2,41,"-1,4,-179",1,0,0,0,0,0,62,65,39,20,79,-28.26,19,11.0,-1.0,-991.0,11:36:26.489875,192.168.0.111
996,1,1,2,41,"-1,4,-179",1,0,0,0,0,0,62,65,39,20,79,-28.21,19,11.0,0.0,-994.0,11:36:26.591888,192.168.0.111
1001,1,1,2,41,"-1,4,-179",1,0,0,0,0,0,62,65,39,20,79,-28.22,19,24.0,5.0,-1005.0,11:36:26.693870,192.168.0.111
1006,1,1,2,41,"-1,4,-179",1,0,0,0,0,0,62,65,39,20,79,-28.23,19,17.0,-6.0,-1007.0,11:36:26.796929,192.168.0.111
1011,1,1,2,41,"-1,4,-179",1,0,0,0,0,0,62,65,39,20,79,-28.31,20,14.0,9.0,-1003.0,11:36:26.897766,192.168.0.111
1016,1,1,2,41,"-1,4,-179",1,0,0,0,0,0,62,65,39,20,79,-28.28,20,14.0,-2.0,-996.0,11:36:27.000009,192.168.0.111
1021,1,1,2,41,"-1,4,-179",1,0,0,0,0,0,62,65,39,20,79,-28.34,20,16.0,-9.0,-996.0,11:36:27.101954,192.168.0.111
1026,1,4,4,41,"-1,4,-179",1,0,0,0,0,0,62,65,39,20,79,-28.36,20,16.0,-4.0,-993.0,11:36:27.203953,192.168.0.111
1031,1,4,4,41,"-1,4,-179",1,0,0,0,0,0,62,65,40,20,79,-28.35,20,19.0,1.0,-998.0,11:36:27.305826,192.168.0.111
1036,1,4,4,41,"-1,4,-179",1,0,0,0,0,0,62,65,40,20,79,-28.31,20,20.0,-3.0,-1003.0,11:36:27.407928,192.168.0.111
1041,1,4,4,41,"-1,4,-179",1,0,0,0,0,0,62,65,39,20,79,-28.31,20,16.0,-5.0,-983.0,11:36:27.509782,192.168.0.111
1046,1,4,5,42,"-1,4,180",1,0,0,0,0,0,62,65,40,20,79,-28.28,20,7.0,15.0,-1005.0,11:36:27.612222,192.168.0.111
1051,1,4,5,42,"-1,4,180",1,0,0,0,0,0,62,65,40,20,79,-28.29,20,19.0,-6.0,-1000.0,11:36:27.715182,192.168.0.111
1056,1,4,5,42,"-1,4,180",1,0,0,0,0,0,62,65,40,20,79,-28.24,21,18.0,15.0,-1009.0,11:36:27.815699,192.168.0.111
1061,1,4,5,42,"-1,4,180",1,0,0,0,0,0,62,65,40,20,79,-28.26,21,19.0,-2.0,-1004.0,11:36:27.918022,192.168.0.111
1066,1,5,6,42,"-1,4,-179",1,0,0,0,0,0,62,65,40,20,79,-28.23,21,28.0,-12.0,-987.0,11:36:28.019962,192.168.0.111
1071,1,5,6,42,"-1,4,-179",1,0,0,0,0,0,62,65,39,20,79,-28.3,21,17.0,-5.0,-995.0,11:36:28.121869,192.168.0.111
1076,1,5,6,42,"-1,4,-179",1,0,0,0,0,0,62,65,39,20,79,-28.3,21,9.0,-2.0,-998.0,11:36:28.223876,192.168.0.111
1081,1,5,6,42,"-1,4,-179",1,0,0,0,0,0,62,65,39,20,79,-28.33,21,30.0,-11.0,-997.0,11:36:28.325901,192.168.0.111
1086,1,5,7,42,"-1,4,180",1,0,0,0,0,0,62,65,39,20,79,-28.29,21,9.0,4.0,-1005.0,11:36:28.427873,192.168.0.111
1091,1,5,7,42,"-1,4,180",1,0,0,0,0,0,62,65,39,20,79,-28.28,21,15.0,2.0,-1002.0,11:36:28.531205,192.168.0.111
1097,1,5,7,42,"-1,4,180",1,0,0,0,0,0,62,65,39,20,79,-28.33,21,14.0,4.0,-1000.0,11:36:28.632421,192.168.0.111
1102,1,5,6,41,"-1,4,179",1,0,0,0,0,0,62,65,39,20,79,-28.27,21,20.0,-3.0,-988.0,11:36:28.733819,192.168.0.111
1107,1,5,6,41,"-1,4,179",1,0,0,0,0,0,62,65,39,20,79,-28.33,22,27.0,0.0,-1003.0,11:36:28.835954,192.168.0.111
1112,1,5,6,41,"-1,4,179",2,1,0,0,0,0,62,65,39,20,79,-28.46,22,13.0,10.0,-999.0,11:36:28.937765,192.168.0.111
1117,1,5,6,41,"-1,4,179",2,1,0,0,0,0,62,65,39,20,79,-28.52,22,12.0,0.0,-1000.0,11:36:29.039964,192.168.0.111
1122,1,5,6,41,"-1,4,179",1,0,0,0,0,0,62,65,38,20,79,-28.0,22,18.0,2.0,-1005.0,11:36:29.142263,192.168.0.111
1127,1,5,6,41,"-1,4,179",1,0,0,0,0,0,62,65,38,20,79,-27.87,22,15.0,7.0,-1001.0,11:36:29.243752,192.168.0.111
1133,1,5,6,41,"-1,4,179",0,-1,0,0,0,0,62,65,39,20,79,-28.37,22,28.0,-11.0,-1008.0,11:36:29.345872,192.168.0.111
1138,1,5,6,41,"-1,4,179",0,-1,0,0,0,0,62,65,38,20,79,-27.9,22,6.0,6.0,-991.0,11:36:29.447731,192.168.0.111
1143,1,5,5,41,"-2,4,-178",0,0,0,0,0,0,62,65,38,20,79,-27.99,22,19.0,-9.0,-1002.0,11:36:29.549815,192.168.0.111
1148,1,5,5,41,"-2,4,-178",0,0,0,0,0,0,62,65,39,20,79,-27.93,22,5.0,2.0,-995.0,11:36:29.654975,192.168.0.111
1153,1,5,5,41,"-2,4,-178",1,0,0,0,0,0,62,65,39,20,79,-27.95,22,8.0,0.0,-1000.0,11:36:29.753730,192.168.0.111
1156,1,5,5,41,"-2,4,-178",1,0,0,0,0,0,62,65,39,20,79,-27.93,23,17.0,-1.0,-1000.0,11:36:29.804773,192.168.0.111
1161,1,3,3,41,"-1,4,179",1,0,0,0,0,0,62,65,39,20,79,-27.91,23,11.0,0.0,-1003.0,11:36:29.906793,192.168.0.111
1166,1,3,3,41,"-1,4,179",1,0,0,0,0,0,62,65,39,20,79,-27.87,23,4.0,10.0,-1006.0,11:36:30.009305,192.168.0.111
1171,1,3,3,41,"-1,4,179",1,0,0,0,0,0,62,65,39,20,79,-27.99,23,12.0,-2.0,-1000.0,11:36:30.110886,192.168.0.111
1176,1,3,3,41,"-1,4,179",1,0,0,0,0,0,62,65,39,20,79,-27.96,23,19.0,4.0,-997.0,11:36:30.212628,192.168.0.111
1181,1,3,3,41,"-1,4,179",1,0,0,0,0,0,62,65,39,20,79,-27.92,23,11.0,-4.0,-999.0,11:36:30.314882,192.168.0.111
1186,1,3,3,41,"-1,4,179",1,0,0,0,0,0,62,65,39,20,79,-27.98,23,16.0,-8.0,-981.0,11:36:30.416740,192.168.0.111
1191,1,3,3,41,"-1,4,179",1,0,0,0,0,0,62,65,39,20,79,-27.99,23,13.0,-3.0,-983.0,11:36:30.518841,192.168.0.111
1196,1,5,5,42,"-1,4,-179",1,0,0,0,0,0,62,65,39,20,79,-27.96,23,3.0,-2.0,-984.0,11:36:30.620782,192.168.0.111
1201,1,5,5,42,"-1,4,-179",1,0,0,0,0,0,62,65,39,20,79,-28.0,23,20.0,-8.0,-1010.0,11:36:30.726417,192.168.0.111
1206,1,5,5,42,"-1,4,-179",1,0,0,0,0,0,62,65,39,20,79,-27.97,24,14.0,-6.0,-994.0,11:36:30.824787,192.168.0.111
1211,1,5,5,42,"-1,4,-179",1,0,0,0,0,0,62,65,39,20,79,-28.0,24,25.0,-13.0,-999.0,11:36:30.926916,192.168.0.111
1216,1,5,6,42,"-1,4,180",1,0,0,0,0,0,62,65,39,20,79,-28.0,24,9.0,5.0,-996.0,11:36:31.031174,192.168.0.111
1221,1,5,6,42,"-1,4,180",1,0,0,0,0,0,62,65,39,20,79,-28.07,24,23.0,-8.0,-1010.0,11:36:31.132824,192.168.0.111
1226,1,5,6,42,"-1,4,180",1,0,0,0,0,0,62,65,39,20,79,-28.04,24,9.0,-4.0,-997.0,11:36:31.232707,192.168.0.111
1231,1,6,6,41,"0,4,-179",1,0,0,0,0,0,62,65,39,20,79,-27.99,24,10.0,-11.0,-996.0,11:36:31.334584,192.168.0.111
1236,1,6,6,41,"0,4,-179",1,0,0,0,0,0,62,65,39,20,79,-28.09,24,21.0,-10.0,-996.0,11:36:31.436708,192.168.0.111
1241,1,6,6,41,"0,4,-179",1,0,0,0,0,0,62,65,39,20,79,-28.04,24,18.0,-13.0,-992.0,11:36:31.538757,192.168.0.111
1246,1,6,6,41,"0,4,-179",1,0,0,0,0,0,62,65,39,20,79,-28.05,24,5.0,0.0,-996.0,11:36:31.641134,192.168.0.111
1251,1,7,7,41,"0,4,-179",1,0,0,0,0,0,62,65,39,20,79,-28.02,24,15.0,-13.0,-1002.0,11:36:31.744306,192.168.0.111
1256,1,7,7,41,"0,4,-179",1,0,0,0,0,0,62,65,39,20,79,-28.03,25,19.0,-16.0,-1001.0,11:36:31.844838,192.168.0.111
1262,1,7,7,41,"0,4,-179",1,0,0,0,0,0,62,65,39,20,79,-28.05,25,24.0,-13.0,-998.0,11:36:31.946787,192.168.0.111
1267,1,7,7,41,"0,4,-179",1,0,0,0,0,0,62,65,39,20,79,-28.01,25,15.0,-7.0,-992.0,11:36:32.048879,192.168.0.111
1272,1,8,8,41,"0,4,-179",1,0,0,0,0,0,62,65,39,20,79,-28.08,25,13.0,2.0,-1001.0,11:36:32.150624,192.168.0.111
1277,1,8,8,41,"0,4,-179",1,0,0,0,0,0,62,65,39,20,79,-28.01,25,13.0,-6.0,-999.0,11:36:32.252750,192.168.0.111
1282,1,8,8,41,"0,4,-179",1,0,0,0,0,0,62,65,39,20,79,-27.93,25,15.0,-12.0,-1001.0,11:36:32.354309,192.168.0.111
1287,1,8,8,41,"0,4,-179",1,0,0,0,0,0,63,65,39,20,79,-27.99,25,16.0,-13.0,-1002.0,11:36:32.456600,192.168.0.111
1292,1,8,8,41,"0,4,-179",1,0,0,0,0,0,63,65,39,20,79,-28.01,25,-1.0,8.0,-1007.0,11:36:32.558408,192.168.0.111
1297,1,8,8,41,"0,4,-179",1,0,0,0,0,0,63,65,39,20,79,-28.01,25,26.0,-17.0,-997.0,11:36:32.660620,192.168.0.111
1302,1,8,8,41,"0,4,-179",1,0,0,0,0,0,63,65,39,20,79,-27.98,25,14.0,1.0,-1001.0,11:36:32.762707,192.168.0.111
1307,1,8,8,41,"0,4,-179",1,0,0,0,0,0,63,65,39,20,79,-28.01,26,4.0,3.0,-1003.0,11:36:32.864777,192.168.0.111
1312,1,8,8,41,"0,4,-179",1,0,0,0,0,0,63,65,39,20,79,-28.09,26,22.0,0.0,-1001.0,11:36:32.966898,192.168.0.111
1318,1,8,8,41,"0,4,-179",1,0,0,0,0,0,63,65,40,20,79,-27.98,26,15.0,-8.0,-1001.0,11:36:33.068818,192.168.0.111
1321,1,8,8,41,"0,4,-179",1,0,0,0,0,0,63,65,40,20,79,-28.05,26,10.0,-13.0,-988.0,11:36:33.119328,192.168.0.111
1326,1,8,8,41,"0,4,-179",1,0,0,0,0,0,63,65,40,20,79,-27.94,26,12.0,-10.0,-1002.0,11:36:33.221756,192.168.0.111
1331,1,8,8,41,"0,4,-179",1,0,0,0,0,0,63,65,40,20,79,-28.02,26,16.0,-5.0,-998.0,11:36:33.323473,192.168.0.111
1336,1,8,8,41,"0,4,-179",3,2,0,0,0,0,62,65,40,20,79,-28.0,26,9.0,6.0,-992.0,11:36:33.425662,192.168.0.111
1341,1,8,8,41,"0,4,-179",3,2,0,0,0,0,62,65,40,20,79,-27.96,26,28.0,-11.0,-1013.0,11:36:33.527576,192.168.0.111
1346,1,8,8,41,"0,4,-179",2,1,0,0,0,0,62,65,40,20,79,-27.91,26,23.0,-4.0,-998.0,11:36:33.629638,192.168.0.111
1351,1,8,8,41,"0,4,-179",1,1,0,0,0,0,62,65,40,20,79,-27.96,26,22.0,-5.0,-994.0,11:36:33.731651,192.168.0.111
1356,1,8,8,41,"0,4,-179",1,0,0,0,0,0,62,65,39,20,79,-28.04,27,22.0,0.0,-1004.0,11:36:33.833677,192.168.0.111
1361,1,8,8,41,"0,4,-179",1,0,0,0,0,0,62,65,39,20,79,-28.02,27,25.0,-9.0,-986.0,11:36:33.935638,192.168.0.111
1366,1,8,7,42,"-2,4,-178",1,-1,0,0,0,0,62,65,39,20,79,-28.02,27,27.0,-8.0,-1013.0,11:36:34.037229,192.168.0.111
1371,1,8,7,42,"-2,4,-178",1,0,0,0,0,0,62,65,39,20,79,-28.05,27,34.0,0.0,-1020.0,11:36:34.143212,192.168.0.111
1376,1,8,7,42,"-2,4,-178",1,0,0,0,0,0,62,65,39,20,79,-28.06,27,17.0,1.0,-1030.0,11:36:34.242445,192.168.0.111
1381,1,4,4,42,"-2,4,179",0,0,0,0,0,0,62,65,39,20,79,-27.99,27,28.0,-2.0,-992.0,11:36:34.343696,192.168.0.111
1386,1,4,4,42,"-2,4,179",0,0,0,0,0,0,62,65,39,20,79,-28.01,27,15.0,-8.0,-986.0,11:36:34.445639,192.168.0.111
1391,1,4,4,42,"-2,4,179",0,0,0,0,0,0,62,65,39,20,79,-27.98,27,26.0,-3.0,-996.0,11:36:34.547658,192.168.0.111
1396,1,4,4,42,"-2,4,179",1,0,0,0,0,0,62,65,39,20,79,-28.05,27,19.0,3.0,-1008.0,11:36:34.649379,192.168.0.111
1401,1,2,2,42,"0,4,-178",1,0,0,0,0,0,62,65,39,20,79,-27.94,27,18.0,-1.0,-987.0,11:36:34.751571,192.168.0.111
1406,1,2,2,42,"0,4,-178",1,0,0,0,0,0,62,65,39,20,79,-27.96,28,12.0,0.0,-996.0,11:36:34.853826,192.168.0.111
1411,1,2,2,42,"0,4,-178",0,0,0,0,0,0,62,65,39,20,79,-28.05,28,5.0,1.0,-1005.0,11:36:34.955567,192.168.0.111
1416,1,2,2,42,"0,4,-178",0,0,0,0,0,0,62,65,39,20,79,-27.98,28,12.0,3.0,-1003.0,11:36:35.057633,192.168.0.111
1421,1,1,2,42,"-2,4,-178",0,0,0,0,0,0,62,65,39,20,79,-28.0,28,12.0,0.0,-969.0,11:36:35.161447,192.168.0.111
1426,1,1,2,42,"-2,4,-178",0,0,0,0,0,0,62,65,39,20,79,-28.03,28,8.0,9.0,-997.0,11:36:35.261841,192.168.0.111
1432,1,1,2,42,"-2,4,-178",1,0,0,0,0,0,62,65,39,20,79,-28.04,28,17.0,5.0,-972.0,11:36:35.363656,192.168.0.111
1437,1,1,2,42,"-2,4,-178",1,0,0,0,0,0,62,65,39,20,79,-27.99,28,27.0,-2.0,-1009.0,11:36:35.465655,192.168.0.111
1442,1,1,2,42,"-2,4,-178",1,0,0,0,0,0,62,65,39,20,79,-28.0,28,13.0,2.0,-984.0,11:36:35.567674,192.168.0.111
1447,1,1,2,42,"-2,4,-178",1,0,0,0,0,0,62,65,38,20,79,-28.09,28,23.0,6.0,-1012.0,11:36:35.669525,192.168.0.111
1452,1,1,2,42,"-2,4,-178",1,0,0,0,0,0,62,65,38,20,79,-27.99,28,27.0,10.0,-1007.0,11:36:35.772141,192.168.0.111
1457,1,3,3,41,"-2,4,179",2,0,0,0,0,0,62,65,38,20,79,-27.96,29,28.0,2.0,-1008.0,11:36:35.876701,192.168.0.111
1462,1,3,3,41,"-2,4,179",2,0,0,0,0,0,62,65,38,20,79,-27.98,29,15.0,4.0,-1000.0,11:36:35.975586,192.168.0.111
1467,1,3,3,41,"-2,4,179",1,0,0,0,0,0,62,65,38,20,79,-28.0,29,24.0,-2.0,-1003.0,11:36:36.077616,192.168.0.111
1472,1,3,3,41,"-2,4,179",2,0,0,0,0,0,62,65,39,20,79,-27.97,29,24.0,-3.0,-994.0,11:36:36.179737,192.168.0.111
1477,1,5,2,41,"-2,4,180",2,0,0,0,0,0,62,65,39,20,79,-27.97,29,22.0,2.0,-995.0,11:36:36.281465,192.168.0.111
1482,1,5,2,41,"-2,4,180",2,0,0,0,0,0,62,65,39,20,79,-28.0,29,28.0,5.0,-991.0,11:36:36.383426,192.168.0.111
1488,1,5,2,41,"-2,4,180",3,0,0,0,0,0,63,66,39,20,79,-28.01,29,23.0,-1.0,-998.0,11:36:36.485601,192.168.0.111
1493,1,5,2,41,"-2,4,180",3,0,0,0,0,0,63,66,39,20,79,-27.99,29,23.0,9.0,-1005.0,11:36:36.587606,192.168.0.111
1498,1,7,3,41,"-2,4,180",2,0,0,0,0,0,63,66,39,20,79,-27.94,29,29.0,0.0,-994.0,11:36:36.689629,192.168.0.111
1503,1,7,3,41,"-2,4,180",2,0,0,0,0,0,63,66,39,20,79,-27.97,29,27.0,10.0,-991.0,11:36:36.791516,192.168.0.111
1508,1,7,3,41,"-2,4,180",2,0,0,0,0,0,63,66,38,20,79,-27.96,30,25.0,3.0,-1004.0,11:36:36.893638,192.168.0.111
1511,1,7,3,41,"-3,4,-179",1,0,0,0,0,0,63,66,38,20,79,-28.0,30,15.0,19.0,-1011.0,11:36:36.944435,192.168.0.111
1516,1,7,3,41,"-3,4,-179",1,0,0,0,0,0,63,66,38,20,79,-28.01,30,15.0,0.0,-992.0,11:36:37.046166,192.168.0.111
1521,1,7,3,41,"-3,4,-179",0,0,0,0,0,0,63,66,40,20,79,-27.94,30,32.0,2.0,-988.0,11:36:37.148598,192.168.0.111
1526,1,7,3,41,"-3,4,-179",0,0,0,0,0,0,63,66,39,20,79,-28.03,30,27.0,-8.0,-996.0,11:36:37.250440,192.168.0.111
1531,1,5,3,41,"-2,5,180",0,0,0,0,0,0,63,66,39,20,79,-28.03,30,18.0,1.0,-1001.0,11:36:37.352581,192.168.0.111
1536,1,5,3,41,"-2,5,180",1,0,0,0,0,0,62,65,40,20,79,-28.01,30,21.0,-3.0,-984.0,11:36:37.454471,192.168.0.111
1541,1,5,3,41,"-2,5,180",1,0,0,0,0,0,62,65,40,20,79,-27.97,30,20.0,-4.0,-994.0,11:36:37.556019,192.168.0.111
1546,1,5,3,41,"-2,5,180",1,0,0,0,0,0,62,65,40,20,79,-28.03,30,22.0,-4.0,-995.0,11:36:37.658603,192.168.0.111
1551,1,5,3,41,"-2,5,180",1,0,0,0,0,0,62,65,40,20,79,-28.0,30,17.0,-6.0,-987.0,11:36:37.760598,192.168.0.111
1556,1,5,3,41,"-2,5,180",1,0,0,0,0,0,62,65,40,20,79,-28.0,31,22.0,-7.0,-992.0,11:36:37.862364,192.168.0.111
1561,1,5,3,41,"-2,5,180",1,0,0,0,0,0,62,65,40,20,79,-27.94,31,20.0,4.0,-1006.0,11:36:37.964459,192.168.0.111
1566,1,5,3,41,"-2,5,180",1,0,0,0,0,0,62,65,40,20,79,-27.93,31,18.0,0.0,-998.0,11:36:38.066438,192.168.0.111
1571,1,5,3,41,"-2,5,180",1,0,0,0,0,0,62,65,39,20,79,-28.0,31,31.0,7.0,-996.0,11:36:38.168453,192.168.0.111
1576,1,5,3,41,"-2,5,180",1,0,0,0,0,0,62,65,39,20,79,-27.96,31,23.0,-4.0,-985.0,11:36:38.270497,192.168.0.111
1581,1,5,3,41,"-2,5,180",1,0,0,0,0,0,62,65,39,20,79,-27.9,31,27.0,0.0,-998.0,11:36:38.372586,192.168.0.111
1586,1,4,3,42,"-2,4,180",1,0,0,0,0,0,62,65,39,20,79,-27.89,31,17.0,0.0,-999.0,11:36:38.474508,192.168.0.111
1591,1,4,3,42,"-2,4,180",1,0,0,0,0,0,62,65,40,20,79,-27.91,31,29.0,-4.0,-989.0,11:36:38.576518,192.168.0.111
1596,1,4,3,42,"-2,4,180",1,0,0,0,0,0,62,65,40,20,79,-27.97,31,17.0,8.0,-996.0,11:36:38.678602,192.168.0.111
1602,1,4,3,42,"-2,4,180",1,0,0,0,0,0,62,65,40,20,79,-28.01,31,20.0,15.0,-1006.0,11:36:38.780613,192.168.0.111
1607,1,5,2,42,"-2,4,180",1,0,0,0,0,0,62,65,40,20,79,-27.95,32,28.0,0.0,-994.0,11:36:38.882560,192.168.0.111
1612,1,5,2,42,"-2,4,180",1,0,0,0,0,0,62,65,40,20,79,-27.92,32,24.0,0.0,-1008.0,11:36:38.984504,192.168.0.111
1617,1,5,2,42,"-2,4,180",1,0,0,0,0,0,62,65,40,20,79,-27.9,32,17.0,5.0,-996.0,11:36:39.086476,192.168.0.111
1622,1,5,2,42,"-2,4,180",1,0,0,0,0,0,62,65,41,20,79,-27.92,32,19.0,9.0,-994.0,11:36:39.188630,192.168.0.111
1627,1,7,2,42,"-2,5,179",1,0,0,0,0,0,62,65,40,20,79,-27.99,32,21.0,3.0,-995.0,11:36:39.290622,192.168.0.111
1632,1,7,2,42,"-2,5,179",1,0,0,0,0,0,62,65,41,20,79,-27.93,32,28.0,8.0,-985.0,11:36:39.392509,192.168.0.111
1637,1,7,2,42,"-2,5,179",3,0,0,0,0,0,62,66,40,20,79,-27.98,32,21.0,8.0,-1000.0,11:36:39.494723,192.168.0.111
1642,1,7,1,42,"-2,5,180",3,0,0,0,0,0,62,66,40,20,79,-27.89,32,30.0,-7.0,-993.0,11:36:39.596402,192.168.0.111
1647,1,7,1,42,"-2,5,180",2,0,0,0,0,0,62,66,40,20,79,-27.92,32,28.0,1.0,-998.0,11:36:39.698397,192.168.0.111
1653,1,7,1,42,"-2,5,180",2,0,0,0,0,0,62,66,40,20,79,-28.0,32,32.0,6.0,-994.0,11:36:39.800606,192.168.0.111
1658,1,7,1,42,"-2,5,180",1,0,0,0,0,0,62,66,39,20,79,-27.93,33,34.0,-4.0,-984.0,11:36:39.902425,192.168.0.111
1663,1,9,2,41,"0,5,179",2,0,0,0,0,0,62,66,39,20,79,-27.94,33,26.0,4.0,-1004.0,11:36:40.004377,192.168.0.111
1668,1,9,2,41,"0,5,179",2,0,0,0,0,0,62,66,39,20,79,-27.94,33,26.0,0.0,-992.0,11:36:40.106431,192.168.0.111
1673,1,9,2,41,"0,5,179",1,0,0,0,0,0,62,66,39,20,79,-27.99,33,20.0,-4.0,-1014.0,11:36:40.208480,192.168.0.111
1676,1,9,2,41,"0,5,179",0,0,0,0,0,0,62,66,39,20,79,-27.94,33,25.0,9.0,-1002.0,11:36:40.259273,192.168.0.111
1681,1,4,1,42,"-3,5,178",0,0,0,0,0,0,62,66,39,20,79,-27.98,33,34.0,-12.0,-1001.0,11:36:40.361368,192.168.0.111
1686,1,4,1,42,"-3,5,178",0,0,0,0,0,0,63,65,39,20,79,-28.08,33,17.0,-1.0,-996.0,11:36:40.463332,192.168.0.111
1691,1,4,1,42,"-3,5,178",1,0,0,0,0,0,63,65,39,20,79,-27.98,33,14.0,0.0,-1002.0,11:36:40.565502,192.168.0.111
1696,1,2,0,42,"-1,5,180",1,0,0,0,0,0,63,65,39,20,79,-27.99,33,23.0,-8.0,-992.0,11:36:40.667391,192.168.0.111
1701,1,2,0,42,"-1,5,180",1,0,0,0,0,0,63,65,39,20,79,-28.01,33,19.0,-1.0,-1000.0,11:36:40.769214,192.168.0.111
1706,1,2,0,42,"-1,5,180",1,0,0,0,0,0,63,65,39,20,79,-28.0,34,9.0,1.0,-1003.0,11:36:40.871278,192.168.0.111
1711,1,2,0,42,"-1,5,180",1,0,0,0,0,0,63,65,40,20,79,-27.99,34,29.0,-6.0,-1002.0,11:36:40.973458,192.168.0.111
1716,1,2,0,42,"-2,5,-179",1,0,0,0,0,0,63,65,40,20,79,-27.94,34,6.0,3.0,-1006.0,11:36:41.075434,192.168.0.111
1721,1,2,0,42,"-2,5,-179",1,0,0,0,0,0,63,65,40,20,79,-27.96,34,22.0,-7.0,-1005.0,11:36:41.177444,192.168.0.111
1726,1,2,0,42,"-2,5,-179",1,0,0,0,0,0,63,65,40,20,79,-28.02,34,16.0,-10.0,-995.0,11:36:41.279379,192.168.0.111
1731,1,2,0,42,"-2,5,-179",1,0,0,0,0,0,63,65,40,20,79,-28.05,34,21.0,-9.0,-987.0,11:36:41.384986,192.168.0.111
1736,1,2,0,43,"-2,5,180",1,0,0,0,0,0,63,65,40,20,79,-28.02,34,25.0,-10.0,-999.0,11:36:41.483216,192.168.0.111
1741,1,2,0,43,"-2,5,180",1,0,0,0,0,0,63,65,41,20,79,-28.09,34,19.0,-14.0,-995.0,11:36:41.585403,192.168.0.111
1746,1,2,0,43,"-2,5,180",1,0,0,0,0,0,63,65,40,20,79,-28.09,34,16.0,-7.0,-998.0,11:36:41.687304,192.168.0.111
1751,1,2,0,43,"-2,5,180",1,1,0,0,0,0,63,65,41,20,79,-28.1,34,15.0,-12.0,-1001.0,11:36:41.789248,192.168.0.111
1756,1,3,1,43,"-2,5,180",1,0,0,0,0,0,63,65,40,20,79,-28.13,35,15.0,-18.0,-989.0,11:36:41.891561,192.168.0.111
1761,1,3,1,43,"-2,5,180",1,0,0,0,0,0,63,65,40,20,79,-27.97,35,11.0,-4.0,-999.0,11:36:41.994035,192.168.0.111
1766,1,3,1,43,"-2,5,180",1,0,0,0,0,0,63,65,40,20,79,-28.04,35,19.0,-14.0,-1001.0,11:36:42.096576,192.168.0.111
1771,1,3,2,43,"-3,5,179",1,0,0,0,0,0,63,65,40,20,79,-27.99,35,20.0,-12.0,-1002.0,11:36:42.198894,192.168.0.111
1776,1,3,2,43,"-3,5,179",1,0,0,0,0,0,63,65,40,20,79,-28.03,35,16.0,-11.0,-1005.0,11:36:42.301413,192.168.0.111
1781,1,3,2,43,"-3,5,179",1,0,0,0,0,0,63,65,40,20,79,-27.95,35,25.0,-13.0,-1004.0,11:36:42.403624,192.168.0.111
1786,1,3,2,43,"-3,5,179",1,0,0,0,0,0,63,65,40,20,79,-27.95,35,11.0,4.0,-1003.0,11:36:42.503307,192.168.0.111
1792,1,5,3,43,"-2,5,179",1,0,0,0,0,0,63,65,40,20,79,-27.87,35,21.0,-5.0,-989.0,11:36:42.605320,192.168.0.111
1797,1,5,3,43,"-2,5,179",1,0,0,0,0,0,63,65,40,20,79,-27.92,35,19.0,-8.0,-992.0,11:36:42.707464,192.168.0.111
1802,1,5,3,43,"-2,5,179",2,0,0,0,0,0,63,65,40,20,79,-27.98,35,23.0,-17.0,-1010.0,11:36:42.809547,192.168.0.111
1807,1,5,3,43,"-2,5,179",2,0,0,0,0,0,63,65,40,20,79,-27.92,36,20.0,-5.0,-1002.0,11:36:42.911666,192.168.0.111
1812,1,5,3,43,"-2,5,180",2,0,0,0,0,0,63,65,40,20,79,-27.91,36,20.0,0.0,-1006.0,11:36:43.013885,192.168.0.111
1817,1,5,3,43,"-2,5,180",1,0,0,0,0,0,63,65,41,20,79,-28.01,36,28.0,-10.0,-994.0,11:36:43.115404,192.168.0.111
1823,1,5,3,43,"-2,5,180",0,0,0,0,0,0,63,65,41,20,79,-28.0,36,15.0,-5.0,-997.0,11:36:43.217369,192.168.0.111
1828,1,5,2,43,"-3,5,-179",0,0,0,0,0,0,63,65,41,20,79,-28.06,36,11.0,-3.0,-1000.0,11:36:43.319271,192.168.0.111
1833,1,5,2,43,"-3,5,-179",0,0,0,0,0,0,63,65,40,20,79,-28.01,36,15.0,-14.0,-996.0,11:36:43.421412,192.168.0.111
1838,1,5,2,43,"-3,5,-179",1,0,0,0,0,0,63,66,41,20,79,-28.01,36,18.0,-13.0,-1010.0,11:36:43.523298,192.168.0.111
1843,1,5,2,43,"-3,5,-179",1,0,0,0,0,0,63,66,41,20,79,-27.92,36,12.0,1.0,-998.0,11:36:43.628929,192.168.0.111
1848,1,4,2,43,"-1,5,-179",1,0,0,0,0,0,63,66,41,20,79,-28.02,36,14.0,-8.0,-996.0,11:36:43.727328,192.168.0.111
1851,1,4,2,43,"-1,5,-179",1,0,0,0,0,0,63,66,40,20,79,-28.03,36,16.0,-3.0,-1002.0,11:36:43.778390,192.168.0.111
1856,1,4,2,43,"-1,5,-179",1,0,0,0,0,0,63,66,41,20,79,-27.89,37,12.0,-6.0,-996.0,11:36:43.880362,192.168.0.111
1861,1,4,2,43,"-1,5,-179",1,0,0,0,0,0,63,66,40,20,79,-27.95,37,12.0,-9.0,-988.0,11:36:43.982292,192.168.0.111
1866,1,4,2,43,"-1,5,-179",1,0,0,0,0,0,63,66,40,20,79,-27.93,37,13.0,-1.0,-1002.0,11:36:44.084188,192.168.0.111
1871,1,4,2,43,"-1,5,-179",1,0,0,0,0,0,63,66,40,20,79,-27.97,37,11.0,-3.0,-1006.0,11:36:44.186386,192.168.0.111
1876,1,4,2,43,"-1,5,-179",1,0,0,0,0,0,63,66,40,20,79,-27.95,37,14.0,-1.0,-996.0,11:36:44.288445,192.168.0.111
1881,1,4,2,43,"-2,5,-179",0,0,0,0,0,0,63,66,40,20,79,-27.93,37,4.0,1.0,-1009.0,11:36:44.390292,192.168.0.111
1886,1,4,2,43,"-2,5,-179",0,0,0,0,0,0,63,66,40,20,79,-27.92,37,12.0,-2.0,-991.0,11:36:44.492394,192.168.0.111
1891,1,4,2,43,"-2,5,-179",0,0,0,0,0,0,63,66,40,20,79,-27.95,37,15.0,7.0,-1002.0,11:36:44.594111,192.168.0.111
1896,1,4,2,43,"-2,5,-179",0,0,0,0,0,0,63,66,39,20,79,-27.94,37,15.0,0.0,-996.0,11:36:44.696180,192.168.0.111
1901,1,4,2,43,"-1,5,180",0,0,0,0,0,0,63,66,39,20,79,-27.99,37,15.0,2.0,-998.0,11:36:44.800273,192.168.0.111
1906,1,4,2,43,"-1,5,180",0,0,0,0,0,0,63,66,39,20,79,-27.85,38,10.0,2.0,-1003.0,11:36:44.900249,192.168.0.111
1911,1,4,2,43,"-1,5,180",0,0,0,0,0,0,63,66,39,20,79,-27.87,38,9.0,6.0,-1010.0,11:36:45.002245,192.168.0.111
1916,1,4,2,43,"-1,5,180",0,0,0,0,0,0,63,66,39,20,79,-27.95,38,7.0,6.0,-999.0,11:36:45.104283,192.168.0.111
1921,1,4,1,42,"-1,5,179",1,0,0,0,0,0,63,66,39,20,79,-27.95,38,9.0,6.0,-997.0,11:36:45.206293,192.168.0.111
1926,1,4,1,42,"-1,5,179",1,0,0,0,0,0,63,66,40,20,79,-27.93,38,16.0,11.0,-1005.0,11:36:45.308369,192.168.0.111
1931,1,4,1,42,"-1,5,179",1,0,0,0,0,0,63,66,40,20,79,-27.9,38,15.0,8.0,-1003.0,11:36:45.410026,192.168.0.111
1936,1,4,0,42,"-1,5,179",1,0,0,0,0,0,63,66,40,20,79,-27.89,38,14.0,11.0,-1007.0,11:36:45.514411,192.168.0.111
1941,1,4,0,42,"-1,5,179",1,0,0,0,0,0,63,66,40,20,79,-27.93,38,14.0,8.0,-993.0,11:36:45.614110,192.168.0.111
1946,1,4,0,42,"-1,5,179",1,0,0,0,0,0,63,66,40,20,79,-27.86,38,10.0,7.0,-993.0,11:36:45.716234,192.168.0.111
1951,1,4,0,42,"-1,5,179",0,0,0,0,0,0,63,66,40,20,79,-27.93,39,12.0,-3.0,-987.0,11:36:45.818182,192.168.0.111
1956,1,5,0,42,"-1,5,178",1,0,0,0,0,0,63,66,40,20,79,-27.9,39,15.0,11.0,-1006.0,11:36:45.920154,192.168.0.111
1961,1,5,0,42,"-1,5,178",1,0,0,0,0,0,63,66,41,20,79,-27.85,39,11.0,6.0,-1015.0,11:36:46.022190,192.168.0.111
1967,1,5,0,42,"-1,5,178",1,0,0,0,0,0,63,66,41,20,79,-27.91,39,21.0,6.0,-996.0,11:36:46.124166,192.168.0.111
1972,1,5,0,42,"-1,5,178",1,0,0,0,0,0,63,66,41,20,79,-27.97,39,12.0,3.0,-997.0,11:36:46.226338,192.168.0.111
1977,1,6,0,42,"-1,5,178",1,0,0,0,0,0,63,66,41,20,79,-27.86,39,4.0,7.0,-991.0,11:36:46.328283,192.168.0.111
1982,1,6,0,42,"-1,5,178",1,0,0,0,0,0,63,66,41,20,79,-27.95,39,15.0,4.0,-1019.0,11:36:46.430269,192.168.0.111
1987,1,6,0,42,"-1,5,178",1,0,0,0,0,0,63,66,41,20,79,-27.96,39,8.0,-3.0,-1009.0,11:36:46.532262,192.168.0.111
1993,1,6,0,42,"-1,5,178",1,0,0,0,0,0,63,66,40,20,79,-27.94,39,12.0,6.0,-996.0,11:36:46.634222,192.168.0.111
1998,1,7,-1,42,"-1,5,180",1,0,0,0,0,0,63,66,40,20,79,-27.91,39,10.0,10.0,-1009.0,11:36:46.735916,192.168.0.111
2003,1,7,-1,42,"-1,5,180",1,0,0,0,0,0,63,66,40,20,79,-27.93,40,15.0,3.0,-1009.0,11:36:46.838219,192.168.0.111
2008,1,7,-1,42,"-1,5,180",1,0,0,0,0,0,63,66,40,20,79,-27.93,40,11.0,-4.0,-992.0,11:36:46.940860,192.168.0.111
2013,1,7,-1,42,"-1,5,180",1,0,0,0,0,0,63,66,41,20,79,-27.97,40,18.0,11.0,-999.0,11:36:47.041833,192.168.0.111
2018,1,7,-1,42,"-1,5,180",1,0,0,0,0,0,63,66,41,20,79,-27.96,40,13.0,1.0,-1001.0,11:36:47.144282,192.168.0.111
2023,1,7,-1,42,"-1,5,180",1,0,0,0,0,0,63,66,40,20,79,-27.93,40,18.0,5.0,-995.0,11:36:47.246141,192.168.0.111
2028,1,7,-1,42,"-1,5,180",1,0,0,0,0,0,63,66,40,20,79,-28.04,40,17.0,9.0,-995.0,11:36:47.349858,192.168.0.111
2031,1,7,0,42,"-1,5,179",1,0,0,0,0,0,63,66,40,20,79,-27.98,40,10.0,4.0,-1003.0,11:36:47.399287,192.168.0.111
2038,1,7,0,42,"-1,5,179",1,0,0,0,0,0,64,66,40,20,79,-27.93,40,11.0,9.0,-1009.0,11:36:47.551709,192.168.0.111
2041,1,7,0,42,"-1,5,179",1,0,0,0,0,0,64,66,40,20,78,-27.94,40,12.0,1.0,-1003.0,11:36:47.603099,192.168.0.111
2046,1,7,0,42,"-1,5,179",1,0,0,0,0,0,64,66,40,20,78,-28.04,40,13.0,7.0,-1003.0,11:36:47.705121,192.168.0.111
2051,1,7,0,42,"-1,5,180",1,0,0,0,0,0,64,66,40,20,78,-27.99,41,17.0,12.0,-1002.0,11:36:47.807088,192.168.0.111
2056,1,7,0,42,"-1,5,180",1,0,0,0,0,0,64,66,40,20,78,-27.95,41,17.0,7.0,-1004.0,11:36:47.909399,192.168.0.111
2061,1,7,0,42,"-1,5,180",1,0,0,0,0,0,64,66,40,20,78,-27.99,41,12.0,7.0,-984.0,11:36:48.011299,192.168.0.111
2066,1,7,0,41,"-1,5,179",1,0,0,0,0,0,64,66,40,20,78,-27.95,41,26.0,0.0,-1010.0,11:36:48.114888,192.168.0.111
2071,1,7,0,41,"-1,5,179",1,0,0,0,0,0,64,66,39,20,78,-27.94,41,17.0,6.0,-1010.0,11:36:48.215063,192.168.0.111
2076,1,7,0,41,"-1,5,179",1,0,0,0,0,0,64,66,39,20,78,-27.93,41,14.0,8.0,-1002.0,11:36:48.317180,192.168.0.111
2081,1,7,0,41,"-1,5,179",1,0,0,0,0,0,64,66,39,20,78,-27.94,41,21.0,14.0,-984.0,11:36:48.419285,192.168.0.111
2086,1,8,0,41,"-2,5,179",1,0,0,0,0,0,63,66,39,20,78,-27.94,41,23.0,10.0,-993.0,11:36:48.521226,192.168.0.111
2091,1,8,0,41,"-2,5,179",1,0,0,0,0,0,63,66,39,20,78,-27.86,41,18.0,15.0,-1008.0,11:36:48.622952,192.168.0.111
2096,1,8,0,41,"-2,5,179",1,0,0,0,0,0,63,66,39,20,78,-27.91,41,29.0,7.0,-1001.0,11:36:48.725095,192.168.0.111
2101,1,8,0,41,"-2,5,179",2,0,0,0,0,0,63,66,39,20,78,-27.89,42,34.0,4.0,-986.0,11:36:48.828649,192.168.0.111
2106,1,8,-1,41,"-3,5,-179",4,0,0,0,0,0,63,66,39,20,78,-27.89,42,31.0,2.0,-1009.0,11:36:48.929080,192.168.0.111
2111,1,8,-1,41,"-3,5,-179",3,0,0,0,0,0,63,66,39,20,78,-27.88,42,35.0,2.0,-1001.0,11:36:49.031104,192.168.0.111
2116,1,8,-1,41,"-3,5,-179",2,0,0,0,0,0,63,66,38,20,78,-27.92,42,27.0,-5.0,-993.0,11:36:49.133152,192.168.0.111
2121,1,8,-1,41,"-3,5,-179",2,0,0,0,0,0,63,66,39,20,78,-27.9,42,28.0,1.0,-1011.0,11:36:49.235155,192.168.0.111
2126,1,10,-1,40,"-3,5,-179",2,0,0,0,0,0,63,66,39,20,78,-27.94,42,29.0,6.0,-1017.0,11:36:49.337083,192.168.0.111
2131,1,10,-1,40,"-3,5,-179",2,0,0,0,0,0,63,66,39,20,78,-27.96,42,29.0,-1.0,-997.0,11:36:49.439263,192.168.0.111
2137,1,10,-1,40,"-3,5,-179",1,0,0,0,0,0,63,65,38,20,78,-27.95,42,17.0,3.0,-997.0,11:36:49.541112,192.168.0.111
2142,1,7,-1,40,"-2,5,180",1,0,0,0,0,0,63,65,39,20,78,-27.92,42,24.0,4.0,-1001.0,11:36:49.643276,192.168.0.111
2148,1,7,-1,40,"-2,5,180",0,0,0,0,0,0,63,65,38,20,78,-27.93,42,22.0,0.0,-984.0,11:36:49.745052,192.168.0.111
2153,1,7,-1,40,"-2,5,180",0,0,0,0,0,0,63,65,38,20,78,-27.95,43,18.0,3.0,-998.0,11:36:49.847223,192.168.0.111
2157,1,7,-1,40,"-2,5,180",0,0,0,0,0,0,63,65,38,20,78,-27.94,43,11.0,-3.0,-988.0,11:36:49.949087,192.168.0.111
2162,1,4,-1,40,"-2,5,179",0,0,0,0,0,0,63,65,39,20,78,-27.93,43,21.0,5.0,-1012.0,11:36:50.052537,192.168.0.111
2167,1,4,-1,40,"-2,5,179",1,0,0,0,0,0,63,65,39,20,78,-27.93,43,17.0,0.0,-991.0,11:36:50.153103,192.168.0.111
2173,1,4,-1,40,"-2,5,179",1,0,0,0,0,0,63,65,39,20,78,-27.9,43,10.0,7.0,-1006.0,11:36:50.255053,192.168.0.111
2178,1,4,-1,40,"-2,5,179",1,0,0,0,0,0,63,65,38,20,78,-27.94,43,14.0,15.0,-1014.0,11:36:50.357190,192.168.0.111
2183,1,2,-2,40,"-2,5,179",0,0,0,0,0,0,63,65,38,20,78,-27.95,43,11.0,4.0,-1006.0,11:36:50.459778,192.168.0.111
2188,1,2,-2,40,"-2,5,179",0,0,0,0,0,0,63,66,38,20,78,-27.85,43,20.0,0.0,-1002.0,11:36:50.561064,192.168.0.111
2193,1,2,-2,40,"-2,5,179",0,0,0,0,0,0,63,66,38,20,78,-27.92,43,15.0,0.0,-997.0,11:36:50.662905,192.168.0.111
2198,1,2,-2,40,"-2,5,179",0,0,0,0,0,0,63,66,39,20,78,-27.95,43,13.0,-5.0,-1000.0,11:36:50.765233,192.168.0.111
2203,1,2,-2,40,"-2,5,179",0,0,0,0,0,0,63,66,38,20,78,-27.88,44,5.0,-2.0,-998.0,11:36:50.867082,192.168.0.111
2208,1,2,-2,40,"-2,5,179",0,0,0,0,0,0,63,66,38,20,78,-27.98,44,13.0,0.0,-1002.0,11:36:50.971887,192.168.0.111
2211,1,2,-2,40,"-2,5,179",0,0,0,0,0,0,63,66,38,20,78,-27.91,44,5.0,-7.0,-998.0,11:36:51.020058,192.168.0.111
2216,1,2,-2,40,"-2,5,179",0,0,0,0,0,0,63,66,38,20,78,-27.89,44,8.0,-3.0,-999.0,11:36:51.123983,192.168.0.111
2221,1,2,-2,40,"-2,5,179",0,0,0,0,0,0,63,66,38,20,78,-27.96,44,8.0,-9.0,-993.0,11:36:51.223973,192.168.0.111
2226,1,2,-2,40,"-2,5,179",0,0,0,0,0,0,63,66,38,20,78,-27.92,44,13.0,-4.0,-991.0,11:36:51.325960,192.168.0.111
2231,1,2,-2,40,"-2,5,179",1,0,0,0,0,0,63,66,38,20,78,-27.96,44,5.0,-10.0,-1011.0,11:36:51.428089,192.168.0.111
2236,1,2,-2,40,"-2,5,179",0,0,0,0,0,0,64,66,38,20,78,-27.87,44,8.0,-8.0,-999.0,11:36:51.529963,192.168.0.111
2241,1,2,-2,40,"-2,5,179",0,0,0,0,0,0,64,66,38,20,78,-27.89,44,27.0,-12.0,-979.0,11:36:51.632010,192.168.0.111
2246,1,2,-2,40,"-2,5,179",0,0,0,0,0,0,64,66,38,20,78,-27.89,44,7.0,10.0,-1025.0,11:36:51.734122,192.168.0.111
2251,1,2,-2,40,"-2,5,179",1,0,0,0,0,0,64,66,38,20,78,-27.93,45,14.0,-9.0,-1009.0,11:36:51.835883,192.168.0.111
2256,1,2,-2,40,"-2,5,179",1,0,0,0,0,0,64,66,38,20,78,-28.01,45,18.0,-13.0,-1006.0,11:36:51.938062,192.168.0.111
2261,1,2,-2,40,"-2,5,179",0,0,0,0,0,0,64,66,38,20,78,-27.85,45,9.0,-7.0,-1008.0,11:36:52.039887,192.168.0.111
2266,1,2,-2,40,"-2,5,179",0,0,0,0,0,0,64,66,38,20,78,-27.92,45,13.0,-15.0,-1009.0,11:36:52.142903,192.168.0.111
2271,1,2,-2,40,"-2,5,179",0,0,0,0,0,0,64,66,38,20,78,-27.94,45,10.0,-8.0,-1003.0,11:36:52.244168,192.168.0.111
2276,1,2,-2,40,"-2,5,179",1,0,0,0,0,0,64,66,38,20,78,-27.88,45,19.0,-15.0,-997.0,11:36:52.345959,192.168.0.111
2281,1,2,-2,40,"-2,5,179",1,0,0,0,0,0,64,66,38,20,78,-27.86,45,17.0,-14.0,-997.0,11:36:52.448040,192.168.0.111
2286,1,2,-2,40,"-2,5,179",1,0,0,0,0,0,63,66,38,20,78,-27.8,45,27.0,-13.0,-1003.0,11:36:52.549541,192.168.0.111
2291,1,2,-2,40,"-2,5,179",1,0,0,0,0,0,63,66,38,20,78,-27.86,45,12.0,-7.0,-1000.0,11:36:52.651982,192.168.0.111
2296,1,2,-2,40,"-2,5,179",1,0,0,0,0,0,63,66,38,20,78,-27.88,45,13.0,-6.0,-1003.0,11:36:52.754045,192.168.0.111
2301,1,2,-2,40,"-2,5,179",1,0,0,0,0,0,63,66,38,20,78,-27.9,46,11.0,-12.0,-993.0,11:36:52.855954,192.168.0.111
2306,1,2,-2,40,"-2,5,179",1,0,0,0,0,0,63,66,38,20,78,-27.94,46,13.0,-15.0,-1003.0,11:36:52.958040,192.168.0.111
2311,1,2,-2,40,"-2,5,179",1,0,0,0,0,0,63,66,38,20,78,-27.96,46,12.0,-20.0,-989.0,11:36:53.059814,192.168.0.111
2317,1,2,-2,40,"-2,5,179",1,0,0,0,0,0,63,66,38,20,78,-27.82,46,12.0,-13.0,-1003.0,11:36:53.162042,192.168.0.111
2321,1,2,-2,40,"-2,5,179",0,0,0,0,0,0,63,66,38,20,78,-27.88,46,11.0,-16.0,-997.0,11:36:53.267447,192.168.0.111
2327,1,2,-2,40,"-2,5,179",0,0,0,0,0,0,63,66,38,20,78,-27.83,46,16.0,-15.0,-987.0,11:36:53.365567,192.168.0.111
2332,1,2,-2,40,"-2,5,179",0,0,0,0,0,0,63,66,38,20,78,-27.88,46,3.0,-16.0,-997.0,11:36:53.467527,192.168.0.111
2337,1,2,-2,40,"-2,5,179",0,0,0,0,0,0,63,66,38,20,77,-27.82,46,17.0,-10.0,-1007.0,11:36:53.569873,192.168.0.111
2342,1,2,-2,40,"-2,5,179",0,0,0,0,0,0,63,66,39,20,77,-27.84,46,16.0,-7.0,-1008.0,11:36:53.671946,192.168.0.111
2348,1,2,-2,40,"-2,5,179",0,0,0,0,0,0,63,66,39,20,77,-27.86,46,15.0,-18.0,-997.0,11:36:53.774034,192.168.0.111
2353,1,2,-2,40,"-2,5,179",0,0,0,0,0,0,63,66,39,20,77,-27.89,47,25.0,-13.0,-993.0,11:36:53.876014,192.168.0.111
2358,1,2,-2,40,"-2,5,179",0,0,0,0,0,0,63,66,39,20,77,-27.91,47,25.0,-4.0,-993.0,11:36:53.977951,192.168.0.111
2363,1,2,-2,40,"-2,5,179",0,0,0,0,0,0,63,66,39,20,77,-27.83,47,18.0,-3.0,-994.0,11:36:54.079894,192.168.0.111
2368,1,2,-2,40,"-2,5,179",0,0,0,0,0,0,63,66,39,20,77,-27.86,47,11.0,-7.0,-997.0,11:36:54.182050,192.168.0.111
2373,1,2,-2,40,"-2,5,179",1,0,0,0,0,0,63,66,39,20,77,-27.85,47,11.0,-5.0,-999.0,11:36:54.283971,192.168.0.111
2378,1,2,-2,40,"-2,5,179",1,0,0,0,0,0,63,66,39,20,77,-27.84,47,16.0,-12.0,-999.0,11:36:54.385882,192.168.0.111
2381,1,2,-2,40,"-2,5,179",1,0,0,0,0,0,63,66,39,20,77,-27.8,47,11.0,-14.0,-1005.0,11:36:54.437155,192.168.0.111
2388,1,2,-2,40,"-2,5,179",1,0,0,0,0,0,63,66,39,20,77,-27.83,47,7.0,-18.0,-988.0,11:36:54.589833,192.168.0.111
2393,1,2,-2,40,"-2,5,179",0,0,0,0,0,0,63,66,39,20,77,-27.86,47,13.0,-16.0,-1000.0,11:36:54.691990,192.168.0.111
2396,1,2,-2,40,"-2,5,179",0,0,0,0,0,0,63,66,39,20,77,-27.9,47,6.0,-12.0,-1006.0,11:36:54.742945,192.168.0.111
2401,1,2,-2,40,"-2,5,179",0,0,0,0,0,0,63,66,38,20,77,-27.85,48,16.0,-18.0,-1003.0,11:36:54.844953,192.168.0.111
2406,1,2,-2,40,"-2,5,179",0,1,0,0,0,0,63,66,38,20,77,-27.9,48,14.0,-15.0,-999.0,11:36:54.946892,192.168.0.111
2411,1,2,-2,40,"-2,5,179",1,1,0,0,0,0,63,66,38,20,77,-27.85,48,13.0,-12.0,-996.0,11:36:55.048966,192.168.0.111
2416,1,2,-2,40,"-2,5,179",1,1,0,0,0,0,63,66,38,20,77,-27.93,48,16.0,-25.0,-994.0,11:36:55.151009,192.168.0.111
2421,1,2,-2,40,"-2,5,179",0,0,0,0,0,0,63,66,38,20,77,-27.88,48,6.0,-12.0,-1010.0,11:36:55.252965,192.168.0.111
2426,1,2,-2,40,"-2,5,179",0,1,0,0,0,0,63,66,38,20,77,-27.96,48,10.0,-20.0,-1009.0,11:36:55.354850,192.168.0.111
2431,1,2,-2,40,"-2,5,179",0,1,0,0,0,0,63,66,37,20,77,-27.89,48,10.0,-17.0,-995.0,11:36:55.456889,192.168.0.111
2436,1,2,-2,40,"-2,5,179",0,0,0,0,0,0,64,67,37,20,77,-27.88,48,13.0,-10.0,-999.0,11:36:55.558844,192.168.0.111
2441,1,2,-2,40,"-2,5,179",0,0,0,0,0,0,64,67,37,20,77,-27.82,48,14.0,-20.0,-1002.0,11:36:55.660834,192.168.0.111
2446,1,2,-2,40,"-2,5,179",0,0,0,0,0,0,64,67,38,20,77,-27.85,48,13.0,-8.0,-1005.0,11:36:55.762807,192.168.0.111
2451,1,2,-2,40,"-2,5,179",0,0,0,0,0,0,64,67,37,20,77,-27.88,49,14.0,-19.0,-997.0,11:36:55.864861,192.168.0.111
2456,-1,-100,-100,-100,"0,0,0",0,0,0,0,0,0,64,67,38,20,77,-27.94,49,16.0,-19.0,-1004.0,11:36:55.966871,192.168.0.111
2461,-1,-100,-100,-100,"0,0,0",0,0,0,0,0,0,64,67,38,20,77,-27.92,49,15.0,-15.0,-1010.0,11:36:56.068834,192.168.0.111
2466,-1,-100,-100,-100,"0,0,0",0,0,0,0,0,0,64,67,37,20,77,-27.92,49,16.0,-19.0,-1007.0,11:36:56.170981,192.168.0.111
2471,-1,-100,-100,-100,"0,0,0",0,0,0,0,0,0,64,67,38,20,77,-27.93,49,8.0,-10.0,-993.0,11:36:56.272845,192.168.0.111
2476,-1,-100,-100,-100,"0,0,0",0,1,0,0,0,0,64,67,38,20,77,-27.86,49,20.0,-4.0,-1008.0,11:36:56.375004,192.168.0.111
2481,-1,-100,-100,-100,"0,0,0",0,1,0,0,0,0,64,67,38,20,77,-27.89,49,21.0,-9.0,-1004.0,11:36:56.476828,192.168.0.111
2486,-1,-100,-100,-100,"0,0,0",1,0,0,0,0,0,63,67,37,20,77,-27.84,49,14.0,-21.0,-997.0,11:36:56.578866,192.168.0.111
2492,-1,-100,-100,-100,"0,0,0",1,0,0,0,0,0,63,67,38,20,77,-27.84,49,16.0,-23.0,-998.0,11:36:56.681006,192.168.0.111
2498,-1,-100,-100,-100,"0,0,0",1,0,0,0,0,0,63,67,38,20,77,-27.87,49,17.0,-23.0,-996.0,11:36:56.783176,192.168.0.111
2503,-1,-100,-100,-100,"0,0,0",1,1,0,0,0,0,63,67,38,20,77,-27.9,50,12.0,-26.0,-998.0,11:36:56.884792,192.168.0.111
2508,-1,-100,-100,-100,"0,0,0",1,1,0,0,0,0,63,67,38,20,77,-27.82,50,15.0,-16.0,-1014.0,11:36:56.986850,192.168.0.111
2513,-1,-100,-100,-100,"0,0,0",1,1,0,0,0,0,63,67,38,20,77,-27.86,50,18.0,-26.0,-994.0,11:36:57.088909,192.168.0.111
2518,-1,-100,-100,-100,"0,0,0",1,1,0,0,0,0,63,67,38,20,77,-27.96,50,20.0,-23.0,-1006.0,11:36:57.190356,192.168.0.111
2523,-1,-100,-100,-100,"0,0,0",1,1,0,0,0,0,63,67,38,20,77,-27.88,50,19.0,-25.0,-997.0,11:36:57.292808,192.168.0.111
2528,-1,-100,-100,-100,"0,0,0",1,1,0,0,0,0,63,67,37,20,77,-27.84,50,6.0,-22.0,-998.0,11:36:57.394770,192.168.0.111
2533,-1,-100,-100,-100,"0,0,0",1,1,0,0,0,0,63,67,37,20,77,-27.85,50,12.0,-22.0,-1007.0,11:36:57.496777,192.168.0.111
2538,-1,-100,-100,-100,"0,0,0",1,1,0,0,0,0,63,66,37,20,77,-27.91,50,18.0,-22.0,-997.0,11:36:57.598472,192.168.0.111
2543,-1,-100,-100,-100,"0,0,0",1,1,0,0,0,0,63,66,37,20,77,-27.88,50,13.0,-14.0,-1001.0,11:36:57.702456,192.168.0.111
2548,-1,-100,-100,-100,"0,0,0",1,1,0,0,0,0,63,66,37,20,77,-27.92,50,29.0,-31.0,-999.0,11:36:57.802860,192.168.0.111
2553,-1,-100,-100,-100,"0,0,0",1,1,0,0,0,0,63,66,37,20,77,-27.84,51,19.0,-29.0,-999.0,11:36:57.904896,192.168.0.111
2558,-1,-100,-100,-100,"0,0,0",1,1,0,0,0,0,63,66,37,20,77,-27.92,51,18.0,-21.0,-1004.0,11:36:58.007281,192.168.0.111
2563,-1,-100,-100,-100,"0,0,0",1,1,0,0,0,0,63,66,37,20,77,-27.84,51,23.0,-24.0,-1009.0,11:36:58.108916,192.168.0.111
2568,-1,-100,-100,-100,"0,0,0",1,1,0,0,0,0,63,66,37,20,77,-27.91,51,20.0,-15.0,-1003.0,11:36:58.210863,192.168.0.111
2571,1,4,0,41,"-2,6,-178",1,1,0,0,0,0,63,66,37,20,77,-27.83,51,21.0,-17.0,-993.0,11:36:58.261800,192.168.0.111
2576,1,4,0,41,"-2,6,-178",1,0,0,0,0,0,63,66,37,20,77,-27.84,51,19.0,-22.0,-1002.0,11:36:58.366039,192.168.0.111
2581,1,4,0,41,"-2,6,-178",1,1,0,0,0,0,63,66,37,20,77,-27.85,51,29.0,-27.0,-995.0,11:36:58.465779,192.168.0.111
2586,1,4,0,41,"-2,6,-178",1,1,0,0,0,0,63,66,38,20,77,-27.84,51,23.0,-22.0,-1003.0,11:36:58.567933,192.168.0.111
2591,1,5,0,41,"-2,6,-178",1,1,0,0,0,0,63,66,38,20,77,-27.88,51,19.0,-17.0,-1012.0,11:36:58.669621,192.168.0.111
2596,1,5,0,41,"-2,6,-178",1,1,0,0,0,0,63,66,38,20,77,-27.85,51,19.0,-20.0,-1001.0,11:36:58.771667,192.168.0.111
2601,1,5,0,41,"-2,6,-178",1,1,0,0,0,0,63,66,38,20,77,-27.86,52,22.0,-12.0,-1011.0,11:36:58.873866,192.168.0.111
2606,1,5,0,41,"-2,6,-179",1,1,0,0,0,0,63,66,38,20,77,-27.95,52,26.0,-18.0,-1002.0,11:36:58.975772,192.168.0.111
2611,1,5,0,41,"-2,6,-179",1,0,0,0,0,0,63,66,39,20,77,-27.89,52,23.0,-14.0,-1002.0,11:36:59.077905,192.168.0.111
2616,1,5,0,41,"-2,6,-179",2,0,0,0,0,0,63,66,39,20,77,-27.89,52,23.0,-8.0,-1005.0,11:36:59.180040,192.168.0.111
2621,1,5,0,41,"-2,6,-179",2,0,0,0,0,0,63,66,39,20,77,-27.88,52,24.0,-11.0,-987.0,11:36:59.281624,192.168.0.111
2626,1,5,0,41,"-2,6,-179",0,0,0,0,0,0,63,66,39,20,77,-27.83,52,26.0,-20.0,-991.0,11:36:59.383790,192.168.0.111
2631,1,5,0,41,"-2,6,-179",0,0,0,0,0,0,63,66,39,20,77,-27.93,52,10.0,-17.0,-994.0,11:36:59.485649,192.168.0.111
2636,1,5,0,41,"-2,6,-179",1,0,0,0,0,0,65,65,39,20,76,-27.91,52,9.0,-10.0,-1008.0,11:36:59.587905,192.168.0.111
2641,1,5,0,41,"-2,6,-179",1,0,0,0,0,0,65,65,39,20,76,-27.96,52,18.0,-16.0,-1007.0,11:36:59.690065,192.168.0.111
2646,1,4,-1,42,"-1,6,180",1,0,0,0,0,0,65,65,39,20,76,-27.87,52,15.0,-10.0,-992.0,11:36:59.791705,192.168.0.111
2651,1,4,-1,42,"-1,6,180",0,0,0,0,0,0,65,65,39,20,76,-27.87,53,6.0,-18.0,-994.0,11:36:59.893669,192.168.0.111
2656,1,4,-1,42,"-1,6,180",0,0,0,0,0,0,65,65,39,20,76,-27.82,53,10.0,-14.0,-997.0,11:36:59.995872,192.168.0.111
2661,1,4,-1,42,"-1,6,180",1,0,0,0,0,0,65,65,38,20,76,-27.82,53,30.0,-13.0,-1011.0,11:37:00.097760,192.168.0.111
2668,1,4,-2,42,"-2,6,-179",1,0,0,0,0,0,65,65,38,20,76,-27.82,53,12.0,-19.0,-1001.0,11:37:00.199597,192.168.0.111
2672,1,4,-2,42,"-2,6,-179",1,0,0,0,0,0,65,65,38,20,76,-27.83,53,20.0,-17.0,-998.0,11:37:00.301695,192.168.0.111
2677,1,4,-2,42,"-2,6,-179",1,0,0,0,0,0,65,65,38,20,76,-27.87,53,19.0,-21.0,-995.0,11:37:00.403817,192.168.0.111
2683,1,4,-2,42,"-2,6,-179",1,0,0,0,0,0,65,65,38,20,76,-27.81,53,23.0,-20.0,-997.0,11:37:00.505825,192.168.0.111
2688,1,4,-2,42,"-2,6,-179",1,0,0,0,0,0,64,67,38,20,76,-27.89,53,22.0,-24.0,-988.0,11:37:00.607662,192.168.0.111
2693,1,4,-2,42,"-2,6,-179",1,1,0,0,0,0,64,67,38,20,76,-27.84,53,25.0,-11.0,-993.0,11:37:00.709770,192.168.0.111
2698,1,4,-2,42,"-2,6,-179",1,1,0,0,0,0,64,67,38,20,76,-27.82,53,21.0,-17.0,-995.0,11:37:00.811753,192.168.0.111
2703,1,5,-2,41,"-2,6,-178",1,0,0,0,0,0,64,67,39,20,76,-27.81,54,21.0,-8.0,-1004.0,11:37:00.913735,192.168.0.111
2708,1,5,-2,41,"-2,6,-178",1,0,0,0,0,0,64,67,39,20,76,-27.89,54,31.0,-15.0,-997.0,11:37:01.015860,192.168.0.111
2713,1,5,-2,41,"-2,6,-178",1,0,0,0,0,0,64,67,38,20,76,-27.88,54,24.0,-11.0,-1001.0,11:37:01.117603,192.168.0.111
2718,1,5,-2,41,"-2,6,-178",1,0,0,0,0,0,64,67,38,20,76,-27.93,54,23.0,-7.0,-1010.0,11:37:01.220298,192.168.0.111
2723,1,5,-2,41,"-2,6,-178",1,0,0,0,0,0,64,67,38,20,76,-27.88,54,23.0,-23.0,-1006.0,11:37:01.321673,192.168.0.111
2728,1,5,-2,41,"-2,6,-178",2,0,0,0,0,0,64,67,39,20,76,-27.79,54,20.0,-15.0,-1004.0,11:37:01.423488,192.168.0.111
