,mid,x,y,z,mpry,pitch,roll,yaw,vgx,vgy,vgz,templ,temph,tof,h,bat,baro,time,agx,agy,agz,timestamp,address
0,-1,-100,-100,-100,"-1,-1,-1",0,0,0,0,0,0,75,77,10,0,100,-58.09,0,-2.0,6.0,-999.0,15:51:42.307725,192.168.0.114
5,-1,-100,-100,-100,"-1,-1,-1",0,0,0,0,0,0,75,77,10,0,100,-58.05,0,-3.0,7.0,-998.0,15:51:42.410022,192.168.0.114
10,-1,-100,-100,-100,"-1,-1,-1",0,0,0,0,0,0,75,77,10,0,100,-58.02,0,-3.0,8.0,-999.0,15:51:42.512270,192.168.0.114
16,-1,-100,-100,-100,"-1,-1,-1",0,0,0,0,0,0,75,77,10,0,100,-58.03,0,-5.0,6.0,-999.0,15:51:42.614178,192.168.0.114
21,-1,-100,-100,-100,"-1,-1,-1",0,0,0,0,0,0,75,77,10,0,100,-58.05,0,-3.0,8.0,-1001.0,15:51:42.716096,192.168.0.114
26,-1,-100,-100,-100,"-1,-1,-1",0,0,0,0,0,0,75,77,10,0,100,-58.05,0,-2.0,10.0,-1001.0,15:51:42.818089,192.168.0.114
33,-1,-100,-100,-100,"-1,-1,-1",0,0,0,0,0,0,75,77,10,0,100,-58.05,0,1.0,12.0,-999.0,15:51:42.921581,192.168.0.114
38,-1,-100,-100,-100,"-1,-1,-1",0,0,0,0,0,0,75,77,10,0,100,-58.05,0,1.0,1.0,-999.0,15:51:43.022327,192.168.0.114
43,-1,-100,-100,-100,"-1,-1,-1",0,0,0,0,0,0,75,77,10,0,100,-58.05,0,11.0,45.0,-990.0,15:51:43.124306,192.168.0.114
48,-1,-100,-100,-100,"-1,-1,-1",0,0,0,0,0,-1,75,77,10,0,100,-58.05,0,-22.0,31.0,-1351.0,15:51:43.226830,192.168.0.114
53,-1,-100,-100,-100,"-1,-1,-1",0,0,0,0,0,-5,75,77,10,0,100,-58.05,0,-24.0,27.0,-1195.0,15:51:43.328141,192.168.0.114
58,-1,-100,-100,-100,"-1,-1,-1",0,-1,0,0,0,-6,75,77,16,0,100,-57.71,0,-6.0,14.0,-1055.0,15:51:43.430457,192.168.0.114
63,-1,-100,-100,-100,"-1,-1,-1",-1,-2,0,0,0,-7,75,77,26,0,100,-57.59,0,1.0,-2.0,-1044.0,15:51:43.532265,192.168.0.114
68,-1,-100,-100,-100,"-1,-1,-1",-1,-1,0,0,0,-7,75,77,35,10,100,-57.57,0,7.0,-10.0,-983.0,15:51:43.634171,192.168.0.114
73,4,14,-4,35,"1,-3,179",0,-1,0,0,0,-6,75,77,43,10,100,-57.51,1,5.0,-8.0,-946.0,15:51:43.736979,192.168.0.114
78,4,13,-7,47,"0,-4,-177",0,0,0,0,0,-6,75,77,51,20,100,-57.37,1,4.0,-7.0,-920.0,15:51:43.838628,192.168.0.114
83,4,13,-6,52,"0,-3,-178",0,0,0,0,0,-5,75,77,57,20,100,-57.3,1,3.0,-1.0,-902.0,15:51:43.940003,192.168.0.114
84,4,13,-5,55,"0,-3,-179",0,0,0,0,0,-4,75,77,64,30,100,-57.2,1,10.0,-8.0,-917.0,15:51:43.991145,192.168.0.114
89,4,10,-6,66,"-1,-3,-178",0,0,0,0,0,-3,75,77,70,30,100,-57.14,1,3.0,-15.0,-925.0,15:51:44.093321,192.168.0.114
94,4,10,-6,72,"0,-3,-177",0,0,0,0,0,-2,75,77,75,30,100,-57.11,1,1.0,0.0,-911.0,15:51:44.196292,192.168.0.114
99,4,10,-7,77,"-1,-3,-177",0,0,0,0,0,-1,75,77,80,40,100,-57.02,1,12.0,-3.0,-943.0,15:51:44.297261,192.168.0.114
104,4,11,-8,81,"0,-3,-176",0,0,0,0,0,-1,75,77,84,40,100,-57.03,1,3.0,-2.0,-971.0,15:51:44.399131,192.168.0.114
109,4,11,-8,83,"0,-3,-176",0,0,0,0,0,0,75,77,87,40,100,-57.02,1,12.0,-2.0,-949.0,15:51:44.504753,192.168.0.114
114,4,11,-8,88,"0,-3,-176",0,0,0,0,0,0,75,77,88,40,100,-56.94,1,0.0,1.0,-959.0,15:51:44.604778,192.168.0.114
120,4,10,-8,91,"-1,-3,-177",0,0,0,0,0,0,75,77,91,50,100,-56.91,2,6.0,10.0,-951.0,15:51:44.704949,192.168.0.114
125,4,12,-8,92,"0,-3,-176",0,0,0,0,0,0,75,77,93,50,100,-56.94,2,18.0,0.0,-970.0,15:51:44.807164,192.168.0.114
130,4,12,-8,92,"0,-3,-176",0,0,0,0,0,0,75,77,95,50,100,-56.98,2,6.0,4.0,-979.0,15:51:44.909044,192.168.0.114
135,4,12,-8,96,"0,-3,-176",0,0,0,0,0,0,75,77,96,50,100,-56.94,2,11.0,16.0,-941.0,15:51:45.011187,192.168.0.114
140,4,11,-11,97,"0,-3,-175",0,0,0,0,0,0,75,77,97,50,100,-56.83,2,0.0,11.0,-973.0,15:51:45.113113,192.168.0.114
146,4,11,-9,98,"0,-3,-176",0,0,0,0,0,0,75,77,98,50,100,-56.9,2,0.0,5.0,-962.0,15:51:45.215264,192.168.0.114
151,4,10,-8,99,"0,-3,-177",0,0,0,0,0,0,75,77,98,50,100,-56.92,2,13.0,10.0,-992.0,15:51:45.317167,192.168.0.114
156,4,10,-7,99,"0,-3,-178",0,0,0,0,0,1,75,77,97,50,100,-56.84,2,15.0,5.0,-977.0,15:51:45.420560,192.168.0.114
161,4,10,-7,99,"0,-3,-178",0,0,0,0,0,1,75,77,97,50,100,-56.83,2,20.0,2.0,-987.0,15:51:45.520960,192.168.0.114
167,4,10,-7,99,"0,-3,-178",0,0,0,0,0,1,75,77,96,50,100,-56.83,2,20.0,14.0,-983.0,15:51:45.622748,192.168.0.114
172,4,10,-9,97,"0,-3,-177",0,-1,0,0,0,1,75,77,96,50,100,-56.85,3,7.0,17.0,-983.0,15:51:45.727222,192.168.0.114
177,4,9,-9,97,"0,-3,-178",0,-1,0,0,0,1,75,77,95,50,100,-56.88,3,24.0,1.0,-994.0,15:51:45.829515,192.168.0.114
182,4,9,-9,96,"0,-3,-178",0,-1,0,0,0,1,75,77,94,50,100,-56.95,3,8.0,12.0,-993.0,15:51:45.935440,192.168.0.114
187,4,9,-8,94,"1,-3,-179",0,-1,0,0,0,1,75,78,92,50,100,-56.9,3,3.0,2.0,-1013.0,15:51:46.033279,192.168.0.114
192,4,23,-21,86,"10,-4,-171",0,0,0,0,0,1,75,78,91,50,100,-56.96,3,-5.0,-7.0,-985.0,15:51:46.143550,192.168.0.114
197,4,8,-9,93,"0,-3,-178",0,0,0,0,0,1,75,78,90,50,100,-57.02,3,2.0,10.0,-985.0,15:51:46.235178,192.168.0.114
202,4,7,-7,92,"0,-3,-179",0,0,0,0,0,1,75,78,88,50,100,-56.98,3,21.0,15.0,-996.0,15:51:46.338061,192.168.0.114
207,4,6,-10,90,"0,-3,-178",0,0,0,0,0,1,75,78,87,50,100,-56.97,3,3.0,14.0,-1014.0,15:51:46.439152,192.168.0.114
212,4,6,-10,88,"0,-3,-178",0,0,0,0,0,1,75,78,85,50,100,-56.97,3,1.0,13.0,-1028.0,15:51:46.544811,192.168.0.114
217,4,7,-9,88,"0,-3,-179",0,0,0,0,0,1,75,78,84,50,100,-57.01,3,-7.0,6.0,-986.0,15:51:46.642973,192.168.0.114
222,4,6,-9,86,"0,-3,-178",0,0,0,0,0,1,75,78,82,50,100,-56.97,4,15.0,14.0,-1002.0,15:51:46.745662,192.168.0.114
227,4,6,-9,86,"0,-3,-178",0,0,0,0,0,0,75,78,82,40,100,-57.12,4,-10.0,27.0,-1007.0,15:51:46.849698,192.168.0.114
232,4,6,-9,84,"0,-3,-178",0,0,0,0,0,0,75,78,80,40,100,-57.15,4,-24.0,35.0,-1003.0,15:51:46.948862,192.168.0.114
237,4,8,-10,82,"2,-2,-179",-1,-1,0,0,0,0,75,77,80,40,100,-57.1,4,-28.0,7.0,-1026.0,15:51:47.050896,192.168.0.114
242,4,7,-8,81,"1,-2,178",-1,-2,0,0,0,0,75,77,78,40,100,-57.11,4,-46.0,35.0,-1018.0,15:51:47.153204,192.168.0.114
247,4,5,-8,81,"0,-2,178",-1,-2,0,0,0,0,75,77,78,40,100,-57.12,4,-11.0,8.0,-1039.0,15:51:47.254799,192.168.0.114
250,4,6,-8,79,"1,-2,178",-1,-1,0,0,0,0,75,77,77,40,100,-57.15,4,-22.0,-5.0,-976.0,15:51:47.306120,192.168.0.114
255,4,6,-9,78,"1,-2,179",-1,-1,0,0,0,0,75,77,76,40,100,-57.08,4,-1.0,-4.0,-1007.0,15:51:47.408281,192.168.0.114
260,4,5,-8,78,"1,-2,178",-1,0,0,0,0,0,75,77,75,40,100,-57.03,4,-15.0,8.0,-1006.0,15:51:47.512279,192.168.0.114
265,4,5,-7,77,"1,-2,179",-1,0,0,0,0,0,75,77,74,40,100,-57.05,4,-37.0,11.0,-1001.0,15:51:47.616079,192.168.0.114
271,4,4,-8,76,"1,-2,-179",-1,0,0,0,0,0,75,77,74,40,100,-57.03,5,-29.0,-3.0,-1055.0,15:51:47.713953,192.168.0.114
276,4,5,-8,75,"1,-2,179",-1,0,0,0,0,0,75,77,73,40,100,-57.06,5,4.0,11.0,-1002.0,15:51:47.827581,192.168.0.114
281,4,4,-6,75,"2,-2,178",-2,0,0,0,0,0,75,77,73,40,100,-57.01,5,-19.0,-7.0,-978.0,15:51:47.917892,192.168.0.114
286,4,3,-5,75,"2,-2,178",-1,0,0,0,0,0,76,78,73,40,100,-57.12,5,-7.0,-10.0,-1022.0,15:51:48.019807,192.168.0.114
291,4,3,-5,75,"2,-2,179",-1,0,0,0,0,0,76,78,73,40,100,-57.12,5,-19.0,-9.0,-1005.0,15:51:48.122106,192.168.0.114
297,4,1,-5,75,"1,-2,-179",-1,0,0,0,0,0,76,78,74,40,100,-57.16,5,-36.0,-4.0,-1006.0,15:51:48.224006,192.168.0.114
302,4,2,-5,75,"2,-3,-179",-1,0,0,0,0,0,76,78,74,40,100,-57.14,5,-22.0,-8.0,-997.0,15:51:48.325695,192.168.0.114
307,4,2,-4,76,"1,-3,179",-1,0,0,0,0,0,76,78,74,40,100,-57.17,5,-12.0,-9.0,-989.0,15:51:48.438312,192.168.0.114
312,4,0,-4,76,"1,-3,179",-1,0,0,0,0,0,76,78,75,40,100,-57.2,5,-2.0,-3.0,-999.0,15:51:48.529922,192.168.0.114
317,4,1,-4,76,"0,-3,-179",-1,0,1,0,0,0,76,78,75,40,100,-57.11,5,-35.0,6.0,-1005.0,15:51:48.632260,192.168.0.114
322,4,1,-3,77,"0,-3,-179",0,0,0,0,0,0,76,78,76,40,100,-57.19,6,-27.0,8.0,-990.0,15:51:48.733851,192.168.0.114
327,4,2,-4,77,"1,-3,-179",-1,0,0,0,0,0,76,78,76,40,100,-57.22,6,-11.0,12.0,-1012.0,15:51:48.835828,192.168.0.114
332,4,1,-4,77,"1,-3,179",-2,-1,0,0,0,0,76,78,75,40,100,-57.18,6,-13.0,4.0,-979.0,15:51:48.938024,192.168.0.114
337,4,2,-3,78,"2,-3,177",-2,-1,0,0,0,0,75,78,76,40,100,-57.22,6,-4.0,4.0,-984.0,15:51:49.039722,192.168.0.114
342,4,2,-3,78,"2,-3,177",-1,-1,0,0,0,0,75,78,75,40,100,-57.14,6,-2.0,0.0,-1003.0,15:51:49.144642,192.168.0.114
347,4,2,-5,78,"2,-3,178",-1,-1,0,0,0,0,75,78,76,40,100,-57.16,6,-9.0,13.0,-1007.0,15:51:49.245617,192.168.0.114
352,4,1,-5,78,"1,-3,178",-1,0,0,0,0,0,75,78,76,40,100,-57.25,6,-10.0,0.0,-1018.0,15:51:49.345750,192.168.0.114
357,4,2,-6,78,"1,-3,179",-1,0,0,0,0,0,75,78,76,40,100,-57.2,6,-18.0,0.0,-1005.0,15:51:49.447849,192.168.0.114
362,4,2,-5,78,"1,-3,178",-1,0,0,0,0,0,75,78,76,40,100,-57.17,6,-6.0,1.0,-991.0,15:51:49.549837,192.168.0.114
367,4,3,-5,78,"2,-3,178",-1,0,0,0,0,0,75,78,77,40,100,-57.07,6,-17.0,1.0,-986.0,15:51:49.652831,192.168.0.114
372,4,2,-5,78,"1,-3,178",-1,0,1,0,0,0,75,78,77,40,100,-57.18,7,-1.0,18.0,-1032.0,15:51:49.753688,192.168.0.114
377,4,3,-6,78,"1,-3,179",0,0,0,0,0,0,75,78,77,40,100,-57.17,7,-3.0,11.0,-987.0,15:51:49.855642,192.168.0.114
382,4,1,-5,79,"0,-3,178",0,0,0,0,0,0,75,78,77,40,100,-57.17,7,-14.0,15.0,-987.0,15:51:49.957742,192.168.0.114
387,4,2,-5,79,"0,-3,178",-1,0,0,0,0,0,75,79,77,40,100,-57.22,7,-24.0,6.0,-1014.0,15:51:50.059988,192.168.0.114
392,4,3,-6,79,"1,-3,179",-1,-1,0,0,0,0,75,79,77,40,100,-57.23,7,-25.0,8.0,-1004.0,15:51:50.161917,192.168.0.114
397,4,3,-6,79,"2,-3,178",-1,-1,0,0,0,0,75,79,78,40,100,-57.12,7,-18.0,0.0,-966.0,15:51:50.263763,192.168.0.114
402,4,3,-6,79,"1,-3,178",-1,0,0,0,0,0,75,79,78,40,100,-57.19,7,-4.0,13.0,-993.0,15:51:50.365806,192.168.0.114
407,4,4,-6,79,"1,-3,179",-1,0,0,0,0,0,75,79,77,40,100,-57.19,7,-33.0,24.0,-980.0,15:51:50.467877,192.168.0.114
412,4,4,-6,80,"1,-3,179",-1,0,0,0,0,0,75,79,78,40,100,-57.13,7,-11.0,9.0,-974.0,15:51:50.569625,192.168.0.114
417,4,3,-7,80,"1,-3,179",-1,-1,0,0,0,0,75,79,78,40,100,-57.19,7,-4.0,7.0,-1012.0,15:51:50.671764,192.168.0.114
422,4,3,-6,80,"1,-3,178",-1,0,0,0,0,0,75,79,79,40,100,-57.14,8,-24.0,3.0,-985.0,15:51:50.773650,192.168.0.114
427,4,4,-7,80,"2,-3,179",-1,0,0,0,0,0,75,79,79,40,100,-57.18,8,-23.0,9.0,-1009.0,15:51:50.875720,192.168.0.114
432,4,3,-6,80,"2,-3,178",-1,-1,0,0,0,0,75,79,78,40,100,-57.18,8,-14.0,8.0,-1004.0,15:51:50.977645,192.168.0.114
437,4,4,-6,80,"3,-3,178",-2,-1,0,0,0,0,76,78,79,40,100,-57.08,8,-25.0,8.0,-995.0,15:51:51.079777,192.168.0.114
442,4,3,-5,80,"2,-3,178",-1,0,0,0,0,0,76,78,79,40,100,-57.12,8,-15.0,-4.0,-971.0,15:51:51.130693,192.168.0.114
447,4,3,-6,80,"2,-3,178",-1,0,0,0,0,0,76,78,78,40,100,-57.19,8,-11.0,21.0,-1000.0,15:51:51.236141,192.168.0.114
452,4,3,-6,80,"2,-3,178",-1,0,0,0,0,0,76,78,78,40,100,-57.15,8,-13.0,15.0,-976.0,15:51:51.334588,192.168.0.114
456,4,3,-6,79,"2,-3,179",-1,0,0,0,0,0,76,78,77,40,100,-57.22,8,-33.0,6.0,-975.0,15:51:51.436486,192.168.0.114
462,4,3,-5,79,"2,-3,178",-1,0,0,0,0,0,76,78,77,40,100,-57.2,8,-29.0,13.0,-1043.0,15:51:51.538499,192.168.0.114
467,4,3,-5,79,"2,-3,178",-2,0,0,0,0,0,76,78,77,40,100,-57.21,8,-28.0,14.0,-1020.0,15:51:51.640750,192.168.0.114
473,4,2,-5,79,"2,-3,178",-3,-1,0,0,0,0,76,78,78,40,100,-57.23,9,-45.0,13.0,-958.0,15:51:51.794039,192.168.0.114
478,4,2,-5,79,"2,-3,178",-5,-1,0,0,0,0,76,78,78,40,100,-57.25,9,-55.0,4.0,-964.0,15:51:51.895798,192.168.0.114
482,4,2,-5,79,"2,-3,178",-4,-1,0,0,0,0,76,78,77,40,100,-57.18,9,-30.0,25.0,-987.0,15:51:51.997729,192.168.0.114
487,4,4,-6,78,"6,-3,177",-3,-1,0,0,0,0,76,78,76,40,100,-57.19,9,-27.0,-3.0,-988.0,15:51:52.099785,192.168.0.114
492,4,4,-6,78,"6,-3,177",-2,0,0,1,0,0,76,78,75,40,100,-57.25,9,-23.0,7.0,-1007.0,15:51:52.150784,192.168.0.114
497,4,4,-5,76,"4,-3,178",-1,0,0,1,0,0,76,78,74,40,100,-57.39,9,-17.0,22.0,-1022.0,15:51:52.253006,192.168.0.114
502,4,4,-5,76,"4,-3,178",-1,-1,0,1,0,0,76,78,73,40,100,-57.27,9,-31.0,29.0,-1023.0,15:51:52.354784,192.168.0.114
507,4,6,-5,74,"2,-3,178",-2,-2,0,1,0,0,76,78,72,40,100,-57.23,9,-20.0,32.0,-1026.0,15:51:52.456665,192.168.0.114
512,4,6,-5,74,"2,-3,178",-2,-2,0,1,0,0,76,78,72,30,100,-57.23,9,-7.0,-6.0,-1002.0,15:51:52.558631,192.168.0.114
518,4,8,-6,73,"3,-3,177",-2,-1,0,1,0,0,76,78,71,30,100,-57.32,10,-31.0,10.0,-999.0,15:51:52.711643,192.168.0.114
523,4,8,-6,73,"3,-3,177",-2,0,0,1,0,0,76,78,72,30,100,-57.27,10,-36.0,-2.0,-1010.0,15:51:52.813666,192.168.0.114
529,4,8,-6,73,"3,-3,177",-2,1,0,1,0,0,76,78,72,30,100,-57.22,10,-58.0,22.0,-986.0,15:51:52.916884,192.168.0.114
534,4,9,-7,72,"1,-3,-176",-2,0,0,1,0,0,76,78,71,30,100,-57.23,10,-41.0,0.0,-1010.0,15:51:53.017566,192.168.0.114
537,4,9,-7,72,"1,-3,-176",-1,0,0,1,0,0,76,78,70,30,100,-57.23,10,-9.0,3.0,-1008.0,15:51:53.068689,192.168.0.114
542,4,11,-6,71,"0,-3,-178",-1,0,0,1,0,0,76,78,70,30,100,-57.29,10,-33.0,8.0,-992.0,15:51:53.170676,192.168.0.114
547,4,11,-6,71,"0,-3,-178",-1,0,0,1,0,0,76,78,69,30,100,-57.3,10,-11.0,18.0,-1005.0,15:51:53.274697,192.168.0.114
552,4,13,-7,70,"0,-3,-177",-1,0,0,1,0,0,76,78,69,30,100,-57.26,10,-21.0,15.0,-1000.0,15:51:53.374846,192.168.0.114
557,4,13,-7,70,"0,-3,-177",0,0,0,1,0,0,76,78,68,30,100,-57.41,10,-16.0,12.0,-1013.0,15:51:53.476476,192.168.0.114
562,4,18,-10,67,"1,-4,-176",1,0,0,0,0,0,76,78,68,30,100,-57.43,10,-34.0,6.0,-1006.0,15:51:53.578752,192.168.0.114
567,4,18,-10,67,"1,-4,-176",0,-1,0,0,0,0,76,78,67,30,100,-57.36,11,-16.0,0.0,-1000.0,15:51:53.680572,192.168.0.114
574,4,18,-10,66,"1,-4,-178",0,0,0,0,0,0,76,78,67,30,100,-57.33,11,-16.0,11.0,-1013.0,15:51:53.833515,192.168.0.114
577,4,18,-10,66,"1,-4,-178",0,0,0,0,0,0,76,78,67,30,100,-57.42,11,3.0,15.0,-1002.0,15:51:53.884651,192.168.0.114
582,4,19,-10,66,"1,-4,-177",0,0,0,0,0,0,76,78,67,30,100,-57.38,11,-6.0,16.0,-1012.0,15:51:53.986585,192.168.0.114
587,4,19,-10,66,"1,-4,-177",0,-1,0,0,0,0,75,78,66,30,100,-57.36,11,0.0,22.0,-1000.0,15:51:54.088730,192.168.0.114
592,4,19,-10,66,"1,-4,-177",0,-1,0,0,0,0,75,78,66,30,100,-57.35,11,1.0,14.0,-1010.0,15:51:54.190205,192.168.0.114
597,4,18,-11,65,"1,-4,-178",0,-1,0,0,0,0,75,78,66,30,100,-57.37,11,-5.0,24.0,-1035.0,15:51:54.292414,192.168.0.114
602,4,18,-11,65,"1,-4,-178",-4,0,0,0,0,0,75,78,66,30,100,-57.39,11,-2.0,18.0,-959.0,15:51:54.394636,192.168.0.114
607,4,17,-12,65,"5,-3,-177",-8,0,0,1,0,0,75,78,66,30,100,-57.51,11,-25.0,21.0,-1027.0,15:51:54.496516,192.168.0.114
612,4,17,-12,65,"5,-3,-177",-8,-1,0,2,0,0,75,78,66,30,100,-57.35,11,-38.0,28.0,-1024.0,15:51:54.598597,192.168.0.114
617,4,20,-12,65,"9,-3,-179",-8,-1,0,3,0,0,75,78,67,30,100,-57.36,12,-42.0,25.0,-1013.0,15:51:54.700103,192.168.0.114
622,4,20,-12,65,"9,-3,-179",-8,-1,0,4,0,0,75,78,67,30,100,-57.37,12,-48.0,16.0,-1017.0,15:51:54.809589,192.168.0.114
627,4,20,-12,65,"9,-3,-179",-8,-1,0,5,0,0,75,78,68,30,100,-57.43,12,-63.0,23.0,-986.0,15:51:54.904405,192.168.0.114
632,4,31,-17,63,"12,-4,-178",-8,-2,0,6,0,0,75,78,68,30,100,-57.4,12,-56.0,7.0,-989.0,15:51:55.006516,192.168.0.114
637,4,31,-17,63,"12,-4,-178",-8,-1,0,7,0,0,76,79,68,30,100,-57.39,12,-53.0,28.0,-1015.0,15:51:55.108592,192.168.0.114
642,4,43,-21,64,"10,-4,-177",-7,0,0,7,0,0,76,79,68,30,100,-57.5,12,-73.0,16.0,-1008.0,15:51:55.210549,192.168.0.114
647,4,43,-21,64,"10,-4,-177",-6,-1,0,8,0,0,76,79,65,30,100,-57.51,12,-43.0,20.0,-961.0,15:51:55.312713,192.168.0.114
652,4,43,-21,64,"10,-4,-177",-6,-1,0,8,0,0,76,79,66,30,100,-57.47,12,-72.0,6.0,-1007.0,15:51:55.415347,192.168.0.114
657,4,43,-21,64,"10,-4,-177",-5,-2,0,8,0,0,76,79,68,30,100,-57.45,12,-104.0,26.0,-1013.0,15:51:55.516414,192.168.0.114
662,4,43,-21,64,"10,-4,-177",-6,-2,0,8,0,0,76,79,70,30,100,-57.27,12,-67.0,31.0,-920.0,15:51:55.618495,192.168.0.114
667,4,43,-21,64,"10,-4,-177",-6,-1,0,9,0,0,76,79,71,30,100,-57.25,13,-70.0,35.0,-992.0,15:51:55.720785,192.168.0.114
672,4,43,-21,64,"10,-4,-177",-6,-1,1,9,0,0,76,79,70,30,100,-57.48,13,-75.0,41.0,-970.0,15:51:55.822593,192.168.0.114
677,4,43,-21,64,"10,-4,-177",-5,-2,1,9,0,0,76,79,70,30,100,-57.4,13,-64.0,14.0,-996.0,15:51:55.924740,192.168.0.114
682,4,43,-21,64,"10,-4,-177",-5,-2,1,9,0,0,76,79,70,30,100,-57.27,13,-48.0,27.0,-985.0,15:51:56.026656,192.168.0.114
687,4,43,-21,64,"10,-4,-177",-4,-3,1,10,0,0,76,79,69,30,100,-57.44,13,-55.0,13.0,-1002.0,15:51:56.129158,192.168.0.114
692,4,43,-21,64,"10,-4,-177",-4,-3,1,10,0,0,76,79,68,30,100,-57.53,13,-82.0,33.0,-1011.0,15:51:56.230476,192.168.0.114
697,4,43,-21,64,"10,-4,-177",-4,-3,1,10,0,0,76,79,69,30,100,-57.45,13,-53.0,-2.0,-1019.0,15:51:56.332462,192.168.0.114
702,4,43,-21,64,"10,-4,-177",-2,-3,0,10,0,0,76,79,69,30,100,-57.45,13,-63.0,-17.0,-1014.0,15:51:56.434570,192.168.0.114
707,4,43,-21,64,"10,-4,-177",0,0,0,9,-1,0,76,79,69,30,100,-57.45,13,-82.0,12.0,-978.0,15:51:56.536294,192.168.0.114
713,4,43,-21,64,"10,-4,-177",2,1,0,8,-1,0,76,79,69,30,100,-57.47,13,-41.0,20.0,-1000.0,15:51:56.638441,192.168.0.114
717,8,-20,-28,68,"0,-2,-176",4,1,0,7,0,0,76,79,70,30,100,-57.31,14,-46.0,9.0,-1032.0,15:51:56.689424,192.168.0.114
722,8,-20,-28,68,"0,-2,-176",5,0,0,6,0,0,76,79,70,30,100,-57.3,14,-36.0,-11.0,-1014.0,15:51:56.791446,192.168.0.114
727,8,0,-26,67,"-3,-3,-176",4,0,0,5,0,0,76,79,70,30,100,-57.29,14,-46.0,-17.0,-977.0,15:51:56.893432,192.168.0.114
732,8,0,-26,67,"-3,-3,-176",3,0,0,4,0,0,76,79,69,30,100,-57.22,14,-12.0,-22.0,-984.0,15:51:56.995570,192.168.0.114
737,8,15,-25,66,"-1,-4,-175",7,0,0,3,0,0,76,79,70,30,100,-57.11,14,-31.0,-17.0,-981.0,15:51:57.097411,192.168.0.114
742,8,15,-25,66,"-1,-4,-175",8,1,0,2,0,0,76,79,70,30,100,-57.05,14,-14.0,-8.0,-1040.0,15:51:57.199262,192.168.0.114
747,8,15,-25,66,"-1,-4,-175",2,1,0,1,0,0,76,79,69,30,100,-57.09,14,9.0,3.0,-989.0,15:51:57.301255,192.168.0.114
752,8,20,-23,68,"-2,-3,-176",0,0,0,1,0,0,76,79,68,30,100,-57.13,14,-2.0,-10.0,-1006.0,15:51:57.403358,192.168.0.114
757,8,20,-23,68,"-2,-3,-176",0,0,0,1,0,0,76,79,69,30,100,-57.09,14,10.0,-5.0,-1002.0,15:51:57.506211,192.168.0.114
762,8,25,-23,65,"2,-4,-176",1,0,0,0,0,0,76,79,68,30,100,-57.13,14,24.0,-11.0,-1021.0,15:51:57.608278,192.168.0.114
767,8,25,-23,65,"2,-4,-176",1,0,0,0,0,0,76,79,68,30,100,-57.05,15,19.0,-9.0,-997.0,15:51:57.710441,192.168.0.114
772,8,27,-22,65,"1,-4,-177",2,-3,0,0,0,0,76,79,68,30,100,-57.07,15,1.0,-13.0,-1041.0,15:51:57.813608,192.168.0.114
777,8,27,-22,65,"1,-4,-177",2,-4,0,0,-1,0,76,79,69,30,100,-57.02,15,-3.0,-3.0,-1004.0,15:51:57.914294,192.168.0.114
782,8,27,-22,65,"1,-4,-177",1,-2,0,0,-1,0,76,79,69,30,100,-57.04,15,18.0,0.0,-994.0,15:51:58.016282,192.168.0.114
787,8,28,-20,65,"1,-4,-179",1,0,0,0,-2,0,76,78,69,30,100,-56.98,15,0.0,14.0,-998.0,15:51:58.120168,192.168.0.114
792,8,28,-20,65,"1,-4,-179",1,0,0,0,-2,0,76,78,69,30,100,-57.01,15,12.0,7.0,-987.0,15:51:58.220467,192.168.0.114
797,8,27,-15,67,"1,-4,-176",1,0,0,0,-1,0,76,78,69,30,100,-56.93,15,14.0,5.0,-993.0,15:51:58.324692,192.168.0.114
802,8,27,-15,67,"1,-4,-176",0,0,0,0,-1,0,76,78,69,30,100,-57.01,15,6.0,8.0,-972.0,15:51:58.424346,192.168.0.114
807,8,26,-13,67,"1,-4,-175",1,0,0,0,-1,0,76,78,70,30,100,-56.94,15,24.0,11.0,-991.0,15:51:58.526950,192.168.0.114
812,8,26,-13,67,"1,-4,-175",1,0,0,0,-1,0,76,78,70,30,100,-56.96,15,11.0,19.0,-996.0,15:51:58.628211,192.168.0.114
817,8,26,-13,67,"1,-4,-175",1,0,0,0,-1,0,76,78,70,30,100,-56.96,16,21.0,14.0,-982.0,15:51:58.730509,192.168.0.114
822,8,26,-10,67,"1,-4,-175",0,0,0,0,-1,0,76,78,70,30,100,-56.99,16,3.0,21.0,-1001.0,15:51:58.833987,192.168.0.114
826,8,26,-10,67,"1,-4,-175",0,0,0,0,-1,0,76,78,70,30,100,-56.93,16,43.0,2.0,-991.0,15:51:58.934231,192.168.0.114
832,8,24,-6,68,"2,-4,-176",-1,0,0,0,0,0,76,78,70,30,100,-56.98,16,6.0,15.0,-1001.0,15:51:59.036335,192.168.0.114
837,8,24,-6,68,"2,-4,-176",0,0,0,0,0,0,75,80,70,30,100,-56.94,16,-5.0,22.0,-993.0,15:51:59.138345,192.168.0.114
842,8,23,-2,69,"2,-3,-177",0,1,0,0,0,0,75,80,71,30,100,-56.96,16,21.0,13.0,-990.0,15:51:59.240176,192.168.0.114
847,8,23,-2,69,"2,-3,-177",0,0,0,0,0,0,75,80,71,30,100,-56.94,16,17.0,-15.0,-981.0,15:51:59.342444,192.168.0.114
852,8,23,-4,69,"2,-4,-175",0,0,0,0,0,0,75,80,71,30,100,-56.97,16,26.0,-2.0,-981.0,15:51:59.444339,192.168.0.114
857,8,23,-4,69,"2,-4,-175",0,0,0,0,0,0,75,80,71,30,100,-56.92,16,-1.0,16.0,-1000.0,15:51:59.546375,192.168.0.114
862,8,22,-1,70,"1,-3,-176",0,0,0,0,0,0,75,80,71,30,100,-56.98,16,20.0,0.0,-988.0,15:51:59.648229,192.168.0.114
867,8,22,-1,70,"1,-3,-176",0,0,0,0,0,0,75,80,71,30,100,-56.93,17,-15.0,25.0,-988.0,15:51:59.750249,192.168.0.114
872,8,22,-1,70,"1,-3,-176",0,0,0,0,0,0,75,80,71,30,100,-56.86,17,4.0,3.0,-988.0,15:51:59.852479,192.168.0.114
877,8,23,-2,70,"2,-3,-177",0,-1,0,0,0,0,75,80,71,30,100,-56.93,17,-2.0,-26.0,-988.0,15:51:59.954315,192.168.0.114
882,8,23,-2,70,"2,-3,-177",0,0,0,0,0,0,75,80,71,30,100,-56.91,17,8.0,-16.0,-975.0,15:52:00.056375,192.168.0.114
887,8,23,0,70,"2,-3,-177",0,0,0,0,0,0,76,79,71,30,100,-56.98,17,3.0,-21.0,-998.0,15:52:00.158323,192.168.0.114
891,8,23,0,70,"2,-3,-177",0,1,0,0,0,0,76,79,71,30,100,-56.99,17,-17.0,-8.0,-999.0,15:52:00.209240,192.168.0.114
896,8,23,-1,70,"1,-4,-174",0,1,0,0,0,0,76,79,70,30,100,-56.98,17,-15.0,-15.0,-983.0,15:52:00.311229,192.168.0.114
901,8,23,-1,70,"1,-4,-174",0,0,0,0,0,0,76,79,71,30,100,-56.97,17,-12.0,-15.0,-994.0,15:52:00.413120,192.168.0.114
907,8,23,-1,70,"1,-4,-174",0,1,0,0,0,0,76,79,71,30,100,-56.91,17,-24.0,-31.0,-994.0,15:52:00.515247,192.168.0.114
912,8,23,0,70,"2,-3,-175",0,1,0,0,0,0,76,79,71,30,100,-56.94,17,-20.0,-14.0,-1007.0,15:52:00.620969,192.168.0.114
917,8,23,0,70,"2,-3,-175",0,1,0,0,0,0,76,79,71,30,100,-57.03,18,-7.0,-36.0,-982.0,15:52:00.719332,192.168.0.114
922,8,23,0,70,"2,-3,-174",-1,1,0,0,0,0,76,79,71,30,100,-57.03,18,-26.0,-34.0,-977.0,15:52:00.821268,192.168.0.114
927,8,23,0,70,"2,-3,-174",0,1,0,0,0,0,76,79,71,30,100,-57.03,18,-20.0,-26.0,-991.0,15:52:00.923229,192.168.0.114
932,8,22,4,70,"3,-3,-176",-1,1,0,0,0,0,76,79,71,30,100,-57.09,18,-9.0,-10.0,-1005.0,15:52:01.025362,192.168.0.114
937,8,22,4,70,"3,-3,-176",-1,1,0,0,0,0,76,80,71,30,100,-57.12,18,0.0,-21.0,-1011.0,15:52:01.127227,192.168.0.114
942,8,21,2,70,"3,-3,-176",-1,0,0,0,0,0,76,80,70,30,100,-57.07,18,-14.0,-14.0,-991.0,15:52:01.229225,192.168.0.114
947,8,21,2,70,"3,-3,-176",-1,0,0,0,0,0,76,80,70,30,100,-57.17,18,-35.0,6.0,-1018.0,15:52:01.331223,192.168.0.114
952,8,21,2,70,"3,-3,-176",-1,0,0,0,0,0,76,80,70,30,100,-57.14,18,-28.0,-9.0,-984.0,15:52:01.438282,192.168.0.114
957,8,19,1,71,"2,-3,-176",-1,0,0,0,0,0,76,80,71,30,100,-57.29,18,-16.0,7.0,-1001.0,15:52:01.535168,192.168.0.114
962,8,19,1,71,"2,-3,-176",-1,0,0,0,0,0,76,80,71,30,100,-57.24,18,-18.0,9.0,-999.0,15:52:01.637155,192.168.0.114
967,8,18,-1,71,"2,-4,-176",-1,0,0,0,0,0,76,80,71,30,100,-57.24,19,-9.0,13.0,-994.0,15:52:01.739025,192.168.0.114
972,8,18,-1,71,"2,-4,-176",-1,0,0,0,0,0,76,80,71,30,100,-57.22,19,-24.0,14.0,-992.0,15:52:01.841615,192.168.0.114
977,8,18,-2,71,"2,-4,-177",-1,-1,0,0,0,0,76,80,71,30,100,-57.26,19,-23.0,6.0,-962.0,15:52:01.943401,192.168.0.114
982,8,18,-2,71,"2,-4,-177",-1,-1,0,0,0,0,76,80,70,30,100,-57.2,19,-29.0,2.0,-947.0,15:52:02.045125,192.168.0.114
987,8,19,-2,70,"1,-4,-178",-1,-1,0,0,0,0,76,80,68,30,100,-57.22,19,0.0,8.0,-904.0,15:52:02.149005,192.168.0.114
992,8,19,-2,70,"1,-4,-178",0,-1,0,0,0,1,76,80,66,30,100,-57.26,19,5.0,4.0,-893.0,15:52:02.249302,192.168.0.114
997,8,22,-3,65,"2,-4,-177",0,-1,0,0,0,2,76,80,63,30,100,-57.3,19,-6.0,4.0,-932.0,15:52:02.350955,192.168.0.114
1002,8,22,-3,65,"2,-4,-177",0,0,0,0,0,3,76,80,59,30,100,-57.36,19,4.0,1.0,-904.0,15:52:02.453386,192.168.0.114
1007,8,22,-3,65,"2,-4,-177",0,0,0,0,0,4,76,80,55,20,100,-57.43,19,-4.0,-4.0,-923.0,15:52:02.557285,192.168.0.114
1012,8,23,-4,57,"2,-4,-176",0,0,0,0,0,4,76,80,50,20,100,-57.4,19,23.0,-16.0,-970.0,15:52:02.657131,192.168.0.114
1017,8,23,-4,57,"2,-4,-176",0,0,0,0,0,4,76,80,45,10,100,-57.44,20,15.0,4.0,-989.0,15:52:02.759168,192.168.0.114
1022,8,23,-1,46,"1,-3,-178",0,0,0,0,0,4,76,80,40,10,100,-57.48,20,-7.0,3.0,-982.0,15:52:02.861104,192.168.0.114
1027,8,23,-1,46,"1,-3,-178",0,0,0,0,0,4,76,80,35,0,100,-57.57,20,-25.0,7.0,-1013.0,15:52:02.963248,192.168.0.114
1032,8,23,-1,46,"1,-3,-178",0,0,0,0,0,4,76,80,30,0,100,-57.58,20,28.0,-16.0,-984.0,15:52:03.065072,192.168.0.114
1037,8,23,-1,46,"1,-3,-178",0,0,0,0,0,4,76,80,25,0,100,-57.57,20,-4.0,0.0,-982.0,15:52:03.167135,192.168.0.114
1042,8,23,-1,46,"1,-3,-178",0,0,0,0,0,4,76,80,22,0,100,-57.65,20,6.0,-14.0,-1015.0,15:52:03.269060,192.168.0.114
1047,8,23,-1,46,"1,-3,-178",0,0,0,0,0,4,76,80,17,-10,100,-57.86,20,-1.0,-15.0,-990.0,15:52:03.371086,192.168.0.114
1052,8,23,-1,46,"1,-3,-178",0,0,0,0,0,4,76,80,11,-10,100,-58.0,20,-7.0,-7.0,-1000.0,15:52:03.474680,192.168.0.114
1057,8,23,-1,46,"1,-3,-178",0,0,0,0,0,4,76,80,10,-20,100,-59.0,20,-27.0,2.0,-1012.0,15:52:03.575048,192.168.0.114
1062,8,23,-1,46,"1,-3,-178",0,1,0,0,0,4,76,80,10,-20,100,-60.23,20,6.0,-6.0,-1040.0,15:52:03.677059,192.168.0.114
1067,8,23,-1,46,"1,-3,-178",-1,0,0,0,0,3,76,80,10,-20,100,-61.33,21,-37.0,2.0,-1052.0,15:52:03.779077,192.168.0.114
1071,8,23,-1,46,"1,-3,-178",-1,1,0,0,0,-1,76,80,10,-30,100,-60.05,21,-3.0,25.0,-720.0,15:52:03.830478,192.168.0.114
1076,8,23,-1,46,"1,-3,-178",-1,1,0,0,0,0,76,80,10,-30,100,-60.71,21,42.0,-221.0,-2223.0,15:52:03.931985,192.168.0.114
1081,8,23,-1,46,"1,-3,-178",0,1,2,0,0,0,76,80,10,-30,100,-60.09,21,-40.0,-58.0,-883.0,15:52:04.034043,192.168.0.114
1086,8,23,-1,46,"1,-3,-178",0,0,2,0,0,0,77,80,10,-30,100,-59.93,21,55.0,-39.0,-929.0,15:52:04.136095,192.168.0.114
1091,8,23,-1,46,"1,-3,-178",0,0,2,0,0,0,77,80,10,-20,100,-59.21,21,20.0,-5.0,-999.0,15:52:04.238053,192.168.0.114
1097,8,23,-1,46,"1,-3,-178",0,0,2,0,0,0,77,80,10,-20,100,-59.02,21,-12.0,19.0,-1003.0,15:52:04.340029,192.168.0.114
1102,8,23,-1,46,"1,-3,-178",0,0,2,0,0,0,77,80,10,-20,100,-58.93,21,2.0,0.0,-1001.0,15:52:04.442040,192.168.0.114
1107,8,23,-1,46,"1,-3,-178",0,0,2,0,0,0,77,80,10,-20,100,-58.75,21,-7.0,4.0,-1002.0,15:52:04.544047,192.168.0.114
1112,8,23,-1,46,"1,-3,-178",0,0,2,0,0,0,77,80,10,-20,100,-58.67,22,-19.0,16.0,-1006.0,15:52:04.645685,192.168.0.114
1117,8,23,-1,46,"1,-3,-178",0,0,2,0,0,0,77,80,10,0,100,-58.56,22,-12.0,25.0,-1000.0,15:52:04.748620,192.168.0.114
1122,8,23,-1,46,"1,-3,-178",0,0,2,0,0,0,77,80,10,0,100,-58.32,22,-25.0,31.0,-1004.0,15:52:04.851159,192.168.0.114
