,mid,x,y,z,mpry,pitch,roll,yaw,vgx,vgy,vgz,templ,temph,tof,h,bat,baro,time,agx,agy,agz,timestamp,address
4,-1,-100,-100,-100,"0,0,0",0,0,-54,0,0,0,69,71,10,0,100,-49.19,0,-2.0,0.0,-999.0,12:42:23.782907,192.168.0.114
9,-1,-100,-100,-100,"0,0,0",0,0,-54,0,0,0,69,71,10,0,100,-49.19,0,-1.0,0.0,-997.0,12:42:23.886019,192.168.0.114
14,-1,-100,-100,-100,"0,0,0",0,0,-54,0,0,0,69,71,10,0,100,-49.19,0,-1.0,0.0,-995.0,12:42:23.986843,192.168.0.114
19,-1,-100,-100,-100,"0,0,0",0,0,-54,0,0,0,69,71,10,0,100,-49.19,0,2.0,8.0,-1002.0,12:42:24.088849,192.168.0.114
20,-1,-100,-100,-100,"0,0,0",0,0,-54,0,0,0,69,71,10,0,100,-49.19,0,8.0,-11.0,-1000.0,12:42:24.143933,192.168.0.114
25,-1,-100,-100,-100,"0,0,0",0,0,-54,0,0,0,69,71,10,0,100,-49.19,0,0.0,9.0,-1009.0,12:42:24.245349,192.168.0.114
30,-1,-100,-100,-100,"0,0,0",0,0,-53,0,0,0,69,71,10,0,100,-49.19,0,11.0,-4.0,-1105.0,12:42:24.343969,192.168.0.114
35,-1,-100,-100,-100,"0,0,0",-1,0,-53,0,0,0,69,71,10,0,100,-49.19,0,6.0,16.0,-1281.0,12:42:24.445522,192.168.0.114
40,-1,-100,-100,-100,"0,0,0",0,0,-53,0,0,3,69,71,10,0,100,-49.19,0,53.0,1.0,-1301.0,12:42:24.547911,192.168.0.114
46,-1,-100,-100,-100,"0,0,0",1,0,-53,-1,0,6,70,71,11,0,100,-49.14,0,43.0,3.0,-1123.0,12:42:24.649920,192.168.0.114
51,-1,-100,-100,-100,"0,0,0",2,0,-53,-1,0,7,70,71,20,0,100,-48.82,0,63.0,27.0,-1054.0,12:42:24.752594,192.168.0.114
57,-1,-100,-100,-100,"0,0,0",2,-1,-53,-1,0,8,70,71,29,10,100,-48.66,0,74.0,-9.0,-1006.0,12:42:24.853793,192.168.0.114
62,-1,-100,-100,-100,"0,0,0",3,0,-53,0,0,7,70,71,37,10,100,-48.66,1,57.0,33.0,-921.0,12:42:24.955990,192.168.0.114
67,-1,-100,-100,-100,"0,0,0",4,-1,-53,-1,0,7,70,71,45,20,100,-48.54,1,90.0,-8.0,-921.0,12:42:25.058666,192.168.0.114
72,-1,-100,-100,-100,"0,0,0",4,-2,-53,-1,0,6,70,71,54,30,100,-48.49,1,75.0,14.0,-904.0,12:42:25.159831,192.168.0.114
77,-1,-100,-100,-100,"0,0,0",5,-1,-53,0,1,4,70,71,60,30,100,-48.55,1,53.0,5.0,-867.0,12:42:25.261945,192.168.0.114
82,-1,-100,-100,-100,"0,0,0",5,-1,-53,0,1,3,70,71,67,30,100,-48.46,1,83.0,7.0,-904.0,12:42:25.363897,192.168.0.114
87,-1,-100,-100,-100,"0,0,0",5,0,-53,0,0,2,70,71,71,40,100,-48.42,1,59.0,16.0,-909.0,12:42:25.465826,192.168.0.114
92,-1,-100,-100,-100,"0,0,0",5,0,-53,0,0,1,70,71,75,40,100,-48.38,1,76.0,7.0,-936.0,12:42:25.567465,192.168.0.114
97,-1,-100,-100,-100,"0,0,0",5,0,-53,0,0,1,70,71,79,40,100,-48.26,1,62.0,-10.0,-947.0,12:42:25.670169,192.168.0.114
102,-1,-100,-100,-100,"0,0,0",4,0,-53,0,0,0,70,71,82,40,100,-48.29,1,52.0,-7.0,-962.0,12:42:25.771759,192.168.0.114
108,-1,-100,-100,-100,"0,0,0",4,0,-53,0,0,0,70,71,84,40,100,-48.27,1,63.0,-1.0,-969.0,12:42:25.873888,192.168.0.114
113,-1,-100,-100,-100,"0,0,0",4,0,-53,0,0,0,70,71,86,40,100,-48.24,2,47.0,9.0,-983.0,12:42:25.976022,192.168.0.114
118,-1,-100,-100,-100,"0,0,0",3,0,-53,0,0,0,70,71,88,50,100,-48.17,2,49.0,-14.0,-983.0,12:42:26.079125,192.168.0.114
124,-1,-100,-100,-100,"0,0,0",3,0,-53,0,0,0,70,71,89,50,100,-48.21,2,44.0,4.0,-963.0,12:42:26.179892,192.168.0.114
129,-1,-100,-100,-100,"0,0,0",3,1,-52,0,0,0,70,71,90,50,100,-48.15,2,44.0,-5.0,-968.0,12:42:26.281767,192.168.0.114
134,-1,-100,-100,-100,"0,0,0",3,0,-52,0,0,0,70,71,92,50,100,-48.15,2,42.0,-9.0,-980.0,12:42:26.385094,192.168.0.114
139,-1,-100,-100,-100,"0,0,0",2,0,-52,0,0,0,70,71,92,50,100,-48.2,2,83.0,3.0,-984.0,12:42:26.485832,192.168.0.114
144,-1,-100,-100,-100,"0,0,0",2,0,-52,0,0,0,70,71,92,50,100,-48.19,2,77.0,-2.0,-974.0,12:42:26.588332,192.168.0.114
145,-1,-100,-100,-100,"0,0,0",2,0,-52,0,0,0,70,71,92,50,100,-48.13,2,70.0,12.0,-970.0,12:42:26.638832,192.168.0.114
150,-1,-100,-100,-100,"0,0,0",3,0,-52,0,0,0,70,71,93,50,100,-48.19,2,54.0,25.0,-960.0,12:42:26.740922,192.168.0.114
155,-1,-100,-100,-100,"0,0,0",3,0,-52,0,0,0,70,71,93,50,100,-48.12,2,76.0,-1.0,-1005.0,12:42:26.842919,192.168.0.114
160,-1,-100,-100,-100,"0,0,0",3,0,-52,0,0,0,70,71,92,50,100,-48.12,3,77.0,-10.0,-985.0,12:42:26.945832,192.168.0.114
165,-1,-100,-100,-100,"0,0,0",3,0,-52,0,0,0,70,71,92,50,100,-48.22,3,43.0,5.0,-981.0,12:42:27.047342,192.168.0.114
171,-1,-100,-100,-100,"0,0,0",3,0,-52,0,0,0,70,71,91,50,100,-48.18,3,63.0,6.0,-985.0,12:42:27.148733,192.168.0.114
176,-1,-100,-100,-100,"0,0,0",3,0,-52,0,0,0,70,71,91,50,100,-48.09,3,70.0,-12.0,-996.0,12:42:27.250799,192.168.0.114
182,-1,-100,-100,-100,"0,0,0",3,0,-53,0,0,0,70,71,91,50,100,-48.16,3,64.0,-15.0,-1003.0,12:42:27.352821,192.168.0.114
187,-1,-100,-100,-100,"0,0,0",3,0,-53,0,0,0,70,71,90,50,100,-48.2,3,98.0,-16.0,-1007.0,12:42:27.454836,192.168.0.114
192,-1,-100,-100,-100,"0,0,0",3,0,-53,0,0,0,70,71,89,50,100,-48.05,3,53.0,-4.0,-970.0,12:42:27.556543,192.168.0.114
197,-1,-100,-100,-100,"0,0,0",3,0,-53,0,0,0,70,71,89,50,100,-48.1,3,64.0,-25.0,-971.0,12:42:27.659914,192.168.0.114
202,-1,-100,-100,-100,"0,0,0",2,0,-53,0,0,0,70,71,88,50,100,-48.17,3,34.0,-17.0,-1007.0,12:42:27.761165,192.168.0.114
207,-1,-100,-100,-100,"0,0,0",2,0,-53,0,0,0,70,71,87,50,100,-48.2,3,68.0,-26.0,-987.0,12:42:27.862942,192.168.0.114
212,-1,-100,-100,-100,"0,0,0",3,2,-53,0,0,0,70,71,86,50,100,-48.13,4,74.0,-62.0,-1012.0,12:42:27.964735,192.168.0.114
217,-1,-100,-100,-100,"0,0,0",3,2,-53,0,0,0,70,71,85,50,100,-48.2,4,48.0,-32.0,-1018.0,12:42:28.067011,192.168.0.114
222,-1,-100,-100,-100,"0,0,0",3,2,-53,0,0,0,70,71,84,50,100,-48.27,4,76.0,-46.0,-1022.0,12:42:28.169216,192.168.0.114
227,-1,-100,-100,-100,"0,0,0",3,2,-53,0,0,0,70,71,83,50,100,-48.36,4,46.0,-5.0,-1007.0,12:42:28.270917,192.168.0.114
232,-1,-100,-100,-100,"0,0,0",4,2,-53,0,0,0,70,71,82,50,100,-48.46,4,75.0,-8.0,-984.0,12:42:28.374152,192.168.0.114
238,-1,-100,-100,-100,"0,0,0",4,2,-53,0,0,0,70,71,81,50,100,-48.32,4,50.0,-50.0,-991.0,12:42:28.474784,192.168.0.114
243,-1,-100,-100,-100,"0,0,0",4,2,-53,0,0,0,70,71,81,50,100,-48.29,4,66.0,-35.0,-1004.0,12:42:28.576770,192.168.0.114
248,-1,-100,-100,-100,"0,0,0",3,2,-53,0,0,0,70,71,80,50,100,-48.36,4,26.0,-13.0,-987.0,12:42:28.680369,192.168.0.114
253,-1,-100,-100,-100,"0,0,0",3,2,-53,0,0,0,70,71,80,50,100,-48.33,4,31.0,-15.0,-994.0,12:42:28.780793,192.168.0.114
258,-1,-100,-100,-100,"0,0,0",2,1,-53,0,0,0,70,71,79,50,100,-48.28,4,54.0,-29.0,-1020.0,12:42:28.882350,192.168.0.114
263,-1,-100,-100,-100,"0,0,0",2,2,-54,0,0,0,70,71,78,50,100,-48.33,5,45.0,-18.0,-1013.0,12:42:28.984604,192.168.0.114
268,-1,-100,-100,-100,"0,0,0",2,2,-54,0,0,0,70,71,79,40,100,-48.36,5,33.0,-8.0,-1007.0,12:42:29.086881,192.168.0.114
270,-1,-100,-100,-100,"0,0,0",3,1,-53,0,0,0,70,71,78,40,100,-48.41,5,40.0,-48.0,-1004.0,12:42:29.139113,192.168.0.114
275,-1,-100,-100,-100,"0,0,0",2,0,-53,0,0,0,70,71,79,40,100,-48.32,5,8.0,-10.0,-1028.0,12:42:29.241429,192.168.0.114
280,-1,-100,-100,-100,"0,0,0",1,1,-53,0,0,0,70,71,78,40,100,-48.38,5,23.0,-21.0,-1025.0,12:42:29.343917,192.168.0.114
285,-1,-100,-100,-100,"0,0,0",1,1,-53,0,0,0,70,71,78,40,100,-48.42,5,44.0,-27.0,-1022.0,12:42:29.443764,192.168.0.114
290,-1,-100,-100,-100,"0,0,0",0,1,-53,0,0,0,70,71,78,40,100,-48.43,5,40.0,-43.0,-1008.0,12:42:29.548911,192.168.0.114
295,-1,-100,-100,-100,"0,0,0",1,1,-53,0,0,0,69,71,79,40,100,-48.41,5,40.0,-2.0,-997.0,12:42:29.651176,192.168.0.114
301,-1,-100,-100,-100,"0,0,0",1,2,-53,0,0,0,69,71,79,40,100,-48.33,5,30.0,11.0,-1008.0,12:42:29.749634,192.168.0.114
306,-1,-100,-100,-100,"0,0,0",1,1,-53,0,0,0,69,71,80,40,100,-48.36,5,43.0,0.0,-992.0,12:42:29.853434,192.168.0.114
312,-1,-100,-100,-100,"0,0,0",1,0,-53,0,0,0,69,71,79,50,100,-48.36,6,37.0,4.0,-991.0,12:42:29.954509,192.168.0.114
317,-1,-100,-100,-100,"0,0,0",1,0,-53,0,0,0,69,71,79,50,100,-48.32,6,11.0,-16.0,-1003.0,12:42:30.056873,192.168.0.114
322,-1,-100,-100,-100,"0,0,0",1,0,-53,0,0,0,69,71,79,50,100,-48.4,6,25.0,-21.0,-978.0,12:42:30.159695,192.168.0.114
327,-1,-100,-100,-100,"0,0,0",1,0,-53,0,0,0,69,71,79,50,100,-48.21,6,39.0,-28.0,-1019.0,12:42:30.260675,192.168.0.114
332,-1,-100,-100,-100,"0,0,0",1,0,-53,0,0,0,69,71,79,50,100,-48.26,6,29.0,0.0,-1011.0,12:42:30.362906,192.168.0.114
337,-1,-100,-100,-100,"0,0,0",1,0,-53,0,0,0,69,71,79,50,100,-48.33,6,37.0,-11.0,-999.0,12:42:30.463804,192.168.0.114
342,-1,-100,-100,-100,"0,0,0",2,0,-53,0,0,0,69,71,79,50,100,-48.26,6,44.0,-17.0,-1006.0,12:42:30.565777,192.168.0.114
347,-1,-100,-100,-100,"0,0,0",2,0,-53,0,0,0,69,71,79,50,100,-48.32,6,55.0,-32.0,-972.0,12:42:30.671131,192.168.0.114
352,-1,-100,-100,-100,"0,0,0",2,0,-53,0,0,0,69,71,78,40,100,-48.33,6,40.0,-26.0,-984.0,12:42:30.769762,192.168.0.114
357,-1,-100,-100,-100,"0,0,0",2,1,-53,0,0,0,69,71,78,40,100,-48.32,6,26.0,-26.0,-1012.0,12:42:30.871680,192.168.0.114
363,-1,-100,-100,-100,"0,0,0",1,1,-53,0,0,0,69,71,78,40,100,-48.28,7,5.0,2.0,-1003.0,12:42:30.973743,192.168.0.114
368,-1,-100,-100,-100,"0,0,0",2,1,-53,0,0,0,69,71,78,40,100,-48.44,7,44.0,-8.0,-1024.0,12:42:31.075810,192.168.0.114
373,-1,-100,-100,-100,"0,0,0",2,1,-53,0,0,0,69,71,78,40,100,-48.37,7,37.0,-16.0,-1000.0,12:42:31.181105,192.168.0.114
378,-1,-100,-100,-100,"0,0,0",2,1,-53,0,0,0,69,71,78,40,100,-48.38,7,37.0,-20.0,-1007.0,12:42:31.280926,192.168.0.114
383,-1,-100,-100,-100,"0,0,0",1,0,-53,0,0,0,69,71,78,40,100,-48.45,7,18.0,-17.0,-996.0,12:42:31.382637,192.168.0.114
388,-1,-100,-100,-100,"0,0,0",2,1,-53,0,0,0,69,71,78,40,100,-48.41,7,3.0,3.0,-985.0,12:42:31.484623,192.168.0.114
393,-1,-100,-100,-100,"0,0,0",2,1,-53,0,0,0,69,71,78,40,100,-48.38,7,37.0,-7.0,-985.0,12:42:31.585779,192.168.0.114
398,-1,-100,-100,-100,"0,0,0",1,0,-53,0,0,0,70,71,79,40,100,-48.37,7,51.0,-16.0,-987.0,12:42:31.688353,192.168.0.114
400,-1,-100,-100,-100,"0,0,0",1,0,-53,0,0,0,70,71,79,40,100,-48.34,7,25.0,9.0,-996.0,12:42:31.741739,192.168.0.114
405,-1,-100,-100,-100,"0,0,0",1,0,-53,0,0,0,70,71,80,40,100,-48.25,7,31.0,7.0,-1001.0,12:42:31.842833,192.168.0.114
410,-1,-100,-100,-100,"0,0,0",2,0,-53,0,0,0,70,71,79,50,100,-48.37,8,52.0,-19.0,-981.0,12:42:31.942901,192.168.0.114
415,-1,-100,-100,-100,"0,0,0",2,0,-53,0,0,0,70,71,79,40,100,-48.41,8,22.0,-9.0,-995.0,12:42:32.044775,192.168.0.114
420,-1,-100,-100,-100,"0,0,0",2,0,-53,0,0,0,70,71,79,40,100,-48.39,8,4.0,17.0,-1026.0,12:42:32.146584,192.168.0.114
425,-1,-100,-100,-100,"0,0,0",2,0,-53,0,0,0,70,71,79,40,100,-48.38,8,37.0,-3.0,-1014.0,12:42:32.248799,192.168.0.114
431,-1,-100,-100,-100,"0,0,0",1,0,-53,0,0,0,70,71,79,40,100,-48.37,8,4.0,9.0,-989.0,12:42:32.350749,192.168.0.114
437,-1,-100,-100,-100,"0,0,0",1,0,-53,0,0,0,70,71,79,40,100,-48.36,8,14.0,-4.0,-977.0,12:42:32.452826,192.168.0.114
442,-1,-100,-100,-100,"0,0,0",1,0,-53,0,0,0,70,71,79,40,100,-48.35,8,30.0,14.0,-1001.0,12:42:32.554746,192.168.0.114
447,-1,-100,-100,-100,"0,0,0",1,0,-53,0,0,0,70,71,79,40,100,-48.42,8,28.0,8.0,-1024.0,12:42:32.656826,192.168.0.114
452,-1,-100,-100,-100,"0,0,0",1,0,-53,0,0,0,70,71,79,50,100,-48.46,8,26.0,-9.0,-1019.0,12:42:32.758642,192.168.0.114
457,-1,-100,-100,-100,"0,0,0",1,0,-53,0,0,0,70,71,80,50,100,-48.37,8,7.0,8.0,-1007.0,12:42:32.860833,192.168.0.114
462,-1,-100,-100,-100,"0,0,0",0,0,-53,0,0,0,70,71,80,50,100,-48.42,9,7.0,-13.0,-983.0,12:42:32.962677,192.168.0.114
467,-1,-100,-100,-100,"0,0,0",0,0,-53,0,0,0,70,71,80,50,100,-48.4,9,9.0,-1.0,-1008.0,12:42:33.068875,192.168.0.114
472,-1,-100,-100,-100,"0,0,0",0,0,-53,0,0,0,70,71,80,50,100,-48.36,9,-1.0,4.0,-1007.0,12:42:33.166466,192.168.0.114
477,-1,-100,-100,-100,"0,0,0",0,0,-53,0,0,0,70,71,79,50,100,-48.4,9,21.0,-14.0,-992.0,12:42:33.268749,192.168.0.114
482,-1,-100,-100,-100,"0,0,0",0,0,-53,0,0,0,70,71,79,50,100,-48.37,9,-8.0,11.0,-1006.0,12:42:33.370755,192.168.0.114
487,-1,-100,-100,-100,"0,0,0",0,0,-53,0,0,0,70,71,79,50,100,-48.35,9,2.0,-3.0,-988.0,12:42:33.472642,192.168.0.114
492,-1,-100,-100,-100,"0,0,0",0,0,-53,0,0,0,70,71,80,50,100,-48.41,9,-5.0,0.0,-980.0,12:42:33.574639,192.168.0.114
498,-1,-100,-100,-100,"0,0,0",0,0,-53,0,0,0,70,72,79,50,100,-48.36,9,17.0,-2.0,-1014.0,12:42:33.676654,192.168.0.114
503,-1,-100,-100,-100,"0,0,0",0,0,-53,0,0,0,70,72,79,50,100,-48.36,9,2.0,4.0,-998.0,12:42:33.778344,192.168.0.114
508,-1,-100,-100,-100,"0,0,0",0,0,-53,0,0,0,70,72,79,50,100,-48.37,9,-19.0,15.0,-1001.0,12:42:33.880402,192.168.0.114
513,-1,-100,-100,-100,"0,0,0",0,0,-53,0,0,0,70,72,79,40,100,-48.42,10,4.0,-4.0,-990.0,12:42:33.982751,192.168.0.114
518,-1,-100,-100,-100,"0,0,0",0,0,-53,0,0,0,70,72,79,40,100,-48.39,10,5.0,12.0,-1002.0,12:42:34.084379,192.168.0.114
523,-1,-100,-100,-100,"0,0,0",0,0,-53,0,0,0,70,72,79,40,100,-48.38,10,-3.0,8.0,-997.0,12:42:34.186578,192.168.0.114
525,-1,-100,-100,-100,"0,0,0",0,0,-53,0,0,0,70,72,79,40,100,-48.42,10,8.0,14.0,-1004.0,12:42:34.237664,192.168.0.114
530,-1,-100,-100,-100,"0,0,0",0,0,-53,0,0,0,70,72,79,40,100,-48.32,10,17.0,1.0,-1007.0,12:42:34.339675,192.168.0.114
535,-1,-100,-100,-100,"0,0,0",0,0,-53,0,0,0,70,72,78,40,100,-48.41,10,15.0,19.0,-1029.0,12:42:34.441607,192.168.0.114
540,-1,-100,-100,-100,"0,0,0",0,0,-53,0,0,0,70,72,79,40,100,-48.33,10,4.0,23.0,-1013.0,12:42:34.543489,192.168.0.114
545,-1,-100,-100,-100,"0,0,0",0,0,-53,0,0,0,69,71,78,40,100,-48.36,10,5.0,5.0,-992.0,12:42:34.645636,192.168.0.114
550,-1,-100,-100,-100,"0,0,0",0,0,-53,0,0,0,69,71,78,40,100,-48.36,10,15.0,9.0,-1001.0,12:42:34.747884,192.168.0.114
555,-1,-100,-100,-100,"0,0,0",0,0,-53,0,0,0,69,71,79,40,100,-48.31,10,20.0,24.0,-1013.0,12:42:34.851533,192.168.0.114
560,-1,-100,-100,-100,"0,0,0",0,0,-53,0,0,0,69,71,78,40,100,-48.28,11,28.0,1.0,-1000.0,12:42:34.954742,192.168.0.114
567,-1,-100,-100,-100,"0,0,0",0,0,-53,0,0,0,69,71,79,40,100,-48.36,11,34.0,4.0,-986.0,12:42:35.056837,192.168.0.114
572,-1,-100,-100,-100,"0,0,0",0,0,-52,0,0,0,69,71,79,40,100,-48.35,11,6.0,19.0,-999.0,12:42:35.155609,192.168.0.114
577,-1,-100,-100,-100,"0,0,0",1,0,-52,0,0,0,69,71,79,40,100,-48.27,11,-8.0,31.0,-984.0,12:42:35.257612,192.168.0.114
582,-1,-100,-100,-100,"0,0,0",1,0,-53,0,0,0,69,71,78,40,100,-48.24,11,13.0,-1.0,-1023.0,12:42:35.359557,192.168.0.114
587,-1,-100,-100,-100,"0,0,0",1,0,-53,0,0,0,69,71,78,40,100,-48.3,11,40.0,1.0,-997.0,12:42:35.461617,192.168.0.114
592,-1,-100,-100,-100,"0,0,0",1,0,-53,0,0,0,69,71,79,40,100,-48.27,11,33.0,5.0,-1002.0,12:42:35.563131,192.168.0.114
597,-1,-100,-100,-100,"0,0,0",1,0,-53,0,0,0,69,71,78,40,100,-48.19,11,15.0,10.0,-998.0,12:42:35.665675,192.168.0.114
602,-1,-100,-100,-100,"0,0,0",2,0,-53,0,0,0,69,71,79,40,100,-48.29,11,21.0,33.0,-1018.0,12:42:35.767608,192.168.0.114
607,-1,-100,-100,-100,"0,0,0",2,0,-53,0,0,0,69,71,79,40,100,-48.28,11,14.0,7.0,-1014.0,12:42:35.870430,192.168.0.114
612,-1,-100,-100,-100,"0,0,0",1,-1,-53,0,0,0,69,71,79,40,100,-48.31,12,1.0,18.0,-1013.0,12:42:35.971451,192.168.0.114
617,-1,-100,-100,-100,"0,0,0",1,-1,-53,0,0,0,69,71,80,40,100,-48.37,12,-13.0,22.0,-1003.0,12:42:36.076328,192.168.0.114
622,-1,-100,-100,-100,"0,0,0",1,0,-53,0,0,0,69,71,80,50,100,-48.37,12,-3.0,1.0,-981.0,12:42:36.175569,192.168.0.114
627,-1,-100,-100,-100,"0,0,0",0,0,-53,0,0,0,69,71,80,50,100,-48.2,12,-19.0,24.0,-981.0,12:42:36.277594,192.168.0.114
632,-1,-100,-100,-100,"0,0,0",0,0,-53,0,0,0,69,71,80,50,100,-48.32,12,7.0,7.0,-1003.0,12:42:36.379969,192.168.0.114
637,-1,-100,-100,-100,"0,0,0",0,0,-53,0,0,0,69,71,80,50,100,-48.32,12,2.0,9.0,-988.0,12:42:36.481572,192.168.0.114
642,-1,-100,-100,-100,"0,0,0",0,0,-53,0,0,0,69,71,80,50,100,-48.33,12,24.0,23.0,-1002.0,12:42:36.583741,192.168.0.114
647,-1,-100,-100,-100,"0,0,0",0,0,-53,0,0,0,69,71,80,50,100,-48.29,12,5.0,26.0,-1016.0,12:42:36.685491,192.168.0.114
652,-1,-100,-100,-100,"0,0,0",0,0,-53,0,0,0,69,71,80,50,100,-48.26,12,13.0,16.0,-990.0,12:42:36.789686,192.168.0.114
655,-1,-100,-100,-100,"0,0,0",0,-1,-53,0,0,0,69,71,80,50,100,-48.24,12,20.0,24.0,-1000.0,12:42:36.841136,192.168.0.114
660,-1,-100,-100,-100,"0,0,0",0,-1,-53,0,0,0,69,71,80,50,100,-48.29,13,22.0,28.0,-1014.0,12:42:36.940369,192.168.0.114
665,-1,-100,-100,-100,"0,0,0",0,-1,-53,0,0,0,69,71,80,50,100,-48.3,13,36.0,11.0,-1006.0,12:42:37.042718,192.168.0.114
670,-1,-100,-100,-100,"0,0,0",0,-1,-53,0,0,0,69,71,80,50,100,-48.36,13,17.0,6.0,-1021.0,12:42:37.144889,192.168.0.114
675,-1,-100,-100,-100,"0,0,0",0,-1,-53,0,0,0,69,71,80,50,100,-48.43,13,1.0,4.0,-995.0,12:42:37.248617,192.168.0.114
680,-1,-100,-100,-100,"0,0,0",0,0,-53,0,0,0,69,71,80,50,100,-48.35,13,-8.0,6.0,-989.0,12:42:37.348606,192.168.0.114
685,-1,-100,-100,-100,"0,0,0",0,0,-53,0,0,0,69,71,79,50,100,-48.3,13,-6.0,10.0,-998.0,12:42:37.450531,192.168.0.114
691,-1,-100,-100,-100,"0,0,0",0,0,-53,0,0,0,69,71,79,50,100,-48.3,13,0.0,11.0,-1002.0,12:42:37.555658,192.168.0.114
696,-1,-100,-100,-100,"0,0,0",0,0,-53,0,0,0,69,71,80,50,100,-48.33,13,14.0,12.0,-986.0,12:42:37.654591,192.168.0.114
701,-1,-100,-100,-100,"0,0,0",0,0,-53,0,0,0,69,71,80,50,100,-48.24,13,9.0,6.0,-988.0,12:42:37.756471,192.168.0.114
706,-1,-100,-100,-100,"0,0,0",0,0,-53,0,0,0,69,71,80,50,100,-48.29,13,0.0,20.0,-1007.0,12:42:37.858411,192.168.0.114
711,-1,-100,-100,-100,"0,0,0",0,0,-53,0,0,0,69,71,80,50,100,-48.35,14,-12.0,13.0,-989.0,12:42:37.960603,192.168.0.114
716,-1,-100,-100,-100,"0,0,0",0,0,-53,0,0,0,69,71,80,50,100,-48.38,14,-5.0,26.0,-1000.0,12:42:38.062745,192.168.0.114
721,-1,-100,-100,-100,"0,0,0",0,0,-53,0,0,0,69,71,80,50,100,-48.31,14,0.0,24.0,-1006.0,12:42:38.164605,192.168.0.114
727,-1,-100,-100,-100,"0,0,0",0,0,-53,0,0,0,69,71,80,50,100,-48.33,14,7.0,-10.0,-984.0,12:42:38.266651,192.168.0.114
732,-1,-100,-100,-100,"0,0,0",0,0,-53,0,0,0,69,71,80,50,100,-48.37,14,-1.0,-2.0,-990.0,12:42:38.369209,192.168.0.114
737,-1,-100,-100,-100,"0,0,0",0,0,-53,0,0,0,69,71,80,50,100,-48.36,14,1.0,2.0,-997.0,12:42:38.471026,192.168.0.114
742,-1,-100,-100,-100,"0,0,0",0,0,-53,0,0,0,69,71,80,50,100,-48.34,14,7.0,-1.0,-991.0,12:42:38.572507,192.168.0.114
747,-1,-100,-100,-100,"0,0,0",0,0,-53,0,0,0,70,71,80,50,100,-48.34,14,2.0,12.0,-1010.0,12:42:38.674170,192.168.0.114
752,-1,-100,-100,-100,"0,0,0",0,0,-53,0,0,0,70,71,80,50,100,-48.32,14,-8.0,7.0,-999.0,12:42:38.776301,192.168.0.114
757,-1,-100,-100,-100,"0,0,0",0,0,-53,0,0,0,70,71,80,50,100,-48.39,14,36.0,-7.0,-982.0,12:42:38.878032,192.168.0.114
762,-1,-100,-100,-100,"0,0,0",0,0,-53,0,0,0,70,71,80,50,100,-48.32,15,8.0,0.0,-968.0,12:42:38.980503,192.168.0.114
767,-1,-100,-100,-100,"0,0,0",0,0,-53,0,0,0,70,71,80,50,100,-48.3,15,27.0,9.0,-1000.0,12:42:39.082521,192.168.0.114
772,-1,-100,-100,-100,"0,0,0",0,0,-53,0,0,0,70,71,79,50,100,-48.3,15,12.0,1.0,-1005.0,12:42:39.184383,192.168.0.114
777,-1,-100,-100,-100,"0,0,0",0,0,-53,0,0,0,70,71,79,50,100,-48.26,15,12.0,11.0,-1006.0,12:42:39.286495,192.168.0.114
779,-1,-100,-100,-100,"0,0,0",0,0,-53,0,0,0,70,71,79,40,100,-48.37,15,16.0,10.0,-1009.0,12:42:39.338201,192.168.0.114
784,-1,-100,-100,-100,"0,0,0",1,-1,-53,0,0,0,70,71,79,40,100,-48.34,15,13.0,4.0,-1035.0,12:42:39.440373,192.168.0.114
790,-1,-100,-100,-100,"0,0,0",0,-1,-53,0,0,0,70,71,79,40,100,-48.34,15,8.0,10.0,-1001.0,12:42:39.542534,192.168.0.114
795,-1,-100,-100,-100,"0,0,0",0,-1,-53,0,0,0,69,71,79,40,100,-48.35,15,17.0,15.0,-990.0,12:42:39.644442,192.168.0.114
800,-1,-100,-100,-100,"0,0,0",0,-1,-53,0,0,0,69,71,79,50,100,-48.43,15,5.0,30.0,-983.0,12:42:39.746338,192.168.0.114
805,-1,-100,-100,-100,"0,0,0",0,-1,-53,0,0,0,69,71,80,50,100,-48.31,15,-2.0,3.0,-993.0,12:42:39.848485,192.168.0.114
810,-1,-100,-100,-100,"0,0,0",0,-1,-53,0,0,0,69,71,80,50,100,-48.34,16,13.0,13.0,-1008.0,12:42:39.951304,192.168.0.114
815,-1,-100,-100,-100,"0,0,0",0,0,-53,0,0,0,69,71,80,50,100,-48.34,16,18.0,4.0,-1003.0,12:42:40.052458,192.168.0.114
821,-1,-100,-100,-100,"0,0,0",0,0,-53,0,0,0,69,71,81,50,100,-48.32,16,27.0,7.0,-997.0,12:42:40.155398,192.168.0.114
826,-1,-100,-100,-100,"0,0,0",1,0,-53,0,0,0,69,71,81,50,100,-48.28,16,9.0,18.0,-999.0,12:42:40.257797,192.168.0.114
831,-1,-100,-100,-100,"0,0,0",0,0,-53,0,0,0,69,71,81,50,100,-48.25,16,5.0,3.0,-977.0,12:42:40.358316,192.168.0.114
836,-1,-100,-100,-100,"0,0,0",1,0,-53,0,0,0,69,71,81,50,100,-48.3,16,0.0,15.0,-984.0,12:42:40.460264,192.168.0.114
841,-1,-100,-100,-100,"0,0,0",0,0,-53,0,0,0,69,71,80,50,100,-48.33,16,-11.0,-3.0,-1012.0,12:42:40.562348,192.168.0.114
846,-1,-100,-100,-100,"0,0,0",0,0,-53,0,0,0,70,71,80,50,100,-48.34,16,-21.0,20.0,-1010.0,12:42:40.664486,192.168.0.114
851,-1,-100,-100,-100,"0,0,0",0,0,-53,0,0,0,70,71,79,50,100,-48.33,16,17.0,9.0,-996.0,12:42:40.766476,192.168.0.114
856,-1,-100,-100,-100,"0,0,0",0,0,-53,0,0,0,70,71,79,50,100,-48.34,16,8.0,-4.0,-1001.0,12:42:40.868337,192.168.0.114
861,-1,-100,-100,-100,"0,0,0",0,0,-53,0,0,0,70,71,79,40,100,-48.37,17,17.0,4.0,-974.0,12:42:40.970524,192.168.0.114
866,-1,-100,-100,-100,"0,0,0",0,0,-52,0,0,0,70,71,78,40,100,-48.31,17,9.0,3.0,-994.0,12:42:41.072042,192.168.0.114
871,-1,-100,-100,-100,"0,0,0",0,0,-52,0,0,0,70,71,78,40,100,-48.27,17,4.0,29.0,-1002.0,12:42:41.174556,192.168.0.114
876,-1,-100,-100,-100,"0,0,0",0,0,-53,0,0,0,70,71,77,40,100,-48.29,17,23.0,6.0,-1020.0,12:42:41.276562,192.168.0.114
881,-1,-100,-100,-100,"0,0,0",0,0,-53,0,0,0,70,71,77,40,100,-48.32,17,15.0,23.0,-1021.0,12:42:41.379014,192.168.0.114
886,-1,-100,-100,-100,"0,0,0",0,0,-53,0,0,0,70,71,77,40,100,-48.36,17,17.0,16.0,-988.0,12:42:41.481253,192.168.0.114
891,-1,-100,-100,-100,"0,0,0",1,0,-53,0,0,0,70,71,77,40,100,-48.33,17,14.0,13.0,-1006.0,12:42:41.582291,192.168.0.114
896,-1,-100,-100,-100,"0,0,0",1,-1,-53,0,0,0,70,71,77,40,100,-48.31,17,30.0,10.0,-1021.0,12:42:41.684459,192.168.0.114
901,-1,-100,-100,-100,"0,0,0",1,-1,-53,0,0,0,70,71,77,40,100,-48.3,17,17.0,18.0,-1027.0,12:42:41.786571,192.168.0.114
907,-1,-100,-100,-100,"0,0,0",1,0,-53,0,0,0,70,71,77,40,100,-48.16,17,15.0,22.0,-992.0,12:42:41.890029,192.168.0.114
912,-1,-100,-100,-100,"0,0,0",1,0,-53,0,0,0,70,71,77,40,100,-48.3,18,3.0,1.0,-1016.0,12:42:41.994891,192.168.0.114
917,-1,-100,-100,-100,"0,0,0",1,0,-53,0,0,0,70,71,77,40,100,-48.33,18,5.0,20.0,-1015.0,12:42:42.092920,192.168.0.114
922,-1,-100,-100,-100,"0,0,0",1,0,-53,0,0,0,70,71,77,40,100,-48.4,18,18.0,0.0,-1010.0,12:42:42.194449,192.168.0.114
927,-1,-100,-100,-100,"0,0,0",1,0,-53,0,0,0,70,71,78,40,100,-48.3,18,5.0,21.0,-994.0,12:42:42.301159,192.168.0.114
929,-1,-100,-100,-100,"0,0,0",0,0,-53,0,0,0,70,71,78,40,100,-48.39,18,20.0,12.0,-989.0,12:42:42.349107,192.168.0.114
934,-1,-100,-100,-100,"0,0,0",0,0,-53,0,0,0,70,71,78,40,100,-48.38,18,9.0,3.0,-997.0,12:42:42.451363,192.168.0.114
939,-1,-100,-100,-100,"0,0,0",0,0,-53,0,0,0,70,71,79,40,100,-48.36,18,-14.0,33.0,-1000.0,12:42:42.553733,192.168.0.114
944,-1,-100,-100,-100,"0,0,0",1,0,-53,0,0,0,69,71,79,40,100,-48.38,18,9.0,-1.0,-973.0,12:42:42.653425,192.168.0.114
949,-1,-100,-100,-100,"0,0,0",1,0,-53,0,0,0,69,71,80,50,100,-48.35,18,-6.0,17.0,-996.0,12:42:42.755232,192.168.0.114
954,-1,-100,-100,-100,"0,0,0",0,0,-53,0,0,0,69,71,80,50,100,-48.34,18,26.0,22.0,-1006.0,12:42:42.861427,192.168.0.114
959,-1,-100,-100,-100,"0,0,0",0,0,-53,0,0,0,69,71,80,50,100,-48.34,19,-12.0,20.0,-985.0,12:42:42.959251,192.168.0.114
964,-1,-100,-100,-100,"0,0,0",0,0,-53,0,0,0,69,71,80,50,100,-48.36,19,4.0,5.0,-997.0,12:42:43.060914,192.168.0.114
970,-1,-100,-100,-100,"0,0,0",0,0,-53,0,0,0,69,71,80,50,100,-48.38,19,-1.0,29.0,-1002.0,12:42:43.163098,192.168.0.114
976,-1,-100,-100,-100,"0,0,0",0,0,-53,0,0,0,69,71,80,50,100,-48.44,19,3.0,20.0,-989.0,12:42:43.265467,192.168.0.114
980,-1,-100,-100,-100,"0,0,0",0,0,-53,0,0,0,69,71,80,50,100,-48.39,19,14.0,2.0,-982.0,12:42:43.367216,192.168.0.114
985,-1,-100,-100,-100,"0,0,0",0,0,-53,0,0,0,69,71,80,50,100,-48.37,19,-7.0,32.0,-1009.0,12:42:43.469303,192.168.0.114
990,-1,-100,-100,-100,"0,0,0",0,0,-53,0,0,0,69,71,79,50,100,-48.35,19,-1.0,9.0,-993.0,12:42:43.571283,192.168.0.114
996,-1,-100,-100,-100,"0,0,0",0,0,-53,0,0,0,69,71,79,50,100,-48.4,19,-17.0,21.0,-1008.0,12:42:43.676310,192.168.0.114
1001,-1,-100,-100,-100,"0,0,0",0,0,-53,0,0,0,69,71,79,40,100,-48.33,19,6.0,-8.0,-1001.0,12:42:43.775464,192.168.0.114
1006,-1,-100,-100,-100,"0,0,0",0,0,-53,0,0,0,69,71,79,40,100,-48.4,19,1.0,30.0,-1006.0,12:42:43.881190,192.168.0.114
1011,-1,-100,-100,-100,"0,0,0",0,0,-53,0,0,0,69,71,78,40,100,-48.38,20,-1.0,0.0,-1000.0,12:42:43.979367,192.168.0.114
1016,-1,-100,-100,-100,"0,0,0",0,0,-53,0,0,0,69,71,78,40,100,-48.35,20,-5.0,-7.0,-999.0,12:42:44.081275,192.168.0.114
1021,-1,-100,-100,-100,"0,0,0",0,0,-53,0,0,0,69,71,79,40,100,-48.27,20,-9.0,21.0,-996.0,12:42:44.183332,192.168.0.114
1026,-1,-100,-100,-100,"0,0,0",0,0,-53,0,0,0,69,71,78,40,100,-48.29,20,-1.0,8.0,-986.0,12:42:44.285518,192.168.0.114
1031,-1,-100,-100,-100,"0,0,0",0,0,-53,0,0,0,69,71,79,40,100,-48.31,20,3.0,9.0,-1006.0,12:42:44.387305,192.168.0.114
1036,-1,-100,-100,-100,"0,0,0",0,0,-53,0,0,0,69,71,79,40,100,-48.29,20,4.0,32.0,-1027.0,12:42:44.488911,192.168.0.114
1041,-1,-100,-100,-100,"0,0,0",0,0,-53,0,0,0,69,71,79,40,100,-48.4,20,0.0,18.0,-991.0,12:42:44.591281,192.168.0.114
1046,-1,-100,-100,-100,"0,0,0",0,0,-53,0,0,0,69,71,79,40,100,-48.4,20,11.0,4.0,-994.0,12:42:44.693330,192.168.0.114
1051,-1,-100,-100,-100,"0,0,0",0,0,-53,0,0,0,69,71,78,40,100,-48.35,20,3.0,22.0,-1003.0,12:42:44.795376,192.168.0.114
1056,-1,-100,-100,-100,"0,0,0",0,0,-53,0,0,0,69,71,79,40,100,-48.37,20,-3.0,-4.0,-982.0,12:42:44.897377,192.168.0.114
1061,-1,-100,-100,-100,"0,0,0",0,-1,-53,0,0,0,69,71,79,40,100,-48.27,21,5.0,40.0,-999.0,12:42:45.000093,192.168.0.114
1066,-1,-100,-100,-100,"0,0,0",0,-1,-53,0,0,0,69,71,79,40,100,-48.32,21,10.0,5.0,-1004.0,12:42:45.104193,192.168.0.114
1072,-1,-100,-100,-100,"0,0,0",0,-1,-53,0,0,0,69,71,79,40,100,-48.36,21,6.0,16.0,-998.0,12:42:45.204275,192.168.0.114
1077,-1,-100,-100,-100,"0,0,0",0,-1,-53,0,0,0,69,71,79,40,100,-48.32,21,-1.0,31.0,-994.0,12:42:45.306312,192.168.0.114
1082,-1,-100,-100,-100,"0,0,0",0,-1,-53,0,0,0,69,71,79,40,100,-48.31,21,17.0,-9.0,-1026.0,12:42:45.408625,192.168.0.114
1087,-1,-100,-100,-100,"0,0,0",0,-1,-53,0,0,0,69,71,79,40,100,-48.31,21,-19.0,14.0,-1006.0,12:42:45.510365,192.168.0.114
1089,-1,-100,-100,-100,"0,0,0",0,0,-53,0,0,0,69,71,79,40,100,-48.34,21,18.0,12.0,-1036.0,12:42:45.561157,192.168.0.114
1097,-1,-100,-100,-100,"0,0,0",0,0,-53,0,0,0,69,71,78,40,100,-48.36,21,-2.0,-1.0,-993.0,12:42:45.714279,192.168.0.114
1099,-1,-100,-100,-100,"0,0,0",0,0,-53,0,0,0,69,71,79,40,100,-48.31,21,21.0,-7.0,-1014.0,12:42:45.765383,192.168.0.114
1104,-1,-100,-100,-100,"0,0,0",0,0,-53,0,0,0,69,71,79,40,100,-48.33,21,-5.0,11.0,-997.0,12:42:45.867355,192.168.0.114
1109,-1,-100,-100,-100,"0,0,0",0,0,-53,0,0,0,69,71,79,40,100,-48.4,22,10.0,-9.0,-1000.0,12:42:45.969339,192.168.0.114
1114,-1,-100,-100,-100,"0,0,0",0,0,-53,0,0,0,69,71,79,40,100,-48.38,22,-3.0,10.0,-996.0,12:42:46.074426,192.168.0.114
1119,-1,-100,-100,-100,"0,0,0",0,0,-53,0,0,0,69,71,79,50,100,-48.33,22,17.0,14.0,-991.0,12:42:46.177256,192.168.0.114
1124,-1,-100,-100,-100,"0,0,0",0,0,-53,0,0,0,69,71,79,50,100,-48.36,22,-15.0,9.0,-1009.0,12:42:46.275317,192.168.0.114
1129,-1,-100,-100,-100,"0,0,0",0,0,-53,0,0,0,69,71,79,40,100,-48.36,22,-3.0,-1.0,-989.0,12:42:46.377621,192.168.0.114
1134,-1,-100,-100,-100,"0,0,0",0,0,-53,0,0,0,69,71,79,40,100,-48.3,22,6.0,0.0,-996.0,12:42:46.480654,192.168.0.114
1140,-1,-100,-100,-100,"0,0,0",0,0,-53,0,0,0,69,71,78,40,100,-48.33,22,4.0,-4.0,-993.0,12:42:46.581278,192.168.0.114
1145,-1,-100,-100,-100,"0,0,0",0,0,-53,0,0,0,69,71,78,40,100,-48.33,22,-1.0,1.0,-992.0,12:42:46.684311,192.168.0.114
1150,-1,-100,-100,-100,"0,0,0",0,0,-53,0,0,0,69,71,78,40,100,-48.3,22,1.0,-8.0,-1010.0,12:42:46.785304,192.168.0.114
1155,-1,-100,-100,-100,"0,0,0",0,0,-53,0,0,0,69,71,78,40,100,-48.32,22,-16.0,33.0,-1001.0,12:42:46.887263,192.168.0.114
1160,-1,-100,-100,-100,"0,0,0",0,0,-53,0,0,0,69,71,78,40,100,-48.31,23,-12.0,12.0,-998.0,12:42:46.989223,192.168.0.114
1166,-1,-100,-100,-100,"0,0,0",0,0,-53,0,0,0,69,71,77,40,100,-48.28,23,-4.0,8.0,-1007.0,12:42:47.091140,192.168.0.114
1171,-1,-100,-100,-100,"0,0,0",0,0,-53,0,0,0,69,71,78,40,100,-48.28,23,3.0,12.0,-1009.0,12:42:47.192762,192.168.0.114
1176,-1,-100,-100,-100,"0,0,0",0,0,-53,0,0,0,69,71,78,40,100,-48.35,23,22.0,4.0,-1002.0,12:42:47.295245,192.168.0.114
1181,-1,-100,-100,-100,"0,0,0",0,0,-53,0,0,0,69,71,78,40,100,-48.32,23,25.0,23.0,-988.0,12:42:47.397418,192.168.0.114
1186,-1,-100,-100,-100,"0,0,0",0,0,-53,0,0,0,69,71,79,40,100,-48.32,23,38.0,35.0,-1021.0,12:42:47.500178,192.168.0.114
1191,-1,-100,-100,-100,"0,0,0",0,0,-53,0,0,0,69,71,79,40,100,-48.37,23,31.0,16.0,-982.0,12:42:47.603097,192.168.0.114
1196,-1,-100,-100,-100,"0,0,0",1,-1,-53,0,0,0,69,71,78,40,100,-48.22,23,25.0,15.0,-974.0,12:42:47.704529,192.168.0.114
1201,-1,-100,-100,-100,"0,0,0",2,-1,-52,0,0,0,69,71,78,40,100,-48.15,23,24.0,30.0,-987.0,12:42:47.805276,192.168.0.114
1206,-1,-100,-100,-100,"0,0,0",2,-2,-52,0,0,0,69,71,78,40,100,-48.31,23,58.0,1.0,-1005.0,12:42:47.907309,192.168.0.114
1211,-1,-100,-100,-100,"0,0,0",1,-1,-52,0,0,0,69,71,78,40,100,-48.29,24,30.0,9.0,-1027.0,12:42:48.009293,192.168.0.114
1216,-1,-100,-100,-100,"0,0,0",1,-1,-52,0,0,0,69,71,78,40,100,-48.27,24,13.0,11.0,-988.0,12:42:48.111122,192.168.0.114
1221,-1,-100,-100,-100,"0,0,0",1,-1,-52,0,0,0,69,71,78,40,100,-48.25,24,34.0,10.0,-986.0,12:42:48.214806,192.168.0.114
1227,-1,-100,-100,-100,"0,0,0",1,-1,-52,0,0,0,69,71,77,40,100,-48.26,24,32.0,26.0,-1011.0,12:42:48.315026,192.168.0.114
1232,-1,-100,-100,-100,"0,0,0",1,-1,-52,0,0,0,69,71,78,40,100,-48.36,24,23.0,-1.0,-1014.0,12:42:48.417235,192.168.0.114
1237,-1,-100,-100,-100,"0,0,0",1,-1,-52,0,0,0,69,71,77,40,100,-48.29,24,24.0,10.0,-1009.0,12:42:48.519587,192.168.0.114
1242,-1,-100,-100,-100,"0,0,0",1,-1,-52,0,0,0,69,71,78,40,100,-48.31,24,-15.0,-1.0,-1004.0,12:42:48.621465,192.168.0.114
1247,-1,-100,-100,-100,"0,0,0",0,-1,-53,0,0,0,69,71,77,40,100,-48.32,24,-11.0,-2.0,-1022.0,12:42:48.723246,192.168.0.114
1252,-1,-100,-100,-100,"0,0,0",0,0,-53,0,0,0,69,71,78,40,100,-48.43,24,-34.0,6.0,-991.0,12:42:48.825415,192.168.0.114
1257,-1,-100,-100,-100,"0,0,0",0,0,-53,0,0,0,69,71,77,40,100,-48.39,24,-20.0,4.0,-984.0,12:42:48.927686,192.168.0.114
1259,-1,-100,-100,-100,"0,0,0",0,0,-53,0,0,0,69,71,78,40,100,-48.39,25,12.0,-7.0,-1015.0,12:42:48.978076,192.168.0.114
1264,-1,-100,-100,-100,"0,0,0",0,0,-53,0,0,0,69,71,77,40,100,-48.31,25,25.0,-4.0,-989.0,12:42:49.080163,192.168.0.114
1269,-1,-100,-100,-100,"0,0,0",0,1,-53,0,0,0,69,71,78,40,100,-48.35,25,16.0,-12.0,-1003.0,12:42:49.182770,192.168.0.114
1274,-1,-100,-100,-100,"0,0,0",0,1,-53,0,0,0,69,71,78,40,100,-48.34,25,4.0,14.0,-1015.0,12:42:49.284209,192.168.0.114
1279,-1,-100,-100,-100,"0,0,0",0,0,-53,0,0,0,69,71,78,40,100,-48.29,25,22.0,-22.0,-1006.0,12:42:49.386265,192.168.0.114
1284,-1,-100,-100,-100,"0,0,0",0,0,-53,0,0,0,69,71,78,40,100,-48.21,25,18.0,-7.0,-1020.0,12:42:49.488482,192.168.0.114
1289,-1,-100,-100,-100,"0,0,0",0,0,-53,0,0,0,69,71,78,40,100,-48.26,25,9.0,-5.0,-1003.0,12:42:49.589781,192.168.0.114
1294,-1,-100,-100,-100,"0,0,0",0,0,-53,0,0,0,69,71,78,40,100,-48.31,25,39.0,-7.0,-1033.0,12:42:49.692709,192.168.0.114
1299,-1,-100,-100,-100,"0,0,0",1,0,-53,0,0,0,69,71,78,40,100,-48.35,25,8.0,-17.0,-979.0,12:42:49.796768,192.168.0.114
1305,-1,-100,-100,-100,"0,0,0",1,1,-54,0,0,0,69,71,79,40,100,-48.32,25,17.0,-14.0,-1010.0,12:42:49.896391,192.168.0.114
1309,-1,-100,-100,-100,"0,0,0",1,1,-53,0,0,0,69,71,79,40,100,-48.29,26,3.0,5.0,-991.0,12:42:50.000176,192.168.0.114
1314,-1,-100,-100,-100,"0,0,0",1,1,-53,0,0,0,69,71,78,40,100,-48.35,26,1.0,-20.0,-969.0,12:42:50.100169,192.168.0.114
1320,-1,-100,-100,-100,"0,0,0",1,1,-53,0,0,0,69,71,78,40,100,-48.41,26,17.0,-9.0,-977.0,12:42:50.205788,192.168.0.114
1326,-1,-100,-100,-100,"0,0,0",0,1,-54,0,0,0,69,71,78,40,100,-48.32,26,27.0,-18.0,-1000.0,12:42:50.305248,192.168.0.114
1330,-1,-100,-100,-100,"0,0,0",0,0,-53,0,0,0,69,71,77,40,100,-48.34,26,-16.0,11.0,-1018.0,12:42:50.407450,192.168.0.114
1335,-1,-100,-100,-100,"0,0,0",0,0,-53,0,0,0,69,71,76,40,100,-48.32,26,-8.0,-4.0,-1002.0,12:42:50.508028,192.168.0.114
1340,-1,-100,-100,-100,"0,0,0",0,0,-53,0,0,0,69,71,77,40,100,-48.27,26,20.0,12.0,-1015.0,12:42:50.610143,192.168.0.114
1346,-1,-100,-100,-100,"0,0,0",0,0,-53,0,0,0,69,71,77,40,100,-48.27,26,9.0,-7.0,-1000.0,12:42:50.712169,192.168.0.114
1351,-1,-100,-100,-100,"0,0,0",0,0,-53,0,0,0,69,71,77,40,100,-48.3,26,8.0,12.0,-1010.0,12:42:50.814160,192.168.0.114
1356,-1,-100,-100,-100,"0,0,0",0,0,-53,0,0,0,69,71,77,40,100,-48.24,26,23.0,-3.0,-986.0,12:42:50.916100,192.168.0.114
1361,-1,-100,-100,-100,"0,0,0",1,0,-53,0,0,0,69,71,78,40,100,-48.23,27,3.0,1.0,-1002.0,12:42:51.018506,192.168.0.114
1366,-1,-100,-100,-100,"0,0,0",1,0,-53,0,0,0,69,71,77,40,100,-48.16,27,31.0,-11.0,-999.0,12:42:51.119975,192.168.0.114
1371,-1,-100,-100,-100,"0,0,0",1,0,-53,0,0,0,69,71,78,40,100,-48.35,27,11.0,-8.0,-1009.0,12:42:51.222179,192.168.0.114
1376,-1,-100,-100,-100,"0,0,0",1,0,-53,0,0,0,69,71,78,40,100,-48.3,27,12.0,-14.0,-990.0,12:42:51.324276,192.168.0.114
1381,-1,-100,-100,-100,"0,0,0",1,0,-53,0,0,0,69,71,79,40,100,-48.26,27,13.0,0.0,-977.0,12:42:51.425976,192.168.0.114
1386,-1,-100,-100,-100,"0,0,0",0,0,-53,0,0,0,69,71,80,40,100,-48.26,27,39.0,-26.0,-975.0,12:42:51.527664,192.168.0.114
1391,-1,-100,-100,-100,"0,0,0",0,0,-53,0,0,0,69,71,79,50,100,-48.28,27,28.0,-14.0,-986.0,12:42:51.629950,192.168.0.114
1396,-1,-100,-100,-100,"0,0,0",0,0,-53,0,0,0,69,71,79,50,100,-48.26,27,7.0,8.0,-1004.0,12:42:51.732172,192.168.0.114
1402,-1,-100,-100,-100,"0,0,0",0,0,-53,0,0,0,69,71,79,50,100,-48.35,27,15.0,-1.0,-1039.0,12:42:51.834005,192.168.0.114
1407,-1,-100,-100,-100,"0,0,0",0,0,-53,0,0,0,69,71,80,50,100,-48.2,28,13.0,-2.0,-985.0,12:42:51.936121,192.168.0.114
1412,-1,-100,-100,-100,"0,0,0",0,0,-53,0,0,0,69,71,80,50,100,-48.32,28,8.0,3.0,-999.0,12:42:52.040234,192.168.0.114
1417,-1,-100,-100,-100,"0,0,0",0,0,-53,0,0,0,69,71,79,50,100,-48.36,28,3.0,10.0,-980.0,12:42:52.140074,192.168.0.114
1422,-1,-100,-100,-100,"0,0,0",0,0,-53,0,0,0,69,71,80,50,100,-48.39,28,-36.0,7.0,-993.0,12:42:52.242297,192.168.0.114
1427,-1,-100,-100,-100,"0,0,0",0,0,-53,0,0,0,69,71,79,50,100,-48.23,28,5.0,-6.0,-988.0,12:42:52.344232,192.168.0.114
1432,-1,-100,-100,-100,"0,0,0",0,0,-53,0,0,0,69,71,79,50,100,-48.28,28,6.0,8.0,-999.0,12:42:52.445902,192.168.0.114
1434,-1,-100,-100,-100,"0,0,0",0,0,-53,0,0,0,69,71,79,40,100,-48.34,28,16.0,-8.0,-1010.0,12:42:52.497793,192.168.0.114
1439,-1,-100,-100,-100,"0,0,0",0,0,-53,0,0,0,69,71,79,40,100,-48.3,28,13.0,2.0,-1001.0,12:42:52.599122,192.168.0.114
1444,-1,-100,-100,-100,"0,0,0",0,0,-53,0,0,0,69,71,79,40,100,-48.35,28,-20.0,3.0,-995.0,12:42:52.702263,192.168.0.114
1449,-1,-100,-100,-100,"0,0,0",0,0,-53,0,0,0,69,71,79,40,100,-48.32,28,0.0,7.0,-1001.0,12:42:52.803041,192.168.0.114
1454,-1,-100,-100,-100,"0,0,0",0,0,-53,0,0,0,69,71,79,40,100,-48.37,29,-8.0,1.0,-1008.0,12:42:52.905495,192.168.0.114
1459,-1,-100,-100,-100,"0,0,0",0,0,-53,0,0,0,69,71,79,40,100,-48.35,29,21.0,13.0,-1005.0,12:42:53.007483,192.168.0.114
1464,-1,-100,-100,-100,"0,0,0",0,0,-53,0,0,0,69,71,79,40,100,-48.41,29,16.0,2.0,-993.0,12:42:53.109203,192.168.0.114
1469,-1,-100,-100,-100,"0,0,0",0,0,-53,0,0,0,69,71,79,40,100,-48.25,29,0.0,12.0,-975.0,12:42:53.211084,192.168.0.114
1474,-1,-100,-100,-100,"0,0,0",0,0,-53,0,0,0,69,71,79,40,100,-48.22,29,10.0,-13.0,-1021.0,12:42:53.313170,192.168.0.114
1479,-1,-100,-100,-100,"0,0,0",0,0,-53,0,0,0,69,71,79,40,100,-48.27,29,27.0,-18.0,-1005.0,12:42:53.415036,192.168.0.114
1484,-1,-100,-100,-100,"0,0,0",0,0,-53,0,0,0,69,71,79,40,100,-48.33,29,-5.0,22.0,-1006.0,12:42:53.517148,192.168.0.114
1490,-1,-100,-100,-100,"0,0,0",0,0,-53,0,0,0,69,71,79,40,100,-48.31,29,22.0,15.0,-1006.0,12:42:53.620821,192.168.0.114
1495,-1,-100,-100,-100,"0,0,0",0,0,-53,0,0,0,68,71,79,40,100,-48.3,29,-13.0,0.0,-945.0,12:42:53.721108,192.168.0.114
1501,-1,-100,-100,-100,"0,0,0",0,0,-53,0,0,0,68,71,79,40,100,-48.33,29,-20.0,6.0,-1005.0,12:42:53.823102,192.168.0.114
1506,-1,-100,-100,-100,"0,0,0",0,0,-53,0,0,0,68,71,78,40,100,-48.25,30,14.0,15.0,-1005.0,12:42:53.925257,192.168.0.114
1511,-1,-100,-100,-100,"0,0,0",0,-1,-53,0,0,0,68,71,78,40,100,-48.29,30,5.0,19.0,-1010.0,12:42:54.031417,192.168.0.114
1516,-1,-100,-100,-100,"0,0,0",0,-1,-53,0,0,0,68,71,78,40,100,-48.33,30,29.0,7.0,-988.0,12:42:54.129861,192.168.0.114
1521,-1,-100,-100,-100,"0,0,0",0,-1,-53,0,0,0,68,71,78,40,100,-48.38,30,-15.0,29.0,-1023.0,12:42:54.231115,192.168.0.114
1526,-1,-100,-100,-100,"0,0,0",0,-1,-53,0,0,0,68,71,78,40,100,-48.41,30,5.0,22.0,-1007.0,12:42:54.332998,192.168.0.114
1531,-1,-100,-100,-100,"0,0,0",0,-1,-53,0,0,0,68,71,78,40,100,-48.34,30,11.0,16.0,-1038.0,12:42:54.434994,192.168.0.114
1536,-1,-100,-100,-100,"0,0,0",0,-1,-52,0,0,0,68,71,79,40,100,-48.34,30,0.0,32.0,-992.0,12:42:54.538215,192.168.0.114
1541,-1,-100,-100,-100,"0,0,0",0,-2,-52,0,0,0,68,71,80,40,100,-48.37,30,17.0,10.0,-1007.0,12:42:54.641082,192.168.0.114
1546,-1,-100,-100,-100,"0,0,0",0,-1,-52,0,0,0,69,71,80,50,100,-48.44,30,2.0,6.0,-1003.0,12:42:54.740975,192.168.0.114
1551,-1,-100,-100,-100,"0,0,0",0,-1,-53,0,0,0,69,71,80,50,100,-48.41,30,0.0,15.0,-975.0,12:42:54.843071,192.168.0.114
1556,-1,-100,-100,-100,"0,0,0",0,0,-53,0,0,0,69,71,81,50,100,-48.37,31,0.0,15.0,-970.0,12:42:54.945486,192.168.0.114
1561,-1,-100,-100,-100,"0,0,0",0,0,-53,0,0,0,69,71,81,50,100,-48.28,31,50.0,-12.0,-994.0,12:42:55.051132,192.168.0.114
1567,-1,-100,-100,-100,"0,0,0",0,0,-53,0,0,0,69,71,81,50,100,-48.23,31,31.0,-10.0,-986.0,12:42:55.149224,192.168.0.114
1572,-1,-100,-100,-100,"0,0,0",1,0,-53,0,0,0,69,71,81,50,100,-48.22,31,35.0,-21.0,-997.0,12:42:55.251591,192.168.0.114
1577,-1,-100,-100,-100,"0,0,0",1,0,-53,0,0,0,69,71,81,50,100,-48.33,31,36.0,-27.0,-1010.0,12:42:55.353986,192.168.0.114
1582,-1,-100,-100,-100,"0,0,0",1,1,-53,0,0,0,69,71,81,50,100,-48.37,31,36.0,-11.0,-1013.0,12:42:55.456679,192.168.0.114
1587,-1,-100,-100,-100,"0,0,0",2,1,-53,0,0,0,69,71,81,50,100,-48.26,31,32.0,-6.0,-1007.0,12:42:55.558543,192.168.0.114
1592,-1,-100,-100,-100,"0,0,0",2,1,-53,0,0,0,69,71,81,50,100,-48.26,31,42.0,-20.0,-988.0,12:42:55.661268,192.168.0.114
1597,-1,-100,-100,-100,"0,0,0",2,1,-53,0,0,0,69,71,81,50,100,-48.31,31,27.0,-5.0,-987.0,12:42:55.761961,192.168.0.114
1602,-1,-100,-100,-100,"0,0,0",2,1,-53,0,0,0,69,71,80,50,100,-48.32,31,34.0,-3.0,-1003.0,12:42:55.863032,192.168.0.114
1607,-1,-100,-100,-100,"0,0,0",2,1,-53,0,0,0,69,71,81,50,100,-48.23,32,29.0,-7.0,-999.0,12:42:55.964880,192.168.0.114
1609,-1,-100,-100,-100,"0,0,0",1,1,-53,0,0,0,69,71,80,50,100,-48.31,32,-5.0,9.0,-992.0,12:42:56.016980,192.168.0.114
1614,-1,-100,-100,-100,"0,0,0",1,0,-53,0,0,0,69,71,80,40,100,-48.31,32,18.0,18.0,-1012.0,12:42:56.118983,192.168.0.114
1619,-1,-100,-100,-100,"0,0,0",1,0,-53,0,0,0,69,71,80,40,100,-48.25,32,0.0,26.0,-974.0,12:42:56.220971,192.168.0.114
1624,-1,-100,-100,-100,"0,0,0",0,0,-53,0,0,0,69,71,79,40,100,-48.23,32,13.0,29.0,-958.0,12:42:56.322982,192.168.0.114
1629,-1,-100,-100,-100,"0,0,0",0,0,-53,0,0,0,69,71,79,40,100,-48.28,32,15.0,36.0,-1019.0,12:42:56.427245,192.168.0.114
1634,-1,-100,-100,-100,"0,0,0",0,-1,-53,0,0,0,69,71,79,40,100,-48.24,32,31.0,27.0,-975.0,12:42:56.526829,192.168.0.114
1639,-1,-100,-100,-100,"0,0,0",1,-2,-53,0,0,0,69,71,79,40,100,-48.23,32,24.0,29.0,-1031.0,12:42:56.629477,192.168.0.114
1644,-1,-100,-100,-100,"0,0,0",1,-2,-53,0,0,0,69,70,79,40,100,-48.28,32,12.0,45.0,-1007.0,12:42:56.735084,192.168.0.114
1649,-1,-100,-100,-100,"0,0,0",1,-2,-53,0,0,0,69,70,79,40,100,-48.27,32,33.0,32.0,-1003.0,12:42:56.832938,192.168.0.114
1654,-1,-100,-100,-100,"0,0,0",2,-3,-52,0,0,0,69,70,78,40,100,-48.27,33,45.0,18.0,-1003.0,12:42:56.934993,192.168.0.114
1659,-1,-100,-100,-100,"0,0,0",2,-2,-52,0,0,0,69,70,79,40,100,-48.26,33,22.0,5.0,-987.0,12:42:57.037687,192.168.0.114
1664,-1,-100,-100,-100,"0,0,0",2,-1,-52,0,0,0,69,70,79,40,100,-48.25,33,12.0,30.0,-977.0,12:42:57.138809,192.168.0.114
1671,-1,-100,-100,-100,"0,0,0",1,-1,-52,0,0,0,69,70,78,40,100,-48.34,33,26.0,3.0,-982.0,12:42:57.240888,192.168.0.114
1676,-1,-100,-100,-100,"0,0,0",2,-1,-53,0,0,0,69,70,78,40,100,-48.29,33,26.0,4.0,-1009.0,12:42:57.342892,192.168.0.114
1681,-1,-100,-100,-100,"0,0,0",2,-1,-53,0,0,0,69,70,78,40,100,-48.35,33,43.0,-10.0,-1028.0,12:42:57.446521,192.168.0.114
1686,-1,-100,-100,-100,"0,0,0",1,0,-53,0,0,0,69,70,78,40,100,-48.32,33,46.0,11.0,-978.0,12:42:57.546786,192.168.0.114
1691,-1,-100,-100,-100,"0,0,0",1,0,-53,0,0,0,69,70,78,40,100,-48.43,33,64.0,-1.0,-1002.0,12:42:57.648969,192.168.0.114
1696,-1,-100,-100,-100,"0,0,0",1,0,-53,0,0,0,69,70,78,40,100,-48.48,33,23.0,14.0,-997.0,12:42:57.750860,192.168.0.114
1701,-1,-100,-100,-100,"0,0,0",2,0,-53,0,0,0,69,70,78,40,100,-48.45,33,44.0,-5.0,-1011.0,12:42:57.853284,192.168.0.114
1706,-1,-100,-100,-100,"0,0,0",2,0,-53,0,0,0,69,70,79,40,100,-48.24,34,26.0,8.0,-1002.0,12:42:57.956088,192.168.0.114
1711,-1,-100,-100,-100,"0,0,0",2,0,-53,0,0,0,69,70,79,40,100,-48.32,34,19.0,-13.0,-1001.0,12:42:58.056922,192.168.0.114
1716,-1,-100,-100,-100,"0,0,0",2,0,-53,0,0,0,69,70,79,40,100,-48.42,34,5.0,-2.0,-1015.0,12:42:58.161179,192.168.0.114
1721,-1,-100,-100,-100,"0,0,0",2,0,-53,0,0,0,69,70,79,40,100,-48.36,34,6.0,0.0,-998.0,12:42:58.264794,192.168.0.114
1727,-1,-100,-100,-100,"0,0,0",1,1,-53,0,0,0,69,70,79,40,100,-48.28,34,9.0,-11.0,-947.0,12:42:58.365868,192.168.0.114
1732,-1,-100,-100,-100,"0,0,0",0,1,-53,0,0,0,69,70,79,40,100,-48.24,34,18.0,-13.0,-958.0,12:42:58.466707,192.168.0.114
1737,-1,-100,-100,-100,"0,0,0",0,1,-54,0,0,0,69,70,79,40,100,-48.26,34,15.0,5.0,-961.0,12:42:58.567980,192.168.0.114
1742,-1,-100,-100,-100,"0,0,0",0,0,-54,0,0,0,69,70,78,40,100,-48.18,34,19.0,8.0,-922.0,12:42:58.669126,192.168.0.114
1747,-1,-100,-100,-100,"0,0,0",0,0,-54,0,0,0,69,71,77,40,100,-48.24,34,17.0,10.0,-1058.0,12:42:58.771102,192.168.0.114
1752,-1,-100,-100,-100,"0,0,0",0,-1,-53,0,0,0,69,71,76,40,100,-48.29,34,5.0,-16.0,-1000.0,12:42:58.872378,192.168.0.114
1757,-1,-100,-100,-100,"0,0,0",0,-1,-53,0,0,0,69,71,76,40,100,-48.26,35,3.0,-20.0,-1013.0,12:42:58.974877,192.168.0.114
1762,-1,-100,-100,-100,"0,0,0",0,0,-53,0,0,0,69,71,76,40,100,-48.23,35,28.0,6.0,-1088.0,12:42:59.077629,192.168.0.114
1764,-1,-100,-100,-100,"0,0,0",0,0,-53,0,0,0,69,71,77,40,100,-48.28,35,16.0,-5.0,-1005.0,12:42:59.127873,192.168.0.114
1769,-1,-100,-100,-100,"0,0,0",0,0,-53,0,0,0,69,71,77,40,100,-48.43,35,3.0,4.0,-992.0,12:42:59.230739,192.168.0.114
1774,-1,-100,-100,-100,"0,0,0",0,0,-53,0,0,0,69,71,77,40,100,-48.37,35,-24.0,32.0,-997.0,12:42:59.332136,192.168.0.114
1779,-1,-100,-100,-100,"0,0,0",0,0,-53,0,0,0,69,71,78,40,100,-48.31,35,-9.0,23.0,-1015.0,12:42:59.433800,192.168.0.114
1784,-1,-100,-100,-100,"0,0,0",0,0,-53,0,0,0,69,71,77,40,100,-48.29,35,-6.0,0.0,-988.0,12:42:59.535947,192.168.0.114
1789,-1,-100,-100,-100,"0,0,0",0,0,-53,0,0,0,69,71,77,40,100,-48.35,35,12.0,22.0,-1001.0,12:42:59.637810,192.168.0.114
1794,-1,-100,-100,-100,"0,0,0",0,0,-53,0,0,0,69,71,76,40,100,-48.26,35,33.0,5.0,-998.0,12:42:59.739831,192.168.0.114
1799,-1,-100,-100,-100,"0,0,0",0,0,-53,0,0,0,69,71,76,40,100,-48.14,35,-17.0,1.0,-1001.0,12:42:59.843418,192.168.0.114
1804,-1,-100,-100,-100,"0,0,0",0,0,-53,0,0,0,69,71,76,40,100,-48.31,36,13.0,17.0,-1063.0,12:42:59.943814,192.168.0.114
1809,-1,-100,-100,-100,"0,0,0",0,0,-53,0,0,0,69,71,76,40,100,-48.34,36,2.0,-5.0,-965.0,12:43:00.045734,192.168.0.114
1814,-1,-100,-100,-100,"0,0,0",0,0,-53,0,0,0,69,71,75,40,100,-48.2,36,5.0,-21.0,-964.0,12:43:00.151016,192.168.0.114
1819,-1,-100,-100,-100,"0,0,0",0,0,-53,0,0,0,69,71,75,40,100,-48.25,36,26.0,21.0,-1021.0,12:43:00.249855,192.168.0.114
1824,-1,-100,-100,-100,"0,0,0",0,0,-53,0,0,0,69,71,76,40,100,-48.27,36,-6.0,13.0,-1101.0,12:43:00.352719,192.168.0.114
1829,-1,-100,-100,-100,"0,0,0",0,0,-53,0,0,0,69,71,75,40,100,-48.19,36,16.0,14.0,-928.0,12:43:00.455545,192.168.0.114
1836,-1,-100,-100,-100,"0,0,0",0,0,-53,0,0,0,69,71,75,40,100,-48.24,36,23.0,20.0,-943.0,12:43:00.555888,192.168.0.114
1841,-1,-100,-100,-100,"0,0,0",0,0,-53,0,0,0,69,71,76,40,100,-48.17,36,32.0,27.0,-1020.0,12:43:00.657721,192.168.0.114
1846,-1,-100,-100,-100,"0,0,0",0,0,-53,0,0,0,69,71,76,40,100,-48.23,36,11.0,31.0,-979.0,12:43:00.761262,192.168.0.114
1851,-1,-100,-100,-100,"0,0,0",0,0,-53,0,0,0,69,71,76,40,100,-48.3,36,21.0,11.0,-1071.0,12:43:00.861917,192.168.0.114
1856,-1,-100,-100,-100,"0,0,0",0,-1,-53,0,0,0,69,71,77,40,100,-48.26,37,17.0,18.0,-1020.0,12:43:00.963707,192.168.0.114
1861,-1,-100,-100,-100,"0,0,0",0,-1,-53,0,0,0,69,71,78,40,100,-48.35,37,32.0,27.0,-1040.0,12:43:01.069485,192.168.0.114
1866,-1,-100,-100,-100,"0,0,0",1,-1,-53,0,0,0,69,71,79,40,100,-48.41,37,11.0,33.0,-999.0,12:43:01.167824,192.168.0.114
1871,-1,-100,-100,-100,"0,0,0",0,-1,-53,0,0,0,69,71,80,40,100,-48.38,37,25.0,42.0,-991.0,12:43:01.273534,192.168.0.114
1876,-1,-100,-100,-100,"0,0,0",0,-2,-53,0,0,0,69,71,81,50,100,-48.25,37,6.0,35.0,-958.0,12:43:01.371809,192.168.0.114
1881,-1,-100,-100,-100,"0,0,0",0,-2,-53,0,0,0,69,71,82,50,100,-48.25,37,23.0,14.0,-993.0,12:43:01.473779,192.168.0.114
1886,-1,-100,-100,-100,"0,0,0",0,-2,-52,0,0,0,69,71,83,50,100,-48.28,37,23.0,19.0,-989.0,12:43:01.575542,192.168.0.114
1891,-1,-100,-100,-100,"0,0,0",0,-2,-52,0,0,0,69,71,83,50,100,-48.27,37,27.0,11.0,-991.0,12:43:01.677658,192.168.0.114
1897,-1,-100,-100,-100,"0,0,0",0,-2,-52,0,0,0,70,71,84,50,100,-48.35,37,26.0,6.0,-977.0,12:43:01.779745,192.168.0.114
1901,-1,-100,-100,-100,"0,0,0",0,-2,-52,0,0,0,70,71,84,50,100,-48.23,37,4.0,16.0,-975.0,12:43:01.881837,192.168.0.114
1907,-1,-100,-100,-100,"0,0,0",1,-2,-52,0,0,0,70,71,84,50,100,-48.23,38,-5.0,20.0,-984.0,12:43:01.984433,192.168.0.114
1912,-1,-100,-100,-100,"0,0,0",0,-1,-52,0,0,0,70,71,84,50,100,-48.21,38,-5.0,30.0,-997.0,12:43:02.085690,192.168.0.114
1917,-1,-100,-100,-100,"0,0,0",0,-1,-52,0,0,0,70,71,84,50,100,-48.35,38,2.0,10.0,-1010.0,12:43:02.188737,192.168.0.114
1922,-1,-100,-100,-100,"0,0,0",0,0,-52,0,0,0,70,71,84,50,100,-48.24,38,13.0,24.0,-995.0,12:43:02.289767,192.168.0.114
1927,-1,-100,-100,-100,"0,0,0",0,0,-52,0,0,0,70,71,84,50,100,-48.27,38,6.0,6.0,-994.0,12:43:02.391914,192.168.0.114
1932,-1,-100,-100,-100,"0,0,0",0,0,-52,0,0,0,70,71,83,50,100,-48.18,38,16.0,2.0,-964.0,12:43:02.493692,192.168.0.114
1937,-1,-100,-100,-100,"0,0,0",0,0,-52,0,0,0,70,71,84,50,100,-48.29,38,22.0,19.0,-1030.0,12:43:02.596151,192.168.0.114
1939,-1,-100,-100,-100,"0,0,0",0,0,-53,0,0,0,70,71,83,50,100,-48.32,38,-11.0,5.0,-967.0,12:43:02.646489,192.168.0.114
1947,-1,-100,-100,-100,"0,0,0",0,-1,-53,0,0,0,69,71,83,50,100,-48.23,38,11.0,-19.0,-973.0,12:43:02.799509,192.168.0.114
1952,-1,-100,-100,-100,"0,0,0",0,0,-53,0,0,0,69,71,83,50,100,-48.15,38,7.0,-8.0,-1013.0,12:43:02.901896,192.168.0.114
1957,-1,-100,-100,-100,"0,0,0",0,1,-53,0,0,0,69,71,82,50,100,-48.16,39,-9.0,-1.0,-1028.0,12:43:03.004063,192.168.0.114
1962,-1,-100,-100,-100,"0,0,0",0,1,-53,0,0,0,69,71,82,50,100,-48.21,39,0.0,7.0,-1036.0,12:43:03.107189,192.168.0.114
1964,-1,-100,-100,-100,"0,0,0",0,0,-53,0,0,0,69,71,81,50,100,-48.33,39,-18.0,0.0,-985.0,12:43:03.156824,192.168.0.114
1969,-1,-100,-100,-100,"0,0,0",0,0,-53,0,0,0,69,71,82,50,100,-48.29,39,9.0,-8.0,-1006.0,12:43:03.258748,192.168.0.114
1974,-1,-100,-100,-100,"0,0,0",0,0,-53,0,0,0,69,71,82,50,100,-48.33,39,-15.0,-24.0,-960.0,12:43:03.361729,192.168.0.114
1979,-1,-100,-100,-100,"0,0,0",0,0,-53,0,0,0,69,71,81,50,100,-48.26,39,6.0,-6.0,-1010.0,12:43:03.464103,192.168.0.114
1984,-1,-100,-100,-100,"0,0,0",0,0,-53,0,0,0,69,71,81,50,100,-48.29,39,9.0,-22.0,-986.0,12:43:03.565903,192.168.0.114
1989,-1,-100,-100,-100,"0,0,0",0,1,-53,0,0,0,69,71,81,50,100,-48.35,39,3.0,-4.0,-1002.0,12:43:03.666767,192.168.0.114
1995,-1,-100,-100,-100,"0,0,0",0,1,-53,0,0,0,70,71,81,50,100,-48.36,39,-32.0,4.0,-1019.0,12:43:03.768558,192.168.0.114
2000,-1,-100,-100,-100,"0,0,0",0,0,-53,0,0,0,70,71,80,50,100,-48.32,39,-7.0,1.0,-1021.0,12:43:03.870697,192.168.0.114
2005,-1,-100,-100,-100,"0,0,0",0,0,-53,0,0,0,70,71,80,50,100,-48.25,40,-3.0,-3.0,-1019.0,12:43:03.976280,192.168.0.114
2011,-1,-100,-100,-100,"0,0,0",0,0,-53,0,0,0,70,71,80,50,100,-48.3,40,26.0,-19.0,-997.0,12:43:04.081792,192.168.0.114
2016,-1,-100,-100,-100,"0,0,0",0,0,-53,0,0,0,70,71,80,50,100,-48.35,40,0.0,-7.0,-1026.0,12:43:04.176840,192.168.0.114
2021,-1,-100,-100,-100,"0,0,0",0,0,-53,0,0,0,70,71,80,50,100,-48.3,40,1.0,4.0,-1021.0,12:43:04.278708,192.168.0.114
2026,-1,-100,-100,-100,"0,0,0",0,0,-53,0,0,0,70,71,80,50,100,-48.28,40,-19.0,7.0,-980.0,12:43:04.380699,192.168.0.114
2031,-1,-100,-100,-100,"0,0,0",0,0,-53,0,0,0,70,71,80,50,100,-48.38,40,0.0,-4.0,-1005.0,12:43:04.482756,192.168.0.114
2036,-1,-100,-100,-100,"0,0,0",0,0,-53,0,0,0,70,71,79,50,100,-48.35,40,4.0,10.0,-995.0,12:43:04.584669,192.168.0.114
2041,-1,-100,-100,-100,"0,0,0",0,0,-52,0,0,0,70,71,80,50,100,-48.27,40,20.0,-24.0,-970.0,12:43:04.686691,192.168.0.114
2046,-1,-100,-100,-100,"0,0,0",0,0,-52,0,0,0,70,71,79,50,100,-48.25,40,1.0,-12.0,-985.0,12:43:04.788771,192.168.0.114
2051,-1,-100,-100,-100,"0,0,0",0,0,-52,0,0,0,70,71,79,50,100,-48.3,40,-4.0,-12.0,-987.0,12:43:04.890561,192.168.0.114
2056,-1,-100,-100,-100,"0,0,0",0,0,-52,0,0,0,70,71,79,40,100,-48.33,41,-2.0,-11.0,-1002.0,12:43:04.992575,192.168.0.114
2062,-1,-100,-100,-100,"0,0,0",0,0,-52,0,0,0,70,71,79,40,100,-48.38,41,-8.0,9.0,-1024.0,12:43:05.094731,192.168.0.114
2067,-1,-100,-100,-100,"0,0,0",0,0,-52,0,0,0,70,71,79,40,100,-48.38,41,-9.0,18.0,-1004.0,12:43:05.196563,192.168.0.114
2072,-1,-100,-100,-100,"0,0,0",0,0,-53,0,0,0,70,71,79,40,100,-48.3,41,-6.0,6.0,-999.0,12:43:05.298728,192.168.0.114
2077,-1,-100,-100,-100,"0,0,0",0,0,-53,0,0,0,70,71,79,40,100,-48.31,41,0.0,-2.0,-993.0,12:43:05.402819,192.168.0.114
2082,-1,-100,-100,-100,"0,0,0",0,0,-53,0,0,0,70,71,79,40,100,-48.32,41,10.0,-6.0,-999.0,12:43:05.505589,192.168.0.114
2087,-1,-100,-100,-100,"0,0,0",0,0,-53,0,0,0,70,71,80,50,100,-48.35,41,3.0,-5.0,-989.0,12:43:05.604686,192.168.0.114
2092,-1,-100,-100,-100,"0,0,0",0,0,-53,0,0,0,70,71,80,50,100,-48.3,41,8.0,13.0,-1013.0,12:43:05.706535,192.168.0.114
2097,-1,-100,-100,-100,"0,0,0",0,0,-53,0,0,0,70,71,80,50,100,-48.31,41,12.0,20.0,-1018.0,12:43:05.808694,192.168.0.114
2102,-1,-100,-100,-100,"0,0,0",0,0,-53,0,0,0,70,71,80,50,100,-48.38,41,10.0,15.0,-1015.0,12:43:05.910972,192.168.0.114
2107,-1,-100,-100,-100,"0,0,0",0,-1,-53,0,0,0,70,71,80,50,100,-48.26,42,0.0,4.0,-1010.0,12:43:06.013342,192.168.0.114
2112,-1,-100,-100,-100,"0,0,0",0,-1,-53,0,0,0,70,71,80,50,100,-48.32,42,8.0,9.0,-1000.0,12:43:06.114624,192.168.0.114
2114,-1,-100,-100,-100,"0,0,0",0,-1,-53,0,0,0,70,71,81,50,100,-48.33,42,6.0,-5.0,-989.0,12:43:06.166220,192.168.0.114
2119,-1,-100,-100,-100,"0,0,0",0,0,-53,0,0,0,70,71,80,50,100,-48.36,42,0.0,18.0,-1021.0,12:43:06.270979,192.168.0.114
2124,-1,-100,-100,-100,"0,0,0",0,0,-53,0,0,0,70,71,80,50,100,-48.36,42,15.0,37.0,-1019.0,12:43:06.369616,192.168.0.114
2129,-1,-100,-100,-100,"0,0,0",0,0,-53,0,0,0,70,71,79,50,100,-48.37,42,1.0,0.0,-978.0,12:43:06.471541,192.168.0.114
2134,-1,-100,-100,-100,"0,0,0",1,0,-53,0,0,0,70,71,80,50,100,-48.35,42,17.0,-3.0,-1008.0,12:43:06.573625,192.168.0.114
2139,-1,-100,-100,-100,"0,0,0",1,0,-53,0,0,0,70,71,80,50,100,-48.36,42,19.0,-3.0,-1020.0,12:43:06.675655,192.168.0.114
2144,-1,-100,-100,-100,"0,0,0",1,0,-53,0,0,0,70,71,80,50,100,-48.34,42,-13.0,27.0,-977.0,12:43:06.780710,192.168.0.114
2149,-1,-100,-100,-100,"0,0,0",1,0,-53,0,0,0,70,71,80,50,100,-48.38,42,14.0,0.0,-1008.0,12:43:06.879463,192.168.0.114
2154,-1,-100,-100,-100,"0,0,0",0,0,-53,0,0,0,70,71,80,50,100,-48.33,43,6.0,15.0,-989.0,12:43:06.983594,192.168.0.114
2160,-1,-100,-100,-100,"0,0,0",0,0,-52,0,0,0,70,71,80,50,100,-48.35,43,18.0,-11.0,-1005.0,12:43:07.083662,192.168.0.114
2165,-1,-100,-100,-100,"0,0,0",0,0,-52,0,0,0,70,71,79,50,100,-48.34,43,8.0,7.0,-999.0,12:43:07.185654,192.168.0.114
2171,-1,-100,-100,-100,"0,0,0",0,0,-52,0,0,0,70,71,79,40,100,-48.24,43,11.0,4.0,-997.0,12:43:07.287588,192.168.0.114
2176,-1,-100,-100,-100,"0,0,0",0,0,-52,0,0,0,70,71,79,40,100,-48.33,43,20.0,-3.0,-997.0,12:43:07.389681,192.168.0.114
2181,-1,-100,-100,-100,"0,0,0",0,0,-52,0,0,0,70,71,79,40,100,-48.36,43,8.0,0.0,-976.0,12:43:07.491625,192.168.0.114
2186,-1,-100,-100,-100,"0,0,0",1,0,-53,0,0,0,70,71,79,40,100,-48.33,43,28.0,-8.0,-1020.0,12:43:07.593682,192.168.0.114
2191,-1,-100,-100,-100,"0,0,0",1,0,-53,0,0,0,70,71,79,40,100,-48.28,43,3.0,2.0,-1013.0,12:43:07.696075,192.168.0.114
2196,-1,-100,-100,-100,"0,0,0",0,0,-53,0,0,0,70,71,79,40,100,-48.32,43,19.0,3.0,-1019.0,12:43:07.798349,192.168.0.114
2201,-1,-100,-100,-100,"0,0,0",0,0,-53,0,0,0,70,71,79,40,100,-48.31,43,26.0,-14.0,-992.0,12:43:07.899685,192.168.0.114
2206,-1,-100,-100,-100,"0,0,0",0,0,-53,0,0,0,70,71,79,40,100,-48.27,44,-17.0,5.0,-973.0,12:43:08.002552,192.168.0.114
2211,-1,-100,-100,-100,"0,0,0",0,0,-53,0,0,0,70,71,79,40,100,-48.24,44,8.0,-14.0,-987.0,12:43:08.103920,192.168.0.114
2216,-1,-100,-100,-100,"0,0,0",0,0,-53,0,0,0,70,71,79,40,100,-48.21,44,25.0,-27.0,-994.0,12:43:08.205787,192.168.0.114
2221,-1,-100,-100,-100,"0,0,0",0,0,-53,0,0,0,70,71,79,40,100,-48.3,44,12.0,-23.0,-990.0,12:43:08.308221,192.168.0.114
2227,-1,-100,-100,-100,"0,0,0",0,1,-53,0,0,0,70,71,78,40,100,-48.28,44,23.0,-28.0,-998.0,12:43:08.409653,192.168.0.114
2232,-1,-100,-100,-100,"0,0,0",1,1,-53,0,0,0,70,71,79,40,100,-48.36,44,34.0,-36.0,-1023.0,12:43:08.511284,192.168.0.114
2237,-1,-100,-100,-100,"0,0,0",1,1,-53,0,0,0,70,71,79,40,100,-48.26,44,18.0,-40.0,-1016.0,12:43:08.614181,192.168.0.114
2242,-1,-100,-100,-100,"0,0,0",1,1,-53,0,0,0,70,71,79,40,100,-48.33,44,17.0,-19.0,-1002.0,12:43:08.715611,192.168.0.114
2247,-1,-100,-100,-100,"0,0,0",1,2,-53,0,0,0,69,71,79,40,100,-48.33,44,25.0,-29.0,-984.0,12:43:08.817414,192.168.0.114
2252,-1,-100,-100,-100,"0,0,0",1,2,-53,0,0,0,69,71,79,40,100,-48.27,44,26.0,-37.0,-975.0,12:43:08.924512,192.168.0.114
2257,-1,-100,-100,-100,"0,0,0",1,2,-53,0,0,0,69,71,78,40,100,-48.3,45,24.0,-15.0,-1008.0,12:43:09.021871,192.168.0.114
2262,-1,-100,-100,-100,"0,0,0",1,2,-53,0,0,0,69,71,78,40,100,-48.31,45,47.0,-23.0,-1022.0,12:43:09.123574,192.168.0.114
2267,-1,-100,-100,-100,"0,0,0",1,1,-53,0,0,0,69,71,79,40,100,-48.28,45,40.0,-33.0,-964.0,12:43:09.225593,192.168.0.114
2272,-1,-100,-100,-100,"0,0,0",2,0,-53,0,0,0,69,71,78,40,100,-48.22,45,68.0,-50.0,-988.0,12:43:09.329361,192.168.0.114
2274,-1,-100,-100,-100,"0,0,0",2,0,-53,0,0,0,69,71,78,40,100,-48.27,45,20.0,-3.0,-1007.0,12:43:09.378514,192.168.0.114
2279,-1,-100,-100,-100,"0,0,0",2,1,-53,0,0,0,69,71,78,40,100,-48.27,45,17.0,-15.0,-1004.0,12:43:09.480591,192.168.0.114
2284,-1,-100,-100,-100,"0,0,0",2,1,-53,0,0,0,69,71,79,40,100,-48.31,45,21.0,-18.0,-1028.0,12:43:09.582712,192.168.0.114
2289,-1,-100,-100,-100,"0,0,0",2,1,-53,0,0,0,69,71,78,40,100,-48.37,45,50.0,-16.0,-1004.0,12:43:09.687576,192.168.0.114
2294,-1,-100,-100,-100,"0,0,0",2,1,-53,0,0,0,69,71,78,40,100,-48.33,45,28.0,-16.0,-997.0,12:43:09.786620,192.168.0.114
2299,-1,-100,-100,-100,"0,0,0",2,0,-53,0,0,0,69,71,79,40,100,-48.26,45,20.0,8.0,-996.0,12:43:09.888503,192.168.0.114
2304,-1,-100,-100,-100,"0,0,0",3,0,-53,0,0,0,69,71,79,40,100,-48.21,46,38.0,-25.0,-995.0,12:43:09.991565,192.168.0.114
2309,-1,-100,-100,-100,"0,0,0",2,1,-53,0,0,0,69,71,78,40,100,-48.24,46,11.0,5.0,-987.0,12:43:10.094568,192.168.0.114
2314,-1,-100,-100,-100,"0,0,0",2,1,-53,0,0,0,69,71,79,40,100,-48.39,46,62.0,-15.0,-1003.0,12:43:10.197452,192.168.0.114
2320,-1,-100,-100,-100,"0,0,0",2,0,-53,0,0,0,69,71,79,40,100,-48.29,46,40.0,-34.0,-998.0,12:43:10.297129,192.168.0.114
2325,-1,-100,-100,-100,"0,0,0",2,0,-53,0,0,0,69,71,79,40,100,-48.27,46,46.0,-25.0,-1010.0,12:43:10.398549,192.168.0.114
2329,-1,-100,-100,-100,"0,0,0",1,0,-53,0,0,0,69,71,79,40,100,-48.38,46,33.0,-6.0,-1004.0,12:43:10.501702,192.168.0.114
2336,-1,-100,-100,-100,"0,0,0",1,1,-53,0,0,0,69,71,79,40,100,-48.36,46,27.0,-12.0,-979.0,12:43:10.602464,192.168.0.114
2341,-1,-100,-100,-100,"0,0,0",1,1,-53,0,0,0,69,71,79,40,100,-48.29,46,13.0,14.0,-988.0,12:43:10.704569,192.168.0.114
2346,-1,-100,-100,-100,"0,0,0",1,0,-53,0,0,0,69,71,79,40,100,-48.4,46,21.0,3.0,-1004.0,12:43:10.806386,192.168.0.114
2351,-1,-100,-100,-100,"0,0,0",0,0,-53,0,0,0,69,71,78,40,100,-48.37,46,-14.0,12.0,-1016.0,12:43:10.908525,192.168.0.114
2356,-1,-100,-100,-100,"0,0,0",0,0,-53,0,0,0,69,71,79,40,100,-48.33,47,14.0,-11.0,-1000.0,12:43:11.010461,192.168.0.114
2361,-1,-100,-100,-100,"0,0,0",0,0,-53,0,0,0,69,71,78,40,100,-48.38,47,38.0,-10.0,-992.0,12:43:11.112504,192.168.0.114
2366,-1,-100,-100,-100,"0,0,0",0,0,-53,0,0,0,69,71,78,40,100,-48.42,47,24.0,7.0,-1001.0,12:43:11.214512,192.168.0.114
2371,-1,-100,-100,-100,"0,0,0",0,-1,-53,0,0,0,69,71,78,40,100,-48.33,47,17.0,1.0,-969.0,12:43:11.316224,192.168.0.114
2376,-1,-100,-100,-100,"0,0,0",0,-1,-53,0,0,0,69,71,78,40,100,-48.29,47,19.0,-1.0,-989.0,12:43:11.418525,192.168.0.114
2381,-1,-100,-100,-100,"0,0,0",0,0,-53,0,0,0,69,71,78,40,100,-48.22,47,19.0,16.0,-1012.0,12:43:11.520674,192.168.0.114
2386,-1,-100,-100,-100,"0,0,0",1,0,-53,0,0,0,69,71,77,40,100,-48.28,47,28.0,12.0,-1025.0,12:43:11.624692,192.168.0.114
2391,-1,-100,-100,-100,"0,0,0",0,0,-53,0,0,0,69,71,78,40,100,-48.27,47,16.0,-20.0,-998.0,12:43:11.724486,192.168.0.114
2397,-1,-100,-100,-100,"0,0,0",1,0,-53,0,0,0,69,71,78,40,100,-48.34,47,29.0,-10.0,-997.0,12:43:11.827529,192.168.0.114
2402,-1,-100,-100,-100,"0,0,0",1,0,-53,0,0,0,69,71,77,40,100,-48.25,47,12.0,-5.0,-993.0,12:43:11.928472,192.168.0.114
2407,-1,-100,-100,-100,"0,0,0",1,0,-53,0,0,0,69,71,78,40,100,-48.21,48,34.0,-2.0,-988.0,12:43:12.030343,192.168.0.114
2412,-1,-100,-100,-100,"0,0,0",1,0,-53,0,0,0,69,71,78,40,100,-48.34,48,37.0,-16.0,-1018.0,12:43:12.132795,192.168.0.114
2417,-1,-100,-100,-100,"0,0,0",1,0,-53,0,0,0,69,71,77,40,100,-48.34,48,49.0,-27.0,-1007.0,12:43:12.234429,192.168.0.114
2422,-1,-100,-100,-100,"0,0,0",1,0,-53,0,0,0,69,71,78,40,100,-48.3,48,47.0,-20.0,-969.0,12:43:12.336457,192.168.0.114
2427,-1,-100,-100,-100,"0,0,0",1,0,-53,0,0,0,69,71,78,40,100,-48.31,48,28.0,-21.0,-996.0,12:43:12.438438,192.168.0.114
2429,-1,-100,-100,-100,"0,0,0",1,0,-53,0,0,0,69,71,78,40,100,-48.24,48,21.0,-13.0,-979.0,12:43:12.489726,192.168.0.114
2434,-1,-100,-100,-100,"0,0,0",2,1,-54,0,0,0,69,71,78,40,100,-48.17,48,38.0,-9.0,-1004.0,12:43:12.591584,192.168.0.114
2439,-1,-100,-100,-100,"0,0,0",2,1,-54,0,0,0,69,71,77,40,100,-48.19,48,60.0,10.0,-1015.0,12:43:12.693340,192.168.0.114
2447,-1,-100,-100,-100,"0,0,0",2,0,-53,0,0,0,70,71,77,40,100,-48.29,48,26.0,-6.0,-1044.0,12:43:12.850239,192.168.0.114
2449,-1,-100,-100,-100,"0,0,0",2,0,-53,0,0,0,70,71,76,40,100,-48.24,49,25.0,14.0,-953.0,12:43:12.897331,192.168.0.114
2454,-1,-100,-100,-100,"0,0,0",2,0,-53,0,0,0,70,71,76,40,100,-48.25,49,41.0,1.0,-987.0,12:43:13.002984,192.168.0.114
2459,-1,-100,-100,-100,"0,0,0",2,0,-53,0,0,0,70,71,76,40,100,-48.35,49,59.0,13.0,-1024.0,12:43:13.103311,192.168.0.114
2464,-1,-100,-100,-100,"0,0,0",2,0,-53,0,0,0,70,71,75,40,100,-48.2,49,31.0,12.0,-1035.0,12:43:13.203443,192.168.0.114
2469,-1,-100,-100,-100,"0,0,0",2,0,-53,0,0,0,70,71,76,40,100,-48.24,49,16.0,4.0,-1021.0,12:43:13.305341,192.168.0.114
2474,-1,-100,-100,-100,"0,0,0",2,0,-53,0,0,0,70,71,76,40,100,-48.27,49,30.0,22.0,-1022.0,12:43:13.407522,192.168.0.114
2479,-1,-100,-100,-100,"0,0,0",2,-1,-53,0,0,0,70,71,77,40,100,-48.33,49,48.0,3.0,-997.0,12:43:13.509454,192.168.0.114
2484,-1,-100,-100,-100,"0,0,0",3,-1,-53,0,0,0,70,71,78,40,100,-48.36,49,43.0,-2.0,-1013.0,12:43:13.611391,192.168.0.114
2489,-1,-100,-100,-100,"0,0,0",2,-1,-53,0,0,0,70,71,79,40,100,-48.47,49,30.0,-16.0,-1009.0,12:43:13.714493,192.168.0.114
2494,-1,-100,-100,-100,"0,0,0",2,0,-53,0,0,0,70,72,78,40,100,-48.29,49,49.0,-12.0,-967.0,12:43:13.815443,192.168.0.114
2500,-1,-100,-100,-100,"0,0,0",2,0,-53,0,0,0,70,72,79,40,100,-48.21,50,42.0,-29.0,-928.0,12:43:13.917150,192.168.0.114
2506,-1,-100,-100,-100,"0,0,0",2,0,-53,0,0,0,70,72,79,40,100,-48.23,50,55.0,-20.0,-1027.0,12:43:14.019410,192.168.0.114
2511,-1,-100,-100,-100,"0,0,0",1,0,-53,0,0,0,70,72,78,40,100,-48.28,50,31.0,-39.0,-998.0,12:43:14.122634,192.168.0.114
2516,-1,-100,-100,-100,"0,0,0",1,1,-53,1,0,0,70,72,78,40,100,-48.27,50,10.0,-31.0,-968.0,12:43:14.231778,192.168.0.114
2521,-1,-100,-100,-100,"0,0,0",0,1,-53,0,0,0,70,72,78,40,100,-48.24,50,48.0,-34.0,-1011.0,12:43:14.334719,192.168.0.114
2526,-1,-100,-100,-100,"0,0,0",0,2,-53,0,0,0,70,72,78,40,100,-48.31,50,1.0,-1.0,-1006.0,12:43:14.429657,192.168.0.114
2531,-1,-100,-100,-100,"0,0,0",0,2,-53,0,0,0,70,72,77,40,100,-48.26,50,21.0,-27.0,-1026.0,12:43:14.529438,192.168.0.114
2536,-1,-100,-100,-100,"0,0,0",0,2,-53,0,0,0,70,72,77,40,100,-48.34,50,35.0,-22.0,-1007.0,12:43:14.631358,192.168.0.114
