,mid,x,y,z,mpry,pitch,roll,yaw,vgx,vgy,vgz,templ,temph,tof,h,bat,baro,time,agx,agy,agz,timestamp,address
0,-1,-100,-100,-100,"0,0,0",0,0,-4,0,0,0,62,65,10,0,100,-48.67,0,4.0,-6.0,-997.0,12:42:23.742322,192.168.0.111
5,-1,-100,-100,-100,"0,0,0",0,0,-4,0,0,0,62,65,10,0,100,-48.71,0,6.0,-4.0,-999.0,12:42:23.843582,192.168.0.111
10,-1,-100,-100,-100,"0,0,0",0,0,-4,0,0,0,62,65,10,0,100,-48.66,0,8.0,-1.0,-999.0,12:42:23.945767,192.168.0.111
15,-1,-100,-100,-100,"0,0,0",0,0,-4,0,0,0,62,65,10,0,100,-48.66,0,4.0,0.0,-999.0,12:42:24.047802,192.168.0.111
21,-1,-100,-100,-100,"0,0,0",0,0,-4,0,0,0,62,65,10,0,100,-48.66,0,9.0,2.0,-1001.0,12:42:24.149818,192.168.0.111
26,-1,-100,-100,-100,"0,0,0",0,0,-4,0,0,0,62,65,10,0,100,-48.66,0,-4.0,-16.0,-1009.0,12:42:24.251896,192.168.0.111
31,-1,-100,-100,-100,"0,0,0",0,0,-3,0,0,0,62,65,10,0,100,-48.66,0,5.0,-15.0,-1109.0,12:42:24.354822,192.168.0.111
36,-1,-100,-100,-100,"0,0,0",0,0,-3,0,0,0,62,65,10,0,100,-48.66,0,9.0,3.0,-1242.0,12:42:24.455471,192.168.0.111
41,-1,-100,-100,-100,"0,0,0",0,0,-3,0,0,2,62,65,10,0,100,-48.66,0,21.0,-15.0,-1334.0,12:42:24.558301,192.168.0.111
47,-1,-100,-100,-100,"0,0,0",0,0,-3,0,0,6,62,65,11,0,100,-48.6,0,10.0,-23.0,-1149.0,12:42:24.659838,192.168.0.111
52,-1,-100,-100,-100,"0,0,0",1,0,-3,0,0,7,62,65,20,0,100,-48.26,0,10.0,-30.0,-1034.0,12:42:24.761709,192.168.0.111
58,-1,-100,-100,-100,"0,0,0",1,0,-3,0,0,7,62,65,25,10,100,-48.28,0,31.0,-11.0,-986.0,12:42:24.863668,192.168.0.111
63,-1,-100,-100,-100,"0,0,0",1,1,-3,0,0,7,62,65,35,10,100,-48.11,0,55.0,-21.0,-964.0,12:42:24.969603,192.168.0.111
68,-1,-100,-100,-100,"0,0,0",1,0,-3,0,0,6,62,65,43,20,100,-48.02,1,91.0,-21.0,-928.0,12:42:25.067843,192.168.0.111
73,-1,-100,-100,-100,"0,0,0",2,1,-3,-1,0,5,62,65,51,20,100,-47.88,1,125.0,-8.0,-865.0,12:42:25.176862,192.168.0.111
78,-1,-100,-100,-100,"0,0,0",4,0,-3,-2,0,4,62,65,58,30,100,-47.84,1,101.0,-15.0,-909.0,12:42:25.271681,192.168.0.111
83,-1,-100,-100,-100,"0,0,0",6,0,-3,-2,0,3,62,65,64,30,100,-48.04,1,143.0,-40.0,-921.0,12:42:25.373696,192.168.0.111
88,-1,-100,-100,-100,"0,0,0",8,1,-3,-2,0,2,62,65,70,30,100,-47.86,1,100.0,4.0,-875.0,12:42:25.475653,192.168.0.111
93,-1,-100,-100,-100,"0,0,0",8,2,-3,-2,0,1,62,65,74,40,100,-47.82,1,75.0,11.0,-959.0,12:42:25.577350,192.168.0.111
98,-1,-100,-100,-100,"0,0,0",8,1,-3,-1,0,1,62,65,77,40,100,-47.95,1,67.0,-11.0,-970.0,12:42:25.681643,192.168.0.111
103,-1,-100,-100,-100,"0,0,0",7,0,-3,0,0,1,62,65,80,40,100,-47.87,1,37.0,0.0,-989.0,12:42:25.781710,192.168.0.111
109,-1,-100,-100,-100,"0,0,0",5,0,-3,0,0,0,62,65,83,40,100,-47.79,1,25.0,-6.0,-977.0,12:42:25.883547,192.168.0.111
114,-1,-100,-100,-100,"0,0,0",4,0,-3,0,0,0,62,65,86,50,100,-47.78,1,40.0,-10.0,-946.0,12:42:25.987609,192.168.0.111
119,-1,-100,-100,-100,"0,0,0",3,0,-3,0,0,0,62,65,88,50,100,-47.7,2,28.0,0.0,-955.0,12:42:26.087851,192.168.0.111
120,-1,-100,-100,-100,"0,0,0",2,0,-3,1,0,0,62,65,90,50,100,-47.7,2,28.0,-4.0,-952.0,12:42:26.138864,192.168.0.111
125,-1,-100,-100,-100,"0,0,0",1,0,-3,1,0,0,62,65,91,50,100,-47.69,2,19.0,-5.0,-970.0,12:42:26.240977,192.168.0.111
130,-1,-100,-100,-100,"0,0,0",1,0,-3,1,0,0,62,65,93,50,100,-47.71,2,37.0,-5.0,-974.0,12:42:26.343864,192.168.0.111
135,-1,-100,-100,-100,"0,0,0",0,0,-3,1,0,0,62,65,93,50,100,-47.7,2,26.0,1.0,-967.0,12:42:26.444789,192.168.0.111
140,-1,-100,-100,-100,"0,0,0",0,0,-3,1,0,0,62,65,94,50,100,-47.65,2,31.0,5.0,-965.0,12:42:26.546191,192.168.0.111
146,-1,-100,-100,-100,"0,0,0",0,0,-3,0,0,0,62,65,94,60,100,-47.58,2,30.0,12.0,-957.0,12:42:26.648612,192.168.0.111
151,-1,-100,-100,-100,"0,0,0",0,0,-3,0,0,0,62,65,94,60,100,-47.62,2,23.0,4.0,-978.0,12:42:26.750592,192.168.0.111
156,-1,-100,-100,-100,"0,0,0",0,0,-3,0,0,0,62,65,95,60,100,-47.63,2,22.0,6.0,-973.0,12:42:26.855032,192.168.0.111
161,-1,-100,-100,-100,"0,0,0",0,0,-3,0,0,0,62,65,94,60,100,-47.66,2,23.0,10.0,-986.0,12:42:26.954625,192.168.0.111
166,-1,-100,-100,-100,"0,0,0",0,0,-3,0,0,-1,62,65,93,60,100,-47.61,3,19.0,10.0,-1004.0,12:42:27.056766,192.168.0.111
172,-1,-100,-100,-100,"0,0,0",0,0,-3,0,0,-1,62,65,92,60,100,-47.63,3,14.0,6.0,-1003.0,12:42:27.158070,192.168.0.111
177,-1,-100,-100,-100,"0,0,0",0,0,-3,0,0,0,62,65,92,60,100,-47.65,3,27.0,2.0,-987.0,12:42:27.260474,192.168.0.111
183,-1,-100,-100,-100,"0,0,0",0,0,-3,0,0,0,62,65,91,60,100,-47.69,3,26.0,12.0,-986.0,12:42:27.362472,192.168.0.111
188,-1,-100,-100,-100,"0,0,0",0,0,-3,0,0,-1,62,65,90,60,100,-47.68,3,42.0,7.0,-980.0,12:42:27.464467,192.168.0.111
193,-1,-100,-100,-100,"0,0,0",0,0,-3,0,0,-1,62,65,88,60,100,-47.69,3,21.0,9.0,-1009.0,12:42:27.569332,192.168.0.111
198,-1,-100,-100,-100,"0,0,0",1,0,-3,0,0,-1,62,65,87,50,100,-47.73,3,9.0,11.0,-992.0,12:42:27.668924,192.168.0.111
203,-1,-100,-100,-100,"0,0,0",1,0,-3,0,0,-1,62,65,86,50,100,-47.77,3,13.0,-5.0,-1021.0,12:42:27.770395,192.168.0.111
208,-1,-100,-100,-100,"0,0,0",0,0,-3,0,0,0,62,65,85,50,100,-47.76,3,14.0,5.0,-1000.0,12:42:27.874224,192.168.0.111
213,-1,-100,-100,-100,"0,0,0",0,0,-3,0,0,0,62,65,84,50,100,-47.87,3,19.0,1.0,-1018.0,12:42:27.974476,192.168.0.111
218,-1,-100,-100,-100,"0,0,0",0,0,-3,0,0,0,62,65,83,50,100,-47.87,4,11.0,8.0,-1010.0,12:42:28.077356,192.168.0.111
223,-1,-100,-100,-100,"0,0,0",0,0,-3,0,0,0,62,65,83,50,100,-47.82,4,18.0,-4.0,-996.0,12:42:28.184015,192.168.0.111
228,-1,-100,-100,-100,"0,0,0",1,0,-3,0,0,0,62,65,82,50,100,-47.87,4,20.0,2.0,-1008.0,12:42:28.280604,192.168.0.111
233,-1,-100,-100,-100,"0,0,0",1,0,-3,0,0,0,62,65,81,50,100,-47.86,4,29.0,-1.0,-1022.0,12:42:28.382606,192.168.0.111
239,-1,-100,-100,-100,"0,0,0",1,0,-3,0,0,0,62,65,80,50,100,-47.84,4,23.0,4.0,-997.0,12:42:28.484966,192.168.0.111
244,-1,-100,-100,-100,"0,0,0",1,0,-3,0,0,0,62,65,80,50,100,-47.96,4,25.0,-19.0,-1014.0,12:42:28.586512,192.168.0.111
249,-1,-100,-100,-100,"0,0,0",1,0,-3,0,0,0,62,65,79,50,100,-47.84,4,31.0,-4.0,-1018.0,12:42:28.688475,192.168.0.111
254,-1,-100,-100,-100,"0,0,0",2,0,-3,0,0,0,62,65,79,50,100,-47.89,4,42.0,-1.0,-995.0,12:42:28.790487,192.168.0.111
259,-1,-100,-100,-100,"0,0,0",1,0,-3,0,0,0,62,65,79,50,100,-47.86,4,43.0,-1.0,-987.0,12:42:28.892077,192.168.0.111
264,-1,-100,-100,-100,"0,0,0",2,0,-3,0,0,0,62,65,78,50,100,-47.99,4,47.0,1.0,-1030.0,12:42:28.994500,192.168.0.111
269,-1,-100,-100,-100,"0,0,0",2,0,-3,0,0,0,62,65,79,50,100,-47.9,5,39.0,1.0,-1016.0,12:42:29.096675,192.168.0.111
274,-1,-100,-100,-100,"0,0,0",2,0,-3,0,0,0,62,65,79,50,100,-47.9,5,34.0,-11.0,-1029.0,12:42:29.198449,192.168.0.111
279,-1,-100,-100,-100,"0,0,0",2,0,-3,0,0,0,62,65,78,50,100,-47.99,5,30.0,-10.0,-982.0,12:42:29.302640,192.168.0.111
281,-1,-100,-100,-100,"0,0,0",3,0,-3,0,0,0,62,65,78,50,100,-48.04,5,60.0,-13.0,-950.0,12:42:29.352160,192.168.0.111
286,-1,-100,-100,-100,"0,0,0",2,0,-3,0,0,0,62,65,78,50,100,-47.93,5,56.0,-7.0,-985.0,12:42:29.453514,192.168.0.111
291,-1,-100,-100,-100,"0,0,0",3,1,-3,0,0,0,62,65,78,50,100,-47.82,5,63.0,-19.0,-962.0,12:42:29.555800,192.168.0.111
296,-1,-100,-100,-100,"0,0,0",4,1,-2,0,0,0,62,65,78,50,100,-47.91,5,49.0,-2.0,-984.0,12:42:29.657543,192.168.0.111
302,-1,-100,-100,-100,"0,0,0",4,1,-3,0,0,0,62,65,78,50,100,-47.79,5,60.0,-6.0,-974.0,12:42:29.759751,192.168.0.111
307,-1,-100,-100,-100,"0,0,0",3,1,-3,0,0,0,62,65,78,50,100,-47.97,5,30.0,-11.0,-956.0,12:42:29.863245,192.168.0.111
313,-1,-100,-100,-100,"0,0,0",3,0,-3,0,0,0,62,65,79,50,100,-47.81,5,50.0,-12.0,-994.0,12:42:29.963356,192.168.0.111
318,-1,-100,-100,-100,"0,0,0",3,2,-3,0,0,0,62,65,78,50,100,-47.82,6,30.0,-8.0,-1008.0,12:42:30.065568,192.168.0.111
323,-1,-100,-100,-100,"0,0,0",3,1,-3,0,0,0,62,65,79,50,100,-47.93,6,37.0,3.0,-1004.0,12:42:30.167637,192.168.0.111
328,-1,-100,-100,-100,"0,0,0",2,0,-3,0,0,0,62,65,80,50,100,-47.87,6,28.0,18.0,-1003.0,12:42:30.270239,192.168.0.111
333,-1,-100,-100,-100,"0,0,0",2,1,-3,0,0,0,62,65,79,50,100,-47.79,6,27.0,3.0,-961.0,12:42:30.373590,192.168.0.111
338,-1,-100,-100,-100,"0,0,0",2,0,-3,0,0,0,62,65,80,50,100,-47.92,6,41.0,13.0,-1006.0,12:42:30.475447,192.168.0.111
343,-1,-100,-100,-100,"0,0,0",2,0,-3,0,0,0,62,65,80,50,100,-47.8,6,45.0,8.0,-1007.0,12:42:30.576357,192.168.0.111
348,-1,-100,-100,-100,"0,0,0",2,0,-3,0,0,0,62,65,80,50,100,-47.9,6,51.0,-10.0,-1003.0,12:42:30.677892,192.168.0.111
353,-1,-100,-100,-100,"0,0,0",2,0,-3,0,0,0,62,65,80,50,100,-47.91,6,23.0,3.0,-1021.0,12:42:30.780168,192.168.0.111
358,-1,-100,-100,-100,"0,0,0",1,0,-3,0,0,0,62,65,81,50,100,-47.86,6,53.0,7.0,-977.0,12:42:30.881504,192.168.0.111
364,-1,-100,-100,-100,"0,0,0",1,0,-3,0,0,0,62,65,81,50,100,-47.92,6,32.0,-12.0,-1016.0,12:42:30.983481,192.168.0.111
369,-1,-100,-100,-100,"0,0,0",1,0,-3,0,0,0,62,65,81,50,100,-47.89,7,26.0,-17.0,-1013.0,12:42:31.085402,192.168.0.111
374,-1,-100,-100,-100,"0,0,0",2,0,-3,0,0,0,62,65,81,50,100,-47.94,7,37.0,3.0,-1023.0,12:42:31.187456,192.168.0.111
379,-1,-100,-100,-100,"0,0,0",1,0,-3,0,0,0,62,65,82,50,100,-47.78,7,5.0,3.0,-988.0,12:42:31.289597,192.168.0.111
384,-1,-100,-100,-100,"0,0,0",2,0,-3,0,0,0,62,65,82,50,100,-47.75,7,28.0,5.0,-957.0,12:42:31.391628,192.168.0.111
389,-1,-100,-100,-100,"0,0,0",2,0,-3,0,0,0,62,65,82,50,100,-47.94,7,25.0,17.0,-1015.0,12:42:31.494286,192.168.0.111
394,-1,-100,-100,-100,"0,0,0",1,0,-3,0,0,0,62,65,82,50,100,-47.86,7,32.0,-4.0,-992.0,12:42:31.596806,192.168.0.111
399,-1,-100,-100,-100,"0,0,0",1,0,-3,0,0,0,62,65,82,50,100,-47.87,7,29.0,5.0,-1030.0,12:42:31.699313,192.168.0.111
404,-1,-100,-100,-100,"0,0,0",1,0,-3,0,0,0,62,65,82,50,100,-47.89,7,24.0,6.0,-969.0,12:42:31.801631,192.168.0.111
409,-1,-100,-100,-100,"0,0,0",1,0,-3,0,0,0,62,65,82,50,100,-47.97,7,29.0,10.0,-971.0,12:42:31.901458,192.168.0.111
414,-1,-100,-100,-100,"0,0,0",1,0,-3,0,0,0,62,65,82,50,100,-47.87,7,19.0,13.0,-1017.0,12:42:32.003634,192.168.0.111
419,-1,-100,-100,-100,"0,0,0",2,0,-3,0,0,0,62,65,82,50,100,-47.96,8,50.0,11.0,-969.0,12:42:32.105498,192.168.0.111
424,-1,-100,-100,-100,"0,0,0",1,0,-3,0,0,0,62,65,82,50,100,-47.96,8,30.0,5.0,-1020.0,12:42:32.207565,192.168.0.111
429,-1,-100,-100,-100,"0,0,0",2,0,-3,0,0,0,62,65,82,50,100,-47.88,8,35.0,-4.0,-991.0,12:42:32.309466,192.168.0.111
434,-1,-100,-100,-100,"0,0,0",2,0,-3,0,0,0,62,65,83,50,100,-47.94,8,43.0,7.0,-995.0,12:42:32.411534,192.168.0.111
438,-1,-100,-100,-100,"0,0,0",2,0,-3,0,0,0,62,65,82,50,100,-47.88,8,28.0,0.0,-984.0,12:42:32.462826,192.168.0.111
443,-1,-100,-100,-100,"0,0,0",1,0,-3,0,0,0,62,65,83,50,100,-47.92,8,32.0,11.0,-986.0,12:42:32.564392,192.168.0.111
448,-1,-100,-100,-100,"0,0,0",2,0,-3,0,0,0,62,65,83,50,100,-47.91,8,52.0,11.0,-963.0,12:42:32.668339,192.168.0.111
453,-1,-100,-100,-100,"0,0,0",2,0,-3,0,0,0,62,65,82,50,100,-47.97,8,18.0,0.0,-998.0,12:42:32.768566,192.168.0.111
459,-1,-100,-100,-100,"0,0,0",2,0,-3,0,0,0,62,65,82,50,100,-48.0,8,44.0,-6.0,-996.0,12:42:32.922077,192.168.0.111
463,-1,-100,-100,-100,"0,0,0",2,0,-3,0,0,0,62,65,82,50,100,-47.89,9,39.0,-5.0,-1005.0,12:42:32.972493,192.168.0.111
468,-1,-100,-100,-100,"0,0,0",2,1,-3,0,0,0,62,65,82,50,100,-47.88,9,35.0,-12.0,-978.0,12:42:33.076514,192.168.0.111
473,-1,-100,-100,-100,"0,0,0",2,1,-3,0,0,0,62,65,83,50,100,-47.9,9,30.0,-22.0,-1014.0,12:42:33.177398,192.168.0.111
478,-1,-100,-100,-100,"0,0,0",2,1,-3,0,0,0,62,65,82,50,100,-47.87,9,11.0,-3.0,-1000.0,12:42:33.278564,192.168.0.111
483,-1,-100,-100,-100,"0,0,0",1,1,-4,0,0,0,62,65,82,50,100,-47.95,9,19.0,-10.0,-968.0,12:42:33.380407,192.168.0.111
488,-1,-100,-100,-100,"0,0,0",1,1,-3,0,0,0,62,65,82,50,100,-47.9,9,16.0,5.0,-1005.0,12:42:33.482630,192.168.0.111
493,-1,-100,-100,-100,"0,0,0",0,0,-3,0,0,0,62,65,82,50,100,-47.95,9,28.0,-3.0,-1004.0,12:42:33.584427,192.168.0.111
499,-1,-100,-100,-100,"0,0,0",1,0,-3,0,0,0,62,65,82,50,100,-47.93,9,30.0,-2.0,-1000.0,12:42:33.686574,192.168.0.111
504,-1,-100,-100,-100,"0,0,0",1,0,-3,0,0,0,62,65,82,50,100,-47.91,9,5.0,0.0,-1014.0,12:42:33.788868,192.168.0.111
509,-1,-100,-100,-100,"0,0,0",1,0,-3,0,0,0,62,65,81,50,100,-47.87,9,7.0,1.0,-1009.0,12:42:33.890441,192.168.0.111
514,-1,-100,-100,-100,"0,0,0",0,0,-3,0,0,0,62,65,81,50,100,-47.85,10,21.0,-7.0,-1007.0,12:42:33.993141,192.168.0.111
519,-1,-100,-100,-100,"0,0,0",0,0,-3,0,0,0,62,65,82,50,100,-48.02,10,48.0,-12.0,-988.0,12:42:34.094494,192.168.0.111
524,-1,-100,-100,-100,"0,0,0",0,0,-3,0,0,0,62,65,81,50,100,-47.97,10,37.0,-17.0,-981.0,12:42:34.200009,192.168.0.111
529,-1,-100,-100,-100,"0,0,0",1,0,-3,0,0,0,62,65,82,50,100,-47.84,10,4.0,5.0,-1006.0,12:42:34.299639,192.168.0.111
534,-1,-100,-100,-100,"0,0,0",0,0,-3,0,0,0,62,65,82,50,100,-47.96,10,31.0,-6.0,-985.0,12:42:34.400433,192.168.0.111
539,-1,-100,-100,-100,"0,0,0",1,0,-3,0,0,0,62,65,82,50,100,-47.9,10,30.0,-12.0,-991.0,12:42:34.502446,192.168.0.111
544,-1,-100,-100,-100,"0,0,0",0,1,-3,0,0,0,62,65,82,50,100,-47.88,10,34.0,-7.0,-1056.0,12:42:34.604271,192.168.0.111
549,-1,-100,-100,-100,"0,0,0",1,0,-3,0,0,0,62,65,82,50,100,-47.96,10,27.0,-4.0,-1002.0,12:42:34.706411,192.168.0.111
554,-1,-100,-100,-100,"0,0,0",1,0,-3,0,0,0,62,65,81,50,100,-47.91,10,13.0,-14.0,-993.0,12:42:34.808598,192.168.0.111
559,-1,-100,-100,-100,"0,0,0",1,0,-3,0,0,0,62,65,81,50,100,-47.87,10,10.0,4.0,-1017.0,12:42:34.910129,192.168.0.111
564,-1,-100,-100,-100,"0,0,0",0,1,-3,0,0,0,62,65,81,50,100,-47.95,11,31.0,3.0,-988.0,12:42:35.012274,192.168.0.111
569,-1,-100,-100,-100,"0,0,0",1,0,-3,0,0,0,62,65,81,50,100,-47.98,11,23.0,-18.0,-1001.0,12:42:35.114519,192.168.0.111
574,-1,-100,-100,-100,"0,0,0",1,0,-3,0,0,0,62,65,81,50,100,-47.87,11,11.0,-5.0,-1014.0,12:42:35.216347,192.168.0.111
579,-1,-100,-100,-100,"0,0,0",1,0,-3,0,0,0,62,65,81,50,100,-47.88,11,39.0,-8.0,-988.0,12:42:35.318273,192.168.0.111
584,-1,-100,-100,-100,"0,0,0",1,0,-3,0,0,0,62,65,81,50,100,-47.95,11,13.0,-12.0,-1000.0,12:42:35.423743,192.168.0.111
589,-1,-100,-100,-100,"0,0,0",1,1,-3,0,0,0,62,65,82,50,100,-47.96,11,21.0,-7.0,-982.0,12:42:35.522372,192.168.0.111
594,-1,-100,-100,-100,"0,0,0",1,1,-3,0,0,0,62,65,81,50,100,-47.77,11,7.0,3.0,-993.0,12:42:35.624331,192.168.0.111
599,-1,-100,-100,-100,"0,0,0",1,0,-3,0,0,0,62,65,81,50,100,-47.82,11,13.0,-3.0,-1009.0,12:42:35.726636,192.168.0.111
604,-1,-100,-100,-100,"0,0,0",0,0,-3,0,0,0,62,65,81,50,100,-47.76,11,12.0,-10.0,-1026.0,12:42:35.828412,192.168.0.111
609,-1,-100,-100,-100,"0,0,0",1,0,-3,0,0,0,62,64,81,50,100,-47.82,11,19.0,-4.0,-1013.0,12:42:35.930508,192.168.0.111
614,-1,-100,-100,-100,"0,0,0",1,0,-3,0,0,0,62,64,81,50,100,-47.9,12,33.0,-4.0,-1003.0,12:42:36.032452,192.168.0.111
619,-1,-100,-100,-100,"0,0,0",1,0,-3,0,0,0,62,64,81,50,100,-47.84,12,25.0,-25.0,-1026.0,12:42:36.134167,192.168.0.111
623,-1,-100,-100,-100,"0,0,0",1,0,-3,0,0,0,62,64,81,50,100,-47.76,12,38.0,7.0,-969.0,12:42:36.185434,192.168.0.111
628,-1,-100,-100,-100,"0,0,0",1,0,-3,0,0,0,62,64,81,50,100,-47.77,12,28.0,13.0,-992.0,12:42:36.288216,192.168.0.111
633,-1,-100,-100,-100,"0,0,0",1,0,-3,0,0,0,62,64,81,50,100,-47.7,12,25.0,4.0,-976.0,12:42:36.389375,192.168.0.111
638,-1,-100,-100,-100,"0,0,0",1,0,-3,0,0,0,62,64,80,50,100,-47.78,12,13.0,-3.0,-1000.0,12:42:36.491294,192.168.0.111
643,-1,-100,-100,-100,"0,0,0",1,0,-3,0,0,0,62,64,80,50,100,-47.83,12,46.0,-11.0,-979.0,12:42:36.593500,192.168.0.111
648,-1,-100,-100,-100,"0,0,0",1,0,-3,0,0,0,62,64,80,50,100,-47.79,12,32.0,-2.0,-1034.0,12:42:36.695317,192.168.0.111
653,-1,-100,-100,-100,"0,0,0",1,0,-3,0,0,0,62,64,80,50,100,-47.85,12,40.0,8.0,-1025.0,12:42:36.797351,192.168.0.111
658,-1,-100,-100,-100,"0,0,0",2,0,-3,0,0,0,62,65,80,50,100,-47.88,12,35.0,6.0,-1012.0,12:42:36.899354,192.168.0.111
663,-1,-100,-100,-100,"0,0,0",2,0,-3,0,0,0,62,65,80,50,100,-47.85,13,29.0,9.0,-982.0,12:42:37.001274,192.168.0.111
669,-1,-100,-100,-100,"0,0,0",2,0,-3,0,0,0,62,65,80,50,100,-47.82,13,35.0,2.0,-1020.0,12:42:37.104668,192.168.0.111
674,-1,-100,-100,-100,"0,0,0",1,0,-3,0,0,0,62,65,80,50,100,-47.74,13,44.0,3.0,-1013.0,12:42:37.205391,192.168.0.111
679,-1,-100,-100,-100,"0,0,0",1,0,-3,0,0,0,62,65,80,50,100,-47.8,13,48.0,2.0,-1003.0,12:42:37.307376,192.168.0.111
684,-1,-100,-100,-100,"0,0,0",2,0,-3,0,0,0,62,65,80,50,100,-47.73,13,29.0,-2.0,-977.0,12:42:37.409391,192.168.0.111
689,-1,-100,-100,-100,"0,0,0",1,0,-4,0,0,0,62,65,80,50,100,-47.97,13,43.0,14.0,-1008.0,12:42:37.511454,192.168.0.111
694,-1,-100,-100,-100,"0,0,0",1,0,-4,0,0,0,62,65,80,50,100,-47.83,13,31.0,7.0,-959.0,12:42:37.613141,192.168.0.111
699,-1,-100,-100,-100,"0,0,0",2,0,-3,0,0,0,62,65,80,50,100,-47.85,13,24.0,15.0,-938.0,12:42:37.715328,192.168.0.111
704,-1,-100,-100,-100,"0,0,0",1,0,-3,0,0,0,62,65,80,50,100,-47.92,13,48.0,5.0,-1020.0,12:42:37.817143,192.168.0.111
709,-1,-100,-100,-100,"0,0,0",2,0,-3,0,0,0,62,65,80,50,100,-47.98,13,12.0,6.0,-1000.0,12:42:37.919786,192.168.0.111
714,-1,-100,-100,-100,"0,0,0",1,0,-3,0,0,0,62,65,80,50,100,-47.96,14,24.0,11.0,-1000.0,12:42:38.021291,192.168.0.111
719,-1,-100,-100,-100,"0,0,0",1,0,-3,0,0,0,62,65,80,50,100,-47.88,14,15.0,22.0,-994.0,12:42:38.123217,192.168.0.111
724,-1,-100,-100,-100,"0,0,0",1,0,-3,0,0,0,62,65,80,50,100,-47.94,14,25.0,19.0,-1021.0,12:42:38.226896,192.168.0.111
729,-1,-100,-100,-100,"0,0,0",1,0,-3,0,0,0,62,65,80,50,100,-47.95,14,18.0,11.0,-1027.0,12:42:38.328193,192.168.0.111
734,-1,-100,-100,-100,"0,0,0",1,0,-4,0,0,0,62,65,80,50,100,-47.95,14,24.0,21.0,-975.0,12:42:38.429440,192.168.0.111
739,-1,-100,-100,-100,"0,0,0",0,0,-3,0,0,0,62,65,80,50,100,-47.88,14,44.0,3.0,-1003.0,12:42:38.533094,192.168.0.111
744,-1,-100,-100,-100,"0,0,0",1,0,-3,0,0,0,62,65,80,50,100,-47.9,14,24.0,13.0,-968.0,12:42:38.633216,192.168.0.111
749,-1,-100,-100,-100,"0,0,0",1,0,-3,0,0,0,62,65,80,50,100,-47.96,14,36.0,6.0,-992.0,12:42:38.736579,192.168.0.111
754,-1,-100,-100,-100,"0,0,0",1,-1,-3,0,0,0,62,65,80,50,100,-47.87,14,19.0,20.0,-1004.0,12:42:38.837318,192.168.0.111
759,-1,-100,-100,-100,"0,0,0",1,0,-3,0,0,0,62,65,80,50,100,-47.83,14,31.0,9.0,-1010.0,12:42:38.939294,192.168.0.111
764,-1,-100,-100,-100,"0,0,0",1,0,-3,0,0,0,62,65,79,50,100,-47.89,15,28.0,32.0,-980.0,12:42:39.041263,192.168.0.111
769,-1,-100,-100,-100,"0,0,0",1,0,-3,0,0,0,62,65,80,50,100,-47.87,15,43.0,24.0,-1049.0,12:42:39.143239,192.168.0.111
774,-1,-100,-100,-100,"0,0,0",2,-1,-3,0,0,0,62,65,80,50,100,-47.82,15,30.0,2.0,-1051.0,12:42:39.245321,192.168.0.111
780,-1,-100,-100,-100,"0,0,0",2,0,-4,0,0,0,62,65,80,50,100,-48.03,15,52.0,-4.0,-1007.0,12:42:39.351785,192.168.0.111
785,-1,-100,-100,-100,"0,0,0",2,0,-4,0,0,0,62,65,80,50,100,-47.98,15,42.0,11.0,-969.0,12:42:39.449158,192.168.0.111
788,-1,-100,-100,-100,"0,0,0",2,0,-4,0,0,0,62,65,80,50,100,-47.85,15,49.0,5.0,-989.0,12:42:39.504067,192.168.0.111
793,-1,-100,-100,-100,"0,0,0",2,0,-4,0,0,0,62,65,80,50,100,-47.89,15,33.0,9.0,-990.0,12:42:39.601898,192.168.0.111
798,-1,-100,-100,-100,"0,0,0",2,-1,-4,0,0,0,62,65,79,50,100,-47.8,15,41.0,7.0,-1028.0,12:42:39.704242,192.168.0.111
803,-1,-100,-100,-100,"0,0,0",2,0,-4,0,0,0,62,65,79,50,100,-47.88,15,48.0,18.0,-995.0,12:42:39.806937,192.168.0.111
808,-1,-100,-100,-100,"0,0,0",2,0,-3,0,0,0,62,64,79,50,100,-47.87,15,51.0,-2.0,-986.0,12:42:39.908163,192.168.0.111
813,-1,-100,-100,-100,"0,0,0",2,0,-3,0,0,0,62,64,79,50,100,-47.84,16,30.0,21.0,-965.0,12:42:40.010389,192.168.0.111
818,-1,-100,-100,-100,"0,0,0",2,0,-3,0,0,0,62,64,79,50,100,-47.93,16,33.0,3.0,-1030.0,12:42:40.112256,192.168.0.111
823,-1,-100,-100,-100,"0,0,0",2,0,-3,0,0,0,62,64,79,50,100,-47.89,16,32.0,3.0,-980.0,12:42:40.216443,192.168.0.111
828,-1,-100,-100,-100,"0,0,0",1,0,-3,0,0,0,62,64,79,50,100,-47.89,16,30.0,-17.0,-1005.0,12:42:40.316288,192.168.0.111
833,-1,-100,-100,-100,"0,0,0",1,1,-3,0,0,0,62,64,79,50,100,-47.93,16,11.0,21.0,-973.0,12:42:40.418244,192.168.0.111
838,-1,-100,-100,-100,"0,0,0",1,0,-3,0,0,0,62,64,79,50,100,-47.87,16,20.0,0.0,-1013.0,12:42:40.523755,192.168.0.111
844,-1,-100,-100,-100,"0,0,0",1,0,-3,0,0,0,62,64,79,50,100,-47.92,16,38.0,-6.0,-1013.0,12:42:40.622437,192.168.0.111
849,-1,-100,-100,-100,"0,0,0",1,1,-3,0,0,0,62,64,79,50,100,-47.76,16,19.0,12.0,-939.0,12:42:40.727260,192.168.0.111
854,-1,-100,-100,-100,"0,0,0",1,1,-4,0,0,0,62,64,79,50,100,-47.75,16,29.0,5.0,-979.0,12:42:40.826378,192.168.0.111
859,-1,-100,-100,-100,"0,0,0",1,0,-3,0,0,0,62,65,78,50,100,-47.86,16,33.0,19.0,-970.0,12:42:40.929493,192.168.0.111
864,-1,-100,-100,-100,"0,0,0",1,-1,-3,0,0,0,62,65,79,50,100,-47.8,17,11.0,17.0,-996.0,12:42:41.031017,192.168.0.111
869,-1,-100,-100,-100,"0,0,0",1,0,-3,0,0,0,62,65,78,50,100,-47.83,17,18.0,6.0,-1044.0,12:42:41.132287,192.168.0.111
874,-1,-100,-100,-100,"0,0,0",0,0,-3,0,0,0,62,65,79,50,100,-47.89,17,25.0,0.0,-1015.0,12:42:41.234844,192.168.0.111
879,-1,-100,-100,-100,"0,0,0",0,0,-3,0,0,0,62,65,79,50,100,-47.86,17,13.0,1.0,-1019.0,12:42:41.336267,192.168.0.111
884,-1,-100,-100,-100,"0,0,0",0,0,-3,0,0,0,62,65,79,50,100,-47.81,17,3.0,8.0,-986.0,12:42:41.438287,192.168.0.111
889,-1,-100,-100,-100,"0,0,0",0,0,-3,0,0,0,62,65,80,50,100,-47.81,17,16.0,5.0,-996.0,12:42:41.540568,192.168.0.111
894,-1,-100,-100,-100,"0,0,0",0,0,-3,0,0,0,62,65,80,50,100,-47.9,17,1.0,10.0,-987.0,12:42:41.642241,192.168.0.111
899,-1,-100,-100,-100,"0,0,0",0,0,-3,0,0,0,62,65,80,50,100,-47.94,17,13.0,-10.0,-985.0,12:42:41.747609,192.168.0.111
904,-1,-100,-100,-100,"0,0,0",0,0,-3,0,0,0,62,65,80,50,100,-47.89,17,9.0,-12.0,-1003.0,12:42:41.846229,192.168.0.111
909,-1,-100,-100,-100,"0,0,0",0,0,-3,0,0,0,62,65,80,50,100,-47.92,17,18.0,13.0,-977.0,12:42:41.950630,192.168.0.111
914,-1,-100,-100,-100,"0,0,0",1,0,-3,0,0,0,62,65,80,50,100,-47.84,18,10.0,-3.0,-994.0,12:42:42.050329,192.168.0.111
919,-1,-100,-100,-100,"0,0,0",0,0,-3,0,0,0,62,65,80,50,100,-47.9,18,27.0,-5.0,-1010.0,12:42:42.152305,192.168.0.111
924,-1,-100,-100,-100,"0,0,0",0,0,-3,0,0,0,62,65,80,50,100,-47.84,18,16.0,2.0,-962.0,12:42:42.254193,192.168.0.111
930,-1,-100,-100,-100,"0,0,0",0,0,-3,0,0,0,62,65,80,50,100,-47.94,18,33.0,2.0,-991.0,12:42:42.356442,192.168.0.111
935,-1,-100,-100,-100,"0,0,0",0,0,-3,0,0,0,62,65,80,50,100,-47.78,18,6.0,2.0,-1020.0,12:42:42.458303,192.168.0.111
940,-1,-100,-100,-100,"0,0,0",1,0,-3,0,0,0,62,65,79,50,100,-47.89,18,14.0,1.0,-1026.0,12:42:42.560092,192.168.0.111
945,-1,-100,-100,-100,"0,0,0",0,0,-3,0,0,0,62,65,79,50,100,-47.87,18,2.0,18.0,-995.0,12:42:42.661791,192.168.0.111
950,-1,-100,-100,-100,"0,0,0",0,1,-3,0,0,0,62,65,79,50,100,-47.86,18,18.0,1.0,-949.0,12:42:42.764161,192.168.0.111
955,-1,-100,-100,-100,"0,0,0",0,0,-3,0,0,0,62,65,79,50,100,-47.84,18,10.0,19.0,-1006.0,12:42:42.866029,192.168.0.111
960,-1,-100,-100,-100,"0,0,0",1,0,-3,0,0,0,62,65,78,50,100,-47.85,18,35.0,1.0,-1027.0,12:42:42.968071,192.168.0.111
965,-1,-100,-100,-100,"0,0,0",1,0,-3,0,0,0,62,65,78,50,100,-47.8,19,16.0,0.0,-1005.0,12:42:43.069689,192.168.0.111
968,-1,-100,-100,-100,"0,0,0",1,0,-3,0,0,0,62,65,78,50,100,-47.82,19,28.0,-11.0,-1023.0,12:42:43.120643,192.168.0.111
973,-1,-100,-100,-100,"0,0,0",0,0,-3,0,0,0,62,65,78,50,100,-47.9,19,31.0,-3.0,-980.0,12:42:43.223048,192.168.0.111
978,-1,-100,-100,-100,"0,0,0",1,0,-3,0,0,0,62,65,78,50,100,-47.86,19,13.0,5.0,-1005.0,12:42:43.325189,192.168.0.111
983,-1,-100,-100,-100,"0,0,0",1,0,-3,0,0,0,62,65,79,50,100,-47.79,19,20.0,8.0,-978.0,12:42:43.427179,192.168.0.111
988,-1,-100,-100,-100,"0,0,0",1,0,-3,0,0,0,62,65,79,50,100,-47.9,19,11.0,-2.0,-1048.0,12:42:43.529170,192.168.0.111
993,-1,-100,-100,-100,"0,0,0",1,0,-3,0,0,0,62,65,78,50,100,-47.84,19,-8.0,0.0,-1015.0,12:42:43.633933,192.168.0.111
999,-1,-100,-100,-100,"0,0,0",1,0,-3,0,0,0,62,65,79,50,100,-47.84,19,30.0,-16.0,-970.0,12:42:43.733287,192.168.0.111
1004,-1,-100,-100,-100,"0,0,0",0,0,-3,0,0,0,62,65,79,50,100,-47.89,19,6.0,7.0,-993.0,12:42:43.835200,192.168.0.111
1008,-1,-100,-100,-100,"0,0,0",0,0,-3,0,0,0,62,65,79,50,100,-47.89,19,39.0,-1.0,-988.0,12:42:43.938123,192.168.0.111
1014,-1,-100,-100,-100,"0,0,0",0,0,-4,0,0,0,62,65,79,50,100,-47.87,20,17.0,7.0,-960.0,12:42:44.041746,192.168.0.111
1019,-1,-100,-100,-100,"0,0,0",0,0,-4,0,0,0,62,65,79,50,100,-47.83,20,29.0,-6.0,-1030.0,12:42:44.142836,192.168.0.111
1024,-1,-100,-100,-100,"0,0,0",1,0,-4,0,0,0,62,65,79,50,100,-47.84,20,20.0,-10.0,-975.0,12:42:44.242968,192.168.0.111
1029,-1,-100,-100,-100,"0,0,0",1,0,-3,0,0,0,62,65,79,50,100,-47.83,20,16.0,-3.0,-1015.0,12:42:44.349362,192.168.0.111
1034,-1,-100,-100,-100,"0,0,0",0,0,-3,0,0,0,62,65,79,50,100,-47.96,20,36.0,-9.0,-979.0,12:42:44.447109,192.168.0.111
1039,-1,-100,-100,-100,"0,0,0",0,0,-3,0,0,0,62,65,79,50,100,-48.0,20,20.0,-1.0,-946.0,12:42:44.549216,192.168.0.111
1044,-1,-100,-100,-100,"0,0,0",1,0,-3,0,0,0,62,65,79,50,100,-47.87,20,10.0,-12.0,-1015.0,12:42:44.651035,192.168.0.111
1049,-1,-100,-100,-100,"0,0,0",1,0,-3,0,0,0,62,65,79,50,100,-47.84,20,20.0,-11.0,-1028.0,12:42:44.752963,192.168.0.111
1054,-1,-100,-100,-100,"0,0,0",0,0,-3,0,0,0,62,65,79,50,100,-47.94,20,24.0,15.0,-917.0,12:42:44.855246,192.168.0.111
1059,-1,-100,-100,-100,"0,0,0",0,1,-3,0,0,0,62,65,79,50,100,-48.1,20,30.0,-5.0,-1027.0,12:42:44.957198,192.168.0.111
1064,-1,-100,-100,-100,"0,0,0",1,0,-3,0,0,0,62,65,79,50,100,-47.94,21,34.0,21.0,-979.0,12:42:45.058668,192.168.0.111
1069,-1,-100,-100,-100,"0,0,0",1,1,-3,0,0,0,62,65,79,50,100,-47.82,21,9.0,0.0,-996.0,12:42:45.161082,192.168.0.111
1074,-1,-100,-100,-100,"0,0,0",1,0,-3,0,0,0,62,65,79,50,100,-47.8,21,13.0,-4.0,-1013.0,12:42:45.266325,192.168.0.111
1079,-1,-100,-100,-100,"0,0,0",1,0,-3,0,0,0,62,65,79,50,100,-47.83,21,10.0,-4.0,-1017.0,12:42:45.365071,192.168.0.111
1084,-1,-100,-100,-100,"0,0,0",0,0,-3,0,0,0,62,65,79,50,100,-47.93,21,5.0,-4.0,-969.0,12:42:45.467208,192.168.0.111
1090,-1,-100,-100,-100,"0,0,0",0,0,-4,0,0,0,62,65,79,50,100,-47.79,21,24.0,-23.0,-993.0,12:42:45.568529,192.168.0.111
1094,-1,-100,-100,-100,"0,0,0",0,0,-4,0,0,0,62,65,79,50,100,-47.85,21,13.0,0.0,-957.0,12:42:45.670912,192.168.0.111
1100,-1,-100,-100,-100,"0,0,0",1,0,-4,0,0,0,62,65,79,50,100,-47.89,21,22.0,-13.0,-984.0,12:42:45.772963,192.168.0.111
1105,-1,-100,-100,-100,"0,0,0",0,0,-4,0,0,0,62,65,79,50,100,-47.87,21,22.0,-7.0,-986.0,12:42:45.879609,192.168.0.111
1110,-1,-100,-100,-100,"0,0,0",0,0,-4,0,0,0,62,65,78,50,100,-47.8,21,3.0,-22.0,-1004.0,12:42:45.979227,192.168.0.111
1115,-1,-100,-100,-100,"0,0,0",1,0,-4,0,0,0,62,65,78,50,100,-47.91,22,38.0,-21.0,-976.0,12:42:46.079462,192.168.0.111
1120,-1,-100,-100,-100,"0,0,0",0,1,-4,0,0,0,62,65,78,50,100,-47.89,22,25.0,-11.0,-1027.0,12:42:46.181085,192.168.0.111
1125,-1,-100,-100,-100,"0,0,0",1,1,-4,0,0,0,62,65,78,50,100,-47.92,22,33.0,-7.0,-1011.0,12:42:46.283022,192.168.0.111
1130,-1,-100,-100,-100,"0,0,0",1,0,-4,0,0,0,62,65,78,50,100,-47.85,22,10.0,-4.0,-1013.0,12:42:46.384745,192.168.0.111
1135,-1,-100,-100,-100,"0,0,0",1,1,-4,0,0,0,62,65,79,50,100,-47.88,22,-1.0,6.0,-1012.0,12:42:46.487113,192.168.0.111
1138,-1,-100,-100,-100,"0,0,0",1,0,-3,0,0,0,62,65,79,50,100,-47.94,22,29.0,-3.0,-985.0,12:42:46.538141,192.168.0.111
1143,-1,-100,-100,-100,"0,0,0",1,0,-3,0,0,0,62,65,79,50,100,-47.87,22,35.0,7.0,-1027.0,12:42:46.640238,192.168.0.111
1148,-1,-100,-100,-100,"0,0,0",0,0,-3,0,0,0,62,65,80,50,100,-47.84,22,13.0,11.0,-999.0,12:42:46.744003,192.168.0.111
1153,-1,-100,-100,-100,"0,0,0",1,0,-3,0,0,0,62,65,79,50,100,-47.9,22,44.0,5.0,-980.0,12:42:46.844374,192.168.0.111
1158,-1,-100,-100,-100,"0,0,0",0,0,-3,0,0,0,62,65,80,50,100,-47.91,22,23.0,-18.0,-1006.0,12:42:46.946370,192.168.0.111
1163,-1,-100,-100,-100,"0,0,0",2,0,-3,0,0,0,62,65,80,50,100,-47.91,23,34.0,-9.0,-1025.0,12:42:47.048092,192.168.0.111
1169,-1,-100,-100,-100,"0,0,0",1,0,-3,0,0,0,62,65,80,50,100,-47.98,23,30.0,0.0,-997.0,12:42:47.149977,192.168.0.111
1174,-1,-100,-100,-100,"0,0,0",2,0,-3,0,0,0,62,65,80,50,100,-47.88,23,34.0,-15.0,-1040.0,12:42:47.252127,192.168.0.111
1179,-1,-100,-100,-100,"0,0,0",1,0,-3,0,0,0,62,65,80,50,100,-47.87,23,26.0,0.0,-996.0,12:42:47.354069,192.168.0.111
1184,-1,-100,-100,-100,"0,0,0",1,0,-3,0,0,0,62,65,81,50,100,-47.92,23,23.0,-4.0,-979.0,12:42:47.456193,192.168.0.111
1189,-1,-100,-100,-100,"0,0,0",2,0,-3,0,0,0,62,65,81,50,100,-47.89,23,47.0,-19.0,-1007.0,12:42:47.558981,192.168.0.111
1194,-1,-100,-100,-100,"0,0,0",1,1,-3,0,0,0,62,65,81,50,100,-47.86,23,52.0,-5.0,-965.0,12:42:47.659984,192.168.0.111
1199,-1,-100,-100,-100,"0,0,0",2,0,-3,0,0,0,62,65,81,50,100,-47.79,23,32.0,-1.0,-1001.0,12:42:47.762017,192.168.0.111
1204,-1,-100,-100,-100,"0,0,0",1,0,-3,0,0,0,62,65,81,50,100,-47.79,23,29.0,2.0,-983.0,12:42:47.864167,192.168.0.111
1209,-1,-100,-100,-100,"0,0,0",1,1,-3,0,0,0,62,65,81,50,100,-47.83,23,12.0,1.0,-982.0,12:42:47.966050,192.168.0.111
1214,-1,-100,-100,-100,"0,0,0",2,1,-3,0,0,0,62,65,80,50,100,-47.84,24,36.0,2.0,-1018.0,12:42:48.068086,192.168.0.111
1219,-1,-100,-100,-100,"0,0,0",1,0,-3,0,0,0,62,65,80,50,100,-47.86,24,48.0,-17.0,-1024.0,12:42:48.173425,192.168.0.111
1224,-1,-100,-100,-100,"0,0,0",1,0,-3,0,0,0,62,65,80,50,100,-47.86,24,35.0,0.0,-1026.0,12:42:48.272263,192.168.0.111
1229,-1,-100,-100,-100,"0,0,0",1,0,-3,0,0,0,62,65,80,50,100,-47.78,24,18.0,15.0,-967.0,12:42:48.374061,192.168.0.111
1234,-1,-100,-100,-100,"0,0,0",2,0,-3,0,0,0,62,65,80,50,100,-47.86,24,52.0,-9.0,-992.0,12:42:48.476948,192.168.0.111
1239,-1,-100,-100,-100,"0,0,0",1,0,-3,0,0,0,62,65,79,50,100,-47.79,24,44.0,-19.0,-992.0,12:42:48.578078,192.168.0.111
1244,-1,-100,-100,-100,"0,0,0",1,-1,-2,0,0,0,62,65,79,50,100,-47.8,24,37.0,6.0,-1056.0,12:42:48.680298,192.168.0.111
1249,-1,-100,-100,-100,"0,0,0",2,0,-3,0,0,0,62,65,79,50,100,-47.84,24,69.0,-1.0,-961.0,12:42:48.782055,192.168.0.111
1254,-1,-100,-100,-100,"0,0,0",1,0,-3,0,0,0,62,65,78,50,100,-47.92,24,49.0,23.0,-996.0,12:42:48.883642,192.168.0.111
1260,-1,-100,-100,-100,"0,0,0",2,0,-3,0,0,0,62,65,78,50,100,-47.97,24,76.0,13.0,-1008.0,12:42:48.986092,192.168.0.111
1265,-1,-100,-100,-100,"0,0,0",3,0,-3,0,0,0,62,65,79,50,100,-47.96,25,61.0,-5.0,-1015.0,12:42:49.088049,192.168.0.111
1270,-1,-100,-100,-100,"0,0,0",3,0,-3,0,0,0,62,65,79,50,100,-47.9,25,57.0,-3.0,-1017.0,12:42:49.190053,192.168.0.111
1275,-1,-100,-100,-100,"0,0,0",4,0,-3,0,0,0,62,65,79,50,100,-48.03,25,57.0,4.0,-987.0,12:42:49.291898,192.168.0.111
1280,-1,-100,-100,-100,"0,0,0",3,0,-4,0,0,0,62,65,79,50,100,-47.98,25,61.0,2.0,-975.0,12:42:49.394235,192.168.0.111
1285,-1,-100,-100,-100,"0,0,0",3,0,-4,0,0,0,62,65,79,50,100,-47.88,25,48.0,12.0,-1021.0,12:42:49.496063,192.168.0.111
1290,-1,-100,-100,-100,"0,0,0",3,0,-4,0,0,0,62,65,79,50,100,-48.04,25,52.0,3.0,-1025.0,12:42:49.597543,192.168.0.111
1295,-1,-100,-100,-100,"0,0,0",3,-1,-4,0,0,0,62,65,79,50,100,-47.99,25,48.0,20.0,-1004.0,12:42:49.699973,192.168.0.111
1300,-1,-100,-100,-100,"0,0,0",2,0,-4,0,0,0,62,65,79,50,100,-47.89,25,63.0,-4.0,-982.0,12:42:49.804270,192.168.0.111
1303,-1,-100,-100,-100,"0,0,0",3,0,-4,0,0,0,62,65,79,50,100,-47.97,25,54.0,-18.0,-996.0,12:42:49.852925,192.168.0.111
1310,-1,-100,-100,-100,"0,0,0",3,0,-4,0,0,0,62,65,79,50,100,-47.92,25,87.0,-11.0,-1015.0,12:42:50.007024,192.168.0.111
1315,-1,-100,-100,-100,"0,0,0",3,0,-4,0,0,0,62,65,78,50,100,-47.89,26,53.0,12.0,-959.0,12:42:50.107983,192.168.0.111
1318,-1,-100,-100,-100,"0,0,0",3,0,-4,0,0,0,62,65,78,50,100,-47.87,26,51.0,6.0,-1027.0,12:42:50.158861,192.168.0.111
1323,-1,-100,-100,-100,"0,0,0",4,-1,-4,0,0,0,62,65,78,50,100,-47.82,26,47.0,11.0,-997.0,12:42:50.262990,192.168.0.111
1328,-1,-100,-100,-100,"0,0,0",3,0,-4,0,0,0,62,65,78,50,100,-48.08,26,82.0,3.0,-946.0,12:42:50.362973,192.168.0.111
1333,-1,-100,-100,-100,"0,0,0",3,1,-4,0,0,0,62,65,78,50,100,-47.95,26,53.0,17.0,-1038.0,12:42:50.465206,192.168.0.111
1339,-1,-100,-100,-100,"0,0,0",4,0,-3,0,0,0,62,65,78,50,100,-47.94,26,73.0,-20.0,-1084.0,12:42:50.566818,192.168.0.111
1344,-1,-100,-100,-100,"0,0,0",4,-2,-3,0,0,0,62,65,78,50,100,-47.94,26,86.0,-32.0,-1024.0,12:42:50.668881,192.168.0.111
1349,-1,-100,-100,-100,"0,0,0",4,0,-3,0,0,0,62,65,78,50,100,-48.1,26,65.0,-4.0,-1011.0,12:42:50.771712,192.168.0.111
1354,-1,-100,-100,-100,"0,0,0",4,0,-3,0,0,0,62,65,79,50,100,-47.98,26,70.0,-4.0,-974.0,12:42:50.873050,192.168.0.111
1359,-1,-100,-100,-100,"0,0,0",4,0,-3,0,0,0,62,65,79,50,100,-47.96,26,75.0,1.0,-978.0,12:42:50.975933,192.168.0.111
1364,-1,-100,-100,-100,"0,0,0",3,0,-3,0,0,0,62,65,79,50,100,-47.84,27,61.0,3.0,-1020.0,12:42:51.076750,192.168.0.111
1369,-1,-100,-100,-100,"0,0,0",4,1,-3,0,0,0,62,65,79,50,100,-48.09,27,88.0,-21.0,-1009.0,12:42:51.178704,192.168.0.111
1374,-1,-100,-100,-100,"0,0,0",3,0,-3,0,0,0,62,65,79,50,100,-47.93,27,51.0,2.0,-993.0,12:42:51.283376,192.168.0.111
1379,-1,-100,-100,-100,"0,0,0",3,1,-3,0,0,0,62,65,80,50,100,-47.94,27,70.0,-17.0,-994.0,12:42:51.382993,192.168.0.111
1384,-1,-100,-100,-100,"0,0,0",3,0,-3,0,0,0,62,65,80,50,100,-48.12,27,60.0,-9.0,-999.0,12:42:51.488132,192.168.0.111
1389,-1,-100,-100,-100,"0,0,0",3,0,-3,0,0,0,62,65,80,50,100,-47.93,27,67.0,-3.0,-986.0,12:42:51.586992,192.168.0.111
1394,-1,-100,-100,-100,"0,0,0",4,0,-3,0,0,0,62,65,79,50,100,-47.89,27,71.0,10.0,-991.0,12:42:51.688866,192.168.0.111
1399,-1,-100,-100,-100,"0,0,0",3,0,-3,0,0,0,62,65,80,50,100,-47.93,27,39.0,-4.0,-1000.0,12:42:51.790848,192.168.0.111
1404,-1,-100,-100,-100,"0,0,0",2,1,-3,0,0,0,62,65,80,50,100,-48.02,27,68.0,-1.0,-986.0,12:42:51.893586,192.168.0.111
1409,-1,-100,-100,-100,"0,0,0",4,0,-3,0,0,0,63,65,79,50,100,-47.94,28,47.0,0.0,-1024.0,12:42:51.996864,192.168.0.111
1414,-1,-100,-100,-100,"0,0,0",3,0,-3,0,0,0,63,65,79,50,100,-47.97,28,65.0,-23.0,-1048.0,12:42:52.096872,192.168.0.111
1419,-1,-100,-100,-100,"0,0,0",3,0,-3,0,0,0,63,65,79,50,100,-48.13,28,73.0,-10.0,-1017.0,12:42:52.198907,192.168.0.111
1424,-1,-100,-100,-100,"0,0,0",3,0,-3,0,0,0,63,65,79,50,100,-48.22,28,75.0,-6.0,-992.0,12:42:52.300834,192.168.0.111
1429,-1,-100,-100,-100,"0,0,0",3,1,-3,0,0,0,63,65,79,50,100,-48.14,28,86.0,-4.0,-975.0,12:42:52.402839,192.168.0.111
1435,-1,-100,-100,-100,"0,0,0",3,0,-3,0,0,0,63,65,79,50,100,-47.96,28,68.0,-4.0,-992.0,12:42:52.505122,192.168.0.111
1440,-1,-100,-100,-100,"0,0,0",4,0,-3,0,0,0,63,65,79,50,100,-48.03,28,79.0,-6.0,-991.0,12:42:52.606860,192.168.0.111
1445,-1,-100,-100,-100,"0,0,0",4,0,-3,0,0,0,63,65,79,50,100,-48.01,28,77.0,-4.0,-1012.0,12:42:52.708790,192.168.0.111
1450,-1,-100,-100,-100,"0,0,0",3,0,-3,0,0,0,63,65,79,50,100,-48.19,28,74.0,7.0,-985.0,12:42:52.810994,192.168.0.111
1455,-1,-100,-100,-100,"0,0,0",4,0,-3,0,0,0,63,65,79,50,100,-48.06,28,64.0,0.0,-1018.0,12:42:52.912702,192.168.0.111
1460,-1,-100,-100,-100,"0,0,0",3,1,-3,0,0,0,62,65,79,50,100,-48.03,29,42.0,5.0,-1000.0,12:42:53.014736,192.168.0.111
1465,-1,-100,-100,-100,"0,0,0",2,0,-3,0,0,0,62,65,79,50,100,-48.11,29,54.0,-8.0,-1012.0,12:42:53.117705,192.168.0.111
1470,-1,-100,-100,-100,"0,0,0",3,0,-3,0,0,0,62,65,79,50,100,-48.09,29,43.0,-15.0,-1036.0,12:42:53.218779,192.168.0.111
1475,-1,-100,-100,-100,"0,0,0",3,0,-3,0,0,0,62,65,79,50,100,-48.11,29,61.0,-3.0,-987.0,12:42:53.323023,192.168.0.111
1480,-1,-100,-100,-100,"0,0,0",2,0,-3,0,0,0,62,65,79,50,100,-48.15,29,66.0,2.0,-1023.0,12:42:53.423348,192.168.0.111
1485,-1,-100,-100,-100,"0,0,0",3,0,-3,0,0,0,62,65,79,50,100,-48.05,29,52.0,-17.0,-1019.0,12:42:53.524830,192.168.0.111
1488,-1,-100,-100,-100,"0,0,0",3,0,-3,0,0,0,62,65,79,50,100,-48.17,29,68.0,3.0,-1012.0,12:42:53.576009,192.168.0.111
1493,-1,-100,-100,-100,"0,0,0",3,0,-3,0,0,0,62,65,79,50,100,-47.96,29,57.0,-6.0,-987.0,12:42:53.677870,192.168.0.111
1498,-1,-100,-100,-100,"0,0,0",2,0,-3,0,0,0,62,65,79,50,100,-48.43,29,95.0,-17.0,-1032.0,12:42:53.780382,192.168.0.111
1504,-1,-100,-100,-100,"0,0,0",3,0,-3,0,0,0,62,65,79,50,100,-48.03,29,56.0,-16.0,-1010.0,12:42:53.881767,192.168.0.111
1508,-1,-100,-100,-100,"0,0,0",3,0,-3,0,0,0,62,65,79,50,100,-48.14,30,67.0,-11.0,-1015.0,12:42:53.984001,192.168.0.111
1514,-1,-100,-100,-100,"0,0,0",3,0,-3,0,0,0,62,65,78,50,100,-48.14,30,74.0,2.0,-998.0,12:42:54.085814,192.168.0.111
1519,-1,-100,-100,-100,"0,0,0",3,0,-3,0,0,0,62,65,79,50,100,-48.27,30,88.0,-14.0,-987.0,12:42:54.187944,192.168.0.111
1524,-1,-100,-100,-100,"0,0,0",3,1,-3,0,0,0,62,65,78,50,100,-48.17,30,98.0,6.0,-960.0,12:42:54.289887,192.168.0.111
1529,-1,-100,-100,-100,"0,0,0",4,0,-3,0,0,0,62,65,78,50,100,-48.09,30,73.0,-14.0,-963.0,12:42:54.391854,192.168.0.111
1534,-1,-100,-100,-100,"0,0,0",4,0,-3,0,0,0,62,65,79,50,100,-48.07,30,51.0,-10.0,-1024.0,12:42:54.493723,192.168.0.111
1539,-1,-100,-100,-100,"0,0,0",3,0,-3,0,0,0,62,65,79,50,100,-48.03,30,71.0,-13.0,-990.0,12:42:54.595849,192.168.0.111
1544,-1,-100,-100,-100,"0,0,0",3,0,-3,0,0,0,62,65,78,50,100,-48.18,30,64.0,-19.0,-998.0,12:42:54.698333,192.168.0.111
1549,-1,-100,-100,-100,"0,0,0",3,0,-3,0,0,0,62,65,79,50,100,-48.12,30,73.0,-35.0,-1047.0,12:42:54.799849,192.168.0.111
1554,-1,-100,-100,-100,"0,0,0",3,0,-3,0,0,0,62,65,79,50,100,-48.04,30,66.0,-14.0,-1029.0,12:42:54.901813,192.168.0.111
1559,-1,-100,-100,-100,"0,0,0",3,1,-3,0,0,0,62,64,79,50,100,-48.01,31,61.0,-5.0,-985.0,12:42:55.003863,192.168.0.111
1564,-1,-100,-100,-100,"0,0,0",3,0,-3,0,0,0,62,64,79,50,100,-48.1,31,79.0,-7.0,-1000.0,12:42:55.105927,192.168.0.111
1569,-1,-100,-100,-100,"0,0,0",4,0,-3,0,0,0,62,64,79,50,100,-48.06,31,68.0,-14.0,-1004.0,12:42:55.211419,192.168.0.111
1574,-1,-100,-100,-100,"0,0,0",3,0,-3,0,0,0,62,64,80,50,100,-48.13,31,76.0,6.0,-940.0,12:42:55.310575,192.168.0.111
1579,-1,-100,-100,-100,"0,0,0",4,1,-3,0,0,0,62,64,79,50,100,-48.1,31,79.0,9.0,-975.0,12:42:55.411915,192.168.0.111
1584,-1,-100,-100,-100,"0,0,0",4,0,-3,0,0,0,62,64,79,50,100,-48.07,31,39.0,12.0,-1028.0,12:42:55.514361,192.168.0.111
1589,-1,-100,-100,-100,"0,0,0",3,0,-3,0,0,0,62,64,79,50,100,-48.07,31,82.0,-15.0,-987.0,12:42:55.615768,192.168.0.111
1594,-1,-100,-100,-100,"0,0,0",4,0,-3,0,0,0,62,64,79,50,100,-47.99,31,49.0,-1.0,-1005.0,12:42:55.717862,192.168.0.111
1599,-1,-100,-100,-100,"0,0,0",4,0,-3,0,0,0,62,64,79,50,100,-47.94,31,56.0,-7.0,-1022.0,12:42:55.819853,192.168.0.111
1604,-1,-100,-100,-100,"0,0,0",3,0,-3,0,0,0,62,64,79,50,100,-48.17,31,41.0,-8.0,-1053.0,12:42:55.921956,192.168.0.111
1610,-1,-100,-100,-100,"0,0,0",2,0,-3,0,0,0,63,65,79,50,100,-48.12,32,76.0,-17.0,-1010.0,12:42:56.025224,192.168.0.111
1615,-1,-100,-100,-100,"0,0,0",2,0,-3,0,0,0,63,65,79,50,100,-47.97,32,53.0,6.0,-1020.0,12:42:56.126249,192.168.0.111
1620,-1,-100,-100,-100,"0,0,0",3,0,-3,0,0,0,63,65,79,50,100,-48.03,32,46.0,-8.0,-1002.0,12:42:56.229768,192.168.0.111
1625,-1,-100,-100,-100,"0,0,0",2,0,-3,0,0,0,63,65,79,50,100,-48.05,32,64.0,11.0,-980.0,12:42:56.330671,192.168.0.111
1630,-1,-100,-100,-100,"0,0,0",2,0,-3,0,0,0,63,65,79,50,100,-48.06,32,68.0,-5.0,-1020.0,12:42:56.431833,192.168.0.111
1635,-1,-100,-100,-100,"0,0,0",2,0,-3,0,0,0,63,65,79,50,100,-48.01,32,36.0,1.0,-996.0,12:42:56.533733,192.168.0.111
1640,-1,-100,-100,-100,"0,0,0",3,0,-3,0,0,0,63,65,79,50,100,-48.0,32,61.0,13.0,-991.0,12:42:56.635677,192.168.0.111
1645,-1,-100,-100,-100,"0,0,0",3,0,-3,0,0,0,63,65,79,50,100,-47.99,32,63.0,14.0,-989.0,12:42:56.738899,192.168.0.111
1650,-1,-100,-100,-100,"0,0,0",3,0,-4,0,0,0,63,65,79,50,100,-48.07,32,38.0,-10.0,-1003.0,12:42:56.839724,192.168.0.111
1655,-1,-100,-100,-100,"0,0,0",2,0,-4,0,0,0,63,65,79,50,100,-48.22,32,71.0,-10.0,-994.0,12:42:56.943952,192.168.0.111
1660,-1,-100,-100,-100,"0,0,0",2,0,-3,0,0,0,63,66,79,50,100,-48.0,33,55.0,-19.0,-1030.0,12:42:57.044348,192.168.0.111
1665,-1,-100,-100,-100,"0,0,0",2,0,-3,0,0,0,63,66,79,50,100,-48.12,33,73.0,-15.0,-958.0,12:42:57.145726,192.168.0.111
1668,-1,-100,-100,-100,"0,0,0",3,0,-3,0,0,0,63,66,78,50,100,-47.98,33,40.0,-18.0,-1037.0,12:42:57.197231,192.168.0.111
1674,-1,-100,-100,-100,"0,0,0",2,0,-3,0,0,0,63,66,79,50,100,-47.94,33,45.0,4.0,-1005.0,12:42:57.299630,192.168.0.111
1679,-1,-100,-100,-100,"0,0,0",2,0,-4,0,0,0,63,66,79,50,100,-47.95,33,37.0,-2.0,-1017.0,12:42:57.402013,192.168.0.111
1684,-1,-100,-100,-100,"0,0,0",2,1,-3,0,0,0,63,66,79,50,100,-48.0,33,58.0,-13.0,-970.0,12:42:57.504436,192.168.0.111
1689,-1,-100,-100,-100,"0,0,0",2,0,-4,0,0,0,63,66,79,50,100,-48.23,33,55.0,1.0,-1033.0,12:42:57.606827,192.168.0.111
1694,-1,-100,-100,-100,"0,0,0",3,0,-3,0,0,0,63,66,79,50,100,-48.04,33,32.0,-19.0,-985.0,12:42:57.709660,192.168.0.111
1699,-1,-100,-100,-100,"0,0,0",2,0,-4,0,0,0,63,66,79,50,100,-48.17,33,76.0,-23.0,-1009.0,12:42:57.811637,192.168.0.111
1704,-1,-100,-100,-100,"0,0,0",2,1,-3,0,0,0,63,66,79,50,100,-47.94,33,21.0,-1.0,-995.0,12:42:57.910708,192.168.0.111
1709,-1,-100,-100,-100,"0,0,0",2,0,-4,0,0,0,62,65,79,50,100,-48.09,34,50.0,-10.0,-1004.0,12:42:58.013003,192.168.0.111
1714,-1,-100,-100,-100,"0,0,0",2,0,-3,0,0,0,62,65,79,50,100,-47.98,34,36.0,-6.0,-1006.0,12:42:58.114599,192.168.0.111
1719,-1,-100,-100,-100,"0,0,0",2,0,-3,0,0,0,62,65,79,50,100,-47.93,34,58.0,-22.0,-1022.0,12:42:58.216645,192.168.0.111
1724,-1,-100,-100,-100,"0,0,0",2,0,-3,0,0,0,62,65,79,50,100,-48.06,34,43.0,-4.0,-1015.0,12:42:58.318590,192.168.0.111
1729,-1,-100,-100,-100,"0,0,0",3,0,-3,0,0,0,62,65,79,50,100,-47.97,34,28.0,-9.0,-950.0,12:42:58.420743,192.168.0.111
1734,-1,-100,-100,-100,"0,0,0",2,1,-3,0,0,0,62,65,79,50,100,-48.17,34,54.0,-3.0,-1029.0,12:42:58.522521,192.168.0.111
1739,-1,-100,-100,-100,"0,0,0",2,1,-3,0,0,0,62,65,79,50,100,-47.96,34,13.0,-3.0,-996.0,12:42:58.624967,192.168.0.111
1744,-1,-100,-100,-100,"0,0,0",1,1,-3,0,0,0,62,65,79,50,100,-48.13,34,52.0,-6.0,-1005.0,12:42:58.726792,192.168.0.111
1749,-1,-100,-100,-100,"0,0,0",1,1,-3,0,0,0,62,65,79,50,100,-48.01,34,23.0,13.0,-984.0,12:42:58.828662,192.168.0.111
1754,-1,-100,-100,-100,"0,0,0",1,0,-3,0,0,0,62,65,79,50,100,-48.13,34,53.0,-4.0,-1026.0,12:42:58.932260,192.168.0.111
1759,-1,-100,-100,-100,"0,0,0",2,0,-3,0,0,0,63,65,79,50,100,-48.03,35,33.0,-13.0,-991.0,12:42:59.032657,192.168.0.111
1765,-1,-100,-100,-100,"0,0,0",2,0,-3,0,0,0,63,65,79,50,100,-48.03,35,45.0,-26.0,-1018.0,12:42:59.134650,192.168.0.111
1770,-1,-100,-100,-100,"0,0,0",2,1,-3,0,0,0,63,65,79,50,100,-48.08,35,42.0,-8.0,-1000.0,12:42:59.236507,192.168.0.111
1775,-1,-100,-100,-100,"0,0,0",2,0,-3,0,0,0,63,65,79,50,100,-47.93,35,42.0,-24.0,-982.0,12:42:59.341609,192.168.0.111
1780,-1,-100,-100,-100,"0,0,0",2,0,-3,0,0,0,63,65,79,50,100,-47.95,35,45.0,-21.0,-1012.0,12:42:59.440536,192.168.0.111
1785,-1,-100,-100,-100,"0,0,0",2,0,-3,0,0,0,63,65,79,50,100,-48.01,35,13.0,-12.0,-980.0,12:42:59.543831,192.168.0.111
1790,-1,-100,-100,-100,"0,0,0",1,0,-3,0,0,0,63,65,79,50,100,-48.06,35,33.0,-5.0,-976.0,12:42:59.644484,192.168.0.111
1795,-1,-100,-100,-100,"0,0,0",1,0,-3,0,0,0,63,65,79,50,100,-47.97,35,24.0,-18.0,-988.0,12:42:59.746710,192.168.0.111
1800,-1,-100,-100,-100,"0,0,0",1,0,-3,0,0,0,63,65,79,50,100,-47.92,35,45.0,-5.0,-1030.0,12:42:59.848614,192.168.0.111
1805,-1,-100,-100,-100,"0,0,0",2,0,-3,0,0,0,63,65,79,50,100,-47.97,35,23.0,-19.0,-1009.0,12:42:59.950590,192.168.0.111
1810,-1,-100,-100,-100,"0,0,0",1,1,-3,0,0,0,63,65,79,50,100,-47.93,36,32.0,-26.0,-977.0,12:43:00.052593,192.168.0.111
1815,-1,-100,-100,-100,"0,0,0",2,1,-3,0,0,0,63,65,79,50,100,-47.95,36,29.0,0.0,-1000.0,12:43:00.154554,192.168.0.111
1820,-1,-100,-100,-100,"0,0,0",1,0,-3,0,0,0,63,65,79,50,100,-47.88,36,43.0,-20.0,-1037.0,12:43:00.256648,192.168.0.111
1825,-1,-100,-100,-100,"0,0,0",1,0,-3,0,0,0,63,65,78,50,100,-48.08,36,18.0,-1.0,-1001.0,12:43:00.358429,192.168.0.111
1830,-1,-100,-100,-100,"0,0,0",1,0,-3,0,0,0,63,65,79,50,100,-47.93,36,14.0,-5.0,-993.0,12:43:00.460657,192.168.0.111
1834,-1,-100,-100,-100,"0,0,0",1,0,-3,0,0,0,63,65,79,50,100,-47.95,36,54.0,-32.0,-1057.0,12:43:00.511615,192.168.0.111
1839,-1,-100,-100,-100,"0,0,0",2,1,-3,0,0,0,63,65,79,50,100,-47.97,36,37.0,-30.0,-1007.0,12:43:00.617649,192.168.0.111
1844,-1,-100,-100,-100,"0,0,0",1,0,-3,0,0,0,63,65,80,50,100,-47.99,36,50.0,-15.0,-991.0,12:43:00.715852,192.168.0.111
1849,-1,-100,-100,-100,"0,0,0",2,0,-3,0,0,0,63,65,80,50,100,-47.97,36,34.0,-22.0,-1003.0,12:43:00.820353,192.168.0.111
1854,-1,-100,-100,-100,"0,0,0",2,0,-3,0,0,0,63,65,80,50,100,-47.95,36,66.0,-6.0,-956.0,12:43:00.920054,192.168.0.111
1859,-1,-100,-100,-100,"0,0,0",2,0,-3,0,0,0,63,65,79,50,100,-48.04,37,61.0,-19.0,-1028.0,12:43:01.022033,192.168.0.111
1864,-1,-100,-100,-100,"0,0,0",1,0,-3,0,0,0,63,65,80,50,100,-47.91,37,39.0,-10.0,-1028.0,12:43:01.123775,192.168.0.111
1869,-1,-100,-100,-100,"0,0,0",2,0,-3,0,0,0,63,65,79,50,100,-47.98,37,45.0,-13.0,-1033.0,12:43:01.225755,192.168.0.111
1874,-1,-100,-100,-100,"0,0,0",2,0,-3,0,0,0,63,65,79,50,100,-47.94,37,48.0,-22.0,-1015.0,12:43:01.327756,192.168.0.111
1879,-1,-100,-100,-100,"0,0,0",2,0,-3,0,0,0,63,65,79,50,100,-48.1,37,65.0,-9.0,-1048.0,12:43:01.429828,192.168.0.111
1884,-1,-100,-100,-100,"0,0,0",3,0,-3,0,0,0,63,65,80,50,100,-48.03,37,46.0,-4.0,-972.0,12:43:01.531850,192.168.0.111
1889,-1,-100,-100,-100,"0,0,0",3,0,-3,0,0,0,63,65,79,50,100,-47.98,37,57.0,-21.0,-1008.0,12:43:01.633317,192.168.0.111
1894,-1,-100,-100,-100,"0,0,0",3,0,-4,0,0,0,63,65,79,50,100,-48.06,37,45.0,5.0,-957.0,12:43:01.736296,192.168.0.111
1899,-1,-100,-100,-100,"0,0,0",2,0,-4,0,0,0,63,65,79,50,100,-48.03,37,48.0,-1.0,-980.0,12:43:01.837672,192.168.0.111
1904,-1,-100,-100,-100,"0,0,0",3,0,-3,0,0,0,63,65,79,50,100,-48.02,37,53.0,-7.0,-986.0,12:43:01.939572,192.168.0.111
1909,-1,-100,-100,-100,"0,0,0",2,0,-4,0,0,0,62,65,79,50,100,-48.05,38,49.0,-6.0,-1030.0,12:43:02.041662,192.168.0.111
1914,-1,-100,-100,-100,"0,0,0",2,0,-3,0,0,0,62,65,79,50,100,-48.06,38,46.0,1.0,-996.0,12:43:02.144025,192.168.0.111
1919,-1,-100,-100,-100,"0,0,0",2,0,-4,0,0,0,62,65,79,50,100,-47.95,38,46.0,11.0,-936.0,12:43:02.245676,192.168.0.111
1924,-1,-100,-100,-100,"0,0,0",2,1,-4,0,0,0,62,65,79,50,100,-47.98,38,38.0,23.0,-995.0,12:43:02.347739,192.168.0.111
1929,-1,-100,-100,-100,"0,0,0",1,0,-4,0,0,0,62,65,79,50,100,-47.95,38,23.0,3.0,-984.0,12:43:02.449614,192.168.0.111
1934,-1,-100,-100,-100,"0,0,0",2,0,-3,0,0,0,62,65,79,50,100,-47.96,38,33.0,0.0,-997.0,12:43:02.551723,192.168.0.111
1940,-1,-100,-100,-100,"0,0,0",2,0,-3,0,0,0,62,65,79,50,100,-47.94,38,28.0,-1.0,-1019.0,12:43:02.655167,192.168.0.111
1944,-1,-100,-100,-100,"0,0,0",1,0,-3,0,0,0,62,65,78,50,100,-48.17,38,41.0,-10.0,-1022.0,12:43:02.755186,192.168.0.111
1949,-1,-100,-100,-100,"0,0,0",2,0,-3,0,0,0,62,65,79,50,100,-48.06,38,53.0,-12.0,-1012.0,12:43:02.864160,192.168.0.111
1954,-1,-100,-100,-100,"0,0,0",1,0,-3,0,0,0,62,65,78,50,100,-48.07,38,39.0,4.0,-966.0,12:43:02.959655,192.168.0.111
1959,-1,-100,-100,-100,"0,0,0",2,0,-3,0,0,0,63,65,78,50,100,-48.06,39,36.0,-9.0,-999.0,12:43:03.061696,192.168.0.111
1965,-1,-100,-100,-100,"0,0,0",1,0,-3,0,0,0,63,65,78,50,100,-48.05,39,44.0,-18.0,-969.0,12:43:03.163655,192.168.0.111
1970,-1,-100,-100,-100,"0,0,0",1,0,-3,0,0,0,63,65,78,50,100,-47.98,39,40.0,0.0,-992.0,12:43:03.265811,192.168.0.111
1975,-1,-100,-100,-100,"0,0,0",0,1,-3,0,0,0,63,65,78,50,100,-47.88,39,13.0,-7.0,-959.0,12:43:03.367651,192.168.0.111
1980,-1,-100,-100,-100,"0,0,0",1,0,-3,0,0,0,63,65,79,50,100,-48.1,39,52.0,-32.0,-1031.0,12:43:03.469522,192.168.0.111
1985,-1,-100,-100,-100,"0,0,0",1,0,-3,0,0,0,63,65,78,50,100,-47.9,39,25.0,-14.0,-991.0,12:43:03.571297,192.168.0.111
1990,-1,-100,-100,-100,"0,0,0",1,1,-3,0,0,0,63,65,79,50,100,-48.09,39,65.0,-24.0,-1027.0,12:43:03.673603,192.168.0.111
1993,-1,-100,-100,-100,"0,0,0",1,1,-3,0,0,0,63,65,78,50,100,-47.87,39,15.0,-1.0,-1034.0,12:43:03.724724,192.168.0.111
1999,-1,-100,-100,-100,"0,0,0",1,0,-3,0,0,0,63,65,78,50,100,-48.06,39,75.0,-15.0,-986.0,12:43:03.826388,192.168.0.111
2006,-1,-100,-100,-100,"0,0,0",2,0,-3,0,0,0,63,65,79,50,100,-48.01,39,44.0,-8.0,-974.0,12:43:03.979326,192.168.0.111
2010,-1,-100,-100,-100,"0,0,0",1,1,-3,0,0,0,62,66,79,50,100,-47.87,40,17.0,2.0,-994.0,12:43:04.081544,192.168.0.111
2014,-1,-100,-100,-100,"0,0,0",2,0,-3,0,0,0,62,66,79,50,100,-47.99,40,50.0,2.0,-1013.0,12:43:04.133385,192.168.0.111
2019,-1,-100,-100,-100,"0,0,0",1,0,-3,0,0,0,62,66,78,50,100,-47.88,40,39.0,-12.0,-938.0,12:43:04.234382,192.168.0.111
2024,-1,-100,-100,-100,"0,0,0",2,0,-3,0,0,0,62,66,79,50,100,-48.24,40,57.0,-15.0,-1011.0,12:43:04.336315,192.168.0.111
2029,-1,-100,-100,-100,"0,0,0",2,0,-3,0,0,0,62,66,78,50,100,-47.96,40,28.0,-5.0,-974.0,12:43:04.438469,192.168.0.111
2034,-1,-100,-100,-100,"0,0,0",2,0,-3,0,0,0,62,66,79,50,100,-47.97,40,72.0,1.0,-1025.0,12:43:04.540852,192.168.0.111
2039,-1,-100,-100,-100,"0,0,0",2,1,-3,0,0,0,62,66,78,50,100,-47.83,40,33.0,-9.0,-1009.0,12:43:04.642431,192.168.0.111
2044,-1,-100,-100,-100,"0,0,0",2,0,-3,0,0,0,62,66,78,50,100,-47.82,40,78.0,-21.0,-1001.0,12:43:04.744438,192.168.0.111
2049,-1,-100,-100,-100,"0,0,0",2,0,-3,0,0,0,62,66,79,50,100,-47.99,40,32.0,-10.0,-1016.0,12:43:04.846468,192.168.0.111
2054,-1,-100,-100,-100,"0,0,0",2,0,-3,0,0,0,62,66,79,50,100,-47.96,40,48.0,-21.0,-970.0,12:43:04.948303,192.168.0.111
2059,-1,-100,-100,-100,"0,0,0",3,0,-3,0,0,0,63,66,80,50,100,-47.99,41,28.0,0.0,-1000.0,12:43:05.050566,192.168.0.111
2064,-1,-100,-100,-100,"0,0,0",1,0,-3,0,0,0,63,66,80,50,100,-48.09,41,44.0,-3.0,-942.0,12:43:05.152300,192.168.0.111
2069,-1,-100,-100,-100,"0,0,0",2,0,-3,0,0,0,63,66,79,50,100,-48.0,41,38.0,-1.0,-1000.0,12:43:05.255633,192.168.0.111
2074,-1,-100,-100,-100,"0,0,0",2,0,-3,0,0,0,63,66,79,50,100,-47.87,41,28.0,-6.0,-977.0,12:43:05.356325,192.168.0.111
2079,-1,-100,-100,-100,"0,0,0",2,0,-3,0,0,0,63,66,79,50,100,-47.92,41,32.0,0.0,-995.0,12:43:05.458490,192.168.0.111
2084,-1,-100,-100,-100,"0,0,0",1,0,-3,0,0,0,63,66,79,50,100,-47.82,41,6.0,-5.0,-981.0,12:43:05.561233,192.168.0.111
2089,-1,-100,-100,-100,"0,0,0",0,1,-3,0,0,0,63,66,79,50,100,-47.97,41,46.0,-13.0,-1008.0,12:43:05.662406,192.168.0.111
2094,-1,-100,-100,-100,"0,0,0",1,0,-3,0,0,0,63,66,79,50,100,-47.94,41,16.0,-12.0,-1040.0,12:43:05.764243,192.168.0.111
2099,-1,-100,-100,-100,"0,0,0",1,0,-3,0,0,0,63,66,79,50,100,-47.93,41,26.0,-9.0,-1060.0,12:43:05.866501,192.168.0.111
2104,-1,-100,-100,-100,"0,0,0",1,0,-3,0,0,0,63,66,79,50,100,-47.87,41,41.0,-12.0,-992.0,12:43:05.968733,192.168.0.111
2109,-1,-100,-100,-100,"0,0,0",1,0,-3,0,0,0,63,65,79,50,100,-47.99,42,46.0,0.0,-980.0,12:43:06.070214,192.168.0.111
2115,-1,-100,-100,-100,"0,0,0",1,0,-3,0,0,0,63,65,79,50,100,-47.9,42,23.0,-8.0,-1007.0,12:43:06.172386,192.168.0.111
2120,-1,-100,-100,-100,"0,0,0",1,0,-3,0,0,0,63,65,79,50,100,-47.98,42,25.0,1.0,-1007.0,12:43:06.275328,192.168.0.111
2125,-1,-100,-100,-100,"0,0,0",1,0,-3,0,0,0,63,65,79,50,100,-47.98,42,38.0,-16.0,-1019.0,12:43:06.376579,192.168.0.111
2130,-1,-100,-100,-100,"0,0,0",1,0,-3,0,0,0,63,65,79,50,100,-47.97,42,14.0,4.0,-1015.0,12:43:06.478639,192.168.0.111
2135,-1,-100,-100,-100,"0,0,0",1,0,-3,0,0,0,63,65,79,50,100,-48.04,42,7.0,15.0,-987.0,12:43:06.580324,192.168.0.111
2140,-1,-100,-100,-100,"0,0,0",1,0,-3,0,0,0,63,65,79,50,100,-47.93,42,31.0,-15.0,-1027.0,12:43:06.682428,192.168.0.111
2145,-1,-100,-100,-100,"0,0,0",1,0,-3,0,0,0,63,65,79,50,100,-47.98,42,32.0,-6.0,-1007.0,12:43:06.784198,192.168.0.111
2150,-1,-100,-100,-100,"0,0,0",1,0,-3,0,0,0,63,65,79,50,100,-48.14,42,20.0,-4.0,-993.0,12:43:06.886416,192.168.0.111
2155,-1,-100,-100,-100,"0,0,0",2,0,-3,0,0,0,63,65,78,50,100,-48.05,42,36.0,-4.0,-1020.0,12:43:06.988650,192.168.0.111
2161,-1,-100,-100,-100,"0,0,0",1,1,-3,0,0,0,62,65,78,50,100,-47.92,43,39.0,-6.0,-992.0,12:43:07.090250,192.168.0.111
2166,-1,-100,-100,-100,"0,0,0",1,0,-3,0,0,0,62,65,78,50,100,-47.96,43,42.0,-18.0,-988.0,12:43:07.192303,192.168.0.111
2169,-1,-100,-100,-100,"0,0,0",2,0,-3,0,0,0,62,65,79,50,100,-48.22,43,57.0,-5.0,-1007.0,12:43:07.243541,192.168.0.111
2174,-1,-100,-100,-100,"0,0,0",1,0,-3,0,0,0,62,65,78,50,100,-47.89,43,31.0,-10.0,-997.0,12:43:07.345327,192.168.0.111
2179,-1,-100,-100,-100,"0,0,0",1,0,-3,0,0,0,62,65,78,50,100,-47.87,43,34.0,-12.0,-992.0,12:43:07.447539,192.168.0.111
2184,-1,-100,-100,-100,"0,0,0",1,0,-3,0,0,0,62,65,79,50,100,-47.95,43,6.0,-7.0,-1019.0,12:43:07.549116,192.168.0.111
2189,-1,-100,-100,-100,"0,0,0",1,0,-3,0,0,0,62,65,79,50,100,-47.86,43,25.0,-10.0,-990.0,12:43:07.651546,192.168.0.111
2194,-1,-100,-100,-100,"0,0,0",1,0,-3,0,0,0,62,65,79,50,100,-47.88,43,22.0,4.0,-957.0,12:43:07.753338,192.168.0.111
2199,-1,-100,-100,-100,"0,0,0",1,0,-3,0,0,0,62,65,78,50,100,-47.95,43,11.0,-11.0,-1005.0,12:43:07.855675,192.168.0.111
2204,-1,-100,-100,-100,"0,0,0",2,0,-3,0,0,0,62,65,78,50,100,-48.02,43,38.0,-16.0,-994.0,12:43:07.957444,192.168.0.111
2209,-1,-100,-100,-100,"0,0,0",1,1,-3,0,0,0,62,66,79,50,100,-48.0,44,38.0,-7.0,-1000.0,12:43:08.059450,192.168.0.111
2214,-1,-100,-100,-100,"0,0,0",1,1,-3,0,0,0,62,66,79,50,100,-47.97,44,39.0,-10.0,-1000.0,12:43:08.161478,192.168.0.111
2219,-1,-100,-100,-100,"0,0,0",1,1,-3,0,0,0,62,66,78,50,100,-47.94,44,40.0,-18.0,-1011.0,12:43:08.263337,192.168.0.111
2224,-1,-100,-100,-100,"0,0,0",1,0,-3,0,0,0,62,66,78,50,100,-47.92,44,33.0,3.0,-959.0,12:43:08.365602,192.168.0.111
2229,-1,-100,-100,-100,"0,0,0",2,0,-3,0,0,0,62,66,78,50,100,-47.94,44,35.0,-19.0,-1013.0,12:43:08.468177,192.168.0.111
2234,-1,-100,-100,-100,"0,0,0",2,0,-3,0,0,0,62,66,79,50,100,-48.01,44,39.0,-11.0,-984.0,12:43:08.569319,192.168.0.111
2239,-1,-100,-100,-100,"0,0,0",1,0,-3,0,0,0,62,66,79,50,100,-47.98,44,38.0,-9.0,-971.0,12:43:08.671402,192.168.0.111
2244,-1,-100,-100,-100,"0,0,0",1,1,-4,0,0,0,62,66,79,50,100,-47.91,44,36.0,5.0,-1004.0,12:43:08.773602,192.168.0.111
2249,-1,-100,-100,-100,"0,0,0",2,0,-4,0,0,0,62,66,79,50,100,-47.88,44,20.0,5.0,-976.0,12:43:08.875512,192.168.0.111
2254,-1,-100,-100,-100,"0,0,0",2,1,-4,0,0,0,62,66,79,50,100,-47.92,44,31.0,-13.0,-1013.0,12:43:08.978093,192.168.0.111
2259,-1,-100,-100,-100,"0,0,0",2,0,-3,0,0,0,63,65,79,50,100,-48.05,45,24.0,-1.0,-1044.0,12:43:09.079352,192.168.0.111
2264,-1,-100,-100,-100,"0,0,0",1,0,-3,0,0,0,63,65,79,50,100,-47.97,45,40.0,1.0,-1000.0,12:43:09.181549,192.168.0.111
2269,-1,-100,-100,-100,"0,0,0",1,0,-3,0,0,0,63,65,79,50,100,-47.87,45,42.0,-15.0,-979.0,12:43:09.285342,192.168.0.111
2275,-1,-100,-100,-100,"0,0,0",2,0,-3,0,0,0,63,65,79,50,100,-47.87,45,45.0,-1.0,-942.0,12:43:09.386453,192.168.0.111
2280,-1,-100,-100,-100,"0,0,0",2,0,-3,0,0,0,63,65,79,50,100,-48.0,45,29.0,4.0,-1002.0,12:43:09.487576,192.168.0.111
2285,-1,-100,-100,-100,"0,0,0",1,0,-3,0,0,0,63,65,79,50,100,-47.84,45,24.0,-5.0,-955.0,12:43:09.589515,192.168.0.111
2290,-1,-100,-100,-100,"0,0,0",1,0,-3,0,0,0,63,65,78,50,100,-47.91,45,30.0,-3.0,-1009.0,12:43:09.697089,192.168.0.111
2295,-1,-100,-100,-100,"0,0,0",0,0,-3,0,0,0,63,65,78,50,100,-47.95,45,31.0,4.0,-1003.0,12:43:09.793362,192.168.0.111
2300,-1,-100,-100,-100,"0,0,0",1,0,-3,0,0,0,63,65,78,50,100,-47.94,45,32.0,-12.0,-1020.0,12:43:09.895335,192.168.0.111
2305,-1,-100,-100,-100,"0,0,0",1,0,-3,0,0,0,63,65,78,50,100,-47.9,45,42.0,-1.0,-1025.0,12:43:09.997555,192.168.0.111
2310,-1,-100,-100,-100,"0,0,0",1,0,-3,0,0,0,63,65,78,50,100,-47.97,46,11.0,-11.0,-1005.0,12:43:10.099886,192.168.0.111
2315,-1,-100,-100,-100,"0,0,0",2,0,-3,0,0,0,63,65,78,50,100,-47.94,46,15.0,-4.0,-981.0,12:43:10.202538,192.168.0.111
2321,-1,-100,-100,-100,"0,0,0",1,0,-3,0,0,0,63,65,78,50,100,-47.92,46,4.0,-19.0,-1011.0,12:43:10.304712,192.168.0.111
2326,-1,-100,-100,-100,"0,0,0",0,0,-3,0,0,0,63,65,79,50,100,-47.98,46,16.0,-12.0,-990.0,12:43:10.407134,192.168.0.111
2330,-1,-100,-100,-100,"0,0,0",0,0,-4,0,0,0,63,65,79,50,100,-47.95,46,25.0,5.0,-1012.0,12:43:10.509505,192.168.0.111
2334,-1,-100,-100,-100,"0,0,0",0,1,-3,0,0,0,63,65,79,50,100,-48.0,46,15.0,-2.0,-988.0,12:43:10.558263,192.168.0.111
2339,-1,-100,-100,-100,"0,0,0",1,1,-3,0,0,0,63,65,79,50,100,-48.1,46,45.0,-8.0,-993.0,12:43:10.660835,192.168.0.111
2344,-1,-100,-100,-100,"0,0,0",1,0,-3,0,0,0,63,65,79,50,100,-47.95,46,16.0,-6.0,-991.0,12:43:10.762273,192.168.0.111
2349,-1,-100,-100,-100,"0,0,0",1,0,-3,0,0,0,63,65,79,50,100,-47.97,46,35.0,-17.0,-1012.0,12:43:10.864876,192.168.0.111
2354,-1,-100,-100,-100,"0,0,0",1,0,-3,0,0,0,63,65,79,50,100,-47.98,46,25.0,2.0,-1015.0,12:43:10.966550,192.168.0.111
2359,-1,-100,-100,-100,"0,0,0",1,0,-3,0,0,0,63,65,79,50,100,-47.88,47,29.0,10.0,-968.0,12:43:11.068288,192.168.0.111
2364,-1,-100,-100,-100,"0,0,0",1,0,-3,0,0,0,63,65,79,50,100,-47.86,47,33.0,0.0,-968.0,12:43:11.170275,192.168.0.111
2369,-1,-100,-100,-100,"0,0,0",1,0,-3,0,0,0,63,65,78,50,100,-47.99,47,26.0,7.0,-991.0,12:43:11.272094,192.168.0.111
2374,-1,-100,-100,-100,"0,0,0",1,0,-3,0,0,0,63,65,78,50,100,-47.81,47,25.0,-8.0,-1012.0,12:43:11.376492,192.168.0.111
2379,-1,-100,-100,-100,"0,0,0",1,0,-3,0,0,0,63,65,78,50,100,-47.95,47,23.0,12.0,-976.0,12:43:11.476618,192.168.0.111
2384,-1,-100,-100,-100,"0,0,0",1,0,-3,0,0,0,63,65,79,50,100,-47.9,47,13.0,-20.0,-1030.0,12:43:11.579988,192.168.0.111
2389,-1,-100,-100,-100,"0,0,0",1,1,-4,0,0,0,63,65,79,50,100,-47.97,47,25.0,-10.0,-1024.0,12:43:11.680260,192.168.0.111
2394,-1,-100,-100,-100,"0,0,0",1,0,-3,0,0,0,63,65,78,50,100,-47.86,47,14.0,-10.0,-1007.0,12:43:11.782206,192.168.0.111
2399,-1,-100,-100,-100,"0,0,0",1,1,-3,0,0,0,63,65,78,50,100,-47.82,47,21.0,-19.0,-1000.0,12:43:11.885453,192.168.0.111
2404,-1,-100,-100,-100,"0,0,0",0,0,-4,0,0,0,63,65,79,50,100,-47.86,47,14.0,6.0,-971.0,12:43:11.986372,192.168.0.111
2409,-1,-100,-100,-100,"0,0,0",1,0,-4,0,0,0,62,66,78,50,100,-47.89,48,18.0,-9.0,-1015.0,12:43:12.088241,192.168.0.111
2414,-1,-100,-100,-100,"0,0,0",0,0,-4,0,0,0,62,66,78,50,100,-47.91,48,43.0,13.0,-991.0,12:43:12.190196,192.168.0.111
2419,-1,-100,-100,-100,"0,0,0",1,0,-3,0,0,0,62,66,79,50,100,-47.98,48,36.0,-7.0,-1001.0,12:43:12.292201,192.168.0.111
2424,-1,-100,-100,-100,"0,0,0",2,0,-3,0,0,0,62,66,78,50,100,-47.88,48,13.0,-6.0,-993.0,12:43:12.394691,192.168.0.111
2430,-1,-100,-100,-100,"0,0,0",1,0,-3,0,0,0,62,66,78,50,100,-48.02,48,11.0,8.0,-1018.0,12:43:12.496184,192.168.0.111
2435,-1,-100,-100,-100,"0,0,0",1,0,-4,0,0,0,62,66,78,50,100,-47.94,48,23.0,-7.0,-1006.0,12:43:12.598872,192.168.0.111
2440,-1,-100,-100,-100,"0,0,0",0,0,-4,0,0,0,62,66,78,50,100,-48.0,48,3.0,2.0,-1021.0,12:43:12.700058,192.168.0.111
2444,-1,-100,-100,-100,"0,0,0",0,0,-4,0,0,0,62,66,79,50,100,-48.07,48,15.0,-4.0,-1024.0,12:43:12.805656,192.168.0.111
2450,-1,-100,-100,-100,"0,0,0",1,0,-3,0,0,0,62,66,79,50,100,-47.96,48,39.0,-11.0,-990.0,12:43:12.904351,192.168.0.111
2455,-1,-100,-100,-100,"0,0,0",1,0,-3,0,0,0,62,66,79,50,100,-47.94,49,54.0,-25.0,-992.0,12:43:13.006244,192.168.0.111
2460,-1,-100,-100,-100,"0,0,0",1,0,-3,0,0,0,62,66,80,50,100,-47.92,49,36.0,-15.0,-1015.0,12:43:13.110536,192.168.0.111
2465,-1,-100,-100,-100,"0,0,0",2,0,-3,0,0,0,62,66,80,50,100,-47.91,49,55.0,-19.0,-955.0,12:43:13.211014,192.168.0.111
2470,-1,-100,-100,-100,"0,0,0",1,0,-4,0,0,0,62,66,80,50,100,-47.82,49,29.0,-19.0,-969.0,12:43:13.316461,192.168.0.111
2475,-1,-100,-100,-100,"0,0,0",1,0,-3,0,0,0,62,66,80,50,100,-47.85,49,27.0,-5.0,-985.0,12:43:13.415797,192.168.0.111
2480,-1,-100,-100,-100,"0,0,0",2,0,-3,0,0,0,62,66,79,50,100,-47.96,49,25.0,-22.0,-982.0,12:43:13.516190,192.168.0.111
2485,-1,-100,-100,-100,"0,0,0",1,0,-3,0,0,0,62,66,79,50,100,-47.9,49,5.0,-6.0,-1010.0,12:43:13.618415,192.168.0.111
2490,-1,-100,-100,-100,"0,0,0",1,1,-3,0,0,0,62,66,79,50,100,-47.91,49,30.0,-3.0,-1015.0,12:43:13.721488,192.168.0.111
2495,-1,-100,-100,-100,"0,0,0",1,1,-3,0,0,0,62,66,79,50,100,-47.94,49,26.0,-4.0,-1003.0,12:43:13.822469,192.168.0.111
2498,-1,-100,-100,-100,"0,0,0",1,0,-3,0,0,0,62,66,79,50,100,-47.9,49,19.0,-11.0,-1029.0,12:43:13.873181,192.168.0.111
2503,-1,-100,-100,-100,"0,0,0",2,0,-3,0,0,0,62,66,79,50,100,-47.86,50,13.0,-13.0,-993.0,12:43:13.975067,192.168.0.111
2508,-1,-100,-100,-100,"0,0,0",1,1,-3,0,0,0,63,66,79,50,100,-48.04,50,23.0,-13.0,-984.0,12:43:14.077945,192.168.0.111
2514,-1,-100,-100,-100,"0,0,0",1,1,-3,0,0,0,63,66,79,50,100,-47.95,50,25.0,0.0,-979.0,12:43:14.180097,192.168.0.111
2519,-1,-100,-100,-100,"0,0,0",1,0,-4,0,0,0,63,66,79,50,100,-47.93,50,26.0,-6.0,-999.0,12:43:14.281384,192.168.0.111
2524,-1,-100,-100,-100,"0,0,0",1,1,-4,0,0,0,63,66,79,50,100,-47.96,50,22.0,18.0,-963.0,12:43:14.388262,192.168.0.111
2529,-1,-100,-100,-100,"0,0,0",1,0,-3,0,0,0,63,66,79,50,100,-47.91,50,10.0,0.0,-965.0,12:43:14.486411,192.168.0.111
2534,-1,-100,-100,-100,"0,0,0",1,0,-3,0,0,0,63,66,79,50,100,-47.89,50,21.0,21.0,-1014.0,12:43:14.587255,192.168.0.111
2539,-1,-100,-100,-100,"0,0,0",1,0,-4,0,0,0,63,66,79,50,100,-47.85,50,28.0,-1.0,-1024.0,12:43:14.689345,192.168.0.111
2544,-1,-100,-100,-100,"0,0,0",1,0,-4,0,0,0,63,66,79,50,100,-47.88,50,45.0,-2.0,-974.0,12:43:14.791254,192.168.0.111
2549,-1,-100,-100,-100,"0,0,0",1,0,-3,0,0,0,63,66,78,50,100,-48.0,50,46.0,15.0,-1000.0,12:43:14.893208,192.168.0.111
2554,-1,-100,-100,-100,"0,0,0",2,-1,-3,0,0,0,63,66,78,50,100,-47.97,51,40.0,-20.0,-1037.0,12:43:14.995471,192.168.0.111
2559,-1,-100,-100,-100,"0,0,0",2,0,-3,0,0,0,63,66,78,50,100,-47.93,51,36.0,3.0,-1026.0,12:43:15.097340,192.168.0.111
2564,-1,-100,-100,-100,"0,0,0",2,-1,-3,0,0,0,63,66,78,50,100,-47.93,51,60.0,-17.0,-976.0,12:43:15.200313,192.168.0.111
