,mid,x,y,z,mpry,pitch,roll,yaw,vgx,vgy,vgz,templ,temph,tof,h,bat,baro,time,agx,agy,agz,timestamp,address
2,-1,-100,-100,-100,"0,0,0",0,0,77,0,0,0,64,67,10,0,100,-49.24,0,1.0,-14.0,-1000.0,12:42:23.773241,192.168.0.113
8,-1,-100,-100,-100,"0,0,0",0,0,77,0,0,0,64,67,10,0,100,-49.24,0,1.0,-14.0,-1001.0,12:42:23.875256,192.168.0.113
13,-1,-100,-100,-100,"0,0,0",0,0,77,0,0,0,64,67,10,0,100,-49.23,0,1.0,-12.0,-996.0,12:42:23.977288,192.168.0.113
18,-1,-100,-100,-100,"0,0,0",0,0,77,0,0,0,64,67,10,0,100,-49.23,0,4.0,-13.0,-999.0,12:42:24.079757,192.168.0.113
24,-1,-100,-100,-100,"0,0,0",0,0,77,0,0,0,64,67,10,0,100,-49.23,0,12.0,-9.0,-1002.0,12:42:24.181311,192.168.0.113
29,-1,-100,-100,-100,"0,0,0",0,0,77,0,0,0,64,67,10,0,100,-49.23,0,31.0,-25.0,-995.0,12:42:24.284388,192.168.0.113
34,-1,-100,-100,-100,"0,0,0",0,0,76,0,0,0,64,67,10,0,100,-49.23,0,36.0,-29.0,-1053.0,12:42:24.385902,192.168.0.113
39,-1,-100,-100,-100,"0,0,0",0,0,76,0,0,0,64,67,10,0,100,-49.23,0,38.0,-9.0,-1196.0,12:42:24.487238,192.168.0.113
44,-1,-100,-100,-100,"0,0,0",-1,0,76,0,0,1,64,67,10,0,100,-49.23,0,43.0,12.0,-1379.0,12:42:24.589371,192.168.0.113
45,-1,-100,-100,-100,"0,0,0",1,0,76,0,-1,5,64,67,10,0,100,-49.23,0,45.0,-18.0,-1204.0,12:42:24.642379,192.168.0.113
50,-1,-100,-100,-100,"0,0,0",2,0,76,0,-1,7,64,67,17,0,100,-48.9,0,65.0,22.0,-1093.0,12:42:24.742360,192.168.0.113
56,-1,-100,-100,-100,"0,0,0",2,0,76,0,-1,8,64,67,27,0,100,-48.74,0,89.0,-4.0,-984.0,12:42:24.844308,192.168.0.113
61,-1,-100,-100,-100,"0,0,0",4,0,76,0,-1,7,64,67,34,10,100,-48.61,0,58.0,16.0,-952.0,12:42:24.946418,192.168.0.113
66,-1,-100,-100,-100,"0,0,0",4,0,76,0,-1,7,64,67,44,10,100,-48.52,1,56.0,8.0,-885.0,12:42:25.048333,192.168.0.113
71,-1,-100,-100,-100,"0,0,0",5,0,76,0,-1,6,64,67,53,20,100,-48.63,1,44.0,1.0,-914.0,12:42:25.150156,192.168.0.113
76,-1,-100,-100,-100,"0,0,0",5,-1,76,0,-1,5,64,67,61,20,100,-48.55,1,71.0,1.0,-928.0,12:42:25.252277,192.168.0.113
81,-1,-100,-100,-100,"0,0,0",5,-1,76,0,-1,4,64,67,69,30,100,-48.44,1,92.0,11.0,-881.0,12:42:25.354283,192.168.0.113
86,-1,-100,-100,-100,"0,0,0",5,0,76,0,-1,3,64,67,75,30,100,-48.4,1,69.0,14.0,-889.0,12:42:25.456181,192.168.0.113
91,-1,-100,-100,-100,"0,0,0",5,0,76,0,0,2,64,67,80,30,100,-48.38,1,37.0,5.0,-892.0,12:42:25.558375,192.168.0.113
96,-1,-100,-100,-100,"0,0,0",5,0,76,0,0,1,64,67,84,40,100,-48.19,1,49.0,-4.0,-904.0,12:42:25.660237,192.168.0.113
101,-1,-100,-100,-100,"0,0,0",4,0,75,0,0,0,64,67,86,40,100,-48.18,1,70.0,-15.0,-928.0,12:42:25.762205,192.168.0.113
106,-1,-100,-100,-100,"0,0,0",3,0,75,0,0,0,64,67,89,40,100,-48.15,1,27.0,13.0,-966.0,12:42:25.864265,192.168.0.113
112,-1,-100,-100,-100,"0,0,0",3,0,75,0,0,0,64,67,90,40,100,-48.24,1,82.0,2.0,-999.0,12:42:25.966288,192.168.0.113
117,-1,-100,-100,-100,"0,0,0",3,0,75,0,0,0,64,67,92,40,100,-48.19,2,47.0,13.0,-987.0,12:42:26.068273,192.168.0.113
123,-1,-100,-100,-100,"0,0,0",3,0,75,0,0,0,64,67,94,50,100,-48.18,2,83.0,-9.0,-976.0,12:42:26.172474,192.168.0.113
128,-1,-100,-100,-100,"0,0,0",3,0,76,0,0,0,64,67,95,50,100,-48.15,2,55.0,3.0,-944.0,12:42:26.272915,192.168.0.113
132,-1,-100,-100,-100,"0,0,0",3,1,76,0,0,0,64,67,96,50,100,-48.27,2,56.0,8.0,-970.0,12:42:26.374399,192.168.0.113
138,-1,-100,-100,-100,"0,0,0",3,0,76,0,0,0,64,67,97,50,100,-48.15,2,49.0,15.0,-967.0,12:42:26.476991,192.168.0.113
142,-1,-100,-100,-100,"0,0,0",3,0,76,0,0,0,64,67,98,50,100,-48.12,2,52.0,19.0,-962.0,12:42:26.579089,192.168.0.113
148,-1,-100,-100,-100,"0,0,0",3,0,76,0,0,0,64,67,97,50,100,-48.25,2,78.0,-14.0,-976.0,12:42:26.682065,192.168.0.113
154,-1,-100,-100,-100,"0,0,0",3,0,76,0,0,-1,64,67,97,50,100,-48.18,2,71.0,-17.0,-958.0,12:42:26.784079,192.168.0.113
159,-1,-100,-100,-100,"0,0,0",3,0,76,0,0,-1,64,67,98,50,100,-48.23,2,55.0,-30.0,-979.0,12:42:26.886563,192.168.0.113
164,-1,-100,-100,-100,"0,0,0",4,0,77,0,0,-1,64,67,97,50,100,-48.21,2,42.0,-15.0,-986.0,12:42:26.988741,192.168.0.113
169,-1,-100,-100,-100,"0,0,0",3,0,77,0,0,-1,64,67,96,50,100,-48.24,3,39.0,-38.0,-967.0,12:42:27.088107,192.168.0.113
170,-1,-100,-100,-100,"0,0,0",2,0,76,0,0,-1,64,67,95,50,100,-48.25,3,52.0,-37.0,-994.0,12:42:27.139043,192.168.0.113
175,-1,-100,-100,-100,"0,0,0",2,1,76,0,0,-1,64,67,93,50,100,-48.13,3,46.0,-23.0,-993.0,12:42:27.240956,192.168.0.113
181,-1,-100,-100,-100,"0,0,0",2,3,76,0,0,-1,64,67,93,50,100,-48.15,3,22.0,3.0,-971.0,12:42:27.343061,192.168.0.113
186,-1,-100,-100,-100,"0,0,0",2,4,75,0,0,-1,64,67,91,50,100,-48.21,3,66.0,0.0,-987.0,12:42:27.445279,192.168.0.113
190,-1,-100,-100,-100,"0,0,0",3,2,75,0,0,-1,64,67,89,50,100,-48.2,3,62.0,3.0,-999.0,12:42:27.546983,192.168.0.113
196,-1,-100,-100,-100,"0,0,0",3,1,76,0,0,-1,64,67,88,50,100,-48.19,3,50.0,7.0,-1010.0,12:42:27.649336,192.168.0.113
201,-1,-100,-100,-100,"0,0,0",3,0,76,0,0,-1,64,67,86,50,100,-48.16,3,61.0,-2.0,-993.0,12:42:27.751231,192.168.0.113
205,-1,-100,-100,-100,"0,0,0",4,0,77,0,0,-1,64,67,85,50,100,-48.17,3,56.0,-29.0,-1024.0,12:42:27.853161,192.168.0.113
211,-1,-100,-100,-100,"0,0,0",3,-1,76,0,0,-1,64,67,84,40,100,-48.27,3,68.0,-18.0,-1006.0,12:42:27.955350,192.168.0.113
216,-1,-100,-100,-100,"0,0,0",3,0,76,0,0,-1,64,67,82,40,100,-48.3,4,76.0,-41.0,-1043.0,12:42:28.057192,192.168.0.113
221,-1,-100,-100,-100,"0,0,0",3,1,76,0,0,0,64,67,81,40,100,-48.3,4,59.0,-38.0,-971.0,12:42:28.159229,192.168.0.113
225,-1,-100,-100,-100,"0,0,0",4,1,76,0,0,0,64,67,80,40,100,-48.39,4,71.0,-32.0,-1002.0,12:42:28.261945,192.168.0.113
231,-1,-100,-100,-100,"0,0,0",3,0,75,0,0,0,64,67,79,40,100,-48.45,4,83.0,-25.0,-1026.0,12:42:28.363199,192.168.0.113
236,-1,-100,-100,-100,"0,0,0",3,0,76,0,0,0,64,67,79,40,100,-48.42,4,26.0,-41.0,-987.0,12:42:28.465173,192.168.0.113
241,-1,-100,-100,-100,"0,0,0",3,2,76,0,0,0,64,67,78,40,100,-48.41,4,57.0,-42.0,-996.0,12:42:28.567034,192.168.0.113
247,-1,-100,-100,-100,"0,0,0",3,2,76,0,0,0,64,67,77,40,100,-48.4,4,68.0,-30.0,-1028.0,12:42:28.669368,192.168.0.113
252,-1,-100,-100,-100,"0,0,0",3,2,76,0,0,0,64,67,77,40,100,-48.36,4,41.0,-2.0,-1028.0,12:42:28.773314,192.168.0.113
257,-1,-100,-100,-100,"0,0,0",3,2,76,0,0,0,64,67,77,40,100,-48.38,4,83.0,-33.0,-1008.0,12:42:28.873711,192.168.0.113
262,-1,-100,-100,-100,"0,0,0",3,2,76,0,0,0,64,67,77,40,100,-48.32,4,60.0,1.0,-964.0,12:42:28.975514,192.168.0.113
266,-1,-100,-100,-100,"0,0,0",3,1,75,0,0,0,64,67,78,40,100,-48.48,5,51.0,18.0,-985.0,12:42:29.078887,192.168.0.113
273,-1,-100,-100,-100,"0,0,0",3,1,76,0,0,0,64,67,76,40,100,-48.37,5,63.0,26.0,-985.0,12:42:29.179858,192.168.0.113
278,-1,-100,-100,-100,"0,0,0",2,0,76,1,0,0,64,67,77,40,100,-48.28,5,54.0,14.0,-999.0,12:42:29.280989,192.168.0.113
284,-1,-100,-100,-100,"0,0,0",3,-1,76,1,0,0,64,67,76,40,100,-48.28,5,12.0,40.0,-1029.0,12:42:29.386943,192.168.0.113
289,-1,-100,-100,-100,"0,0,0",3,-1,76,1,0,0,64,67,76,40,100,-48.35,5,47.0,30.0,-1018.0,12:42:29.485195,192.168.0.113
294,-1,-100,-100,-100,"0,0,0",2,-1,76,1,0,0,64,67,76,40,100,-48.47,5,47.0,3.0,-1000.0,12:42:29.586774,192.168.0.113
299,-1,-100,-100,-100,"0,0,0",2,-2,76,1,0,0,64,67,77,40,100,-48.46,5,60.0,33.0,-1006.0,12:42:29.689093,192.168.0.113
300,-1,-100,-100,-100,"0,0,0",2,-2,76,0,0,0,64,67,77,40,100,-48.31,5,43.0,32.0,-991.0,12:42:29.740776,192.168.0.113
305,-1,-100,-100,-100,"0,0,0",2,-2,76,0,0,0,64,67,77,40,100,-48.27,5,23.0,22.0,-978.0,12:42:29.842199,192.168.0.113
311,-1,-100,-100,-100,"0,0,0",2,-1,76,0,0,0,64,67,77,40,100,-48.42,5,52.0,39.0,-977.0,12:42:29.944490,192.168.0.113
316,-1,-100,-100,-100,"0,0,0",1,-1,76,0,0,0,64,67,77,40,100,-48.45,6,38.0,26.0,-971.0,12:42:30.046264,192.168.0.113
320,-1,-100,-100,-100,"0,0,0",1,-2,76,0,0,0,64,67,77,40,100,-48.32,6,33.0,13.0,-990.0,12:42:30.148130,192.168.0.113
326,-1,-100,-100,-100,"0,0,0",1,-1,76,0,0,0,64,67,76,40,100,-48.29,6,25.0,9.0,-1022.0,12:42:30.250338,192.168.0.113
331,-1,-100,-100,-100,"0,0,0",2,-1,76,0,0,0,64,67,76,40,100,-48.48,6,34.0,14.0,-1023.0,12:42:30.354393,192.168.0.113
336,-1,-100,-100,-100,"0,0,0",1,-1,76,0,0,0,65,67,76,40,100,-48.42,6,55.0,20.0,-998.0,12:42:30.454395,192.168.0.113
341,-1,-100,-100,-100,"0,0,0",1,0,76,0,0,0,65,67,77,40,100,-48.46,6,37.0,23.0,-1017.0,12:42:30.556181,192.168.0.113
345,-1,-100,-100,-100,"0,0,0",2,-1,76,0,0,0,65,67,77,40,100,-48.48,6,55.0,-9.0,-957.0,12:42:30.658046,192.168.0.113
351,-1,-100,-100,-100,"0,0,0",2,-1,76,0,0,0,65,67,77,40,100,-48.33,6,28.0,14.0,-979.0,12:42:30.760583,192.168.0.113
356,-1,-100,-100,-100,"0,0,0",2,0,76,0,0,0,65,67,77,40,100,-48.3,6,34.0,-10.0,-1022.0,12:42:30.862019,192.168.0.113
362,-1,-100,-100,-100,"0,0,0",1,0,76,0,0,0,65,67,77,40,100,-48.37,6,30.0,0.0,-1013.0,12:42:30.964206,192.168.0.113
367,-1,-100,-100,-100,"0,0,0",1,0,76,0,0,0,65,67,77,40,100,-48.34,7,43.0,-5.0,-991.0,12:42:31.065936,192.168.0.113
372,-1,-100,-100,-100,"0,0,0",1,0,76,0,0,0,65,67,78,40,100,-48.37,7,5.0,9.0,-989.0,12:42:31.168080,192.168.0.113
377,-1,-100,-100,-100,"0,0,0",2,0,76,0,0,0,65,67,78,40,100,-48.38,7,24.0,-4.0,-991.0,12:42:31.269914,192.168.0.113
382,-1,-100,-100,-100,"0,0,0",3,0,76,0,0,0,65,67,78,40,100,-48.45,7,17.0,-10.0,-1003.0,12:42:31.372113,192.168.0.113
387,-1,-100,-100,-100,"0,0,0",1,0,76,0,0,0,64,67,77,40,100,-48.47,7,1.0,-18.0,-998.0,12:42:31.473953,192.168.0.113
392,-1,-100,-100,-100,"0,0,0",1,1,76,0,0,0,64,67,78,40,100,-48.43,7,14.0,0.0,-995.0,12:42:31.576008,192.168.0.113
397,-1,-100,-100,-100,"0,0,0",1,1,76,0,0,0,64,67,78,40,100,-48.47,7,14.0,0.0,-988.0,12:42:31.678075,192.168.0.113
402,-1,-100,-100,-100,"0,0,0",1,1,76,0,0,0,64,67,78,40,100,-48.41,7,18.0,-4.0,-985.0,12:42:31.780393,192.168.0.113
408,-1,-100,-100,-100,"0,0,0",1,0,76,0,0,0,64,67,79,40,100,-48.48,7,12.0,10.0,-1000.0,12:42:31.882002,192.168.0.113
413,-1,-100,-100,-100,"0,0,0",0,0,76,0,0,0,64,67,78,40,100,-48.42,7,8.0,18.0,-987.0,12:42:31.984095,192.168.0.113
418,-1,-100,-100,-100,"0,0,0",1,0,76,0,0,0,64,67,79,40,100,-48.24,8,1.0,18.0,-1007.0,12:42:32.085666,192.168.0.113
422,-1,-100,-100,-100,"0,0,0",0,0,76,0,0,0,64,67,79,40,100,-48.33,8,5.0,-11.0,-996.0,12:42:32.188064,192.168.0.113
428,-1,-100,-100,-100,"0,0,0",0,0,76,0,0,0,64,67,79,40,100,-48.41,8,-6.0,7.0,-994.0,12:42:32.290145,192.168.0.113
430,-1,-100,-100,-100,"0,0,0",0,0,76,0,0,0,64,67,79,40,100,-48.44,8,8.0,-15.0,-1007.0,12:42:32.340963,192.168.0.113
436,-1,-100,-100,-100,"0,0,0",0,0,76,0,0,0,64,67,80,40,100,-48.35,8,-8.0,-15.0,-993.0,12:42:32.443071,192.168.0.113
441,-1,-100,-100,-100,"0,0,0",0,1,76,0,0,0,64,67,80,40,100,-48.26,8,-6.0,-4.0,-992.0,12:42:32.544934,192.168.0.113
445,-1,-100,-100,-100,"0,0,0",0,0,76,0,0,0,64,67,80,40,100,-48.4,8,0.0,-17.0,-998.0,12:42:32.647500,192.168.0.113
451,-1,-100,-100,-100,"0,0,0",0,0,76,0,0,0,64,67,80,40,100,-48.31,8,-13.0,8.0,-1007.0,12:42:32.749144,192.168.0.113
456,-1,-100,-100,-100,"0,0,0",0,0,76,0,0,0,64,67,80,40,100,-48.31,8,0.0,6.0,-988.0,12:42:32.851135,192.168.0.113
460,-1,-100,-100,-100,"0,0,0",0,1,76,0,0,0,64,67,80,40,100,-48.32,8,-24.0,21.0,-983.0,12:42:32.952905,192.168.0.113
466,-1,-100,-100,-100,"0,0,0",0,0,76,0,0,0,64,67,80,40,100,-48.25,9,-13.0,9.0,-990.0,12:42:33.055324,192.168.0.113
471,-1,-100,-100,-100,"0,0,0",0,0,76,0,0,0,64,67,80,40,100,-48.28,9,-9.0,10.0,-1004.0,12:42:33.157436,192.168.0.113
475,-1,-100,-100,-100,"0,0,0",0,0,76,0,0,0,64,67,80,40,100,-48.31,9,-1.0,14.0,-1014.0,12:42:33.259268,192.168.0.113
481,-1,-100,-100,-100,"0,0,0",0,0,76,0,0,0,64,67,80,40,100,-48.24,9,3.0,-11.0,-993.0,12:42:33.361047,192.168.0.113
485,-1,-100,-100,-100,"0,0,0",0,0,76,0,0,0,65,67,80,40,100,-48.31,9,-12.0,-11.0,-1016.0,12:42:33.463900,192.168.0.113
491,-1,-100,-100,-100,"0,0,0",0,0,76,0,0,0,65,67,80,40,100,-48.44,9,-21.0,0.0,-1016.0,12:42:33.564535,192.168.0.113
497,-1,-100,-100,-100,"0,0,0",0,0,76,0,0,0,65,67,80,40,100,-48.44,9,-15.0,5.0,-988.0,12:42:33.667078,192.168.0.113
502,-1,-100,-100,-100,"0,0,0",0,0,76,0,0,0,65,67,80,40,100,-48.35,9,-15.0,4.0,-983.0,12:42:33.769227,192.168.0.113
507,-1,-100,-100,-100,"0,0,0",0,0,76,0,0,0,65,67,80,40,100,-48.39,9,0.0,-1.0,-995.0,12:42:33.870603,192.168.0.113
511,-1,-100,-100,-100,"0,0,0",0,0,76,0,0,0,65,67,80,40,100,-48.37,9,-17.0,-17.0,-988.0,12:42:33.972822,192.168.0.113
517,-1,-100,-100,-100,"0,0,0",0,0,76,0,0,0,65,67,80,40,100,-48.37,10,-4.0,11.0,-998.0,12:42:34.075640,192.168.0.113
522,-1,-100,-100,-100,"0,0,0",0,0,76,0,0,0,65,67,80,40,100,-48.31,10,1.0,-6.0,-990.0,12:42:34.177001,192.168.0.113
528,-1,-100,-100,-100,"0,0,0",0,0,76,0,0,0,65,67,79,40,100,-48.39,10,6.0,25.0,-992.0,12:42:34.278928,192.168.0.113
532,-1,-100,-100,-100,"0,0,0",0,0,76,0,0,0,65,67,80,40,100,-48.33,10,11.0,0.0,-989.0,12:42:34.380941,192.168.0.113
538,-1,-100,-100,-100,"0,0,0",0,0,76,0,0,0,64,67,79,40,100,-48.36,10,2.0,17.0,-1005.0,12:42:34.483051,192.168.0.113
543,-1,-100,-100,-100,"0,0,0",0,0,76,0,0,0,64,67,79,40,100,-48.25,10,-4.0,16.0,-969.0,12:42:34.585041,192.168.0.113
547,-1,-100,-100,-100,"0,0,0",0,0,76,0,0,0,64,67,79,40,100,-48.26,10,18.0,23.0,-1016.0,12:42:34.687000,192.168.0.113
553,-1,-100,-100,-100,"0,0,0",0,0,76,0,0,0,64,67,79,40,100,-48.24,10,1.0,13.0,-1006.0,12:42:34.788946,192.168.0.113
558,-1,-100,-100,-100,"0,0,0",0,0,76,0,0,0,64,67,79,40,100,-48.25,10,20.0,-7.0,-974.0,12:42:34.890967,192.168.0.113
562,-1,-100,-100,-100,"0,0,0",1,0,76,0,0,0,64,67,79,40,100,-48.28,10,4.0,13.0,-993.0,12:42:34.992785,192.168.0.113
566,-1,-100,-100,-100,"0,0,0",1,-1,76,0,0,0,64,67,79,40,100,-48.31,11,5.0,10.0,-1012.0,12:42:35.043770,192.168.0.113
571,-1,-100,-100,-100,"0,0,0",1,0,76,0,0,0,64,67,79,40,100,-48.28,11,17.0,7.0,-1002.0,12:42:35.145940,192.168.0.113
576,-1,-100,-100,-100,"0,0,0",1,0,76,0,0,0,64,67,79,40,100,-48.3,11,21.0,1.0,-1003.0,12:42:35.248093,192.168.0.113
581,-1,-100,-100,-100,"0,0,0",1,0,76,0,0,0,64,67,79,40,100,-48.32,11,11.0,14.0,-1002.0,12:42:35.349715,192.168.0.113
585,-1,-100,-100,-100,"0,0,0",2,0,76,0,0,0,64,67,79,40,100,-48.33,11,24.0,12.0,-994.0,12:42:35.451988,192.168.0.113
591,-1,-100,-100,-100,"0,0,0",2,0,76,0,0,0,64,67,79,40,100,-48.39,11,12.0,22.0,-1000.0,12:42:35.554084,192.168.0.113
596,-1,-100,-100,-100,"0,0,0",2,0,76,0,0,0,64,67,79,40,100,-48.34,11,17.0,4.0,-1001.0,12:42:35.655883,192.168.0.113
601,-1,-100,-100,-100,"0,0,0",2,0,76,0,0,0,64,67,79,40,100,-48.27,11,12.0,5.0,-1005.0,12:42:35.757886,192.168.0.113
605,-1,-100,-100,-100,"0,0,0",2,0,76,0,0,0,64,67,79,40,100,-48.33,11,14.0,-28.0,-987.0,12:42:35.860501,192.168.0.113
610,-1,-100,-100,-100,"0,0,0",2,0,76,0,0,0,64,67,79,40,100,-48.26,11,7.0,6.0,-994.0,12:42:35.961741,192.168.0.113
615,-1,-100,-100,-100,"0,0,0",2,0,76,0,0,0,64,67,79,40,100,-48.36,12,22.0,-10.0,-998.0,12:42:36.063603,192.168.0.113
621,-1,-100,-100,-100,"0,0,0",2,0,76,0,0,0,64,67,79,40,100,-48.36,12,24.0,-1.0,-1006.0,12:42:36.167024,192.168.0.113
625,-1,-100,-100,-100,"0,0,0",1,0,76,0,0,0,64,67,80,40,100,-48.32,12,18.0,-11.0,-987.0,12:42:36.268318,192.168.0.113
630,-1,-100,-100,-100,"0,0,0",2,1,76,0,0,0,64,67,80,40,100,-48.29,12,27.0,-16.0,-993.0,12:42:36.369830,192.168.0.113
636,-1,-100,-100,-100,"0,0,0",1,1,76,0,0,0,64,67,79,40,100,-48.24,12,16.0,-8.0,-982.0,12:42:36.471881,192.168.0.113
641,-1,-100,-100,-100,"0,0,0",1,1,76,0,0,0,64,67,79,40,100,-48.3,12,33.0,0.0,-1019.0,12:42:36.574002,192.168.0.113
645,-1,-100,-100,-100,"0,0,0",2,1,76,0,0,0,64,67,80,40,100,-48.33,12,0.0,-19.0,-980.0,12:42:36.675953,192.168.0.113
651,-1,-100,-100,-100,"0,0,0",2,1,76,0,0,0,64,67,79,40,100,-48.38,12,15.0,17.0,-996.0,12:42:36.777996,192.168.0.113
656,-1,-100,-100,-100,"0,0,0",2,1,76,0,0,0,64,67,79,40,100,-48.25,12,29.0,10.0,-997.0,12:42:36.879923,192.168.0.113
661,-1,-100,-100,-100,"0,0,0",2,0,76,0,0,0,64,67,79,40,100,-48.26,12,34.0,10.0,-1013.0,12:42:36.981786,192.168.0.113
668,-1,-100,-100,-100,"0,0,0",1,0,76,0,0,0,64,67,79,40,100,-48.27,13,49.0,-18.0,-965.0,12:42:37.083999,192.168.0.113
673,-1,-100,-100,-100,"0,0,0",2,0,76,0,0,0,64,67,78,40,100,-48.23,13,41.0,-20.0,-980.0,12:42:37.186059,192.168.0.113
678,-1,-100,-100,-100,"0,0,0",2,0,76,0,0,0,64,67,78,40,100,-48.16,13,-13.0,9.0,-993.0,12:42:37.287671,192.168.0.113
682,-1,-100,-100,-100,"0,0,0",2,1,75,0,0,0,64,67,78,40,100,-48.41,13,11.0,-5.0,-1011.0,12:42:37.389870,192.168.0.113
688,-1,-100,-100,-100,"0,0,0",1,1,76,0,0,0,65,67,78,40,100,-48.46,13,22.0,-7.0,-976.0,12:42:37.491917,192.168.0.113
693,-1,-100,-100,-100,"0,0,0",1,0,76,0,0,0,65,67,77,40,100,-48.33,13,5.0,17.0,-1006.0,12:42:37.593758,192.168.0.113
698,-1,-100,-100,-100,"0,0,0",0,0,76,0,0,0,65,67,77,40,100,-48.32,13,27.0,11.0,-1020.0,12:42:37.695638,192.168.0.113
703,-1,-100,-100,-100,"0,0,0",1,0,76,0,0,0,65,67,77,40,100,-48.33,13,15.0,3.0,-992.0,12:42:37.797726,192.168.0.113
708,-1,-100,-100,-100,"0,0,0",2,0,76,0,0,0,65,67,77,40,100,-48.37,13,16.0,19.0,-1018.0,12:42:37.899746,192.168.0.113
713,-1,-100,-100,-100,"0,0,0",1,0,76,0,0,0,65,67,78,40,100,-48.37,13,29.0,17.0,-1009.0,12:42:38.001638,192.168.0.113
718,-1,-100,-100,-100,"0,0,0",1,-1,76,0,0,0,65,67,78,40,100,-48.37,14,4.0,31.0,-1013.0,12:42:38.104898,192.168.0.113
723,-1,-100,-100,-100,"0,0,0",1,-1,76,0,0,0,65,67,79,40,100,-48.25,14,50.0,-2.0,-986.0,12:42:38.207787,192.168.0.113
725,-1,-100,-100,-100,"0,0,0",2,-1,76,0,0,0,65,67,79,40,100,-48.24,14,-11.0,8.0,-1004.0,12:42:38.257286,192.168.0.113
731,-1,-100,-100,-100,"0,0,0",1,-1,76,0,0,0,65,67,79,40,100,-48.33,14,17.0,42.0,-957.0,12:42:38.358638,192.168.0.113
736,-1,-100,-100,-100,"0,0,0",1,-1,76,0,0,0,64,67,79,40,100,-48.36,14,53.0,5.0,-953.0,12:42:38.460785,192.168.0.113
740,-1,-100,-100,-100,"0,0,0",1,-2,76,0,0,0,64,67,79,40,100,-48.26,14,9.0,16.0,-994.0,12:42:38.562866,192.168.0.113
746,-1,-100,-100,-100,"0,0,0",1,0,76,0,0,0,64,67,79,40,100,-48.35,14,2.0,20.0,-1012.0,12:42:38.664502,192.168.0.113
751,-1,-100,-100,-100,"0,0,0",1,-1,76,0,0,0,64,67,79,40,100,-48.29,14,31.0,16.0,-983.0,12:42:38.766852,192.168.0.113
756,-1,-100,-100,-100,"0,0,0",2,-1,76,0,0,0,64,67,79,40,100,-48.33,14,32.0,7.0,-956.0,12:42:38.868675,192.168.0.113
761,-1,-100,-100,-100,"0,0,0",2,-1,76,0,0,0,64,67,78,40,100,-48.3,14,43.0,8.0,-1006.0,12:42:38.970795,192.168.0.113
766,-1,-100,-100,-100,"0,0,0",3,-1,76,0,0,0,64,67,78,40,100,-48.24,15,46.0,-12.0,-1021.0,12:42:39.072777,192.168.0.113
771,-1,-100,-100,-100,"0,0,0",3,0,76,0,0,0,64,67,79,40,100,-48.26,15,37.0,-6.0,-1015.0,12:42:39.174850,192.168.0.113
775,-1,-100,-100,-100,"0,0,0",3,0,76,0,0,0,64,67,79,40,100,-48.29,15,19.0,-8.0,-990.0,12:42:39.277062,192.168.0.113
782,-1,-100,-100,-100,"0,0,0",3,1,76,0,0,0,64,67,79,40,100,-48.33,15,47.0,-8.0,-996.0,12:42:39.380104,192.168.0.113
786,-1,-100,-100,-100,"0,0,0",2,1,76,0,0,0,65,67,79,40,100,-48.38,15,56.0,-14.0,-1015.0,12:42:39.481968,192.168.0.113
792,-1,-100,-100,-100,"0,0,0",3,1,76,0,0,0,65,67,80,40,100,-48.32,15,71.0,-38.0,-1016.0,12:42:39.584384,192.168.0.113
797,-1,-100,-100,-100,"0,0,0",3,1,76,0,0,0,65,67,80,40,100,-48.31,15,53.0,-2.0,-945.0,12:42:39.686771,192.168.0.113
802,-1,-100,-100,-100,"0,0,0",4,1,76,0,0,0,65,67,80,40,100,-48.39,15,65.0,-36.0,-987.0,12:42:39.789195,192.168.0.113
807,-1,-100,-100,-100,"0,0,0",4,2,76,0,0,0,65,67,80,40,100,-48.22,15,66.0,-39.0,-985.0,12:42:39.891217,192.168.0.113
812,-1,-100,-100,-100,"0,0,0",4,2,76,0,0,0,65,67,80,40,100,-48.18,15,28.0,9.0,-975.0,12:42:39.993837,192.168.0.113
817,-1,-100,-100,-100,"0,0,0",3,2,76,0,0,0,65,67,80,40,100,-48.4,16,41.0,22.0,-1032.0,12:42:40.096458,192.168.0.113
822,-1,-100,-100,-100,"0,0,0",3,2,76,0,0,0,65,67,80,40,100,-48.34,16,41.0,5.0,-997.0,12:42:40.195647,192.168.0.113
827,-1,-100,-100,-100,"0,0,0",3,0,76,0,0,0,65,67,80,40,100,-48.41,16,45.0,3.0,-1015.0,12:42:40.297727,192.168.0.113
832,-1,-100,-100,-100,"0,0,0",3,0,76,0,0,0,65,67,79,40,100,-48.33,16,55.0,0.0,-966.0,12:42:40.399762,192.168.0.113
837,-1,-100,-100,-100,"0,0,0",3,0,76,0,0,0,65,67,79,40,100,-48.39,16,28.0,32.0,-1025.0,12:42:40.501561,192.168.0.113
843,-1,-100,-100,-100,"0,0,0",2,0,76,0,0,0,65,67,80,40,100,-48.33,16,73.0,5.0,-993.0,12:42:40.603709,192.168.0.113
848,-1,-100,-100,-100,"0,0,0",3,-1,76,0,0,0,65,67,80,40,100,-48.44,16,72.0,13.0,-1006.0,12:42:40.705733,192.168.0.113
853,-1,-100,-100,-100,"0,0,0",3,0,76,0,0,0,65,67,80,40,100,-48.4,16,33.0,22.0,-992.0,12:42:40.809586,192.168.0.113
858,-1,-100,-100,-100,"0,0,0",3,-1,76,0,0,0,65,67,79,40,100,-48.47,16,39.0,29.0,-1014.0,12:42:40.910880,192.168.0.113
863,-1,-100,-100,-100,"0,0,0",3,0,76,0,0,0,65,67,80,40,100,-48.46,17,37.0,-32.0,-979.0,12:42:41.011764,192.168.0.113
868,-1,-100,-100,-100,"0,0,0",3,0,77,0,0,0,65,67,79,40,100,-48.35,17,42.0,-2.0,-992.0,12:42:41.114450,192.168.0.113
873,-1,-100,-100,-100,"0,0,0",3,0,77,0,0,0,65,67,80,40,100,-48.32,17,39.0,1.0,-994.0,12:42:41.215782,192.168.0.113
878,-1,-100,-100,-100,"0,0,0",3,0,77,0,0,0,65,67,79,40,100,-48.43,17,42.0,-10.0,-992.0,12:42:41.317732,192.168.0.113
883,-1,-100,-100,-100,"0,0,0",3,0,77,0,0,0,65,67,79,40,100,-48.44,17,42.0,-16.0,-984.0,12:42:41.419564,192.168.0.113
888,-1,-100,-100,-100,"0,0,0",2,1,76,0,0,0,65,67,79,40,100,-48.45,17,28.0,-29.0,-989.0,12:42:41.525641,192.168.0.113
893,-1,-100,-100,-100,"0,0,0",2,1,76,0,0,0,65,67,79,40,100,-48.37,17,49.0,-24.0,-990.0,12:42:41.623707,192.168.0.113
898,-1,-100,-100,-100,"0,0,0",3,1,76,0,0,0,65,67,79,40,100,-48.4,17,54.0,-10.0,-999.0,12:42:41.727346,192.168.0.113
903,-1,-100,-100,-100,"0,0,0",3,1,76,0,0,0,65,67,79,40,100,-48.51,17,28.0,-9.0,-986.0,12:42:41.828170,192.168.0.113
906,-1,-100,-100,-100,"0,0,0",3,1,76,0,0,0,65,67,79,40,100,-48.33,17,23.0,-19.0,-1018.0,12:42:41.878635,192.168.0.113
911,-1,-100,-100,-100,"0,0,0",3,1,77,0,0,0,65,67,79,40,100,-48.38,18,43.0,-25.0,-989.0,12:42:41.980527,192.168.0.113
916,-1,-100,-100,-100,"0,0,0",3,1,77,0,0,0,65,67,79,40,100,-48.38,18,42.0,-28.0,-956.0,12:42:42.083281,192.168.0.113
921,-1,-100,-100,-100,"0,0,0",3,1,77,0,0,0,65,67,79,40,100,-48.36,18,41.0,-13.0,-996.0,12:42:42.186555,192.168.0.113
926,-1,-100,-100,-100,"0,0,0",3,1,76,0,0,0,65,67,78,40,100,-48.38,18,47.0,-37.0,-1005.0,12:42:42.286455,192.168.0.113
932,-1,-100,-100,-100,"0,0,0",2,1,76,0,0,0,65,67,78,40,100,-48.47,18,53.0,-17.0,-1033.0,12:42:42.388653,192.168.0.113
937,-1,-100,-100,-100,"0,0,0",2,1,76,0,0,0,64,68,78,40,100,-48.52,18,27.0,-14.0,-1017.0,12:42:42.490766,192.168.0.113
941,-1,-100,-100,-100,"0,0,0",3,1,76,0,0,0,64,68,78,40,100,-48.39,18,13.0,-21.0,-986.0,12:42:42.592698,192.168.0.113
947,-1,-100,-100,-100,"0,0,0",3,1,76,0,0,0,64,68,78,40,100,-48.31,18,36.0,-29.0,-1015.0,12:42:42.694721,192.168.0.113
952,-1,-100,-100,-100,"0,0,0",2,1,76,0,0,0,64,68,78,40,100,-48.36,18,28.0,15.0,-1000.0,12:42:42.796330,192.168.0.113
957,-1,-100,-100,-100,"0,0,0",2,0,76,0,0,0,64,68,78,40,100,-48.39,18,57.0,-10.0,-993.0,12:42:42.898160,192.168.0.113
962,-1,-100,-100,-100,"0,0,0",2,0,76,0,0,0,64,68,78,40,100,-48.44,19,34.0,-3.0,-1001.0,12:42:43.000304,192.168.0.113
967,-1,-100,-100,-100,"0,0,0",3,0,76,0,0,0,64,68,78,40,100,-48.47,19,33.0,-16.0,-1018.0,12:42:43.102201,192.168.0.113
972,-1,-100,-100,-100,"0,0,0",2,0,76,0,0,0,64,68,78,40,100,-48.4,19,34.0,-4.0,-1004.0,12:42:43.204291,192.168.0.113
977,-1,-100,-100,-100,"0,0,0",2,1,76,0,0,0,64,68,78,40,100,-48.51,19,42.0,0.0,-1008.0,12:42:43.307085,192.168.0.113
982,-1,-100,-100,-100,"0,0,0",2,0,76,0,0,0,64,68,79,40,100,-48.41,19,37.0,2.0,-1009.0,12:42:43.408592,192.168.0.113
987,-1,-100,-100,-100,"0,0,0",2,0,76,0,0,0,65,68,78,40,100,-48.52,19,34.0,-10.0,-998.0,12:42:43.510608,192.168.0.113
991,-1,-100,-100,-100,"0,0,0",2,0,76,0,0,0,65,68,78,40,100,-48.37,19,24.0,7.0,-979.0,12:42:43.612623,192.168.0.113
998,-1,-100,-100,-100,"0,0,0",2,0,76,0,0,0,65,68,79,40,100,-48.35,19,20.0,-12.0,-977.0,12:42:43.716714,192.168.0.113
1003,-1,-100,-100,-100,"0,0,0",2,0,76,0,0,0,65,68,79,40,100,-48.29,19,25.0,-3.0,-999.0,12:42:43.816771,192.168.0.113
1007,-1,-100,-100,-100,"0,0,0",2,0,76,0,0,0,65,68,78,40,100,-48.39,19,29.0,-16.0,-998.0,12:42:43.918186,192.168.0.113
1013,-1,-100,-100,-100,"0,0,0",2,0,76,0,0,0,65,68,78,40,100,-48.42,20,25.0,-9.0,-987.0,12:42:44.020541,192.168.0.113
1018,-1,-100,-100,-100,"0,0,0",2,0,76,0,0,0,65,68,78,40,100,-48.41,20,37.0,-14.0,-995.0,12:42:44.122557,192.168.0.113
1023,-1,-100,-100,-100,"0,0,0",2,0,76,0,0,0,65,68,79,40,100,-48.35,20,38.0,-1.0,-991.0,12:42:44.224583,192.168.0.113
1028,-1,-100,-100,-100,"0,0,0",2,0,76,0,0,0,65,68,78,40,100,-48.45,20,43.0,3.0,-996.0,12:42:44.326495,192.168.0.113
1033,-1,-100,-100,-100,"0,0,0",2,0,76,0,0,0,65,68,78,40,100,-48.37,20,53.0,-3.0,-1008.0,12:42:44.428567,192.168.0.113
1038,-1,-100,-100,-100,"0,0,0",2,0,76,0,0,0,65,67,77,40,100,-48.41,20,28.0,8.0,-991.0,12:42:44.530301,192.168.0.113
1043,-1,-100,-100,-100,"0,0,0",2,0,76,0,0,0,65,67,77,40,100,-48.5,20,35.0,17.0,-1006.0,12:42:44.632346,192.168.0.113
1048,-1,-100,-100,-100,"0,0,0",2,0,76,0,0,0,65,67,77,40,100,-48.48,20,29.0,11.0,-1010.0,12:42:44.734532,192.168.0.113
1053,-1,-100,-100,-100,"0,0,0",2,0,76,0,0,0,65,67,77,40,100,-48.51,20,32.0,4.0,-988.0,12:42:44.836559,192.168.0.113
1058,-1,-100,-100,-100,"0,0,0",2,0,76,0,0,0,65,67,77,40,100,-48.37,20,15.0,14.0,-992.0,12:42:44.938602,192.168.0.113
1063,-1,-100,-100,-100,"0,0,0",2,0,76,0,0,0,65,67,77,40,100,-48.43,21,23.0,-8.0,-1006.0,12:42:45.040692,192.168.0.113
1068,-1,-100,-100,-100,"0,0,0",2,0,76,0,0,0,65,67,76,40,100,-48.44,21,27.0,-11.0,-1021.0,12:42:45.142494,192.168.0.113
1071,-1,-100,-100,-100,"0,0,0",1,0,76,0,0,0,65,67,77,40,100,-48.47,21,37.0,2.0,-997.0,12:42:45.195226,192.168.0.113
1076,-1,-100,-100,-100,"0,0,0",2,0,76,0,0,0,65,67,77,40,100,-48.51,21,26.0,0.0,-1005.0,12:42:45.295451,192.168.0.113
1081,-1,-100,-100,-100,"0,0,0",2,0,76,0,0,0,65,67,76,40,100,-48.6,21,13.0,9.0,-1004.0,12:42:45.397268,192.168.0.113
1086,-1,-100,-100,-100,"0,0,0",2,0,76,0,0,0,65,67,76,40,100,-48.47,21,27.0,-11.0,-983.0,12:42:45.499500,192.168.0.113
1092,-1,-100,-100,-100,"0,0,0",2,0,76,0,0,0,65,67,76,40,100,-48.48,21,24.0,34.0,-1009.0,12:42:45.601280,192.168.0.113
1096,-1,-100,-100,-100,"0,0,0",2,0,76,0,0,0,65,67,76,40,100,-48.51,21,52.0,9.0,-1025.0,12:42:45.703446,192.168.0.113
1102,-1,-100,-100,-100,"0,0,0",2,0,76,0,0,0,65,67,77,40,100,-48.47,21,58.0,22.0,-985.0,12:42:45.805586,192.168.0.113
1107,-1,-100,-100,-100,"0,0,0",3,0,76,0,0,0,65,67,77,40,100,-48.49,21,46.0,6.0,-965.0,12:42:45.907172,192.168.0.113
1112,-1,-100,-100,-100,"0,0,0",3,-1,76,0,0,0,65,67,77,40,100,-48.4,22,57.0,12.0,-991.0,12:42:46.009675,192.168.0.113
1117,-1,-100,-100,-100,"0,0,0",3,0,76,0,0,0,65,67,77,40,100,-48.41,22,37.0,10.0,-972.0,12:42:46.111217,192.168.0.113
1122,-1,-100,-100,-100,"0,0,0",3,0,76,0,0,0,65,67,76,40,100,-48.41,22,28.0,11.0,-1002.0,12:42:46.213455,192.168.0.113
1127,-1,-100,-100,-100,"0,0,0",3,0,76,0,0,0,65,67,76,40,100,-48.48,22,55.0,8.0,-980.0,12:42:46.315477,192.168.0.113
1132,-1,-100,-100,-100,"0,0,0",3,0,76,0,0,0,65,67,77,40,100,-48.45,22,33.0,24.0,-1003.0,12:42:46.417294,192.168.0.113
1137,-1,-100,-100,-100,"0,0,0",3,-1,76,0,0,0,65,67,77,40,100,-48.49,22,27.0,9.0,-994.0,12:42:46.520530,192.168.0.113
1141,-1,-100,-100,-100,"0,0,0",3,-1,76,0,0,0,65,67,76,40,100,-48.47,22,23.0,1.0,-1000.0,12:42:46.621550,192.168.0.113
1147,-1,-100,-100,-100,"0,0,0",3,0,76,0,0,0,65,67,76,40,100,-48.54,22,52.0,-5.0,-1006.0,12:42:46.723673,192.168.0.113
1152,-1,-100,-100,-100,"0,0,0",3,0,76,0,0,0,65,67,76,40,100,-48.57,22,24.0,-1.0,-1015.0,12:42:46.825384,192.168.0.113
1157,-1,-100,-100,-100,"0,0,0",3,0,76,0,0,0,65,67,77,40,100,-48.52,22,37.0,-6.0,-1026.0,12:42:46.927435,192.168.0.113
1162,-1,-100,-100,-100,"0,0,0",3,1,76,0,0,0,65,67,77,40,100,-48.55,23,24.0,15.0,-993.0,12:42:47.029294,192.168.0.113
1168,-1,-100,-100,-100,"0,0,0",3,1,76,0,0,0,65,67,78,40,100,-48.46,23,3.0,5.0,-971.0,12:42:47.132626,192.168.0.113
1173,-1,-100,-100,-100,"0,0,0",2,0,76,0,1,0,65,67,77,40,100,-48.49,23,19.0,-9.0,-977.0,12:42:47.233323,192.168.0.113
1178,-1,-100,-100,-100,"0,0,0",2,0,76,0,1,0,65,67,78,40,100,-48.51,23,30.0,-33.0,-983.0,12:42:47.335378,192.168.0.113
1183,-1,-100,-100,-100,"0,0,0",1,0,76,0,1,0,65,67,77,40,100,-48.43,23,15.0,-13.0,-1004.0,12:42:47.438061,192.168.0.113
1188,-1,-100,-100,-100,"0,0,0",1,0,76,0,0,0,65,68,78,40,100,-48.47,23,36.0,-5.0,-992.0,12:42:47.539497,192.168.0.113
1193,-1,-100,-100,-100,"0,0,0",1,1,76,0,0,0,65,68,78,40,100,-48.36,23,40.0,-5.0,-1008.0,12:42:47.641659,192.168.0.113
1198,-1,-100,-100,-100,"0,0,0",2,1,75,0,0,0,65,68,78,40,100,-48.4,23,52.0,-9.0,-1005.0,12:42:47.743477,192.168.0.113
1203,-1,-100,-100,-100,"0,0,0",2,0,75,0,0,0,65,68,78,40,100,-48.51,23,74.0,-27.0,-958.0,12:42:47.845495,192.168.0.113
1208,-1,-100,-100,-100,"0,0,0",2,0,75,0,0,0,65,68,78,40,100,-48.47,23,74.0,-26.0,-1009.0,12:42:47.947457,192.168.0.113
1213,-1,-100,-100,-100,"0,0,0",3,0,75,0,0,0,65,68,79,40,100,-48.47,24,39.0,14.0,-985.0,12:42:48.049480,192.168.0.113
1218,-1,-100,-100,-100,"0,0,0",3,0,75,0,0,0,65,68,78,40,100,-48.5,24,64.0,-19.0,-1022.0,12:42:48.151563,192.168.0.113
1223,-1,-100,-100,-100,"0,0,0",3,0,75,0,0,0,65,68,77,40,100,-48.54,24,22.0,-8.0,-1011.0,12:42:48.253438,192.168.0.113
1226,-1,-100,-100,-100,"0,0,0",3,0,75,0,0,0,65,68,78,40,100,-48.42,24,57.0,-25.0,-965.0,12:42:48.303994,192.168.0.113
1231,-1,-100,-100,-100,"0,0,0",4,0,75,0,0,0,65,68,77,40,100,-48.34,24,47.0,9.0,-977.0,12:42:48.406780,192.168.0.113
1236,-1,-100,-100,-100,"0,0,0",3,0,75,0,0,0,65,67,76,40,100,-48.44,24,42.0,20.0,-970.0,12:42:48.508477,192.168.0.113
1241,-1,-100,-100,-100,"0,0,0",3,0,75,0,0,0,65,67,76,40,100,-48.5,24,14.0,24.0,-1017.0,12:42:48.610567,192.168.0.113
1246,-1,-100,-100,-100,"0,0,0",2,0,75,0,0,0,65,67,75,40,100,-48.57,24,42.0,44.0,-1020.0,12:42:48.712119,192.168.0.113
1251,-1,-100,-100,-100,"0,0,0",2,-1,76,1,0,0,65,67,75,40,100,-48.61,24,40.0,34.0,-982.0,12:42:48.814411,192.168.0.113
1255,-1,-100,-100,-100,"0,0,0",3,-2,76,1,0,0,65,67,75,40,100,-48.52,24,37.0,40.0,-1024.0,12:42:48.920152,192.168.0.113
1261,-1,-100,-100,-100,"0,0,0",2,-3,76,1,0,0,65,67,75,40,100,-48.5,25,47.0,31.0,-1037.0,12:42:49.018385,192.168.0.113
1266,-1,-100,-100,-100,"0,0,0",2,-3,76,0,0,0,65,67,74,40,100,-48.52,25,66.0,30.0,-1012.0,12:42:49.120298,192.168.0.113
1272,-1,-100,-100,-100,"0,0,0",3,-3,76,0,0,0,65,67,75,40,100,-48.46,25,63.0,30.0,-1007.0,12:42:49.222428,192.168.0.113
1277,-1,-100,-100,-100,"0,0,0",4,-2,76,0,0,0,65,67,75,40,100,-48.5,25,68.0,25.0,-991.0,12:42:49.324351,192.168.0.113
1282,-1,-100,-100,-100,"0,0,0",4,-1,76,0,0,0,65,67,75,40,100,-48.46,25,50.0,13.0,-1008.0,12:42:49.426223,192.168.0.113
1286,-1,-100,-100,-100,"0,0,0",4,-1,76,0,0,0,64,67,74,40,100,-48.46,25,44.0,13.0,-999.0,12:42:49.528536,192.168.0.113
1292,-1,-100,-100,-100,"0,0,0",4,0,76,0,0,0,64,67,74,40,100,-48.47,25,60.0,21.0,-989.0,12:42:49.630487,192.168.0.113
1296,-1,-100,-100,-100,"0,0,0",3,0,77,0,0,0,64,67,74,40,100,-48.49,25,48.0,0.0,-990.0,12:42:49.732440,192.168.0.113
1302,-1,-100,-100,-100,"0,0,0",4,-1,77,0,0,0,64,67,74,40,100,-48.54,25,40.0,20.0,-1046.0,12:42:49.834313,192.168.0.113
1306,-1,-100,-100,-100,"0,0,0",4,0,76,0,0,0,64,67,75,40,100,-48.55,25,37.0,20.0,-984.0,12:42:49.936426,192.168.0.113
1312,-1,-100,-100,-100,"0,0,0",3,0,76,0,0,0,64,67,75,40,100,-48.62,26,54.0,41.0,-1029.0,12:42:50.038465,192.168.0.113
1317,-1,-100,-100,-100,"0,0,0",3,0,76,0,0,0,64,67,75,40,100,-48.57,26,41.0,-2.0,-955.0,12:42:50.141716,192.168.0.113
1322,-1,-100,-100,-100,"0,0,0",2,0,76,0,0,0,64,67,75,40,100,-48.43,26,18.0,-15.0,-992.0,12:42:50.242621,192.168.0.113
1327,-1,-100,-100,-100,"0,0,0",3,0,76,0,0,0,64,67,76,40,100,-48.42,26,34.0,31.0,-1000.0,12:42:50.344451,192.168.0.113
1332,-1,-100,-100,-100,"0,0,0",2,0,76,0,0,0,64,67,76,40,100,-48.58,26,26.0,23.0,-990.0,12:42:50.446909,192.168.0.113
1338,-1,-100,-100,-100,"0,0,0",2,0,76,0,0,0,65,67,76,40,100,-48.54,26,33.0,31.0,-967.0,12:42:50.549149,192.168.0.113
1343,-1,-100,-100,-100,"0,0,0",2,0,76,0,0,0,65,67,76,40,100,-48.5,26,26.0,21.0,-1020.0,12:42:50.651047,192.168.0.113
1348,-1,-100,-100,-100,"0,0,0",3,-1,76,0,0,0,65,67,77,40,100,-48.49,26,38.0,35.0,-980.0,12:42:50.757641,192.168.0.113
1353,-1,-100,-100,-100,"0,0,0",3,-1,76,0,0,0,65,67,77,40,100,-48.47,26,39.0,17.0,-963.0,12:42:50.855276,192.168.0.113
1358,-1,-100,-100,-100,"0,0,0",3,-2,76,0,0,0,65,67,77,40,100,-48.42,26,62.0,14.0,-990.0,12:42:50.957332,192.168.0.113
1363,-1,-100,-100,-100,"0,0,0",2,-2,76,0,0,0,65,67,77,40,100,-48.49,27,44.0,8.0,-1000.0,12:42:51.059353,192.168.0.113
1368,-1,-100,-100,-100,"0,0,0",2,-1,76,0,0,0,65,67,76,40,100,-48.48,27,55.0,0.0,-992.0,12:42:51.161304,192.168.0.113
1373,-1,-100,-100,-100,"0,0,0",2,-1,76,0,0,0,65,67,76,40,100,-48.61,27,72.0,7.0,-1005.0,12:42:51.263322,192.168.0.113
1378,-1,-100,-100,-100,"0,0,0",3,0,77,0,0,0,65,67,76,40,100,-48.36,27,52.0,2.0,-974.0,12:42:51.365411,192.168.0.113
1383,-1,-100,-100,-100,"0,0,0",3,0,77,0,0,0,65,67,76,40,100,-48.5,27,59.0,1.0,-1016.0,12:42:51.467269,192.168.0.113
1388,-1,-100,-100,-100,"0,0,0",3,0,76,0,0,0,64,67,76,40,100,-48.4,27,74.0,-6.0,-1031.0,12:42:51.569368,192.168.0.113
1393,-1,-100,-100,-100,"0,0,0",4,0,76,0,0,0,64,67,76,40,100,-48.53,27,46.0,-9.0,-976.0,12:42:51.671153,192.168.0.113
1398,-1,-100,-100,-100,"0,0,0",4,0,76,0,0,0,64,67,76,40,100,-48.56,27,48.0,14.0,-1010.0,12:42:51.773236,192.168.0.113
1401,-1,-100,-100,-100,"0,0,0",4,1,76,0,0,0,64,67,76,40,100,-48.48,27,45.0,9.0,-1025.0,12:42:51.824461,192.168.0.113
1406,-1,-100,-100,-100,"0,0,0",3,0,76,0,0,0,64,67,76,40,100,-48.5,27,53.0,-6.0,-1010.0,12:42:51.926022,192.168.0.113
1411,-1,-100,-100,-100,"0,0,0",3,0,76,0,0,0,64,67,76,40,100,-48.57,28,33.0,0.0,-975.0,12:42:52.028461,192.168.0.113
1416,-1,-100,-100,-100,"0,0,0",3,0,76,0,0,0,64,67,76,40,100,-48.56,28,20.0,-7.0,-1015.0,12:42:52.130285,192.168.0.113
1421,-1,-100,-100,-100,"0,0,0",2,0,76,0,0,0,64,67,76,40,100,-48.57,28,24.0,3.0,-1029.0,12:42:52.231894,192.168.0.113
1426,-1,-100,-100,-100,"0,0,0",2,0,76,0,0,0,64,67,76,40,100,-48.44,28,34.0,-4.0,-996.0,12:42:52.334213,192.168.0.113
1431,-1,-100,-100,-100,"0,0,0",2,0,76,0,0,0,64,67,76,40,100,-48.49,28,51.0,-19.0,-1010.0,12:42:52.437057,192.168.0.113
1437,-1,-100,-100,-100,"0,0,0",2,1,76,0,0,0,64,67,76,40,100,-48.48,28,37.0,-22.0,-961.0,12:42:52.540418,192.168.0.113
1442,-1,-100,-100,-100,"0,0,0",2,0,76,0,0,0,64,67,77,40,100,-48.46,28,71.0,-6.0,-1022.0,12:42:52.640110,192.168.0.113
1447,-1,-100,-100,-100,"0,0,0",3,0,76,0,0,0,64,67,77,40,100,-48.44,28,63.0,14.0,-991.0,12:42:52.741779,192.168.0.113
1452,-1,-100,-100,-100,"0,0,0",4,1,76,0,0,0,64,67,77,40,100,-48.55,28,46.0,6.0,-988.0,12:42:52.844289,192.168.0.113
1457,-1,-100,-100,-100,"0,0,0",3,0,76,0,0,0,64,67,77,40,100,-48.62,28,49.0,-12.0,-997.0,12:42:52.947564,192.168.0.113
1462,-1,-100,-100,-100,"0,0,0",3,0,76,0,0,0,64,67,77,40,100,-48.46,29,38.0,5.0,-1039.0,12:42:53.048138,192.168.0.113
1467,-1,-100,-100,-100,"0,0,0",4,0,76,0,0,0,64,67,78,40,100,-48.27,29,36.0,0.0,-998.0,12:42:53.150348,192.168.0.113
1472,-1,-100,-100,-100,"0,0,0",4,0,76,0,0,0,64,67,78,40,100,-48.42,29,46.0,1.0,-997.0,12:42:53.252203,192.168.0.113
1477,-1,-100,-100,-100,"0,0,0",3,0,76,0,0,0,64,67,78,40,100,-48.57,29,24.0,-14.0,-1006.0,12:42:53.357478,192.168.0.113
1482,-1,-100,-100,-100,"0,0,0",3,0,76,0,0,0,64,67,78,40,100,-48.53,29,36.0,-32.0,-974.0,12:42:53.456139,192.168.0.113
1487,-1,-100,-100,-100,"0,0,0",3,0,76,0,0,0,64,68,78,40,100,-48.55,29,27.0,-21.0,-990.0,12:42:53.558371,192.168.0.113
1492,-1,-100,-100,-100,"0,0,0",3,1,76,0,0,0,64,68,78,40,100,-48.45,29,23.0,-5.0,-993.0,12:42:53.660208,192.168.0.113
1497,-1,-100,-100,-100,"0,0,0",2,1,76,0,0,0,64,68,79,40,100,-48.52,29,24.0,-3.0,-993.0,12:42:53.762014,192.168.0.113
1503,-1,-100,-100,-100,"0,0,0",2,1,76,0,0,0,64,68,79,40,100,-48.42,29,45.0,-15.0,-997.0,12:42:53.863987,192.168.0.113
1507,-1,-100,-100,-100,"0,0,0",2,0,76,0,0,0,64,68,79,40,100,-48.44,29,63.0,-25.0,-979.0,12:42:53.965880,192.168.0.113
1513,-1,-100,-100,-100,"0,0,0",2,0,75,0,0,0,64,68,79,40,100,-48.46,30,41.0,-5.0,-974.0,12:42:54.070407,192.168.0.113
1518,-1,-100,-100,-100,"0,0,0",2,1,75,0,0,0,64,68,79,40,100,-48.42,30,46.0,-14.0,-1002.0,12:42:54.176128,192.168.0.113
1523,-1,-100,-100,-100,"0,0,0",2,1,75,0,0,0,64,68,78,40,100,-48.47,30,37.0,13.0,-962.0,12:42:54.272167,192.168.0.113
1528,-1,-100,-100,-100,"0,0,0",2,1,75,0,0,0,64,68,78,40,100,-48.45,30,50.0,-6.0,-989.0,12:42:54.375002,192.168.0.113
1533,-1,-100,-100,-100,"0,0,0",2,1,75,0,0,0,64,68,78,40,100,-48.5,30,69.0,12.0,-1009.0,12:42:54.477415,192.168.0.113
1538,-1,-100,-100,-100,"0,0,0",3,1,75,0,0,0,65,67,77,40,100,-48.62,30,49.0,-13.0,-1019.0,12:42:54.578053,192.168.0.113
1543,-1,-100,-100,-100,"0,0,0",3,0,75,0,0,0,65,67,78,40,100,-48.54,30,52.0,-22.0,-975.0,12:42:54.680830,192.168.0.113
1548,-1,-100,-100,-100,"0,0,0",3,0,75,0,0,0,65,67,77,40,100,-48.42,30,70.0,-8.0,-999.0,12:42:54.782274,192.168.0.113
1553,-1,-100,-100,-100,"0,0,0",3,0,75,0,0,0,65,67,77,40,100,-48.53,30,44.0,28.0,-978.0,12:42:54.883943,192.168.0.113
1558,-1,-100,-100,-100,"0,0,0",3,0,75,0,0,0,65,67,77,40,100,-48.45,30,47.0,32.0,-1001.0,12:42:54.987578,192.168.0.113
1563,-1,-100,-100,-100,"0,0,0",3,-1,75,0,0,0,65,67,77,40,100,-48.38,31,35.0,18.0,-1015.0,12:42:55.088628,192.168.0.113
1566,-1,-100,-100,-100,"0,0,0",4,-2,75,0,0,0,65,67,77,40,100,-48.52,31,28.0,27.0,-981.0,12:42:55.139092,192.168.0.113
1571,-1,-100,-100,-100,"0,0,0",3,-2,75,0,0,0,65,67,77,40,100,-48.42,31,26.0,48.0,-1007.0,12:42:55.241301,192.168.0.113
1576,-1,-100,-100,-100,"0,0,0",3,-2,76,0,0,0,65,67,78,40,100,-48.5,31,61.0,22.0,-995.0,12:42:55.343253,192.168.0.113
1580,-1,-100,-100,-100,"0,0,0",2,-2,76,0,0,0,65,67,78,40,100,-48.48,31,76.0,-8.0,-1007.0,12:42:55.445228,192.168.0.113
1586,-1,-100,-100,-100,"0,0,0",3,-1,76,0,0,0,65,68,78,40,100,-48.57,31,9.0,34.0,-1031.0,12:42:55.546645,192.168.0.113
1591,-1,-100,-100,-100,"0,0,0",3,-1,76,0,0,0,65,68,79,40,100,-48.58,31,35.0,18.0,-989.0,12:42:55.649560,192.168.0.113
1596,-1,-100,-100,-100,"0,0,0",3,-1,76,0,0,0,65,68,79,40,100,-48.49,31,36.0,9.0,-929.0,12:42:55.751198,192.168.0.113
1601,-1,-100,-100,-100,"0,0,0",2,0,76,0,0,0,65,68,79,40,100,-48.41,31,23.0,33.0,-980.0,12:42:55.853973,192.168.0.113
1606,-1,-100,-100,-100,"0,0,0",2,-1,76,0,0,0,65,68,79,40,100,-48.57,31,3.0,-10.0,-1015.0,12:42:55.954999,192.168.0.113
1612,-1,-100,-100,-100,"0,0,0",1,-1,76,0,1,0,65,68,80,40,100,-48.48,32,28.0,27.0,-981.0,12:42:56.060485,192.168.0.113
1617,-1,-100,-100,-100,"0,0,0",1,-1,76,0,1,0,65,68,79,40,100,-48.48,32,50.0,-2.0,-1001.0,12:42:56.160143,192.168.0.113
1622,-1,-100,-100,-100,"0,0,0",1,-1,76,0,0,0,65,68,79,40,100,-48.61,32,69.0,-30.0,-988.0,12:42:56.262124,192.168.0.113
1627,-1,-100,-100,-100,"0,0,0",2,0,76,0,0,0,65,68,79,40,100,-48.42,32,50.0,-18.0,-988.0,12:42:56.363706,192.168.0.113
1632,-1,-100,-100,-100,"0,0,0",2,0,76,0,0,0,65,68,78,40,100,-48.45,32,28.0,21.0,-1026.0,12:42:56.466102,192.168.0.113
1637,-1,-100,-100,-100,"0,0,0",2,1,76,0,0,0,65,67,78,40,100,-48.49,32,57.0,24.0,-998.0,12:42:56.567605,192.168.0.113
1642,-1,-100,-100,-100,"0,0,0",2,1,76,0,0,0,65,67,77,40,100,-48.5,32,42.0,10.0,-998.0,12:42:56.669935,192.168.0.113
1647,-1,-100,-100,-100,"0,0,0",2,0,76,0,0,0,65,67,77,40,100,-48.46,32,32.0,25.0,-1013.0,12:42:56.772126,192.168.0.113
1653,-1,-100,-100,-100,"0,0,0",2,-1,76,0,0,0,65,67,77,40,100,-48.53,32,51.0,0.0,-1014.0,12:42:56.873964,192.168.0.113
1657,-1,-100,-100,-100,"0,0,0",3,-1,76,0,0,0,65,67,77,40,100,-48.5,32,83.0,-8.0,-1022.0,12:42:56.977199,192.168.0.113
1662,-1,-100,-100,-100,"0,0,0",3,0,76,0,0,0,65,67,77,40,100,-48.48,33,70.0,2.0,-973.0,12:42:57.077946,192.168.0.113
1667,-1,-100,-100,-100,"0,0,0",4,0,76,0,0,0,65,67,78,40,100,-48.48,33,58.0,43.0,-970.0,12:42:57.179860,192.168.0.113
1673,-1,-100,-100,-100,"0,0,0",4,0,77,0,0,0,65,67,78,40,100,-48.46,33,47.0,5.0,-982.0,12:42:57.282369,192.168.0.113
1678,-1,-100,-100,-100,"0,0,0",4,0,77,0,0,0,65,67,79,40,100,-48.56,33,51.0,-26.0,-994.0,12:42:57.384088,192.168.0.113
1683,-1,-100,-100,-100,"0,0,0",4,0,77,0,0,0,65,67,79,40,100,-48.43,33,43.0,-10.0,-987.0,12:42:57.486421,192.168.0.113
1688,-1,-100,-100,-100,"0,0,0",3,0,76,0,0,0,65,67,78,40,100,-48.43,33,47.0,30.0,-1008.0,12:42:57.588177,192.168.0.113
1693,-1,-100,-100,-100,"0,0,0",3,0,76,0,0,0,65,67,78,40,100,-48.47,33,38.0,19.0,-980.0,12:42:57.690301,192.168.0.113
1698,-1,-100,-100,-100,"0,0,0",2,0,76,0,0,0,65,67,78,40,100,-48.35,33,36.0,8.0,-998.0,12:42:57.792229,192.168.0.113
1703,-1,-100,-100,-100,"0,0,0",2,-1,76,0,0,0,65,67,78,40,100,-48.36,33,1.0,39.0,-975.0,12:42:57.893968,192.168.0.113
1708,-1,-100,-100,-100,"0,0,0",2,-1,76,0,0,0,65,67,78,40,100,-48.46,33,29.0,19.0,-1033.0,12:42:57.996075,192.168.0.113
1713,-1,-100,-100,-100,"0,0,0",2,-1,76,0,0,0,65,67,78,40,100,-48.5,34,42.0,-4.0,-1015.0,12:42:58.098076,192.168.0.113
1718,-1,-100,-100,-100,"0,0,0",2,-1,76,0,0,0,65,67,78,40,100,-48.52,34,60.0,2.0,-994.0,12:42:58.199843,192.168.0.113
1723,-1,-100,-100,-100,"0,0,0",2,0,76,0,0,0,65,67,78,40,100,-48.54,34,13.0,16.0,-1013.0,12:42:58.301872,192.168.0.113
1726,-1,-100,-100,-100,"0,0,0",2,0,76,0,0,0,65,67,78,40,100,-48.49,34,34.0,7.0,-975.0,12:42:58.356630,192.168.0.113
1731,-1,-100,-100,-100,"0,0,0",2,0,76,0,0,0,65,67,79,40,100,-48.39,34,31.0,23.0,-974.0,12:42:58.455769,192.168.0.113
1736,-1,-100,-100,-100,"0,0,0",1,0,76,0,0,0,65,67,79,40,100,-48.41,34,34.0,22.0,-970.0,12:42:58.556814,192.168.0.113
1741,-1,-100,-100,-100,"0,0,0",1,0,76,0,0,0,65,67,79,40,100,-48.44,34,39.0,36.0,-1038.0,12:42:58.661830,192.168.0.113
1746,-1,-100,-100,-100,"0,0,0",2,-1,76,0,0,0,65,67,78,40,100,-48.49,34,60.0,16.0,-1027.0,12:42:58.760877,192.168.0.113
1751,-1,-100,-100,-100,"0,0,0",2,-2,76,0,0,0,65,67,79,40,100,-48.47,34,14.0,48.0,-1003.0,12:42:58.862806,192.168.0.113
1756,-1,-100,-100,-100,"0,0,0",2,-2,76,0,0,0,65,67,80,40,100,-48.43,34,47.0,9.0,-1014.0,12:42:58.964986,192.168.0.113
1761,-1,-100,-100,-100,"0,0,0",3,-1,76,0,0,0,65,67,80,40,100,-48.46,35,58.0,-11.0,-990.0,12:42:59.067038,192.168.0.113
1767,-1,-100,-100,-100,"0,0,0",2,-1,76,0,0,0,65,67,79,40,100,-48.53,35,30.0,30.0,-1036.0,12:42:59.168922,192.168.0.113
1772,-1,-100,-100,-100,"0,0,0",2,-1,76,0,0,0,65,67,80,40,100,-48.51,35,5.0,27.0,-985.0,12:42:59.271168,192.168.0.113
1777,-1,-100,-100,-100,"0,0,0",2,-1,76,0,0,0,65,67,80,40,100,-48.52,35,13.0,26.0,-982.0,12:42:59.372786,192.168.0.113
1782,-1,-100,-100,-100,"0,0,0",2,0,76,0,0,0,65,67,80,40,100,-48.42,35,15.0,0.0,-975.0,12:42:59.477232,192.168.0.113
1787,-1,-100,-100,-100,"0,0,0",1,0,76,0,0,0,65,67,80,40,100,-48.43,35,6.0,32.0,-990.0,12:42:59.576988,192.168.0.113
1792,-1,-100,-100,-100,"0,0,0",1,0,76,0,0,0,65,67,79,40,100,-48.5,35,8.0,27.0,-963.0,12:42:59.680431,192.168.0.113
1797,-1,-100,-100,-100,"0,0,0",0,0,76,0,0,0,65,67,79,40,100,-48.53,35,8.0,16.0,-999.0,12:42:59.782484,192.168.0.113
1802,-1,-100,-100,-100,"0,0,0",0,0,76,0,0,0,65,67,79,40,100,-48.54,35,43.0,4.0,-995.0,12:42:59.883029,192.168.0.113
1807,-1,-100,-100,-100,"0,0,0",0,0,76,0,0,0,65,67,79,40,100,-48.37,35,14.0,19.0,-996.0,12:42:59.984691,192.168.0.113
1812,-1,-100,-100,-100,"0,0,0",1,0,77,0,0,0,65,67,79,40,100,-48.3,36,16.0,23.0,-998.0,12:43:00.086993,192.168.0.113
1817,-1,-100,-100,-100,"0,0,0",1,-1,77,0,0,0,65,67,78,40,100,-48.39,36,31.0,22.0,-1034.0,12:43:00.189134,192.168.0.113
1822,-1,-100,-100,-100,"0,0,0",0,-1,77,0,0,0,65,67,78,40,100,-48.29,36,11.0,20.0,-1029.0,12:43:00.290475,192.168.0.113
1828,-1,-100,-100,-100,"0,0,0",1,-1,77,0,0,0,65,67,79,40,100,-48.41,36,16.0,12.0,-997.0,12:43:00.392804,192.168.0.113
1833,-1,-100,-100,-100,"0,0,0",0,-1,77,0,0,0,65,67,79,40,100,-48.41,36,15.0,9.0,-999.0,12:43:00.494863,192.168.0.113
1838,-1,-100,-100,-100,"0,0,0",0,0,77,0,0,0,65,67,79,40,100,-48.37,36,28.0,-2.0,-1006.0,12:43:00.596844,192.168.0.113
1843,-1,-100,-100,-100,"0,0,0",0,0,77,0,0,0,65,67,79,40,100,-48.39,36,4.0,-3.0,-975.0,12:43:00.699094,192.168.0.113
1848,-1,-100,-100,-100,"0,0,0",0,0,77,0,0,0,65,67,78,40,100,-48.36,36,16.0,11.0,-1022.0,12:43:00.800970,192.168.0.113
1853,-1,-100,-100,-100,"0,0,0",0,0,77,0,0,0,65,67,78,40,100,-48.31,36,17.0,-5.0,-986.0,12:43:00.904863,192.168.0.113
1858,-1,-100,-100,-100,"0,0,0",1,0,77,0,0,0,65,67,78,40,100,-48.33,36,49.0,-26.0,-1017.0,12:43:01.004988,192.168.0.113
1863,-1,-100,-100,-100,"0,0,0",0,0,77,0,0,0,65,67,78,40,100,-48.24,37,37.0,-20.0,-992.0,12:43:01.108743,192.168.0.113
1868,-1,-100,-100,-100,"0,0,0",1,0,76,0,0,0,65,67,78,40,100,-48.45,37,42.0,-5.0,-998.0,12:43:01.209113,192.168.0.113
1873,-1,-100,-100,-100,"0,0,0",1,0,76,0,0,0,65,67,78,40,100,-48.47,37,10.0,-9.0,-980.0,12:43:01.311018,192.168.0.113
1878,-1,-100,-100,-100,"0,0,0",2,0,76,0,0,0,65,67,78,40,100,-48.42,37,20.0,-39.0,-1017.0,12:43:01.413054,192.168.0.113
1883,-1,-100,-100,-100,"0,0,0",2,1,76,0,0,0,65,67,78,40,100,-48.49,37,27.0,-19.0,-1020.0,12:43:01.514923,192.168.0.113
1888,-1,-100,-100,-100,"0,0,0",2,0,76,0,0,0,65,67,78,40,100,-48.54,37,16.0,4.0,-984.0,12:43:01.617801,192.168.0.113
1893,-1,-100,-100,-100,"0,0,0",1,0,76,0,0,0,65,67,78,40,100,-48.4,37,8.0,19.0,-1013.0,12:43:01.721166,192.168.0.113
1896,-1,-100,-100,-100,"0,0,0",1,0,76,0,0,0,65,67,78,40,100,-48.29,37,2.0,5.0,-996.0,12:43:01.770912,192.168.0.113
1903,-1,-100,-100,-100,"0,0,0",1,0,76,0,0,0,65,67,79,40,100,-48.3,37,7.0,9.0,-973.0,12:43:01.924001,192.168.0.113
1906,-1,-100,-100,-100,"0,0,0",1,0,76,0,0,0,65,67,79,40,100,-48.41,38,24.0,8.0,-1002.0,12:43:01.978588,192.168.0.113
1911,-1,-100,-100,-100,"0,0,0",1,-1,76,0,0,0,65,67,79,40,100,-48.41,38,23.0,4.0,-995.0,12:43:02.076840,192.168.0.113
1916,-1,-100,-100,-100,"0,0,0",1,-1,76,0,0,0,65,67,79,40,100,-48.46,38,2.0,2.0,-1002.0,12:43:02.178811,192.168.0.113
1921,-1,-100,-100,-100,"0,0,0",1,-1,76,0,0,0,65,67,78,40,100,-48.45,38,-3.0,8.0,-1008.0,12:43:02.280896,192.168.0.113
1926,-1,-100,-100,-100,"0,0,0",0,0,76,0,0,0,65,67,79,40,100,-48.35,38,-2.0,7.0,-987.0,12:43:02.383106,192.168.0.113
1931,-1,-100,-100,-100,"0,0,0",0,-1,76,0,0,0,65,67,79,40,100,-48.34,38,-1.0,16.0,-989.0,12:43:02.484911,192.168.0.113
1936,-1,-100,-100,-100,"0,0,0",0,-1,76,0,0,0,65,67,79,40,100,-48.3,38,13.0,0.0,-973.0,12:43:02.588513,192.168.0.113
1942,-1,-100,-100,-100,"0,0,0",0,-1,76,0,0,0,65,67,79,40,100,-48.31,38,19.0,29.0,-1004.0,12:43:02.688962,192.168.0.113
1946,-1,-100,-100,-100,"0,0,0",0,-1,76,0,0,0,65,67,79,40,100,-48.35,38,13.0,32.0,-1027.0,12:43:02.792511,192.168.0.113
1951,-1,-100,-100,-100,"0,0,0",0,-1,76,0,0,0,65,67,80,40,100,-48.46,38,17.0,11.0,-1011.0,12:43:02.893073,192.168.0.113
1956,-1,-100,-100,-100,"0,0,0",0,-1,76,0,0,0,65,67,79,40,100,-48.37,39,13.0,30.0,-972.0,12:43:02.995026,192.168.0.113
1961,-1,-100,-100,-100,"0,0,0",0,-1,76,0,0,0,65,67,80,40,100,-48.35,39,-7.0,23.0,-1006.0,12:43:03.096895,192.168.0.113
1967,-1,-100,-100,-100,"0,0,0",0,-1,76,0,0,0,65,67,80,40,100,-48.43,39,0.0,23.0,-1007.0,12:43:03.198928,192.168.0.113
1972,-1,-100,-100,-100,"0,0,0",0,-1,76,0,0,0,65,67,80,40,100,-48.32,39,11.0,37.0,-1003.0,12:43:03.300995,192.168.0.113
1977,-1,-100,-100,-100,"0,0,0",0,-1,76,0,0,0,65,67,81,40,100,-48.36,39,25.0,15.0,-998.0,12:43:03.402827,192.168.0.113
1982,-1,-100,-100,-100,"0,0,0",0,-1,76,0,0,0,65,67,81,40,100,-48.45,39,14.0,5.0,-994.0,12:43:03.504604,192.168.0.113
1987,-1,-100,-100,-100,"0,0,0",0,-1,76,0,0,0,65,67,81,40,100,-48.4,39,4.0,4.0,-993.0,12:43:03.607780,192.168.0.113
1991,-1,-100,-100,-100,"0,0,0",0,-1,76,0,0,0,65,67,81,40,100,-48.43,39,13.0,11.0,-997.0,12:43:03.708943,192.168.0.113
1998,-1,-100,-100,-100,"0,0,0",0,0,76,0,0,0,65,67,81,40,100,-48.44,39,16.0,6.0,-978.0,12:43:03.810606,192.168.0.113
2002,-1,-100,-100,-100,"0,0,0",0,0,76,0,0,0,65,67,80,40,100,-48.42,39,18.0,0.0,-1025.0,12:43:03.912549,192.168.0.113
2008,-1,-100,-100,-100,"0,0,0",1,0,76,0,0,0,65,67,81,40,100,-48.46,40,37.0,14.0,-1002.0,12:43:04.014830,192.168.0.113
2013,-1,-100,-100,-100,"0,0,0",0,0,76,0,0,0,65,67,80,40,100,-48.45,40,21.0,-1.0,-990.0,12:43:04.116851,192.168.0.113
2018,-1,-100,-100,-100,"0,0,0",1,0,76,0,0,0,65,67,80,40,100,-48.46,40,55.0,-15.0,-977.0,12:43:04.219018,192.168.0.113
2023,-1,-100,-100,-100,"0,0,0",1,0,76,0,0,0,65,67,80,40,100,-48.43,40,32.0,-13.0,-991.0,12:43:04.321123,192.168.0.113
2028,-1,-100,-100,-100,"0,0,0",2,0,76,0,0,0,65,67,80,40,100,-48.35,40,36.0,2.0,-998.0,12:43:04.422876,192.168.0.113
2033,-1,-100,-100,-100,"0,0,0",2,0,76,0,0,0,65,67,80,40,100,-48.4,40,43.0,-26.0,-1024.0,12:43:04.524924,192.168.0.113
2038,-1,-100,-100,-100,"0,0,0",1,0,76,0,0,0,65,67,79,40,100,-48.44,40,15.0,-16.0,-986.0,12:43:04.628879,192.168.0.113
2043,-1,-100,-100,-100,"0,0,0",1,0,76,0,0,0,65,67,79,40,100,-48.35,40,29.0,-1.0,-998.0,12:43:04.728869,192.168.0.113
2048,-1,-100,-100,-100,"0,0,0",1,0,75,0,0,0,65,67,79,40,100,-48.33,40,15.0,-2.0,-974.0,12:43:04.830626,192.168.0.113
2053,-1,-100,-100,-100,"0,0,0",1,0,75,0,0,0,65,67,79,40,100,-48.46,40,83.0,-22.0,-983.0,12:43:04.932592,192.168.0.113
2058,-1,-100,-100,-100,"0,0,0",2,1,76,0,0,0,65,67,79,40,100,-48.4,41,45.0,-13.0,-992.0,12:43:05.034808,192.168.0.113
2061,-1,-100,-100,-100,"0,0,0",3,1,76,0,0,0,65,67,78,40,100,-48.42,41,22.0,-13.0,-1028.0,12:43:05.085675,192.168.0.113
2066,-1,-100,-100,-100,"0,0,0",3,0,76,0,0,0,65,67,78,40,100,-48.36,41,46.0,-10.0,-1035.0,12:43:05.187858,192.168.0.113
2071,-1,-100,-100,-100,"0,0,0",2,0,76,0,0,0,65,67,78,40,100,-48.38,41,42.0,-4.0,-1012.0,12:43:05.290704,192.168.0.113
2076,-1,-100,-100,-100,"0,0,0",2,0,76,0,0,0,65,67,79,40,100,-48.44,41,49.0,-30.0,-999.0,12:43:05.391628,192.168.0.113
2081,-1,-100,-100,-100,"0,0,0",2,1,76,0,0,0,65,67,80,40,100,-48.42,41,23.0,-12.0,-1000.0,12:43:05.494163,192.168.0.113
2086,-1,-100,-100,-100,"0,0,0",2,1,76,0,0,0,65,67,80,40,100,-48.39,41,45.0,-21.0,-995.0,12:43:05.597760,192.168.0.113
2091,-1,-100,-100,-100,"0,0,0",2,2,76,0,0,0,65,67,81,40,100,-48.37,41,31.0,-1.0,-970.0,12:43:05.697783,192.168.0.113
2096,-1,-100,-100,-100,"0,0,0",2,1,75,0,0,0,65,67,81,40,100,-48.22,41,29.0,-20.0,-979.0,12:43:05.799484,192.168.0.113
2101,-1,-100,-100,-100,"0,0,0",2,1,75,0,0,0,65,67,82,40,100,-48.23,41,25.0,-12.0,-984.0,12:43:05.901694,192.168.0.113
2105,-1,-100,-100,-100,"0,0,0",2,0,75,0,0,0,65,67,81,40,100,-48.32,42,43.0,-9.0,-992.0,12:43:06.003921,192.168.0.113
2111,-1,-100,-100,-100,"0,0,0",2,1,75,0,0,0,65,67,81,40,100,-48.38,42,17.0,-14.0,-954.0,12:43:06.107555,192.168.0.113
2117,-1,-100,-100,-100,"0,0,0",1,1,75,0,0,0,65,67,81,40,100,-48.35,42,34.0,14.0,-956.0,12:43:06.208532,192.168.0.113
2122,-1,-100,-100,-100,"0,0,0",1,1,75,0,0,0,65,67,80,40,100,-48.4,42,25.0,9.0,-1047.0,12:43:06.310980,192.168.0.113
2127,-1,-100,-100,-100,"0,0,0",1,0,75,0,0,0,65,67,79,40,100,-48.43,42,32.0,-7.0,-1008.0,12:43:06.413669,192.168.0.113
2132,-1,-100,-100,-100,"0,0,0",2,0,76,0,0,0,65,67,79,40,100,-48.45,42,60.0,21.0,-1038.0,12:43:06.515826,192.168.0.113
2137,-1,-100,-100,-100,"0,0,0",2,-1,76,0,0,0,65,67,79,40,100,-48.46,42,16.0,10.0,-1031.0,12:43:06.618115,192.168.0.113
2142,-1,-100,-100,-100,"0,0,0",3,-1,76,0,0,0,65,67,79,40,100,-48.44,42,48.0,-18.0,-1028.0,12:43:06.717727,192.168.0.113
2147,-1,-100,-100,-100,"0,0,0",3,-1,76,0,0,0,65,67,81,40,100,-48.46,42,54.0,-37.0,-999.0,12:43:06.819551,192.168.0.113
2152,-1,-100,-100,-100,"0,0,0",3,0,76,0,0,0,65,67,80,40,100,-48.53,42,40.0,-17.0,-977.0,12:43:06.921897,192.168.0.113
2157,-1,-100,-100,-100,"0,0,0",2,0,76,0,0,0,65,67,80,40,100,-48.57,43,31.0,-18.0,-994.0,12:43:07.023892,192.168.0.113
2162,-1,-100,-100,-100,"0,0,0",2,0,76,0,0,0,65,67,81,40,100,-48.44,43,31.0,-20.0,-983.0,12:43:07.125575,192.168.0.113
2168,-1,-100,-100,-100,"0,0,0",1,1,76,0,0,0,65,67,81,40,100,-48.48,43,42.0,9.0,-983.0,12:43:07.228754,192.168.0.113
2173,-1,-100,-100,-100,"0,0,0",1,1,76,0,0,0,65,67,80,40,100,-48.42,43,5.0,9.0,-993.0,12:43:07.329697,192.168.0.113
2178,-1,-100,-100,-100,"0,0,0",1,0,76,0,0,0,65,67,80,40,100,-48.41,43,17.0,15.0,-985.0,12:43:07.431730,192.168.0.113
2183,-1,-100,-100,-100,"0,0,0",1,0,76,0,0,0,65,67,80,40,100,-48.49,43,43.0,-8.0,-978.0,12:43:07.539939,192.168.0.113
2188,-1,-100,-100,-100,"0,0,0",1,0,76,0,0,0,65,67,80,40,100,-48.3,43,61.0,36.0,-980.0,12:43:07.635751,192.168.0.113
2193,-1,-100,-100,-100,"0,0,0",2,0,76,0,0,0,65,67,79,40,100,-48.48,43,43.0,0.0,-1067.0,12:43:07.739656,192.168.0.113
2198,-1,-100,-100,-100,"0,0,0",3,-1,76,0,0,0,65,67,78,40,100,-48.45,43,29.0,23.0,-1044.0,12:43:07.840124,192.168.0.113
2203,-1,-100,-100,-100,"0,0,0",3,-1,76,0,0,0,65,67,78,40,100,-48.32,43,47.0,10.0,-999.0,12:43:07.941711,192.168.0.113
2208,-1,-100,-100,-100,"0,0,0",3,0,76,0,0,0,65,67,78,40,100,-48.28,44,49.0,-7.0,-999.0,12:43:08.043726,192.168.0.113
2213,-1,-100,-100,-100,"0,0,0",3,0,76,0,0,0,65,67,78,40,100,-48.35,44,39.0,28.0,-994.0,12:43:08.145233,192.168.0.113
2218,-1,-100,-100,-100,"0,0,0",2,0,76,0,0,0,65,67,78,40,100,-48.32,44,34.0,23.0,-979.0,12:43:08.247489,192.168.0.113
2223,-1,-100,-100,-100,"0,0,0",2,0,76,0,0,0,65,67,78,40,100,-48.37,44,37.0,1.0,-984.0,12:43:08.351718,192.168.0.113
2225,-1,-100,-100,-100,"0,0,0",2,0,76,0,0,0,65,67,77,40,100,-48.31,44,26.0,15.0,-1029.0,12:43:08.401594,192.168.0.113
2231,-1,-100,-100,-100,"0,0,0",2,0,76,0,0,0,65,67,77,40,100,-48.39,44,39.0,42.0,-983.0,12:43:08.502271,192.168.0.113
2236,-1,-100,-100,-100,"0,0,0",2,0,76,0,0,0,65,67,76,40,100,-48.45,44,57.0,-8.0,-990.0,12:43:08.604856,192.168.0.113
2241,-1,-100,-100,-100,"0,0,0",3,-1,76,0,0,0,65,67,77,40,100,-48.38,44,40.0,21.0,-1013.0,12:43:08.707779,192.168.0.113
2246,-1,-100,-100,-100,"0,0,0",3,0,76,0,0,0,65,67,76,40,100,-48.21,44,43.0,-9.0,-1010.0,12:43:08.809195,192.168.0.113
2251,-1,-100,-100,-100,"0,0,0",3,0,76,0,0,0,65,67,76,40,100,-48.42,44,36.0,-2.0,-948.0,12:43:08.910656,192.168.0.113
2256,-1,-100,-100,-100,"0,0,0",2,0,76,0,0,0,65,67,76,40,100,-48.33,45,24.0,29.0,-1007.0,12:43:09.015625,192.168.0.113
2261,-1,-100,-100,-100,"0,0,0",2,0,76,0,0,0,65,67,76,40,100,-48.43,45,55.0,11.0,-1005.0,12:43:09.114660,192.168.0.113
2266,-1,-100,-100,-100,"0,0,0",3,0,76,0,0,0,65,67,75,40,100,-48.27,45,61.0,-4.0,-993.0,12:43:09.217949,192.168.0.113
2271,-1,-100,-100,-100,"0,0,0",3,0,76,0,0,0,65,67,76,40,100,-48.42,45,30.0,4.0,-1008.0,12:43:09.319149,192.168.0.113
2277,-1,-100,-100,-100,"0,0,0",3,0,76,0,0,0,65,67,76,40,100,-48.41,45,64.0,0.0,-1008.0,12:43:09.421816,192.168.0.113
2282,-1,-100,-100,-100,"0,0,0",3,0,76,0,0,0,65,67,76,40,100,-48.43,45,-4.0,24.0,-1012.0,12:43:09.522664,192.168.0.113
2287,-1,-100,-100,-100,"0,0,0",3,-1,76,0,0,0,65,68,76,40,100,-48.41,45,70.0,-6.0,-1019.0,12:43:09.624541,192.168.0.113
2292,-1,-100,-100,-100,"0,0,0",3,0,76,0,0,0,65,68,77,40,100,-48.36,45,68.0,12.0,-1002.0,12:43:09.726737,192.168.0.113
2297,-1,-100,-100,-100,"0,0,0",3,0,76,0,0,0,65,68,76,40,100,-48.37,45,41.0,12.0,-982.0,12:43:09.828714,192.168.0.113
2302,-1,-100,-100,-100,"0,0,0",3,-1,76,0,0,0,65,68,77,40,100,-48.39,45,36.0,11.0,-1016.0,12:43:09.930734,192.168.0.113
2307,-1,-100,-100,-100,"0,0,0",2,0,76,0,0,0,65,68,78,40,100,-48.45,46,32.0,9.0,-1007.0,12:43:10.033824,192.168.0.113
2312,-1,-100,-100,-100,"0,0,0",2,0,76,0,0,0,65,68,78,40,100,-48.51,46,19.0,23.0,-982.0,12:43:10.136584,192.168.0.113
2317,-1,-100,-100,-100,"0,0,0",2,-1,77,0,0,0,65,68,79,40,100,-48.4,46,36.0,18.0,-991.0,12:43:10.236616,192.168.0.113
2322,-1,-100,-100,-100,"0,0,0",1,-1,77,0,0,0,65,68,79,40,100,-48.25,46,14.0,20.0,-961.0,12:43:10.340808,192.168.0.113
2327,-1,-100,-100,-100,"0,0,0",1,-1,77,0,0,0,65,68,79,40,100,-48.25,46,26.0,16.0,-971.0,12:43:10.440643,192.168.0.113
2333,-1,-100,-100,-100,"0,0,0",1,-1,77,0,0,0,65,68,79,40,100,-48.27,46,57.0,-12.0,-1009.0,12:43:10.546788,192.168.0.113
2338,-1,-100,-100,-100,"0,0,0",0,-1,77,0,0,0,65,68,79,40,100,-48.41,46,39.0,8.0,-984.0,12:43:10.644819,192.168.0.113
2343,-1,-100,-100,-100,"0,0,0",2,0,77,0,0,0,65,68,78,40,100,-48.41,46,24.0,9.0,-968.0,12:43:10.746632,192.168.0.113
2348,-1,-100,-100,-100,"0,0,0",2,0,77,0,0,0,65,68,77,40,100,-48.46,46,37.0,-12.0,-999.0,12:43:10.848671,192.168.0.113
2353,-1,-100,-100,-100,"0,0,0",2,0,77,0,0,0,65,68,77,40,100,-48.38,46,5.0,9.0,-1005.0,12:43:10.951787,192.168.0.113
2358,-1,-100,-100,-100,"0,0,0",1,0,77,0,0,0,65,68,76,40,100,-48.41,47,23.0,-8.0,-1017.0,12:43:11.052653,192.168.0.113
2363,-1,-100,-100,-100,"0,0,0",0,0,76,0,0,0,65,68,75,40,100,-48.48,47,9.0,-7.0,-1016.0,12:43:11.154593,192.168.0.113
2368,-1,-100,-100,-100,"0,0,0",0,0,76,0,0,0,65,68,75,40,100,-48.47,47,19.0,10.0,-1026.0,12:43:11.256521,192.168.0.113
2373,-1,-100,-100,-100,"0,0,0",0,0,76,0,0,0,65,68,76,40,100,-48.47,47,13.0,5.0,-1015.0,12:43:11.358518,192.168.0.113
2378,-1,-100,-100,-100,"0,0,0",0,0,76,0,0,0,65,68,75,40,100,-48.43,47,16.0,6.0,-1017.0,12:43:11.460392,192.168.0.113
2383,-1,-100,-100,-100,"0,0,0",0,0,76,0,0,0,65,68,75,40,100,-48.47,47,12.0,14.0,-1013.0,12:43:11.562557,192.168.0.113
2388,-1,-100,-100,-100,"0,0,0",0,0,76,0,0,0,65,68,76,40,100,-48.4,47,4.0,8.0,-1005.0,12:43:11.667644,192.168.0.113
2393,-1,-100,-100,-100,"0,0,0",0,0,76,0,0,0,65,68,76,40,100,-48.41,47,16.0,31.0,-1014.0,12:43:11.766455,192.168.0.113
2396,-1,-100,-100,-100,"0,0,0",0,0,76,0,0,0,65,68,75,40,100,-48.36,47,9.0,-10.0,-979.0,12:43:11.817442,192.168.0.113
2401,-1,-100,-100,-100,"0,0,0",0,0,76,0,0,0,65,68,77,40,100,-48.39,47,-2.0,34.0,-985.0,12:43:11.920891,192.168.0.113
2406,-1,-100,-100,-100,"0,0,0",0,0,75,0,0,0,65,68,76,40,100,-48.39,48,28.0,10.0,-987.0,12:43:12.021521,192.168.0.113
2411,-1,-100,-100,-100,"0,0,0",0,0,76,0,0,0,65,68,76,40,100,-48.41,48,51.0,16.0,-997.0,12:43:12.123667,192.168.0.113
2416,-1,-100,-100,-100,"0,0,0",1,0,76,0,0,0,65,68,76,40,100,-48.39,48,7.0,12.0,-1009.0,12:43:12.226015,192.168.0.113
2421,-1,-100,-100,-100,"0,0,0",2,-1,76,0,0,0,65,68,76,40,100,-48.37,48,44.0,-12.0,-1020.0,12:43:12.327671,192.168.0.113
2426,-1,-100,-100,-100,"0,0,0",2,-1,76,0,0,0,65,68,76,40,100,-48.39,48,12.0,14.0,-1010.0,12:43:12.429557,192.168.0.113
2432,-1,-100,-100,-100,"0,0,0",2,-1,76,0,0,0,65,68,77,40,100,-48.33,48,28.0,8.0,-1013.0,12:43:12.532169,192.168.0.113
2437,-1,-100,-100,-100,"0,0,0",1,-1,76,0,0,0,65,67,76,40,100,-48.3,48,25.0,13.0,-990.0,12:43:12.635622,192.168.0.113
2442,-1,-100,-100,-100,"0,0,0",1,-1,76,0,0,0,65,67,77,40,100,-48.38,48,18.0,0.0,-961.0,12:43:12.735542,192.168.0.113
2446,-1,-100,-100,-100,"0,0,0",1,-1,76,0,0,0,65,67,77,40,100,-48.38,48,25.0,-7.0,-998.0,12:43:12.838242,192.168.0.113
2452,-1,-100,-100,-100,"0,0,0",1,0,76,0,0,0,65,67,77,40,100,-48.34,48,40.0,-15.0,-995.0,12:43:12.939459,192.168.0.113
2457,-1,-100,-100,-100,"0,0,0",1,0,76,0,0,0,65,67,76,40,100,-48.31,49,22.0,14.0,-1005.0,12:43:13.041425,192.168.0.113
2462,-1,-100,-100,-100,"0,0,0",2,0,76,0,0,0,65,67,76,40,100,-48.29,49,1.0,6.0,-1014.0,12:43:13.143432,192.168.0.113
2467,-1,-100,-100,-100,"0,0,0",1,0,76,0,0,0,65,67,77,40,100,-48.28,49,27.0,3.0,-1011.0,12:43:13.245465,192.168.0.113
2472,-1,-100,-100,-100,"0,0,0",1,0,76,0,0,0,65,67,76,40,100,-48.3,49,27.0,7.0,-1007.0,12:43:13.347478,192.168.0.113
2477,-1,-100,-100,-100,"0,0,0",2,0,76,0,0,0,65,67,76,40,100,-48.39,49,25.0,-12.0,-998.0,12:43:13.449498,192.168.0.113
2482,-1,-100,-100,-100,"0,0,0",2,0,76,0,0,0,65,67,77,40,100,-48.36,49,19.0,-9.0,-954.0,12:43:13.553375,192.168.0.113
2486,-1,-100,-100,-100,"0,0,0",2,0,75,0,0,0,65,68,76,40,100,-48.27,49,40.0,1.0,-983.0,12:43:13.654586,192.168.0.113
2492,-1,-100,-100,-100,"0,0,0",1,1,75,0,0,0,65,68,76,40,100,-48.29,49,20.0,8.0,-948.0,12:43:13.755230,192.168.0.113
2497,-1,-100,-100,-100,"0,0,0",1,1,75,0,0,0,65,68,76,40,100,-48.29,49,10.0,13.0,-985.0,12:43:13.857431,192.168.0.113
2502,-1,-100,-100,-100,"0,0,0",1,0,75,0,0,0,65,68,76,40,100,-48.31,49,20.0,11.0,-1022.0,12:43:13.959110,192.168.0.113
2507,-1,-100,-100,-100,"0,0,0",1,0,75,0,0,0,65,68,76,40,100,-48.2,50,21.0,-4.0,-1013.0,12:43:14.061470,192.168.0.113
2513,-1,-100,-100,-100,"0,0,0",1,0,75,0,0,0,65,68,76,40,100,-48.37,50,58.0,6.0,-1016.0,12:43:14.163315,192.168.0.113
2518,-1,-100,-100,-100,"0,0,0",2,0,75,0,0,0,65,68,76,40,100,-48.37,50,10.0,5.0,-965.0,12:43:14.265456,192.168.0.113
2523,-1,-100,-100,-100,"0,0,0",2,0,75,0,0,0,65,68,76,40,100,-48.33,50,14.0,-3.0,-982.0,12:43:14.367440,192.168.0.113
2528,-1,-100,-100,-100,"0,0,0",2,0,75,0,0,0,65,68,76,40,100,-48.42,50,23.0,8.0,-986.0,12:43:14.469427,192.168.0.113
2533,-1,-100,-100,-100,"0,0,0",1,0,75,0,0,0,65,68,76,40,100,-48.4,50,20.0,7.0,-987.0,12:43:14.571453,192.168.0.113
2538,-1,-100,-100,-100,"0,0,0",1,0,75,0,0,0,65,67,76,40,100,-48.39,50,35.0,10.0,-1017.0,12:43:14.676239,192.168.0.113
2543,-1,-100,-100,-100,"0,0,0",1,0,76,0,0,0,65,67,75,40,100,-48.45,50,35.0,18.0,-1020.0,12:43:14.775412,192.168.0.113
2548,-1,-100,-100,-100,"0,0,0",1,-1,76,0,0,0,65,67,75,40,100,-48.4,50,6.0,-8.0,-1028.0,12:43:14.877461,192.168.0.113
2553,-1,-100,-100,-100,"0,0,0",1,-1,76,0,0,0,65,67,75,40,100,-48.4,50,2.0,14.0,-997.0,12:43:14.979020,192.168.0.113
2558,-1,-100,-100,-100,"0,0,0",0,-1,76,0,0,0,65,67,75,40,100,-48.43,51,8.0,7.0,-999.0,12:43:15.081705,192.168.0.113
