,mid,x,y,z,mpry,pitch,roll,yaw,vgx,vgy,vgz,templ,temph,tof,h,bat,baro,time,agx,agy,agz,timestamp,address
1,-1,-100,-100,-100,"0,0,0",0,0,106,0,0,0,62,66,10,0,100,-48.47,0,6.0,-10.0,-998.0,12:42:23.753989,192.168.0.112
6,-1,-100,-100,-100,"0,0,0",0,0,106,0,0,0,62,65,10,0,100,-48.51,0,6.0,-9.0,-1000.0,12:42:23.856132,192.168.0.112
11,-1,-100,-100,-100,"0,0,0",0,0,106,0,0,0,62,65,10,0,100,-48.49,0,2.0,-10.0,-998.0,12:42:23.958710,192.168.0.112
16,-1,-100,-100,-100,"0,0,0",0,0,106,0,0,0,62,65,10,0,100,-48.49,0,0.0,-13.0,-998.0,12:42:24.059487,192.168.0.112
22,-1,-100,-100,-100,"0,0,0",0,0,106,0,0,0,62,65,10,0,100,-48.49,0,-11.0,0.0,-1006.0,12:42:24.163488,192.168.0.112
27,-1,-100,-100,-100,"0,0,0",0,0,106,0,0,0,62,65,10,0,100,-48.49,0,16.0,-15.0,-1017.0,12:42:24.264820,192.168.0.112
32,-1,-100,-100,-100,"0,0,0",0,0,107,0,0,0,62,65,10,0,100,-48.49,0,7.0,-14.0,-1106.0,12:42:24.364869,192.168.0.112
37,-1,-100,-100,-100,"0,0,0",-1,0,107,0,0,0,62,65,10,0,100,-48.49,0,12.0,3.0,-1270.0,12:42:24.467040,192.168.0.112
42,-1,-100,-100,-100,"0,0,0",0,0,107,0,0,3,62,65,10,0,100,-48.49,0,30.0,-23.0,-1323.0,12:42:24.568906,192.168.0.112
48,-1,-100,-100,-100,"0,0,0",0,0,107,0,0,6,62,65,11,0,100,-48.41,0,19.0,-18.0,-1133.0,12:42:24.671299,192.168.0.112
53,-1,-100,-100,-100,"0,0,0",2,0,107,0,0,7,62,65,19,0,100,-47.98,0,82.0,2.0,-1029.0,12:42:24.772903,192.168.0.112
59,-1,-100,-100,-100,"0,0,0",1,0,107,0,0,7,62,66,28,10,100,-47.95,0,100.0,2.0,-948.0,12:42:24.874893,192.168.0.112
64,-1,-100,-100,-100,"0,0,0",2,0,107,0,-1,7,62,66,37,10,100,-47.87,1,84.0,34.0,-917.0,12:42:24.978758,192.168.0.112
69,-1,-100,-100,-100,"0,0,0",4,0,107,0,-1,6,62,66,46,20,100,-47.7,1,116.0,0.0,-940.0,12:42:25.080504,192.168.0.112
74,-1,-100,-100,-100,"0,0,0",5,0,107,0,-2,5,62,66,53,20,100,-47.81,1,76.0,0.0,-942.0,12:42:25.182591,192.168.0.112
79,-1,-100,-100,-100,"0,0,0",7,0,106,0,-2,5,62,66,61,30,100,-47.73,1,93.0,-13.0,-832.0,12:42:25.282838,192.168.0.112
84,-1,-100,-100,-100,"0,0,0",8,0,106,0,-1,3,62,66,68,30,100,-47.65,1,70.0,-5.0,-878.0,12:42:25.384908,192.168.0.112
89,-1,-100,-100,-100,"0,0,0",8,0,107,0,-1,2,62,66,74,30,100,-47.51,1,58.0,-8.0,-904.0,12:42:25.489326,192.168.0.112
94,-1,-100,-100,-100,"0,0,0",7,0,107,0,-1,1,62,66,78,40,100,-47.6,1,26.0,3.0,-959.0,12:42:25.588584,192.168.0.112
99,-1,-100,-100,-100,"0,0,0",6,0,107,0,0,1,62,66,81,40,100,-47.6,1,40.0,-2.0,-958.0,12:42:25.690794,192.168.0.112
104,-1,-100,-100,-100,"0,0,0",4,0,107,0,0,0,62,66,84,40,100,-47.51,1,22.0,24.0,-946.0,12:42:25.792813,192.168.0.112
105,-1,-100,-100,-100,"0,0,0",3,0,107,0,0,0,62,64,86,40,100,-47.5,1,15.0,-6.0,-963.0,12:42:25.843813,192.168.0.112
110,-1,-100,-100,-100,"0,0,0",2,0,107,0,1,0,62,64,88,40,100,-47.47,2,28.0,-6.0,-966.0,12:42:25.945756,192.168.0.112
115,-1,-100,-100,-100,"0,0,0",1,0,106,0,1,0,62,64,90,40,100,-47.61,2,5.0,2.0,-960.0,12:42:26.047985,192.168.0.112
121,-1,-100,-100,-100,"0,0,0",1,0,106,0,1,0,62,64,92,50,100,-47.52,2,11.0,6.0,-975.0,12:42:26.149725,192.168.0.112
126,-1,-100,-100,-100,"0,0,0",0,0,107,0,1,0,62,64,93,50,100,-47.46,2,17.0,-6.0,-947.0,12:42:26.251831,192.168.0.112
131,-1,-100,-100,-100,"0,0,0",0,0,107,0,1,0,62,64,94,50,100,-47.41,2,14.0,9.0,-964.0,12:42:26.353869,192.168.0.112
136,-1,-100,-100,-100,"0,0,0",0,0,106,0,1,0,62,64,95,50,100,-47.4,2,19.0,9.0,-958.0,12:42:26.457424,192.168.0.112
141,-1,-100,-100,-100,"0,0,0",0,0,106,0,1,0,62,64,95,50,100,-47.42,2,27.0,17.0,-990.0,12:42:26.561599,192.168.0.112
147,-1,-100,-100,-100,"0,0,0",0,0,106,0,0,0,62,64,95,50,100,-47.38,2,41.0,20.0,-957.0,12:42:26.659828,192.168.0.112
152,-1,-100,-100,-100,"0,0,0",0,0,106,0,0,-1,62,64,95,50,100,-47.52,2,19.0,-5.0,-962.0,12:42:26.761740,192.168.0.112
157,-1,-100,-100,-100,"0,0,0",0,-1,106,0,0,0,62,65,94,50,100,-47.49,2,0.0,-20.0,-1009.0,12:42:26.863833,192.168.0.112
162,-1,-100,-100,-100,"0,0,0",0,0,106,0,0,0,62,65,95,50,100,-47.35,3,22.0,-17.0,-998.0,12:42:26.965810,192.168.0.112
167,-1,-100,-100,-100,"0,0,0",0,0,106,0,0,-1,62,65,94,50,100,-47.48,3,13.0,-13.0,-999.0,12:42:27.067923,192.168.0.112
173,-1,-100,-100,-100,"0,0,0",1,0,106,0,0,0,62,65,93,50,100,-47.46,3,4.0,-17.0,-936.0,12:42:27.171620,192.168.0.112
178,-1,-100,-100,-100,"0,0,0",0,0,107,0,0,-1,62,65,92,50,100,-47.42,3,-6.0,-18.0,-957.0,12:42:27.271690,192.168.0.112
184,-1,-100,-100,-100,"0,0,0",0,1,107,0,0,-1,62,65,91,50,100,-47.52,3,9.0,-11.0,-1052.0,12:42:27.373733,192.168.0.112
189,-1,-100,-100,-100,"0,0,0",0,2,107,0,0,-1,62,65,90,50,100,-47.48,3,21.0,-29.0,-977.0,12:42:27.475858,192.168.0.112
194,-1,-100,-100,-100,"0,0,0",0,2,107,0,0,-1,62,65,90,50,100,-47.42,3,17.0,-18.0,-991.0,12:42:27.577758,192.168.0.112
199,-1,-100,-100,-100,"0,0,0",1,2,106,0,0,-1,62,65,89,50,100,-47.44,3,35.0,-19.0,-1023.0,12:42:27.679787,192.168.0.112
204,-1,-100,-100,-100,"0,0,0",0,1,106,0,0,-1,62,65,87,50,100,-47.42,3,13.0,1.0,-1006.0,12:42:27.781716,192.168.0.112
209,-1,-100,-100,-100,"0,0,0",1,1,106,0,0,-1,63,65,86,50,100,-47.39,3,7.0,-14.0,-1015.0,12:42:27.883778,192.168.0.112
214,-1,-100,-100,-100,"0,0,0",1,0,106,0,0,-1,63,65,85,50,100,-47.52,4,32.0,-12.0,-1007.0,12:42:27.985649,192.168.0.112
219,-1,-100,-100,-100,"0,0,0",1,0,106,0,0,-1,63,65,83,50,100,-47.57,4,4.0,-6.0,-1020.0,12:42:28.088365,192.168.0.112
224,-1,-100,-100,-100,"0,0,0",1,0,107,0,0,0,63,65,83,50,100,-47.59,4,-6.0,-1.0,-1048.0,12:42:28.191286,192.168.0.112
229,-1,-100,-100,-100,"0,0,0",0,0,107,0,0,0,63,65,82,40,100,-47.57,4,18.0,-17.0,-1008.0,12:42:28.294031,192.168.0.112
234,-1,-100,-100,-100,"0,0,0",0,0,107,0,0,0,63,65,81,40,100,-47.63,4,0.0,-4.0,-1016.0,12:42:28.393941,192.168.0.112
235,-1,-100,-100,-100,"0,0,0",0,0,107,0,0,0,63,65,81,40,100,-47.53,4,12.0,-8.0,-1017.0,12:42:28.444826,192.168.0.112
240,-1,-100,-100,-100,"0,0,0",0,0,107,0,0,0,63,65,81,40,100,-47.54,4,17.0,-12.0,-985.0,12:42:28.548875,192.168.0.112
245,-1,-100,-100,-100,"0,0,0",0,0,107,0,0,0,63,65,81,40,100,-47.54,4,5.0,-2.0,-1001.0,12:42:28.648740,192.168.0.112
250,-1,-100,-100,-100,"0,0,0",0,0,107,0,0,0,63,65,80,40,100,-47.58,4,3.0,-7.0,-996.0,12:42:28.750681,192.168.0.112
255,-1,-100,-100,-100,"0,0,0",0,0,107,0,0,0,63,65,80,40,100,-47.57,4,-5.0,-3.0,-1032.0,12:42:28.852760,192.168.0.112
260,-1,-100,-100,-100,"0,0,0",0,0,107,0,0,0,63,65,80,40,100,-47.54,5,-4.0,-11.0,-1005.0,12:42:28.954663,192.168.0.112
265,-1,-100,-100,-100,"0,0,0",0,0,108,0,0,0,63,65,80,40,100,-47.58,5,10.0,-16.0,-993.0,12:42:29.060255,192.168.0.112
271,-1,-100,-100,-100,"0,0,0",0,0,107,0,0,0,63,65,80,40,100,-47.6,5,16.0,-15.0,-1007.0,12:42:29.158843,192.168.0.112
276,-1,-100,-100,-100,"0,0,0",0,0,107,0,0,0,63,65,80,40,100,-47.48,5,-2.0,-5.0,-1008.0,12:42:29.264458,192.168.0.112
282,-1,-100,-100,-100,"0,0,0",0,1,107,0,0,0,63,65,80,40,100,-47.49,5,17.0,-17.0,-997.0,12:42:29.362533,192.168.0.112
287,-1,-100,-100,-100,"0,0,0",0,0,107,0,0,0,63,65,80,40,100,-47.52,5,13.0,-6.0,-996.0,12:42:29.464685,192.168.0.112
292,-1,-100,-100,-100,"0,0,0",0,0,107,0,0,0,63,65,81,40,100,-47.55,5,13.0,-10.0,-1007.0,12:42:29.571460,192.168.0.112
297,-1,-100,-100,-100,"0,0,0",0,0,107,0,0,0,63,65,81,40,100,-47.51,5,-2.0,-15.0,-998.0,12:42:29.669097,192.168.0.112
303,-1,-100,-100,-100,"0,0,0",0,0,107,0,0,0,63,65,81,40,100,-47.53,5,-1.0,-5.0,-991.0,12:42:29.770584,192.168.0.112
308,-1,-100,-100,-100,"0,0,0",0,0,107,0,0,0,63,66,81,40,100,-47.44,5,15.0,-10.0,-1019.0,12:42:29.872649,192.168.0.112
314,-1,-100,-100,-100,"0,0,0",0,0,107,0,0,0,63,66,81,40,100,-47.51,6,-2.0,-9.0,-1018.0,12:42:29.978205,192.168.0.112
319,-1,-100,-100,-100,"0,0,0",0,0,107,0,0,0,63,66,81,40,100,-47.51,6,5.0,-17.0,-1020.0,12:42:30.076576,192.168.0.112
324,-1,-100,-100,-100,"0,0,0",0,0,107,0,0,0,63,66,82,40,100,-47.48,6,8.0,-11.0,-1017.0,12:42:30.178665,192.168.0.112
329,-1,-100,-100,-100,"0,0,0",0,0,107,0,0,0,63,66,82,40,100,-47.47,6,18.0,-11.0,-1007.0,12:42:30.280764,192.168.0.112
334,-1,-100,-100,-100,"0,0,0",0,0,107,0,0,0,63,66,84,50,100,-47.47,6,-7.0,-8.0,-1002.0,12:42:30.385391,192.168.0.112
339,-1,-100,-100,-100,"0,0,0",0,0,107,0,0,0,63,66,84,50,100,-47.42,6,-1.0,0.0,-983.0,12:42:30.484729,192.168.0.112
344,-1,-100,-100,-100,"0,0,0",0,0,107,0,0,0,63,66,84,50,100,-47.53,6,6.0,-15.0,-986.0,12:42:30.586665,192.168.0.112
349,-1,-100,-100,-100,"0,0,0",0,0,107,0,0,0,63,66,84,50,100,-47.57,6,-15.0,4.0,-1000.0,12:42:30.688739,192.168.0.112
354,-1,-100,-100,-100,"0,0,0",0,0,107,0,0,0,63,66,84,50,100,-47.45,6,-10.0,0.0,-991.0,12:42:30.791286,192.168.0.112
359,-1,-100,-100,-100,"0,0,0",0,0,107,0,0,0,63,65,85,50,100,-47.57,6,-15.0,8.0,-984.0,12:42:30.892793,192.168.0.112
360,-1,-100,-100,-100,"0,0,0",0,0,107,0,0,0,63,65,85,50,100,-47.52,7,-25.0,4.0,-983.0,12:42:30.943665,192.168.0.112
365,-1,-100,-100,-100,"0,0,0",0,0,107,0,0,0,63,65,85,50,100,-47.51,7,-16.0,0.0,-984.0,12:42:31.045859,192.168.0.112
370,-1,-100,-100,-100,"0,0,0",0,0,107,0,0,0,63,65,84,50,100,-47.61,7,-16.0,9.0,-998.0,12:42:31.147875,192.168.0.112
375,-1,-100,-100,-100,"0,0,0",0,0,107,0,0,0,63,65,84,50,100,-47.63,7,-12.0,22.0,-1004.0,12:42:31.249773,192.168.0.112
380,-1,-100,-100,-100,"0,0,0",0,0,107,0,0,0,63,65,83,50,100,-47.6,7,-28.0,26.0,-1007.0,12:42:31.351698,192.168.0.112
385,-1,-100,-100,-100,"0,0,0",-1,0,107,0,0,0,63,65,83,50,100,-47.68,7,-6.0,4.0,-992.0,12:42:31.453743,192.168.0.112
390,-1,-100,-100,-100,"0,0,0",-1,0,107,0,0,0,63,65,83,50,100,-47.53,7,-6.0,12.0,-997.0,12:42:31.555481,192.168.0.112
395,-1,-100,-100,-100,"0,0,0",-1,0,107,0,0,0,63,65,83,50,100,-47.59,7,-19.0,9.0,-1011.0,12:42:31.657645,192.168.0.112
401,-1,-100,-100,-100,"0,0,0",-1,-1,107,0,0,0,63,65,83,40,100,-47.56,7,-25.0,-8.0,-1006.0,12:42:31.760469,192.168.0.112
406,-1,-100,-100,-100,"0,0,0",0,-1,107,0,0,0,63,65,82,40,100,-47.48,7,-33.0,19.0,-994.0,12:42:31.861813,192.168.0.112
411,-1,-100,-100,-100,"0,0,0",-1,-1,107,0,0,0,63,65,83,40,100,-47.61,8,-30.0,22.0,-972.0,12:42:31.964332,192.168.0.112
416,-1,-100,-100,-100,"0,0,0",-1,-1,107,0,0,0,63,65,83,40,100,-47.51,8,-8.0,12.0,-1024.0,12:42:32.065739,192.168.0.112
421,-1,-100,-100,-100,"0,0,0",0,-1,107,0,0,0,63,65,82,40,100,-47.53,8,-19.0,17.0,-1003.0,12:42:32.167672,192.168.0.112
426,-1,-100,-100,-100,"0,0,0",0,-1,107,0,0,0,63,65,82,40,100,-47.53,8,-24.0,22.0,-991.0,12:42:32.269537,192.168.0.112
432,-1,-100,-100,-100,"0,0,0",0,-1,107,0,0,0,63,65,82,40,100,-47.55,8,-15.0,18.0,-991.0,12:42:32.372487,192.168.0.112
439,-1,-100,-100,-100,"0,0,0",-1,-1,107,0,0,0,63,65,82,40,100,-47.54,8,-22.0,28.0,-989.0,12:42:32.473570,192.168.0.112
444,-1,-100,-100,-100,"0,0,0",0,-1,107,0,0,0,63,65,82,40,100,-47.5,8,-26.0,19.0,-984.0,12:42:32.575888,192.168.0.112
449,-1,-100,-100,-100,"0,0,0",0,-1,107,0,0,0,63,65,82,40,100,-47.55,8,-14.0,8.0,-994.0,12:42:32.677705,192.168.0.112
454,-1,-100,-100,-100,"0,0,0",0,-1,107,0,0,0,63,65,82,40,100,-47.58,8,-25.0,18.0,-1002.0,12:42:32.779671,192.168.0.112
458,-1,-100,-100,-100,"0,0,0",0,0,107,0,0,0,63,65,81,40,100,-47.53,8,-14.0,25.0,-982.0,12:42:32.881793,192.168.0.112
464,-1,-100,-100,-100,"0,0,0",0,0,107,0,0,0,63,65,82,40,100,-47.55,9,-7.0,11.0,-996.0,12:42:32.983491,192.168.0.112
469,-1,-100,-100,-100,"0,0,0",0,0,107,0,0,0,63,65,82,40,100,-47.52,9,-26.0,17.0,-1001.0,12:42:33.085657,192.168.0.112
474,-1,-100,-100,-100,"0,0,0",0,-1,107,0,0,0,63,65,82,40,100,-47.53,9,-4.0,4.0,-1005.0,12:42:33.187484,192.168.0.112
479,-1,-100,-100,-100,"0,0,0",0,0,107,0,0,0,63,65,81,40,100,-47.56,9,-17.0,9.0,-1012.0,12:42:33.292332,192.168.0.112
484,-1,-100,-100,-100,"0,0,0",0,0,107,0,0,0,63,65,81,40,100,-47.56,9,-17.0,3.0,-1002.0,12:42:33.391605,192.168.0.112
489,-1,-100,-100,-100,"0,0,0",0,0,107,0,0,0,63,65,81,40,100,-47.52,9,-25.0,9.0,-997.0,12:42:33.496394,192.168.0.112
494,-1,-100,-100,-100,"0,0,0",0,0,107,0,0,0,63,65,81,40,100,-47.57,9,-9.0,6.0,-998.0,12:42:33.595686,192.168.0.112
495,-1,-100,-100,-100,"0,0,0",0,0,107,0,0,0,63,65,81,40,100,-47.55,9,-21.0,15.0,-993.0,12:42:33.646615,192.168.0.112
500,-1,-100,-100,-100,"0,0,0",0,0,107,0,0,0,63,65,81,40,100,-47.62,9,-8.0,-5.0,-983.0,12:42:33.748466,192.168.0.112
505,-1,-100,-100,-100,"0,0,0",0,0,107,0,0,0,62,64,81,40,100,-47.59,9,-11.0,-4.0,-994.0,12:42:33.850094,192.168.0.112
510,-1,-100,-100,-100,"0,0,0",0,0,107,0,0,0,62,64,81,40,100,-47.66,10,-10.0,8.0,-994.0,12:42:33.952597,192.168.0.112
515,-1,-100,-100,-100,"0,0,0",0,0,107,0,0,0,62,64,81,40,100,-47.65,10,-26.0,16.0,-1002.0,12:42:34.054667,192.168.0.112
520,-1,-100,-100,-100,"0,0,0",0,0,107,0,0,0,62,64,82,40,100,-47.56,10,-20.0,25.0,-993.0,12:42:34.156828,192.168.0.112
526,-1,-100,-100,-100,"0,0,0",0,0,107,0,0,0,62,64,81,40,100,-47.6,10,9.0,-2.0,-997.0,12:42:34.259289,192.168.0.112
531,-1,-100,-100,-100,"0,0,0",0,0,107,0,0,0,62,64,82,40,100,-47.59,10,-16.0,9.0,-1000.0,12:42:34.361669,192.168.0.112
536,-1,-100,-100,-100,"0,0,0",0,0,107,0,0,0,62,64,81,40,100,-47.55,10,-13.0,-4.0,-984.0,12:42:34.464225,192.168.0.112
541,-1,-100,-100,-100,"0,0,0",0,0,107,0,0,0,62,64,81,40,100,-47.55,10,-13.0,-8.0,-1007.0,12:42:34.566463,192.168.0.112
546,-1,-100,-100,-100,"0,0,0",0,0,107,0,0,0,62,64,81,40,100,-47.67,10,-15.0,9.0,-998.0,12:42:34.668715,192.168.0.112
551,-1,-100,-100,-100,"0,0,0",0,0,107,0,0,0,62,64,82,40,100,-47.66,10,-5.0,0.0,-992.0,12:42:34.768735,192.168.0.112
556,-1,-100,-100,-100,"0,0,0",0,0,107,0,0,0,63,65,81,40,100,-47.62,10,-13.0,6.0,-1003.0,12:42:34.870441,192.168.0.112
561,-1,-100,-100,-100,"0,0,0",0,0,107,0,0,0,63,65,81,40,100,-47.54,11,7.0,0.0,-990.0,12:42:34.972576,192.168.0.112
568,-1,-100,-100,-100,"0,0,0",0,0,107,0,0,0,63,65,81,40,100,-47.57,11,-6.0,12.0,-999.0,12:42:35.075754,192.168.0.112
573,-1,-100,-100,-100,"0,0,0",0,0,107,0,0,0,63,65,81,40,100,-47.6,11,-7.0,10.0,-1008.0,12:42:35.176569,192.168.0.112
578,-1,-100,-100,-100,"0,0,0",0,0,107,0,0,0,63,65,81,40,100,-47.6,11,2.0,18.0,-992.0,12:42:35.278551,192.168.0.112
583,-1,-100,-100,-100,"0,0,0",0,0,107,0,0,0,63,65,80,40,100,-47.48,11,0.0,14.0,-1006.0,12:42:35.382439,192.168.0.112
588,-1,-100,-100,-100,"0,0,0",0,0,107,0,0,0,63,65,80,40,100,-47.53,11,-5.0,30.0,-1009.0,12:42:35.483065,192.168.0.112
593,-1,-100,-100,-100,"0,0,0",0,-1,107,0,0,0,63,65,80,40,100,-47.48,11,-1.0,26.0,-1001.0,12:42:35.585778,192.168.0.112
598,-1,-100,-100,-100,"0,0,0",0,-1,107,0,0,0,63,65,81,40,100,-47.54,11,5.0,32.0,-994.0,12:42:35.686651,192.168.0.112
603,-1,-100,-100,-100,"0,0,0",0,-1,107,0,0,0,63,65,80,40,100,-47.55,11,-1.0,23.0,-1012.0,12:42:35.788537,192.168.0.112
608,-1,-100,-100,-100,"0,0,0",0,-1,107,0,0,0,62,64,81,40,100,-47.51,11,1.0,25.0,-987.0,12:42:35.890562,192.168.0.112
613,-1,-100,-100,-100,"0,0,0",0,-1,107,0,0,0,62,64,81,40,100,-47.44,12,25.0,0.0,-998.0,12:42:35.992567,192.168.0.112
618,-1,-100,-100,-100,"0,0,0",0,-1,107,0,0,0,62,64,81,40,100,-47.58,12,25.0,-6.0,-1008.0,12:42:36.095283,192.168.0.112
624,-1,-100,-100,-100,"0,0,0",0,-1,107,0,0,0,62,64,80,40,100,-47.51,12,-4.0,5.0,-996.0,12:42:36.198221,192.168.0.112
629,-1,-100,-100,-100,"0,0,0",0,0,107,0,0,0,62,64,81,40,100,-47.55,12,-3.0,16.0,-997.0,12:42:36.301836,192.168.0.112
634,-1,-100,-100,-100,"0,0,0",0,0,107,0,0,0,62,64,81,40,100,-47.5,12,-17.0,26.0,-1015.0,12:42:36.402246,192.168.0.112
639,-1,-100,-100,-100,"0,0,0",0,0,107,0,0,0,62,64,81,40,100,-47.56,12,-13.0,10.0,-998.0,12:42:36.502417,192.168.0.112
644,-1,-100,-100,-100,"0,0,0",0,0,107,0,0,0,62,64,81,40,100,-47.56,12,-2.0,4.0,-992.0,12:42:36.604339,192.168.0.112
649,-1,-100,-100,-100,"0,0,0",0,0,107,0,0,0,62,64,81,40,100,-47.54,12,-10.0,2.0,-1000.0,12:42:36.706465,192.168.0.112
654,-1,-100,-100,-100,"0,0,0",0,0,107,0,0,0,62,64,81,40,100,-47.45,12,-15.0,6.0,-988.0,12:42:36.808575,192.168.0.112
659,-1,-100,-100,-100,"0,0,0",0,0,107,0,0,0,62,65,81,40,100,-47.54,12,-15.0,-7.0,-991.0,12:42:36.910458,192.168.0.112
664,-1,-100,-100,-100,"0,0,0",0,0,107,0,0,0,62,65,82,40,100,-47.53,13,-21.0,4.0,-984.0,12:42:37.012529,192.168.0.112
666,-1,-100,-100,-100,"0,0,0",-1,0,107,0,0,0,62,65,82,40,100,-47.41,13,-19.0,10.0,-995.0,12:42:37.063356,192.168.0.112
671,-1,-100,-100,-100,"0,0,0",-1,0,107,0,0,0,62,65,81,40,100,-47.65,13,1.0,13.0,-1012.0,12:42:37.165688,192.168.0.112
676,-1,-100,-100,-100,"0,0,0",-1,0,106,0,0,0,62,65,82,40,100,-47.47,13,-16.0,16.0,-1016.0,12:42:37.267365,192.168.0.112
681,-1,-100,-100,-100,"0,0,0",0,0,106,0,0,0,62,65,82,40,100,-47.43,13,-16.0,8.0,-1001.0,12:42:37.369518,192.168.0.112
686,-1,-100,-100,-100,"0,0,0",0,0,106,0,0,0,62,65,81,40,100,-47.56,13,-16.0,7.0,-963.0,12:42:37.471502,192.168.0.112
692,-1,-100,-100,-100,"0,0,0",0,0,106,0,0,0,62,65,81,40,100,-47.43,13,-15.0,8.0,-938.0,12:42:37.579288,192.168.0.112
697,-1,-100,-100,-100,"0,0,0",0,0,106,0,0,0,62,65,81,40,100,-47.6,13,-21.0,4.0,-1011.0,12:42:37.675541,192.168.0.112
702,-1,-100,-100,-100,"0,0,0",0,0,106,0,0,0,62,65,81,40,100,-47.73,13,-26.0,-19.0,-1036.0,12:42:37.777511,192.168.0.112
707,-1,-100,-100,-100,"0,0,0",0,0,106,0,0,0,62,65,81,40,100,-47.67,13,-27.0,-6.0,-1019.0,12:42:37.879510,192.168.0.112
712,-1,-100,-100,-100,"0,0,0",0,0,107,0,0,0,62,65,81,40,100,-47.52,14,-29.0,27.0,-1019.0,12:42:37.981287,192.168.0.112
717,-1,-100,-100,-100,"0,0,0",-1,0,107,0,0,0,62,65,81,40,100,-47.56,14,-29.0,-6.0,-998.0,12:42:38.083839,192.168.0.112
722,-1,-100,-100,-100,"0,0,0",-1,0,107,0,0,0,62,65,81,40,100,-47.49,14,-42.0,3.0,-979.0,12:42:38.187319,192.168.0.112
728,-1,-100,-100,-100,"0,0,0",-1,0,107,0,0,0,62,65,82,40,100,-47.54,14,-43.0,16.0,-992.0,12:42:38.287465,192.168.0.112
733,-1,-100,-100,-100,"0,0,0",-1,0,107,0,0,0,62,65,82,40,100,-47.62,14,-33.0,15.0,-1004.0,12:42:38.389819,192.168.0.112
738,-1,-100,-100,-100,"0,0,0",-2,0,107,0,0,0,62,65,82,40,100,-47.6,14,-28.0,0.0,-985.0,12:42:38.492041,192.168.0.112
743,-1,-100,-100,-100,"0,0,0",-2,0,107,0,0,0,62,65,82,40,100,-47.6,14,-20.0,-6.0,-997.0,12:42:38.595082,192.168.0.112
748,-1,-100,-100,-100,"0,0,0",-1,0,107,0,0,0,62,65,82,40,100,-47.58,14,-44.0,9.0,-1002.0,12:42:38.695386,192.168.0.112
753,-1,-100,-100,-100,"0,0,0",-1,0,107,0,0,0,62,65,82,40,100,-47.58,14,-26.0,0.0,-975.0,12:42:38.797452,192.168.0.112
758,-1,-100,-100,-100,"0,0,0",-1,0,107,0,0,0,63,65,82,40,100,-47.68,14,-32.0,0.0,-1052.0,12:42:38.899004,192.168.0.112
763,-1,-100,-100,-100,"0,0,0",-1,0,106,0,0,0,63,65,81,40,100,-47.6,15,-28.0,4.0,-1007.0,12:42:39.001616,192.168.0.112
768,-1,-100,-100,-100,"0,0,0",-1,0,106,0,0,0,63,65,81,40,100,-47.67,15,-39.0,6.0,-969.0,12:42:39.106441,192.168.0.112
773,-1,-100,-100,-100,"0,0,0",-1,0,106,0,0,0,63,65,81,40,100,-47.75,15,-36.0,8.0,-968.0,12:42:39.205452,192.168.0.112
778,-1,-100,-100,-100,"0,0,0",-1,0,106,0,0,0,63,65,81,40,100,-47.73,15,-27.0,4.0,-1021.0,12:42:39.307306,192.168.0.112
783,-1,-100,-100,-100,"0,0,0",-1,0,106,0,0,0,63,65,80,40,100,-47.61,15,-16.0,26.0,-1029.0,12:42:39.409550,192.168.0.112
789,-1,-100,-100,-100,"0,0,0",-1,0,106,0,0,0,63,65,81,40,100,-47.54,15,-19.0,0.0,-1050.0,12:42:39.511560,192.168.0.112
794,-1,-100,-100,-100,"0,0,0",-1,-1,106,0,0,0,63,65,80,40,100,-47.54,15,-15.0,-3.0,-964.0,12:42:39.613144,192.168.0.112
799,-1,-100,-100,-100,"0,0,0",-1,-1,106,0,0,0,63,65,80,40,100,-47.71,15,-11.0,-42.0,-988.0,12:42:39.715590,192.168.0.112
804,-1,-100,-100,-100,"0,0,0",-1,-1,106,0,0,0,63,65,80,40,100,-47.71,15,-6.0,-18.0,-967.0,12:42:39.823013,192.168.0.112
809,-1,-100,-100,-100,"0,0,0",0,1,107,0,0,0,63,65,80,40,100,-47.7,16,-5.0,10.0,-1016.0,12:42:39.919215,192.168.0.112
814,-1,-100,-100,-100,"0,0,0",0,1,107,0,0,0,63,65,80,40,100,-47.72,16,-23.0,-7.0,-969.0,12:42:40.021301,192.168.0.112
819,-1,-100,-100,-100,"0,0,0",0,1,107,0,0,0,63,65,80,40,100,-47.72,16,-16.0,-8.0,-1048.0,12:42:40.124718,192.168.0.112
824,-1,-100,-100,-100,"0,0,0",0,1,107,0,0,0,63,65,81,40,100,-47.53,16,-19.0,-16.0,-962.0,12:42:40.225405,192.168.0.112
829,-1,-100,-100,-100,"0,0,0",0,1,107,0,0,0,63,65,81,40,100,-47.54,16,-25.0,-10.0,-979.0,12:42:40.327484,192.168.0.112
834,-1,-100,-100,-100,"0,0,0",0,1,107,0,0,0,63,65,82,40,100,-47.43,16,2.0,-30.0,-991.0,12:42:40.429473,192.168.0.112
839,-1,-100,-100,-100,"0,0,0",0,1,107,0,0,0,63,65,82,40,100,-47.45,16,-2.0,-21.0,-1008.0,12:42:40.531448,192.168.0.112
842,-1,-100,-100,-100,"0,0,0",0,1,107,0,0,0,63,65,82,40,100,-47.47,16,-18.0,-13.0,-995.0,12:42:40.582265,192.168.0.112
847,-1,-100,-100,-100,"0,0,0",0,1,107,0,0,0,63,65,82,40,100,-47.44,16,-3.0,-5.0,-988.0,12:42:40.685435,192.168.0.112
852,-1,-100,-100,-100,"0,0,0",0,1,107,0,0,0,63,65,83,40,100,-47.39,16,-35.0,4.0,-985.0,12:42:40.786464,192.168.0.112
857,-1,-100,-100,-100,"0,0,0",0,1,107,0,0,0,62,65,82,40,100,-47.53,17,-4.0,11.0,-955.0,12:42:40.888281,192.168.0.112
862,-1,-100,-100,-100,"0,0,0",0,0,107,0,0,0,62,65,83,40,100,-47.55,17,-8.0,-3.0,-977.0,12:42:40.990274,192.168.0.112
867,-1,-100,-100,-100,"0,0,0",0,0,107,0,0,0,62,65,82,40,100,-47.61,17,-9.0,-22.0,-1018.0,12:42:41.092404,192.168.0.112
872,-1,-100,-100,-100,"0,0,0",0,0,107,0,0,0,62,65,82,40,100,-47.59,17,-17.0,-12.0,-1014.0,12:42:41.194351,192.168.0.112
877,-1,-100,-100,-100,"0,0,0",0,0,107,0,0,0,62,65,82,40,100,-47.45,17,9.0,-6.0,-1020.0,12:42:41.296417,192.168.0.112
882,-1,-100,-100,-100,"0,0,0",0,0,107,0,0,0,62,65,82,40,100,-47.51,17,-6.0,-5.0,-1038.0,12:42:41.398914,192.168.0.112
887,-1,-100,-100,-100,"0,0,0",0,0,107,0,0,0,62,65,82,40,100,-47.46,17,-12.0,0.0,-993.0,12:42:41.500415,192.168.0.112
892,-1,-100,-100,-100,"0,0,0",0,0,107,0,0,0,62,65,82,40,100,-47.5,17,-11.0,11.0,-1019.0,12:42:41.605798,192.168.0.112
897,-1,-100,-100,-100,"0,0,0",0,0,107,0,0,0,62,65,82,40,100,-47.45,17,-7.0,8.0,-987.0,12:42:41.706255,192.168.0.112
902,-1,-100,-100,-100,"0,0,0",0,0,107,0,0,0,62,65,81,40,100,-47.47,17,-9.0,8.0,-980.0,12:42:41.806340,192.168.0.112
908,-1,-100,-100,-100,"0,0,0",0,0,107,0,0,0,62,65,81,40,100,-47.47,18,-7.0,12.0,-973.0,12:42:41.908370,192.168.0.112
913,-1,-100,-100,-100,"0,0,0",0,-1,107,0,0,0,62,65,81,40,100,-47.51,18,4.0,0.0,-1004.0,12:42:42.010970,192.168.0.112
918,-1,-100,-100,-100,"0,0,0",0,-1,107,0,0,0,62,65,81,40,100,-47.5,18,17.0,-5.0,-1004.0,12:42:42.112601,192.168.0.112
923,-1,-100,-100,-100,"0,0,0",0,0,107,0,0,0,62,65,81,40,100,-47.51,18,17.0,-19.0,-973.0,12:42:42.214413,192.168.0.112
928,-1,-100,-100,-100,"0,0,0",1,0,107,0,0,0,62,65,81,40,100,-47.55,18,6.0,-31.0,-1020.0,12:42:42.316438,192.168.0.112
933,-1,-100,-100,-100,"0,0,0",0,0,107,0,0,0,62,65,82,40,100,-47.72,18,-5.0,-11.0,-1020.0,12:42:42.418457,192.168.0.112
938,-1,-100,-100,-100,"0,0,0",0,1,107,0,0,0,62,65,82,40,100,-47.57,18,-1.0,-10.0,-974.0,12:42:42.520189,192.168.0.112
943,-1,-100,-100,-100,"0,0,0",0,1,107,0,0,0,62,65,82,40,100,-47.6,18,19.0,-22.0,-986.0,12:42:42.622404,192.168.0.112
948,-1,-100,-100,-100,"0,0,0",0,1,107,0,0,0,62,65,82,40,100,-47.65,18,-21.0,0.0,-994.0,12:42:42.724302,192.168.0.112
953,-1,-100,-100,-100,"0,0,0",0,1,107,0,0,0,62,65,82,40,100,-47.58,18,7.0,-1.0,-991.0,12:42:42.826271,192.168.0.112
958,-1,-100,-100,-100,"0,0,0",1,1,107,0,0,0,63,65,82,40,100,-47.62,19,7.0,0.0,-984.0,12:42:42.928063,192.168.0.112
963,-1,-100,-100,-100,"0,0,0",1,1,107,0,0,0,63,65,82,40,100,-47.54,19,20.0,-35.0,-996.0,12:42:43.030021,192.168.0.112
969,-1,-100,-100,-100,"0,0,0",1,1,107,0,0,0,63,65,82,40,100,-47.61,19,11.0,-29.0,-1021.0,12:42:43.131918,192.168.0.112
974,-1,-100,-100,-100,"0,0,0",1,1,107,0,0,0,63,65,82,40,100,-47.59,19,-2.0,-27.0,-991.0,12:42:43.235053,192.168.0.112
979,-1,-100,-100,-100,"0,0,0",0,1,107,0,0,0,63,65,81,40,100,-47.53,19,-5.0,-12.0,-1004.0,12:42:43.336362,192.168.0.112
984,-1,-100,-100,-100,"0,0,0",0,1,107,0,0,0,63,65,81,40,100,-47.58,19,9.0,-12.0,-1022.0,12:42:43.439592,192.168.0.112
989,-1,-100,-100,-100,"0,0,0",1,1,107,0,0,0,63,65,81,40,100,-47.58,19,11.0,-18.0,-1012.0,12:42:43.540465,192.168.0.112
994,-1,-100,-100,-100,"0,0,0",0,1,107,0,0,0,63,65,81,40,100,-47.57,19,-5.0,-8.0,-1008.0,12:42:43.642269,192.168.0.112
997,-1,-100,-100,-100,"0,0,0",0,0,107,0,0,0,63,65,80,40,100,-47.56,19,13.0,-31.0,-993.0,12:42:43.694486,192.168.0.112
1002,-1,-100,-100,-100,"0,0,0",0,0,107,0,0,0,63,65,80,40,100,-47.56,19,2.0,-14.0,-1013.0,12:42:43.795477,192.168.0.112
1009,-1,-100,-100,-100,"0,0,0",0,0,107,0,0,0,62,65,80,40,100,-47.69,20,2.0,-26.0,-1008.0,12:42:43.948033,192.168.0.112
1012,-1,-100,-100,-100,"0,0,0",0,1,107,0,0,0,62,65,80,40,100,-47.7,20,-5.0,-23.0,-1032.0,12:42:43.999286,192.168.0.112
1017,-1,-100,-100,-100,"0,0,0",1,2,107,0,0,0,62,65,80,40,100,-47.46,20,47.0,-49.0,-980.0,12:42:44.101212,192.168.0.112
1022,-1,-100,-100,-100,"0,0,0",1,2,107,0,0,0,62,65,80,40,100,-47.6,20,39.0,-43.0,-1029.0,12:42:44.203118,192.168.0.112
1027,-1,-100,-100,-100,"0,0,0",2,2,107,0,0,0,62,65,80,40,100,-47.6,20,31.0,-43.0,-991.0,12:42:44.305167,192.168.0.112
1032,-1,-100,-100,-100,"0,0,0",1,2,106,0,0,0,62,65,80,40,100,-47.59,20,35.0,-42.0,-972.0,12:42:44.407129,192.168.0.112
1037,-1,-100,-100,-100,"0,0,0",2,3,106,0,0,0,62,65,80,40,100,-47.65,20,36.0,-41.0,-1025.0,12:42:44.512179,192.168.0.112
1042,-1,-100,-100,-100,"0,0,0",2,3,107,0,0,0,62,65,79,40,100,-47.44,20,16.0,-15.0,-981.0,12:42:44.611280,192.168.0.112
1047,-1,-100,-100,-100,"0,0,0",2,1,106,0,0,0,62,65,79,40,100,-47.65,20,11.0,-22.0,-1056.0,12:42:44.713298,192.168.0.112
1052,-1,-100,-100,-100,"0,0,0",1,1,106,0,0,0,62,65,79,40,100,-47.54,20,43.0,-18.0,-1018.0,12:42:44.815395,192.168.0.112
1057,-1,-100,-100,-100,"0,0,0",1,2,106,0,0,0,62,65,78,40,100,-47.66,21,39.0,1.0,-990.0,12:42:44.920697,192.168.0.112
1062,-1,-100,-100,-100,"0,0,0",2,0,106,0,0,0,62,65,77,40,100,-47.62,21,29.0,-7.0,-1004.0,12:42:45.019785,192.168.0.112
1067,-1,-100,-100,-100,"0,0,0",1,0,107,0,0,0,62,65,76,40,100,-47.57,21,0.0,-23.0,-991.0,12:42:45.122242,192.168.0.112
1073,-1,-100,-100,-100,"0,0,0",1,0,107,0,0,0,62,65,76,40,100,-47.6,21,7.0,-18.0,-1035.0,12:42:45.224230,192.168.0.112
1078,-1,-100,-100,-100,"0,0,0",1,0,106,0,0,0,62,65,77,40,100,-47.54,21,8.0,-11.0,-964.0,12:42:45.326113,192.168.0.112
1083,-1,-100,-100,-100,"0,0,0",0,1,106,0,0,0,62,65,76,40,100,-47.58,21,30.0,-20.0,-997.0,12:42:45.429205,192.168.0.112
1088,-1,-100,-100,-100,"0,0,0",0,1,106,0,0,0,62,65,76,40,100,-47.55,21,32.0,-1.0,-988.0,12:42:45.530458,192.168.0.112
1093,-1,-100,-100,-100,"0,0,0",1,1,106,0,0,0,62,65,76,40,100,-47.75,21,27.0,-11.0,-1001.0,12:42:45.634198,192.168.0.112
1098,-1,-100,-100,-100,"0,0,0",1,1,106,0,0,0,62,65,76,40,100,-47.54,21,40.0,-3.0,-1026.0,12:42:45.733749,192.168.0.112
1103,-1,-100,-100,-100,"0,0,0",1,0,106,0,0,0,62,65,76,40,100,-47.67,21,43.0,14.0,-975.0,12:42:45.836358,192.168.0.112
1108,-1,-100,-100,-100,"0,0,0",2,-1,107,0,0,0,62,65,76,40,100,-47.58,22,44.0,7.0,-1056.0,12:42:45.938434,192.168.0.112
1113,-1,-100,-100,-100,"0,0,0",2,-1,107,0,0,0,62,65,77,40,100,-47.66,22,60.0,26.0,-997.0,12:42:46.044265,192.168.0.112
1118,-1,-100,-100,-100,"0,0,0",2,-1,107,0,0,0,62,65,77,40,100,-47.56,22,38.0,14.0,-1014.0,12:42:46.142299,192.168.0.112
1123,-1,-100,-100,-100,"0,0,0",2,-2,107,0,0,0,62,65,78,40,100,-47.65,22,48.0,7.0,-1006.0,12:42:46.244308,192.168.0.112
1128,-1,-100,-100,-100,"0,0,0",3,-1,107,0,0,0,62,65,78,40,100,-47.6,22,46.0,1.0,-976.0,12:42:46.346058,192.168.0.112
1133,-1,-100,-100,-100,"0,0,0",3,0,107,0,0,0,62,65,79,40,100,-47.52,22,38.0,14.0,-972.0,12:42:46.448285,192.168.0.112
1139,-1,-100,-100,-100,"0,0,0",2,0,107,0,0,0,62,65,79,40,100,-47.58,22,27.0,12.0,-987.0,12:42:46.549980,192.168.0.112
1144,-1,-100,-100,-100,"0,0,0",2,0,107,0,0,0,62,65,80,40,100,-47.64,22,42.0,-7.0,-1006.0,12:42:46.652228,192.168.0.112
1149,-1,-100,-100,-100,"0,0,0",1,0,107,0,0,0,62,65,80,40,100,-47.6,22,43.0,11.0,-965.0,12:42:46.754323,192.168.0.112
1154,-1,-100,-100,-100,"0,0,0",1,0,107,0,0,0,62,65,80,40,100,-47.57,22,37.0,6.0,-1002.0,12:42:46.859833,192.168.0.112
1159,-1,-100,-100,-100,"0,0,0",1,0,107,0,0,0,63,65,79,40,100,-47.54,23,23.0,25.0,-972.0,12:42:46.958617,192.168.0.112
1164,-1,-100,-100,-100,"0,0,0",1,0,107,0,0,0,63,65,80,40,100,-47.65,23,30.0,28.0,-1006.0,12:42:47.060246,192.168.0.112
1167,-1,-100,-100,-100,"0,0,0",1,0,107,0,0,0,63,65,80,40,100,-47.6,23,45.0,15.0,-998.0,12:42:47.113695,192.168.0.112
1172,-1,-100,-100,-100,"0,0,0",1,-1,107,0,0,0,63,65,79,40,100,-47.61,23,41.0,2.0,-1012.0,12:42:47.213550,192.168.0.112
1177,-1,-100,-100,-100,"0,0,0",2,-1,107,0,0,0,63,65,79,40,100,-47.51,23,26.0,7.0,-1011.0,12:42:47.316693,192.168.0.112
1182,-1,-100,-100,-100,"0,0,0",1,0,107,0,0,0,63,65,79,40,100,-47.65,23,17.0,16.0,-1007.0,12:42:47.420499,192.168.0.112
1187,-1,-100,-100,-100,"0,0,0",1,0,107,0,0,0,63,65,79,40,100,-47.61,23,32.0,7.0,-999.0,12:42:47.519235,192.168.0.112
1192,-1,-100,-100,-100,"0,0,0",1,0,107,0,0,0,63,65,79,40,100,-47.58,23,30.0,9.0,-1008.0,12:42:47.621992,192.168.0.112
1197,-1,-100,-100,-100,"0,0,0",1,0,107,0,0,0,63,65,79,40,100,-47.57,23,44.0,4.0,-1001.0,12:42:47.723205,192.168.0.112
1202,-1,-100,-100,-100,"0,0,0",2,0,107,0,0,0,63,65,79,40,100,-47.7,23,21.0,21.0,-1011.0,12:42:47.825234,192.168.0.112
1207,-1,-100,-100,-100,"0,0,0",2,0,107,0,0,0,63,65,79,40,100,-47.62,24,34.0,-22.0,-1022.0,12:42:47.927298,192.168.0.112
1212,-1,-100,-100,-100,"0,0,0",2,1,107,0,0,0,63,65,80,40,100,-47.6,24,38.0,8.0,-1013.0,12:42:48.029107,192.168.0.112
1217,-1,-100,-100,-100,"0,0,0",2,0,107,0,0,0,63,65,80,40,100,-47.68,24,18.0,20.0,-999.0,12:42:48.131146,192.168.0.112
1222,-1,-100,-100,-100,"0,0,0",1,0,107,0,0,0,63,65,81,40,100,-47.71,24,41.0,-5.0,-999.0,12:42:48.233325,192.168.0.112
1228,-1,-100,-100,-100,"0,0,0",1,0,107,0,0,0,63,65,81,40,100,-47.68,24,33.0,-10.0,-1009.0,12:42:48.338111,192.168.0.112
1233,-1,-100,-100,-100,"0,0,0",1,0,107,0,0,0,63,65,81,40,100,-47.66,24,32.0,-5.0,-986.0,12:42:48.444685,192.168.0.112
1238,-1,-100,-100,-100,"0,0,0",1,0,107,0,0,0,63,65,81,40,100,-47.53,24,29.0,-1.0,-973.0,12:42:48.539279,192.168.0.112
1243,-1,-100,-100,-100,"0,0,0",1,1,106,0,0,0,63,65,81,40,100,-47.63,24,45.0,-2.0,-961.0,12:42:48.642307,192.168.0.112
1248,-1,-100,-100,-100,"0,0,0",1,0,106,0,0,0,63,65,81,40,100,-47.65,24,53.0,-4.0,-999.0,12:42:48.743280,192.168.0.112
1253,-1,-100,-100,-100,"0,0,0",2,0,106,0,0,0,63,65,80,40,100,-47.61,24,42.0,-10.0,-994.0,12:42:48.849693,192.168.0.112
1258,-1,-100,-100,-100,"0,0,0",2,0,106,0,0,0,62,65,81,40,100,-47.58,25,16.0,-1.0,-1001.0,12:42:48.947222,192.168.0.112
1263,-1,-100,-100,-100,"0,0,0",2,0,106,0,0,0,62,65,80,40,100,-47.54,25,44.0,-9.0,-1004.0,12:42:49.050537,192.168.0.112
1268,-1,-100,-100,-100,"0,0,0",1,0,107,0,0,0,62,65,80,40,100,-47.71,25,29.0,-10.0,-1006.0,12:42:49.152039,192.168.0.112
1273,-1,-100,-100,-100,"0,0,0",2,0,107,0,0,0,62,65,80,40,100,-47.72,25,20.0,-29.0,-1026.0,12:42:49.253243,192.168.0.112
1278,-1,-100,-100,-100,"0,0,0",1,0,107,0,0,0,62,65,80,40,100,-47.64,25,24.0,-5.0,-987.0,12:42:49.355193,192.168.0.112
1283,-1,-100,-100,-100,"0,0,0",1,0,107,0,0,0,62,65,80,40,100,-47.58,25,26.0,-12.0,-999.0,12:42:49.458482,192.168.0.112
1288,-1,-100,-100,-100,"0,0,0",1,0,107,0,0,0,62,65,80,40,100,-47.71,25,25.0,-33.0,-1009.0,12:42:49.559090,192.168.0.112
1293,-1,-100,-100,-100,"0,0,0",1,1,107,0,0,0,62,65,81,40,100,-47.72,25,23.0,-44.0,-1019.0,12:42:49.661594,192.168.0.112
1298,-1,-100,-100,-100,"0,0,0",1,2,107,0,0,0,62,65,81,40,100,-47.7,25,13.0,-28.0,-974.0,12:42:49.763751,192.168.0.112
1304,-1,-100,-100,-100,"0,0,0",1,3,107,0,0,0,62,65,82,40,100,-47.69,25,0.0,5.0,-971.0,12:42:49.865573,192.168.0.112
1308,-1,-100,-100,-100,"0,0,0",0,2,107,0,0,0,62,65,82,40,100,-47.58,26,4.0,-8.0,-992.0,12:42:49.967098,192.168.0.112
1313,-1,-100,-100,-100,"0,0,0",1,1,107,0,0,0,62,65,82,40,100,-47.57,26,12.0,-8.0,-1002.0,12:42:50.069768,192.168.0.112
1319,-1,-100,-100,-100,"0,0,0",1,0,107,0,0,0,62,65,82,40,100,-47.63,26,25.0,-28.0,-1003.0,12:42:50.171048,192.168.0.112
1324,-1,-100,-100,-100,"0,0,0",0,0,107,0,0,0,62,65,82,40,100,-47.69,26,22.0,-37.0,-1015.0,12:42:50.273161,192.168.0.112
1329,-1,-100,-100,-100,"0,0,0",0,1,107,0,0,0,62,65,81,40,100,-47.62,26,9.0,-16.0,-975.0,12:42:50.376675,192.168.0.112
1334,-1,-100,-100,-100,"0,0,0",0,1,107,0,0,0,62,65,81,40,100,-47.56,26,17.0,-10.0,-1024.0,12:42:50.478138,192.168.0.112
1336,-1,-100,-100,-100,"0,0,0",0,0,107,0,0,0,62,65,81,40,100,-47.6,26,16.0,-17.0,-978.0,12:42:50.528066,192.168.0.112
1341,-1,-100,-100,-100,"0,0,0",0,0,107,0,0,0,62,65,81,40,100,-47.61,26,0.0,-13.0,-980.0,12:42:50.630118,192.168.0.112
1347,-1,-100,-100,-100,"0,0,0",0,0,107,0,0,0,62,65,81,40,100,-47.59,26,14.0,-16.0,-993.0,12:42:50.732007,192.168.0.112
1352,-1,-100,-100,-100,"0,0,0",0,0,107,0,0,0,62,65,80,40,100,-47.59,26,27.0,-9.0,-1010.0,12:42:50.833932,192.168.0.112
1357,-1,-100,-100,-100,"0,0,0",0,0,106,0,0,0,62,65,80,40,100,-47.49,27,15.0,-2.0,-984.0,12:42:50.936105,192.168.0.112
1362,-1,-100,-100,-100,"0,0,0",0,0,106,0,0,0,62,65,80,40,100,-47.54,27,13.0,-1.0,-1001.0,12:42:51.038149,192.168.0.112
1367,-1,-100,-100,-100,"0,0,0",0,0,106,0,0,0,62,65,79,40,100,-47.59,27,15.0,3.0,-1024.0,12:42:51.140382,192.168.0.112
1372,-1,-100,-100,-100,"0,0,0",0,0,107,0,0,0,62,65,79,40,100,-47.62,27,23.0,11.0,-1043.0,12:42:51.242072,192.168.0.112
1377,-1,-100,-100,-100,"0,0,0",0,0,107,0,0,0,62,65,79,40,100,-47.56,27,2.0,-2.0,-988.0,12:42:51.344179,192.168.0.112
1382,-1,-100,-100,-100,"0,0,0",1,0,107,0,0,0,62,65,78,40,100,-47.59,27,4.0,-13.0,-1042.0,12:42:51.446133,192.168.0.112
1387,-1,-100,-100,-100,"0,0,0",0,0,107,0,0,0,62,65,78,40,100,-47.64,27,-19.0,1.0,-992.0,12:42:51.548142,192.168.0.112
1392,-1,-100,-100,-100,"0,0,0",0,0,107,0,0,0,62,65,78,40,100,-47.6,27,6.0,-3.0,-1015.0,12:42:51.649934,192.168.0.112
1397,-1,-100,-100,-100,"0,0,0",0,0,107,0,0,0,62,65,78,40,100,-47.62,27,-2.0,13.0,-998.0,12:42:51.751919,192.168.0.112
1403,-1,-100,-100,-100,"0,0,0",0,0,107,0,0,0,62,65,78,40,100,-47.59,27,-10.0,6.0,-998.0,12:42:51.853933,192.168.0.112
1408,-1,-100,-100,-100,"0,0,0",0,0,107,0,0,0,62,66,78,40,100,-47.63,28,-8.0,-1.0,-974.0,12:42:51.956114,192.168.0.112
1413,-1,-100,-100,-100,"0,0,0",0,0,107,0,0,0,62,66,78,40,100,-47.63,28,-1.0,-1.0,-1016.0,12:42:52.058013,192.168.0.112
1418,-1,-100,-100,-100,"0,0,0",0,0,107,0,0,0,62,66,79,40,100,-47.72,28,-17.0,15.0,-1004.0,12:42:52.161688,192.168.0.112
1423,-1,-100,-100,-100,"0,0,0",0,0,107,0,0,0,62,66,79,40,100,-47.72,28,7.0,4.0,-999.0,12:42:52.262238,192.168.0.112
1428,-1,-100,-100,-100,"0,0,0",0,0,107,0,0,0,62,66,79,40,100,-47.68,28,-8.0,15.0,-1003.0,12:42:52.367311,192.168.0.112
1433,-1,-100,-100,-100,"0,0,0",0,0,107,0,0,0,62,66,80,40,100,-47.66,28,-8.0,18.0,-998.0,12:42:52.468548,192.168.0.112
1438,-1,-100,-100,-100,"0,0,0",0,-1,107,0,0,0,62,66,80,40,100,-47.57,28,-9.0,30.0,-997.0,12:42:52.567822,192.168.0.112
1443,-1,-100,-100,-100,"0,0,0",0,-1,107,0,0,0,62,66,80,40,100,-47.5,28,0.0,8.0,-984.0,12:42:52.670578,192.168.0.112
1448,-1,-100,-100,-100,"0,0,0",0,-1,107,0,0,0,62,66,81,40,100,-47.61,28,-1.0,16.0,-998.0,12:42:52.773620,192.168.0.112
1453,-1,-100,-100,-100,"0,0,0",0,-1,107,0,0,0,62,66,80,40,100,-47.58,28,-14.0,22.0,-974.0,12:42:52.873892,192.168.0.112
1458,-1,-100,-100,-100,"0,0,0",0,-1,107,0,0,0,63,65,80,40,100,-47.62,29,0.0,1.0,-999.0,12:42:52.979609,192.168.0.112
1463,-1,-100,-100,-100,"0,0,0",0,-1,107,0,0,0,63,65,80,40,100,-47.56,29,-7.0,21.0,-1010.0,12:42:53.078124,192.168.0.112
1468,-1,-100,-100,-100,"0,0,0",0,-1,107,0,0,0,63,65,80,40,100,-47.6,29,-6.0,16.0,-1006.0,12:42:53.180102,192.168.0.112
1473,-1,-100,-100,-100,"0,0,0",0,-1,107,0,0,0,63,65,80,40,100,-47.55,29,-3.0,-1.0,-991.0,12:42:53.281855,192.168.0.112
1478,-1,-100,-100,-100,"0,0,0",0,-1,107,0,0,0,63,65,80,40,100,-47.53,29,-13.0,31.0,-1018.0,12:42:53.383989,192.168.0.112
1483,-1,-100,-100,-100,"0,0,0",0,-1,107,0,0,0,63,65,80,40,100,-47.55,29,-20.0,40.0,-996.0,12:42:53.489485,192.168.0.112
1489,-1,-100,-100,-100,"0,0,0",0,-1,107,0,0,0,63,65,81,40,100,-47.47,29,10.0,20.0,-1003.0,12:42:53.587934,192.168.0.112
1494,-1,-100,-100,-100,"0,0,0",0,-1,107,0,0,0,63,65,80,40,100,-47.56,29,6.0,12.0,-999.0,12:42:53.689869,192.168.0.112
1499,-1,-100,-100,-100,"0,0,0",0,-1,107,0,0,0,63,65,81,40,100,-47.56,29,2.0,3.0,-975.0,12:42:53.791711,192.168.0.112
1502,-1,-100,-100,-100,"0,0,0",0,-1,107,0,0,0,63,65,82,40,100,-47.6,29,-11.0,6.0,-1002.0,12:42:53.846499,192.168.0.112
1509,-1,-100,-100,-100,"0,0,0",0,-1,107,0,0,0,63,65,82,40,100,-47.57,30,11.0,8.0,-999.0,12:42:53.996190,192.168.0.112
1512,-1,-100,-100,-100,"0,0,0",0,0,107,0,0,0,63,65,82,40,100,-47.59,30,-6.0,0.0,-985.0,12:42:54.047116,192.168.0.112
1517,-1,-100,-100,-100,"0,0,0",0,0,107,0,0,0,63,65,82,40,100,-47.6,30,-3.0,-14.0,-989.0,12:42:54.152222,192.168.0.112
1522,-1,-100,-100,-100,"0,0,0",0,0,107,0,0,0,63,65,82,40,100,-47.64,30,-7.0,-8.0,-976.0,12:42:54.250949,192.168.0.112
1527,-1,-100,-100,-100,"0,0,0",0,0,107,0,0,0,63,65,82,40,100,-47.54,30,12.0,5.0,-993.0,12:42:54.352979,192.168.0.112
1532,-1,-100,-100,-100,"0,0,0",0,0,107,0,0,0,63,65,82,40,100,-47.61,30,-2.0,12.0,-1004.0,12:42:54.454926,192.168.0.112
1537,-1,-100,-100,-100,"0,0,0",0,0,107,0,0,0,63,65,82,40,100,-47.6,30,6.0,10.0,-1010.0,12:42:54.557106,192.168.0.112
1542,-1,-100,-100,-100,"0,0,0",0,0,107,0,0,0,63,65,82,40,100,-47.58,30,0.0,9.0,-992.0,12:42:54.658809,192.168.0.112
1547,-1,-100,-100,-100,"0,0,0",0,0,107,0,0,0,63,65,81,40,100,-47.57,30,-20.0,10.0,-996.0,12:42:54.760859,192.168.0.112
1552,-1,-100,-100,-100,"0,0,0",0,0,107,0,0,0,63,65,82,40,100,-47.57,30,2.0,-4.0,-1013.0,12:42:54.864192,192.168.0.112
1557,-1,-100,-100,-100,"0,0,0",0,0,107,0,0,0,63,65,81,40,100,-47.62,31,5.0,-7.0,-999.0,12:42:54.965347,192.168.0.112
1562,-1,-100,-100,-100,"0,0,0",0,0,107,0,0,0,63,65,82,40,100,-47.55,31,-15.0,-3.0,-978.0,12:42:55.067265,192.168.0.112
1568,-1,-100,-100,-100,"0,0,0",0,0,107,0,0,0,63,65,82,40,100,-47.55,31,-8.0,0.0,-1000.0,12:42:55.168875,192.168.0.112
1573,-1,-100,-100,-100,"0,0,0",0,0,107,0,0,0,63,65,81,40,100,-47.54,31,-2.0,7.0,-994.0,12:42:55.270844,192.168.0.112
1578,-1,-100,-100,-100,"0,0,0",0,0,107,0,0,0,63,65,81,40,100,-47.56,31,3.0,-7.0,-997.0,12:42:55.372999,192.168.0.112
1583,-1,-100,-100,-100,"0,0,0",0,0,107,0,0,0,63,65,81,40,100,-47.59,31,-2.0,11.0,-1016.0,12:42:55.474945,192.168.0.112
1588,-1,-100,-100,-100,"0,0,0",0,0,107,0,0,0,63,65,82,40,100,-47.58,31,13.0,-4.0,-984.0,12:42:55.576672,192.168.0.112
1593,-1,-100,-100,-100,"0,0,0",0,0,107,0,0,0,63,65,81,40,100,-47.56,31,-11.0,-6.0,-991.0,12:42:55.678979,192.168.0.112
1598,-1,-100,-100,-100,"0,0,0",0,0,107,0,0,0,63,65,81,40,100,-47.5,31,8.0,-13.0,-995.0,12:42:55.785543,192.168.0.112
1603,-1,-100,-100,-100,"0,0,0",0,0,107,0,0,0,63,65,81,40,100,-47.55,31,-7.0,6.0,-1000.0,12:42:55.882962,192.168.0.112
1608,-1,-100,-100,-100,"0,0,0",0,0,107,0,0,0,63,65,81,40,100,-47.5,32,13.0,-13.0,-997.0,12:42:55.985593,192.168.0.112
1613,-1,-100,-100,-100,"0,0,0",0,0,106,0,0,0,63,65,81,40,100,-47.62,32,42.0,-15.0,-1022.0,12:42:56.087895,192.168.0.112
1618,-1,-100,-100,-100,"0,0,0",0,0,106,0,0,0,63,65,81,40,100,-47.49,32,15.0,-9.0,-986.0,12:42:56.190170,192.168.0.112
1623,-1,-100,-100,-100,"0,0,0",0,1,106,0,0,0,63,65,81,40,100,-47.43,32,26.0,-10.0,-1000.0,12:42:56.291914,192.168.0.112
1628,-1,-100,-100,-100,"0,0,0",1,1,106,0,0,0,63,65,81,40,100,-47.46,32,17.0,-22.0,-1030.0,12:42:56.395070,192.168.0.112
1633,-1,-100,-100,-100,"0,0,0",1,0,106,0,0,0,63,65,81,40,100,-47.54,32,-6.0,-1.0,-965.0,12:42:56.495956,192.168.0.112
1638,-1,-100,-100,-100,"0,0,0",1,0,107,0,0,0,63,65,81,40,100,-47.6,32,20.0,-26.0,-1046.0,12:42:56.597531,192.168.0.112
1643,-1,-100,-100,-100,"0,0,0",1,0,107,0,0,0,63,65,81,40,100,-47.63,32,35.0,-10.0,-998.0,12:42:56.700046,192.168.0.112
1648,-1,-100,-100,-100,"0,0,0",1,0,107,0,0,0,63,65,81,40,100,-47.55,32,5.0,0.0,-957.0,12:42:56.801963,192.168.0.112
1651,-1,-100,-100,-100,"0,0,0",1,1,107,0,0,0,63,65,81,40,100,-47.56,32,17.0,10.0,-969.0,12:42:56.853048,192.168.0.112
1658,-1,-100,-100,-100,"0,0,0",1,0,107,0,0,0,63,65,81,40,100,-47.55,33,22.0,-1.0,-1042.0,12:42:57.005862,192.168.0.112
1663,-1,-100,-100,-100,"0,0,0",1,0,107,0,0,0,63,65,80,40,100,-47.54,33,6.0,-1.0,-1026.0,12:42:57.107799,192.168.0.112
1669,-1,-100,-100,-100,"0,0,0",1,0,106,0,0,0,63,65,81,40,100,-47.54,33,16.0,-11.0,-937.0,12:42:57.209749,192.168.0.112
1672,-1,-100,-100,-100,"0,0,0",1,0,106,0,0,0,63,65,80,40,100,-47.64,33,26.0,-6.0,-999.0,12:42:57.261765,192.168.0.112
1677,-1,-100,-100,-100,"0,0,0",0,0,106,0,0,0,63,65,80,40,100,-47.53,33,25.0,18.0,-996.0,12:42:57.363255,192.168.0.112
1682,-1,-100,-100,-100,"0,0,0",1,0,106,0,0,0,63,65,79,40,100,-47.52,33,12.0,-3.0,-1011.0,12:42:57.464896,192.168.0.112
1687,-1,-100,-100,-100,"0,0,0",2,0,106,0,0,0,63,65,79,40,100,-47.6,33,14.0,9.0,-1020.0,12:42:57.567091,192.168.0.112
1692,-1,-100,-100,-100,"0,0,0",1,0,107,0,0,0,63,65,79,40,100,-47.59,33,23.0,13.0,-1057.0,12:42:57.670307,192.168.0.112
1697,-1,-100,-100,-100,"0,0,0",1,0,107,0,0,0,63,65,79,40,100,-47.59,33,6.0,12.0,-1046.0,12:42:57.770813,192.168.0.112
1702,-1,-100,-100,-100,"0,0,0",1,-1,107,0,0,0,63,65,79,40,100,-47.58,33,21.0,-10.0,-1055.0,12:42:57.872866,192.168.0.112
1707,-1,-100,-100,-100,"0,0,0",1,-1,107,0,0,0,62,65,79,40,100,-47.67,34,15.0,20.0,-956.0,12:42:57.975407,192.168.0.112
1712,-1,-100,-100,-100,"0,0,0",0,0,107,0,0,0,62,65,79,40,100,-47.68,34,0.0,6.0,-963.0,12:42:58.077068,192.168.0.112
1717,-1,-100,-100,-100,"0,0,0",0,0,107,0,0,0,62,65,79,40,100,-47.62,34,-7.0,12.0,-984.0,12:42:58.178779,192.168.0.112
1722,-1,-100,-100,-100,"0,0,0",0,0,107,0,0,0,62,65,79,40,100,-47.62,34,6.0,0.0,-982.0,12:42:58.283518,192.168.0.112
1728,-1,-100,-100,-100,"0,0,0",0,0,107,0,0,0,62,65,79,40,100,-47.66,34,0.0,17.0,-994.0,12:42:58.382843,192.168.0.112
1733,-1,-100,-100,-100,"0,0,0",0,0,107,0,0,0,62,65,79,40,100,-47.68,34,-7.0,10.0,-1000.0,12:42:58.486027,192.168.0.112
1738,-1,-100,-100,-100,"0,0,0",0,0,107,0,0,0,62,65,79,40,100,-47.6,34,0.0,2.0,-998.0,12:42:58.586980,192.168.0.112
1743,-1,-100,-100,-100,"0,0,0",0,0,107,0,0,0,62,65,79,40,100,-47.59,34,7.0,16.0,-995.0,12:42:58.688963,192.168.0.112
1748,-1,-100,-100,-100,"0,0,0",0,0,107,0,0,0,62,65,78,40,100,-47.64,34,7.0,19.0,-1008.0,12:42:58.791150,192.168.0.112
1753,-1,-100,-100,-100,"0,0,0",0,0,107,0,0,0,62,65,78,40,100,-47.56,34,18.0,-6.0,-1010.0,12:42:58.892431,192.168.0.112
1758,-1,-100,-100,-100,"0,0,0",0,0,107,0,0,0,63,65,78,40,100,-47.64,35,-1.0,17.0,-1015.0,12:42:58.997042,192.168.0.112
1763,-1,-100,-100,-100,"0,0,0",0,0,107,0,0,0,63,65,78,40,100,-47.49,35,4.0,3.0,-984.0,12:42:59.096865,192.168.0.112
1768,-1,-100,-100,-100,"0,0,0",0,0,107,0,0,0,63,65,78,40,100,-47.51,35,24.0,4.0,-1018.0,12:42:59.198875,192.168.0.112
1773,-1,-100,-100,-100,"0,0,0",0,0,107,0,0,0,63,65,78,40,100,-47.53,35,-6.0,37.0,-1005.0,12:42:59.303572,192.168.0.112
1778,-1,-100,-100,-100,"0,0,0",0,0,107,0,0,0,63,65,78,40,100,-47.51,35,33.0,-15.0,-990.0,12:42:59.402746,192.168.0.112
1783,-1,-100,-100,-100,"0,0,0",0,0,107,0,0,0,63,65,78,40,100,-47.57,35,10.0,5.0,-1017.0,12:42:59.505194,192.168.0.112
1788,-1,-100,-100,-100,"0,0,0",0,0,107,0,0,0,63,65,78,40,100,-47.76,35,25.0,3.0,-1010.0,12:42:59.607276,192.168.0.112
1793,-1,-100,-100,-100,"0,0,0",0,0,107,0,0,0,63,65,79,40,100,-47.61,35,-2.0,4.0,-1002.0,12:42:59.709097,192.168.0.112
1798,-1,-100,-100,-100,"0,0,0",1,0,107,0,0,0,63,65,79,40,100,-47.66,35,-18.0,21.0,-1006.0,12:42:59.810869,192.168.0.112
1803,-1,-100,-100,-100,"0,0,0",1,0,107,0,0,0,63,65,80,40,100,-47.51,35,-2.0,8.0,-991.0,12:42:59.912659,192.168.0.112
1808,-1,-100,-100,-100,"0,0,0",0,0,107,0,0,0,63,65,79,40,100,-47.57,36,2.0,14.0,-1028.0,12:43:00.014739,192.168.0.112
1813,-1,-100,-100,-100,"0,0,0",0,0,107,0,0,0,63,65,80,40,100,-47.56,36,3.0,11.0,-985.0,12:43:00.116953,192.168.0.112
1818,-1,-100,-100,-100,"0,0,0",0,0,107,0,0,0,63,65,80,40,100,-47.49,36,-3.0,7.0,-962.0,12:43:00.219053,192.168.0.112
1823,-1,-100,-100,-100,"0,0,0",0,0,107,0,0,0,63,65,80,40,100,-47.68,36,10.0,-5.0,-991.0,12:43:00.320508,192.168.0.112
1826,-1,-100,-100,-100,"0,0,0",0,0,107,0,0,0,63,65,81,40,100,-47.53,36,5.0,-11.0,-994.0,12:43:00.371829,192.168.0.112
1831,-1,-100,-100,-100,"0,0,0",0,0,107,0,0,0,63,65,81,40,100,-47.54,36,0.0,5.0,-998.0,12:43:00.473972,192.168.0.112
1837,-1,-100,-100,-100,"0,0,0",0,0,107,0,0,0,63,65,80,40,100,-47.6,36,-2.0,11.0,-1009.0,12:43:00.576479,192.168.0.112
1842,-1,-100,-100,-100,"0,0,0",0,0,107,0,0,0,63,65,81,40,100,-47.58,36,0.0,8.0,-980.0,12:43:00.678963,192.168.0.112
1847,-1,-100,-100,-100,"0,0,0",0,0,107,0,0,0,63,65,81,40,100,-47.52,36,2.0,28.0,-984.0,12:43:00.781344,192.168.0.112
1852,-1,-100,-100,-100,"0,0,0",0,0,107,0,0,0,63,65,81,40,100,-47.56,36,2.0,7.0,-1007.0,12:43:00.883761,192.168.0.112
1857,-1,-100,-100,-100,"0,0,0",0,0,107,0,0,0,63,65,81,40,100,-47.53,37,-2.0,17.0,-987.0,12:43:00.986066,192.168.0.112
1862,-1,-100,-100,-100,"0,0,0",0,0,107,0,0,0,63,65,82,40,100,-47.58,37,9.0,19.0,-992.0,12:43:01.085707,192.168.0.112
1867,-1,-100,-100,-100,"0,0,0",0,-1,107,0,0,0,63,65,81,40,100,-47.54,37,-2.0,3.0,-998.0,12:43:01.187842,192.168.0.112
1872,-1,-100,-100,-100,"0,0,0",0,0,107,0,0,0,63,65,82,40,100,-47.59,37,-2.0,15.0,-1021.0,12:43:01.293353,192.168.0.112
1877,-1,-100,-100,-100,"0,0,0",0,0,107,0,0,0,63,65,81,40,100,-47.64,37,-9.0,10.0,-994.0,12:43:01.391780,192.168.0.112
1882,-1,-100,-100,-100,"0,0,0",0,0,107,0,0,0,63,65,81,40,100,-47.53,37,0.0,22.0,-1003.0,12:43:01.493577,192.168.0.112
1887,-1,-100,-100,-100,"0,0,0",0,0,107,0,0,0,63,65,81,40,100,-47.58,37,-14.0,25.0,-989.0,12:43:01.597679,192.168.0.112
1892,-1,-100,-100,-100,"0,0,0",0,0,107,0,0,0,63,65,81,40,100,-47.56,37,-8.0,22.0,-1006.0,12:43:01.698738,192.168.0.112
1898,-1,-100,-100,-100,"0,0,0",0,-1,107,0,0,0,63,65,81,40,100,-47.63,37,-3.0,10.0,-1008.0,12:43:01.801682,192.168.0.112
1902,-1,-100,-100,-100,"0,0,0",0,0,107,0,0,0,63,65,82,40,100,-47.61,38,-12.0,26.0,-1011.0,12:43:01.902742,192.168.0.112
1908,-1,-100,-100,-100,"0,0,0",0,0,107,0,0,0,63,66,81,40,100,-47.65,38,-9.0,22.0,-1000.0,12:43:02.005074,192.168.0.112
1913,-1,-100,-100,-100,"0,0,0",0,-1,107,0,0,0,63,66,81,40,100,-47.55,38,-5.0,20.0,-989.0,12:43:02.109501,192.168.0.112
1918,-1,-100,-100,-100,"0,0,0",0,-1,107,0,0,0,63,66,82,40,100,-47.54,38,-21.0,23.0,-1002.0,12:43:02.208880,192.168.0.112
1923,-1,-100,-100,-100,"0,0,0",0,-1,107,0,0,0,63,66,82,40,100,-47.53,38,-12.0,27.0,-992.0,12:43:02.310706,192.168.0.112
1928,-1,-100,-100,-100,"0,0,0",0,-1,107,0,0,0,63,66,82,40,100,-47.63,38,-23.0,14.0,-997.0,12:43:02.413472,192.168.0.112
1933,-1,-100,-100,-100,"0,0,0",0,0,107,0,0,0,63,66,81,40,100,-47.68,38,-3.0,21.0,-1009.0,12:43:02.514979,192.168.0.112
1938,-1,-100,-100,-100,"0,0,0",0,0,107,0,0,0,63,66,82,40,100,-47.59,38,-26.0,18.0,-978.0,12:43:02.616524,192.168.0.112
1943,-1,-100,-100,-100,"0,0,0",0,-1,107,0,0,0,63,66,81,40,100,-47.54,38,-13.0,15.0,-994.0,12:43:02.718635,192.168.0.112
1948,-1,-100,-100,-100,"0,0,0",0,-1,107,0,0,0,63,66,82,40,100,-47.53,38,-15.0,13.0,-1000.0,12:43:02.820530,192.168.0.112
1953,-1,-100,-100,-100,"0,0,0",0,0,107,0,0,0,63,66,81,40,100,-47.55,39,-13.0,8.0,-1011.0,12:43:02.922801,192.168.0.112
1958,-1,-100,-100,-100,"0,0,0",-1,0,107,0,0,0,63,66,81,40,100,-47.63,39,-5.0,12.0,-987.0,12:43:03.025832,192.168.0.112
1963,-1,-100,-100,-100,"0,0,0",0,0,107,0,0,0,63,66,81,40,100,-47.69,39,1.0,-4.0,-1028.0,12:43:03.126746,192.168.0.112
1968,-1,-100,-100,-100,"0,0,0",0,0,107,0,0,0,63,66,81,40,100,-47.58,39,-32.0,20.0,-1009.0,12:43:03.228742,192.168.0.112
1973,-1,-100,-100,-100,"0,0,0",0,0,107,0,0,0,63,66,81,40,100,-47.56,39,-9.0,0.0,-1046.0,12:43:03.330801,192.168.0.112
1978,-1,-100,-100,-100,"0,0,0",0,0,107,0,0,0,63,66,81,40,100,-47.55,39,2.0,0.0,-987.0,12:43:03.432871,192.168.0.112
1983,-1,-100,-100,-100,"0,0,0",0,0,107,0,0,0,63,66,81,40,100,-47.73,39,-16.0,7.0,-985.0,12:43:03.540879,192.168.0.112
1988,-1,-100,-100,-100,"0,0,0",0,0,107,0,0,0,63,66,81,40,100,-47.62,39,-25.0,11.0,-1004.0,12:43:03.636723,192.168.0.112
1994,-1,-100,-100,-100,"0,0,0",0,0,106,0,0,0,63,66,81,40,100,-47.52,39,-8.0,14.0,-980.0,12:43:03.738622,192.168.0.112
1996,-1,-100,-100,-100,"0,0,0",0,0,106,0,0,0,63,66,81,40,100,-47.44,39,-11.0,1.0,-982.0,12:43:03.789641,192.168.0.112
2001,-1,-100,-100,-100,"0,0,0",0,0,106,0,0,0,63,66,82,40,100,-47.47,40,-17.0,9.0,-1019.0,12:43:03.891475,192.168.0.112
2007,-1,-100,-100,-100,"0,0,0",0,0,106,0,0,0,63,65,81,40,100,-47.51,40,-2.0,-1.0,-1025.0,12:43:03.993662,192.168.0.112
2012,-1,-100,-100,-100,"0,0,0",0,0,106,0,0,0,63,65,81,40,100,-47.55,40,-6.0,3.0,-967.0,12:43:04.100509,192.168.0.112
2017,-1,-100,-100,-100,"0,0,0",0,0,106,0,0,0,63,65,82,40,100,-47.55,40,-15.0,-2.0,-960.0,12:43:04.199281,192.168.0.112
2022,-1,-100,-100,-100,"0,0,0",0,0,106,0,0,0,63,65,81,40,100,-47.55,40,-7.0,4.0,-1005.0,12:43:04.299705,192.168.0.112
2027,-1,-100,-100,-100,"0,0,0",0,0,107,0,0,0,63,65,82,40,100,-47.54,40,5.0,5.0,-986.0,12:43:04.403034,192.168.0.112
2032,-1,-100,-100,-100,"0,0,0",0,0,107,0,0,0,63,65,82,40,100,-47.53,40,-4.0,3.0,-1013.0,12:43:04.503667,192.168.0.112
2037,-1,-100,-100,-100,"0,0,0",0,0,107,0,0,0,63,65,81,40,100,-47.58,40,-14.0,2.0,-978.0,12:43:04.605518,192.168.0.112
2042,-1,-100,-100,-100,"0,0,0",0,0,107,0,0,0,63,65,81,40,100,-47.54,40,-21.0,20.0,-990.0,12:43:04.707640,192.168.0.112
2047,-1,-100,-100,-100,"0,0,0",0,0,107,0,0,0,63,65,81,40,100,-47.55,40,-1.0,19.0,-978.0,12:43:04.811169,192.168.0.112
2052,-1,-100,-100,-100,"0,0,0",0,0,107,0,0,0,63,65,81,40,100,-47.54,41,-8.0,16.0,-1011.0,12:43:04.913131,192.168.0.112
2057,-1,-100,-100,-100,"0,0,0",0,0,107,0,0,0,63,65,80,40,100,-47.58,41,-17.0,21.0,-1008.0,12:43:05.013794,192.168.0.112
2063,-1,-100,-100,-100,"0,0,0",0,0,107,0,0,0,63,65,80,40,100,-47.56,41,-9.0,17.0,-997.0,12:43:05.115703,192.168.0.112
2068,-1,-100,-100,-100,"0,0,0",0,0,107,0,0,0,63,65,80,40,100,-47.62,41,-18.0,-9.0,-988.0,12:43:05.217772,192.168.0.112
2073,-1,-100,-100,-100,"0,0,0",0,0,107,0,0,0,63,65,79,40,100,-47.59,41,-17.0,6.0,-1005.0,12:43:05.319643,192.168.0.112
2078,-1,-100,-100,-100,"0,0,0",0,0,107,0,0,0,63,65,79,40,100,-47.63,41,-24.0,-2.0,-993.0,12:43:05.423750,192.168.0.112
2083,-1,-100,-100,-100,"0,0,0",0,0,107,0,0,0,63,65,79,40,100,-47.44,41,-19.0,-4.0,-991.0,12:43:05.523727,192.168.0.112
2088,-1,-100,-100,-100,"0,0,0",0,0,106,0,0,0,63,65,79,40,100,-47.41,41,-17.0,2.0,-1015.0,12:43:05.625655,192.168.0.112
2093,-1,-100,-100,-100,"0,0,0",0,0,106,0,0,0,63,65,79,40,100,-47.46,41,-18.0,-3.0,-989.0,12:43:05.727634,192.168.0.112
2098,-1,-100,-100,-100,"0,0,0",-1,0,106,0,0,0,63,65,79,40,100,-47.57,41,0.0,0.0,-1019.0,12:43:05.829654,192.168.0.112
2103,-1,-100,-100,-100,"0,0,0",-1,0,106,0,0,0,63,65,79,40,100,-47.62,42,-30.0,10.0,-988.0,12:43:05.931582,192.168.0.112
2108,-1,-100,-100,-100,"0,0,0",-1,0,106,0,0,0,63,65,79,40,100,-47.61,42,-44.0,7.0,-998.0,12:43:06.033496,192.168.0.112
2113,-1,-100,-100,-100,"0,0,0",-1,0,107,0,0,0,63,65,79,40,100,-47.63,42,-19.0,21.0,-1040.0,12:43:06.135611,192.168.0.112
2118,-1,-100,-100,-100,"0,0,0",-1,0,107,0,0,0,63,65,79,40,100,-47.62,42,-8.0,21.0,-973.0,12:43:06.238860,192.168.0.112
2123,-1,-100,-100,-100,"0,0,0",0,-1,107,0,0,0,63,65,79,40,100,-47.68,42,-6.0,10.0,-1026.0,12:43:06.339989,192.168.0.112
2128,-1,-100,-100,-100,"0,0,0",0,-2,107,0,0,0,63,65,80,40,100,-47.65,42,-10.0,25.0,-999.0,12:43:06.441505,192.168.0.112
2133,-1,-100,-100,-100,"0,0,0",0,-2,108,0,0,0,63,65,80,40,100,-47.61,42,7.0,10.0,-964.0,12:43:06.543419,192.168.0.112
2138,-1,-100,-100,-100,"0,0,0",0,-2,108,0,0,0,63,65,80,40,100,-47.53,42,15.0,11.0,-1015.0,12:43:06.650397,192.168.0.112
2143,-1,-100,-100,-100,"0,0,0",0,-1,108,0,0,0,63,65,80,40,100,-47.58,42,-2.0,14.0,-971.0,12:43:06.747502,192.168.0.112
2148,-1,-100,-100,-100,"0,0,0",0,0,108,0,0,0,63,65,80,40,100,-47.53,42,-1.0,5.0,-967.0,12:43:06.849594,192.168.0.112
2153,-1,-100,-100,-100,"0,0,0",0,0,107,0,0,0,63,65,79,40,100,-47.63,43,-1.0,8.0,-1018.0,12:43:06.953599,192.168.0.112
2158,-1,-100,-100,-100,"0,0,0",0,0,107,0,0,0,63,65,80,40,100,-47.5,43,8.0,17.0,-1005.0,12:43:07.053523,192.168.0.112
2163,-1,-100,-100,-100,"0,0,0",0,0,107,0,0,0,63,65,79,40,100,-47.4,43,-5.0,21.0,-1013.0,12:43:07.156338,192.168.0.112
2167,-1,-100,-100,-100,"0,0,0",0,0,107,0,0,0,63,65,79,40,100,-47.49,43,13.0,-7.0,-1001.0,12:43:07.207606,192.168.0.112
2172,-1,-100,-100,-100,"0,0,0",0,0,107,0,0,0,63,65,79,40,100,-47.49,43,11.0,-14.0,-989.0,12:43:07.309575,192.168.0.112
2177,-1,-100,-100,-100,"0,0,0",0,0,107,0,0,0,63,65,80,40,100,-47.56,43,7.0,-5.0,-1010.0,12:43:07.411590,192.168.0.112
2182,-1,-100,-100,-100,"0,0,0",0,0,107,0,0,0,63,65,80,40,100,-47.52,43,-6.0,11.0,-997.0,12:43:07.513589,192.168.0.112
2187,-1,-100,-100,-100,"0,0,0",0,0,107,0,0,0,63,65,80,40,100,-47.54,43,5.0,-8.0,-982.0,12:43:07.615901,192.168.0.112
2192,-1,-100,-100,-100,"0,0,0",0,0,107,0,0,0,63,65,81,40,100,-47.57,43,14.0,-13.0,-997.0,12:43:07.718085,192.168.0.112
2197,-1,-100,-100,-100,"0,0,0",0,0,107,0,0,0,63,65,81,40,100,-47.53,43,0.0,-10.0,-1004.0,12:43:07.819537,192.168.0.112
2202,-1,-100,-100,-100,"0,0,0",0,0,107,0,0,0,63,65,81,40,100,-47.59,44,-8.0,0.0,-993.0,12:43:07.921653,192.168.0.112
2207,-1,-100,-100,-100,"0,0,0",0,0,107,0,0,0,63,66,80,40,100,-47.54,44,17.0,-15.0,-1012.0,12:43:08.023541,192.168.0.112
2212,-1,-100,-100,-100,"0,0,0",0,0,107,0,0,0,63,66,81,40,100,-47.5,44,-8.0,-11.0,-1003.0,12:43:08.127114,192.168.0.112
2217,-1,-100,-100,-100,"0,0,0",0,0,107,0,0,0,63,66,80,40,100,-47.6,44,13.0,-14.0,-983.0,12:43:08.227778,192.168.0.112
2222,-1,-100,-100,-100,"0,0,0",0,0,107,0,0,0,63,66,81,40,100,-47.53,44,-5.0,-5.0,-996.0,12:43:08.330784,192.168.0.112
2228,-1,-100,-100,-100,"0,0,0",0,0,107,0,0,0,63,66,80,40,100,-47.56,44,4.0,-14.0,-1024.0,12:43:08.434738,192.168.0.112
2233,-1,-100,-100,-100,"0,0,0",0,0,107,0,0,0,63,66,80,40,100,-47.59,44,4.0,-18.0,-1004.0,12:43:08.533307,192.168.0.112
2238,-1,-100,-100,-100,"0,0,0",0,0,107,0,0,0,63,66,80,40,100,-47.57,44,-5.0,0.0,-995.0,12:43:08.644526,192.168.0.112
2243,-1,-100,-100,-100,"0,0,0",0,0,107,0,0,0,63,66,80,40,100,-47.68,44,-17.0,5.0,-1003.0,12:43:08.740461,192.168.0.112
2248,-1,-100,-100,-100,"0,0,0",0,0,107,0,0,0,63,66,80,40,100,-47.61,44,-14.0,-10.0,-996.0,12:43:08.839596,192.168.0.112
2253,-1,-100,-100,-100,"0,0,0",0,0,107,0,0,0,63,66,80,40,100,-47.59,45,-5.0,-15.0,-1010.0,12:43:08.943985,192.168.0.112
2258,-1,-100,-100,-100,"0,0,0",-1,0,107,0,0,0,63,65,80,40,100,-47.61,45,-29.0,-2.0,-1007.0,12:43:09.044558,192.168.0.112
2263,-1,-100,-100,-100,"0,0,0",-1,0,106,0,0,0,63,65,80,40,100,-47.56,45,2.0,-17.0,-1000.0,12:43:09.145551,192.168.0.112
2268,-1,-100,-100,-100,"0,0,0",0,0,106,0,0,0,63,65,80,40,100,-47.5,45,-2.0,-6.0,-996.0,12:43:09.247079,192.168.0.112
2273,-1,-100,-100,-100,"0,0,0",0,0,106,0,0,0,63,65,80,40,100,-47.64,45,-11.0,-16.0,-1009.0,12:43:09.350515,192.168.0.112
2278,-1,-100,-100,-100,"0,0,0",0,0,106,0,0,0,63,65,80,40,100,-47.66,45,12.0,-26.0,-1013.0,12:43:09.451540,192.168.0.112
2283,-1,-100,-100,-100,"0,0,0",0,0,107,0,0,0,63,65,80,40,100,-47.53,45,-3.0,-12.0,-1029.0,12:43:09.553348,192.168.0.112
2288,-1,-100,-100,-100,"0,0,0",0,0,107,0,0,0,63,65,80,40,100,-47.51,45,-14.0,-16.0,-1004.0,12:43:09.655365,192.168.0.112
2293,-1,-100,-100,-100,"0,0,0",0,0,107,0,0,0,63,65,81,40,100,-47.56,45,0.0,-28.0,-1002.0,12:43:09.757682,192.168.0.112
2298,-1,-100,-100,-100,"0,0,0",0,1,107,0,0,0,63,65,81,40,100,-47.52,45,-4.0,-20.0,-996.0,12:43:09.859479,192.168.0.112
2303,-1,-100,-100,-100,"0,0,0",0,1,107,0,0,0,63,65,81,40,100,-47.54,46,-23.0,-16.0,-997.0,12:43:09.961431,192.168.0.112
2308,-1,-100,-100,-100,"0,0,0",0,1,107,0,0,0,63,65,81,40,100,-47.51,46,-3.0,-31.0,-1007.0,12:43:10.065352,192.168.0.112
2313,-1,-100,-100,-100,"0,0,0",0,1,107,0,0,0,63,65,81,40,100,-47.57,46,3.0,-20.0,-1007.0,12:43:10.168518,192.168.0.112
2318,-1,-100,-100,-100,"0,0,0",0,1,107,0,0,0,63,65,81,40,100,-47.57,46,-18.0,-22.0,-982.0,12:43:10.269198,192.168.0.112
2323,-1,-100,-100,-100,"0,0,0",0,1,107,0,0,0,63,65,81,40,100,-47.49,46,-18.0,-12.0,-991.0,12:43:10.369063,192.168.0.112
2328,-1,-100,-100,-100,"0,0,0",0,1,107,0,0,0,63,65,82,40,100,-47.61,46,-23.0,-17.0,-985.0,12:43:10.471310,192.168.0.112
2331,-1,-100,-100,-100,"0,0,0",0,1,107,0,0,0,63,65,82,40,100,-47.66,46,-4.0,5.0,-999.0,12:43:10.522458,192.168.0.112
2337,-1,-100,-100,-100,"0,0,0",0,0,107,0,0,0,63,65,82,40,100,-47.59,46,0.0,-20.0,-1008.0,12:43:10.625824,192.168.0.112
2342,-1,-100,-100,-100,"0,0,0",0,0,107,0,0,0,63,65,83,40,100,-47.63,46,-2.0,-7.0,-1006.0,12:43:10.726475,192.168.0.112
2347,-1,-100,-100,-100,"0,0,0",0,0,107,0,0,0,63,65,82,40,100,-47.64,46,1.0,-5.0,-1006.0,12:43:10.828454,192.168.0.112
2352,-1,-100,-100,-100,"0,0,0",0,0,107,0,0,0,63,65,81,40,100,-47.56,47,-2.0,1.0,-996.0,12:43:10.932039,192.168.0.112
2357,-1,-100,-100,-100,"0,0,0",0,0,107,0,0,0,63,65,81,40,100,-47.64,47,-18.0,4.0,-1015.0,12:43:11.032432,192.168.0.112
2362,-1,-100,-100,-100,"0,0,0",0,0,107,0,0,0,63,65,81,40,100,-47.66,47,-7.0,-2.0,-988.0,12:43:11.134402,192.168.0.112
2367,-1,-100,-100,-100,"0,0,0",0,0,107,0,0,0,63,65,81,40,100,-47.55,47,-5.0,-5.0,-996.0,12:43:11.237786,192.168.0.112
2372,-1,-100,-100,-100,"0,0,0",0,0,107,0,0,0,63,65,81,40,100,-47.54,47,0.0,-18.0,-1001.0,12:43:11.339407,192.168.0.112
2377,-1,-100,-100,-100,"0,0,0",0,0,107,0,0,0,63,65,80,40,100,-47.61,47,-7.0,-8.0,-1004.0,12:43:11.444755,192.168.0.112
2382,-1,-100,-100,-100,"0,0,0",0,0,107,0,0,0,63,65,80,40,100,-47.62,47,-8.0,2.0,-1007.0,12:43:11.542520,192.168.0.112
2387,-1,-100,-100,-100,"0,0,0",0,0,107,0,0,0,63,65,80,40,100,-47.64,47,11.0,-9.0,-1007.0,12:43:11.644475,192.168.0.112
2392,-1,-100,-100,-100,"0,0,0",0,0,107,0,0,0,63,65,80,40,100,-47.63,47,0.0,9.0,-1005.0,12:43:11.746346,192.168.0.112
2398,-1,-100,-100,-100,"0,0,0",0,0,107,0,0,0,63,65,79,40,100,-47.58,47,-10.0,12.0,-1000.0,12:43:11.848585,192.168.0.112
2403,-1,-100,-100,-100,"0,0,0",0,0,107,0,0,0,63,65,79,40,100,-47.52,48,-6.0,10.0,-982.0,12:43:11.952610,192.168.0.112
2408,-1,-100,-100,-100,"0,0,0",0,0,107,0,0,0,63,66,79,40,100,-47.54,48,-2.0,14.0,-1002.0,12:43:12.052350,192.168.0.112
2413,-1,-100,-100,-100,"0,0,0",0,0,107,0,0,0,63,66,79,40,100,-47.48,48,3.0,25.0,-1004.0,12:43:12.154480,192.168.0.112
2418,-1,-100,-100,-100,"0,0,0",0,-1,107,0,0,0,63,66,79,40,100,-47.52,48,-12.0,37.0,-1016.0,12:43:12.256359,192.168.0.112
2423,-1,-100,-100,-100,"0,0,0",0,0,107,0,0,0,63,66,79,40,100,-47.49,48,23.0,1.0,-1005.0,12:43:12.358347,192.168.0.112
2428,-1,-100,-100,-100,"0,0,0",0,-1,107,0,0,0,63,66,79,40,100,-47.63,48,25.0,2.0,-1010.0,12:43:12.460406,192.168.0.112
2433,-1,-100,-100,-100,"0,0,0",0,-1,107,0,0,0,63,66,80,40,100,-47.61,48,-14.0,39.0,-995.0,12:43:12.562927,192.168.0.112
2438,-1,-100,-100,-100,"0,0,0",0,-1,107,0,0,0,63,66,79,40,100,-47.65,48,9.0,20.0,-1009.0,12:43:12.667052,192.168.0.112
2443,-1,-100,-100,-100,"0,0,0",0,-1,107,0,0,0,63,66,79,40,100,-47.6,48,2.0,10.0,-996.0,12:43:12.767492,192.168.0.112
2448,-1,-100,-100,-100,"0,0,0",0,-1,107,0,0,0,63,66,79,40,100,-47.58,48,-6.0,15.0,-995.0,12:43:12.869280,192.168.0.112
2453,-1,-100,-100,-100,"0,0,0",0,-1,107,0,0,0,63,66,79,40,100,-47.63,49,-7.0,10.0,-998.0,12:43:12.974531,192.168.0.112
2458,-1,-100,-100,-100,"0,0,0",0,-1,107,0,0,0,63,65,79,40,100,-47.6,49,3.0,-1.0,-1015.0,12:43:13.075000,192.168.0.112
2463,-1,-100,-100,-100,"0,0,0",0,-1,107,0,0,0,63,65,79,40,100,-47.53,49,-9.0,13.0,-999.0,12:43:13.175375,192.168.0.112
2468,-1,-100,-100,-100,"0,0,0",0,0,107,0,0,0,63,65,79,40,100,-47.63,49,7.0,-4.0,-1007.0,12:43:13.277390,192.168.0.112
2473,-1,-100,-100,-100,"0,0,0",0,0,107,0,0,0,63,65,79,40,100,-47.53,49,2.0,-1.0,-995.0,12:43:13.379373,192.168.0.112
2478,-1,-100,-100,-100,"0,0,0",0,0,107,0,0,0,63,65,79,40,100,-47.54,49,-14.0,5.0,-1007.0,12:43:13.481522,192.168.0.112
2483,-1,-100,-100,-100,"0,0,0",0,0,107,0,0,0,63,65,79,40,100,-47.53,49,-3.0,12.0,-1003.0,12:43:13.582956,192.168.0.112
2488,-1,-100,-100,-100,"0,0,0",0,0,107,0,0,0,63,65,79,40,100,-47.58,49,-1.0,7.0,-1009.0,12:43:13.685476,192.168.0.112
2493,-1,-100,-100,-100,"0,0,0",0,0,107,0,0,0,63,65,79,40,100,-47.52,49,0.0,-2.0,-1002.0,12:43:13.787213,192.168.0.112
2499,-1,-100,-100,-100,"0,0,0",0,0,107,0,0,0,63,65,79,40,100,-47.52,49,-8.0,13.0,-1001.0,12:43:13.889149,192.168.0.112
2504,-1,-100,-100,-100,"0,0,0",0,0,107,0,0,0,63,65,79,40,100,-47.52,50,-2.0,3.0,-1008.0,12:43:13.991312,192.168.0.112
2509,-1,-100,-100,-100,"0,0,0",0,0,107,0,0,0,63,66,79,40,100,-47.58,50,-15.0,17.0,-1004.0,12:43:14.093628,192.168.0.112
2512,-1,-100,-100,-100,"0,0,0",0,0,107,0,0,0,63,66,79,40,100,-47.65,50,-14.0,4.0,-1002.0,12:43:14.144357,192.168.0.112
2517,-1,-100,-100,-100,"0,0,0",0,0,107,0,0,0,63,66,79,40,100,-47.6,50,-8.0,10.0,-1000.0,12:43:14.246567,192.168.0.112
2522,-1,-100,-100,-100,"0,0,0",0,0,107,0,0,0,63,66,79,40,100,-47.65,50,3.0,-6.0,-997.0,12:43:14.348313,192.168.0.112
2527,-1,-100,-100,-100,"0,0,0",0,0,107,0,0,0,63,66,79,40,100,-47.5,50,-3.0,-7.0,-1011.0,12:43:14.450291,192.168.0.112
2532,-1,-100,-100,-100,"0,0,0",0,0,107,0,0,0,63,66,79,40,100,-47.64,50,0.0,-17.0,-993.0,12:43:14.552983,192.168.0.112
