,mid,x,y,z,mpry,pitch,roll,yaw,vgx,vgy,vgz,templ,temph,tof,h,bat,baro,time,agx,agy,agz,timestamp,address
3,-1,-100,-100,-100,"0,0,0",0,0,-76,0,0,0,63,65,10,0,94,-48.66,0,1.0,-3.0,-998.0,12:42:23.773307,192.168.0.115
7,-1,-100,-100,-100,"0,0,0",0,0,-76,0,0,0,63,65,10,0,94,-48.63,0,1.0,-5.0,-1001.0,12:42:23.874988,192.168.0.115
12,-1,-100,-100,-100,"0,0,0",0,0,-76,0,0,0,63,65,10,0,94,-48.64,0,4.0,-8.0,-1000.0,12:42:23.976953,192.168.0.115
17,-1,-100,-100,-100,"0,0,0",0,0,-76,0,0,0,63,65,10,0,94,-48.64,0,0.0,2.0,-1001.0,12:42:24.079326,192.168.0.115
23,-1,-100,-100,-100,"0,0,0",0,0,-76,0,0,0,63,65,10,0,94,-48.64,0,-11.0,-1.0,-1001.0,12:42:24.181086,192.168.0.115
28,-1,-100,-100,-100,"0,0,0",0,0,-76,0,0,0,63,65,10,0,94,-48.64,0,-26.0,32.0,-1023.0,12:42:24.284159,192.168.0.115
33,-1,-100,-100,-100,"0,0,0",0,0,-76,0,0,0,64,66,10,0,94,-48.64,0,12.0,6.0,-1033.0,12:42:24.385647,192.168.0.115
38,-1,-100,-100,-100,"0,0,0",-1,0,-76,0,0,0,64,66,10,0,94,-48.64,0,25.0,-4.0,-1194.0,12:42:24.487023,192.168.0.115
43,-1,-100,-100,-100,"0,0,0",-1,0,-77,0,0,1,64,66,10,0,94,-48.64,0,0.0,0.0,-1313.0,12:42:24.589125,192.168.0.115
49,-1,-100,-100,-100,"0,0,0",1,0,-77,0,1,5,64,66,10,0,94,-48.64,0,40.0,20.0,-1240.0,12:42:24.695872,192.168.0.115
54,-1,-100,-100,-100,"0,0,0",2,0,-77,0,0,6,64,66,15,0,94,-48.49,0,34.0,15.0,-1080.0,12:42:24.793000,192.168.0.115
55,-1,-100,-100,-100,"0,0,0",2,0,-77,0,0,7,64,66,25,0,94,-48.22,0,78.0,15.0,-1015.0,12:42:24.844047,192.168.0.115
60,-1,-100,-100,-100,"0,0,0",3,-1,-77,0,1,7,64,66,34,0,94,-48.07,1,95.0,-11.0,-987.0,12:42:24.946159,192.168.0.115
65,-1,-100,-100,-100,"0,0,0",4,-1,-77,0,1,7,64,66,43,10,94,-48.06,1,70.0,0.0,-947.0,12:42:25.048114,192.168.0.115
70,-1,-100,-100,-100,"0,0,0",5,-1,-77,0,1,6,64,66,52,10,94,-48.03,1,53.0,12.0,-897.0,12:42:25.149900,192.168.0.115
75,-1,-100,-100,-100,"0,0,0",5,0,-77,0,0,5,64,66,62,20,94,-47.93,1,90.0,-1.0,-886.0,12:42:25.252058,192.168.0.115
80,-1,-100,-100,-100,"0,0,0",4,-1,-77,0,0,4,63,66,68,20,94,-47.94,1,89.0,-20.0,-885.0,12:42:25.354011,192.168.0.115
85,-1,-100,-100,-100,"0,0,0",5,0,-77,0,0,3,63,66,74,30,94,-47.85,1,34.0,22.0,-895.0,12:42:25.455909,192.168.0.115
90,-1,-100,-100,-100,"0,0,0",5,0,-77,0,0,2,63,66,79,30,94,-47.72,1,76.0,17.0,-903.0,12:42:25.558032,192.168.0.115
95,-1,-100,-100,-100,"0,0,0",4,0,-76,0,0,1,63,66,84,30,94,-47.69,1,36.0,31.0,-939.0,12:42:25.659989,192.168.0.115
100,-1,-100,-100,-100,"0,0,0",4,-1,-76,0,0,0,63,66,88,30,94,-47.71,1,47.0,17.0,-942.0,12:42:25.761907,192.168.0.115
107,-1,-100,-100,-100,"0,0,0",3,-1,-76,0,0,0,63,66,91,40,94,-47.65,1,34.0,1.0,-943.0,12:42:25.864517,192.168.0.115
111,-1,-100,-100,-100,"0,0,0",3,0,-76,0,0,0,63,66,94,40,94,-47.49,2,50.0,1.0,-940.0,12:42:25.966069,192.168.0.115
116,-1,-100,-100,-100,"0,0,0",2,0,-76,0,0,0,63,66,96,40,94,-47.58,2,29.0,4.0,-958.0,12:42:26.068020,192.168.0.115
122,-1,-100,-100,-100,"0,0,0",2,0,-76,0,0,0,63,66,98,40,94,-47.53,2,25.0,13.0,-965.0,12:42:26.170002,192.168.0.115
127,-1,-100,-100,-100,"0,0,0",2,0,-76,0,0,0,63,66,99,40,94,-47.54,2,47.0,0.0,-929.0,12:42:26.272266,192.168.0.115
133,-1,-100,-100,-100,"0,0,0",2,0,-76,0,0,0,63,66,100,50,94,-47.49,2,20.0,17.0,-959.0,12:42:26.374671,192.168.0.115
137,-1,-100,-100,-100,"0,0,0",1,0,-76,0,0,-1,63,66,101,50,94,-47.57,2,16.0,-3.0,-978.0,12:42:26.476706,192.168.0.115
143,-1,-100,-100,-100,"0,0,0",1,0,-76,0,0,-1,63,66,100,50,94,-47.55,2,23.0,28.0,-983.0,12:42:26.579319,192.168.0.115
149,-1,-100,-100,-100,"0,0,0",1,0,-76,0,0,-1,63,66,100,50,94,-47.53,2,43.0,1.0,-975.0,12:42:26.682338,192.168.0.115
153,-1,-100,-100,-100,"0,0,0",1,0,-76,0,0,-1,63,66,100,50,94,-47.59,2,-5.0,14.0,-949.0,12:42:26.783833,192.168.0.115
158,-1,-100,-100,-100,"0,0,0",1,0,-76,0,0,-1,63,66,99,50,94,-47.57,2,39.0,-10.0,-973.0,12:42:26.886348,192.168.0.115
163,-1,-100,-100,-100,"0,0,0",1,0,-76,0,0,-1,63,66,100,50,94,-47.54,3,19.0,-17.0,-975.0,12:42:26.986011,192.168.0.115
168,-1,-100,-100,-100,"0,0,0",1,0,-77,0,0,-1,63,66,98,50,94,-47.59,3,47.0,-28.0,-974.0,12:42:27.087854,192.168.0.115
174,-1,-100,-100,-100,"0,0,0",1,0,-77,0,0,-1,63,66,97,50,94,-47.64,3,47.0,-3.0,-982.0,12:42:27.189432,192.168.0.115
179,-1,-100,-100,-100,"0,0,0",1,1,-77,0,0,-1,63,66,96,50,94,-47.53,3,-16.0,15.0,-994.0,12:42:27.292074,192.168.0.115
180,-1,-100,-100,-100,"0,0,0",1,1,-77,0,0,-1,64,65,94,50,94,-47.56,3,22.0,14.0,-967.0,12:42:27.342866,192.168.0.115
185,-1,-100,-100,-100,"0,0,0",0,0,-78,0,0,-1,64,65,93,50,94,-47.53,3,21.0,10.0,-995.0,12:42:27.445051,192.168.0.115
191,-1,-100,-100,-100,"0,0,0",0,0,-78,0,0,-2,64,65,91,40,94,-47.64,3,16.0,0.0,-1004.0,12:42:27.547260,192.168.0.115
195,-1,-100,-100,-100,"0,0,0",0,0,-78,0,0,-2,64,65,89,40,94,-47.66,3,28.0,21.0,-1028.0,12:42:27.649081,192.168.0.115
200,-1,-100,-100,-100,"0,0,0",0,0,-77,0,0,-1,64,65,87,40,94,-47.54,3,7.0,23.0,-1010.0,12:42:27.750930,192.168.0.115
206,-1,-100,-100,-100,"0,0,0",0,-1,-77,0,0,-1,64,65,86,40,94,-47.58,3,6.0,9.0,-1000.0,12:42:27.855992,192.168.0.115
210,-1,-100,-100,-100,"0,0,0",0,-1,-77,0,0,-1,64,65,85,40,94,-47.52,4,-12.0,8.0,-1024.0,12:42:27.955130,192.168.0.115
215,-1,-100,-100,-100,"0,0,0",0,-1,-77,0,0,-1,64,65,83,40,94,-47.62,4,11.0,14.0,-967.0,12:42:28.056924,192.168.0.115
220,-1,-100,-100,-100,"0,0,0",0,-1,-77,0,0,-1,64,65,81,40,94,-47.76,4,45.0,19.0,-1024.0,12:42:28.158961,192.168.0.115
226,-1,-100,-100,-100,"0,0,0",0,-1,-77,0,0,0,64,65,80,40,94,-47.72,4,-1.0,19.0,-1009.0,12:42:28.262199,192.168.0.115
230,-1,-100,-100,-100,"0,0,0",0,-1,-77,0,0,0,63,65,79,40,94,-47.82,4,-3.0,22.0,-1031.0,12:42:28.362942,192.168.0.115
237,-1,-100,-100,-100,"0,0,0",0,-1,-77,0,0,0,63,65,78,30,94,-47.73,4,8.0,29.0,-1019.0,12:42:28.465398,192.168.0.115
242,-1,-100,-100,-100,"0,0,0",0,0,-77,0,0,0,63,65,78,30,94,-47.89,4,16.0,27.0,-1027.0,12:42:28.567257,192.168.0.115
246,-1,-100,-100,-100,"0,0,0",0,0,-77,0,0,0,63,65,77,30,94,-47.71,4,5.0,23.0,-1018.0,12:42:28.669104,192.168.0.115
251,-1,-100,-100,-100,"0,0,0",0,-2,-76,0,0,0,63,65,76,30,94,-47.71,4,8.0,16.0,-1042.0,12:42:28.771087,192.168.0.115
256,-1,-100,-100,-100,"0,0,0",0,-2,-76,0,0,0,63,65,76,30,94,-47.65,4,14.0,-1.0,-1014.0,12:42:28.872413,192.168.0.115
261,-1,-100,-100,-100,"0,0,0",0,-2,-76,0,0,0,63,65,76,30,94,-47.68,5,20.0,1.0,-989.0,12:42:28.975322,192.168.0.115
267,-1,-100,-100,-100,"0,0,0",0,-1,-75,0,0,0,63,65,76,30,94,-47.73,5,27.0,3.0,-982.0,12:42:29.079131,192.168.0.115
272,-1,-100,-100,-100,"0,0,0",0,-1,-76,0,0,0,63,65,76,30,94,-47.76,5,41.0,2.0,-989.0,12:42:29.179644,192.168.0.115
277,-1,-100,-100,-100,"0,0,0",0,0,-76,0,0,0,63,65,76,30,94,-47.82,5,-10.0,12.0,-988.0,12:42:29.280800,192.168.0.115
283,-1,-100,-100,-100,"0,0,0",0,0,-76,0,0,0,64,66,76,30,94,-47.77,5,-19.0,8.0,-994.0,12:42:29.382799,192.168.0.115
288,-1,-100,-100,-100,"0,0,0",0,0,-76,0,0,0,64,66,75,30,94,-47.73,5,39.0,-11.0,-995.0,12:42:29.484854,192.168.0.115
293,-1,-100,-100,-100,"0,0,0",0,0,-76,0,0,0,64,66,75,30,94,-47.72,5,5.0,13.0,-1017.0,12:42:29.586417,192.168.0.115
298,-1,-100,-100,-100,"0,0,0",0,0,-76,0,0,0,64,66,75,30,94,-47.78,5,13.0,-8.0,-988.0,12:42:29.688797,192.168.0.115
304,-1,-100,-100,-100,"0,0,0",0,0,-76,0,0,0,64,66,75,30,94,-47.7,5,-10.0,16.0,-996.0,12:42:29.790711,192.168.0.115
309,-1,-100,-100,-100,"0,0,0",0,0,-76,0,0,0,64,66,75,30,94,-47.72,5,18.0,14.0,-1016.0,12:42:29.892768,192.168.0.115
310,-1,-100,-100,-100,"0,0,0",0,0,-76,0,0,0,64,66,75,30,94,-47.69,6,21.0,-1.0,-1019.0,12:42:29.943802,192.168.0.115
315,-1,-100,-100,-100,"0,0,0",0,0,-76,0,0,0,64,66,75,30,94,-47.72,6,17.0,6.0,-1001.0,12:42:30.045718,192.168.0.115
321,-1,-100,-100,-100,"0,0,0",0,0,-76,0,0,0,64,66,75,30,94,-47.67,6,11.0,4.0,-990.0,12:42:30.148423,192.168.0.115
325,-1,-100,-100,-100,"0,0,0",0,0,-76,0,0,0,64,66,75,30,94,-47.67,6,52.0,-3.0,-1010.0,12:42:30.249755,192.168.0.115
330,-1,-100,-100,-100,"0,0,0",0,0,-76,0,0,0,64,65,75,30,94,-47.69,6,22.0,10.0,-975.0,12:42:30.352024,192.168.0.115
335,-1,-100,-100,-100,"0,0,0",0,0,-76,0,0,0,64,65,75,30,94,-47.84,6,46.0,-14.0,-1015.0,12:42:30.453742,192.168.0.115
340,-1,-100,-100,-100,"0,0,0",0,0,-76,0,0,0,64,65,75,30,94,-47.82,6,44.0,-7.0,-1003.0,12:42:30.555963,192.168.0.115
346,-1,-100,-100,-100,"0,0,0",0,0,-76,0,0,0,64,65,76,30,94,-47.66,6,46.0,6.0,-1000.0,12:42:30.658334,192.168.0.115
350,-1,-100,-100,-100,"0,0,0",1,0,-76,0,0,0,64,65,76,30,94,-47.73,6,2.0,15.0,-985.0,12:42:30.760372,192.168.0.115
355,-1,-100,-100,-100,"0,0,0",1,0,-76,0,0,0,64,65,76,30,94,-47.69,6,52.0,-5.0,-986.0,12:42:30.861772,192.168.0.115
361,-1,-100,-100,-100,"0,0,0",1,0,-76,0,0,0,64,65,76,30,94,-47.72,7,29.0,-13.0,-996.0,12:42:30.963957,192.168.0.115
366,-1,-100,-100,-100,"0,0,0",1,0,-76,0,0,0,64,65,76,30,94,-47.74,7,65.0,-38.0,-1026.0,12:42:31.065672,192.168.0.115
371,-1,-100,-100,-100,"0,0,0",0,0,-76,0,0,0,64,65,76,30,94,-47.67,7,2.0,0.0,-1008.0,12:42:31.167838,192.168.0.115
376,-1,-100,-100,-100,"0,0,0",1,0,-76,0,0,0,64,65,75,30,94,-47.64,7,33.0,2.0,-990.0,12:42:31.269695,192.168.0.115
381,-1,-100,-100,-100,"0,0,0",2,0,-76,0,0,0,64,66,75,30,94,-47.67,7,40.0,-17.0,-1033.0,12:42:31.371849,192.168.0.115
386,-1,-100,-100,-100,"0,0,0",2,0,-76,0,0,0,64,66,75,30,94,-47.57,7,11.0,1.0,-1003.0,12:42:31.473676,192.168.0.115
391,-1,-100,-100,-100,"0,0,0",1,1,-77,0,0,0,64,66,76,30,94,-47.69,7,42.0,4.0,-1007.0,12:42:31.575789,192.168.0.115
396,-1,-100,-100,-100,"0,0,0",2,2,-77,0,0,0,64,66,76,30,94,-47.72,7,-7.0,26.0,-995.0,12:42:31.677828,192.168.0.115
403,-1,-100,-100,-100,"0,0,0",1,1,-76,0,0,0,64,66,76,30,94,-47.74,7,13.0,1.0,-981.0,12:42:31.780615,192.168.0.115
407,-1,-100,-100,-100,"0,0,0",1,1,-76,0,0,0,64,66,76,30,94,-47.72,7,43.0,-6.0,-996.0,12:42:31.881767,192.168.0.115
412,-1,-100,-100,-100,"0,0,0",1,0,-77,0,0,0,64,66,77,30,94,-47.68,8,20.0,-1.0,-992.0,12:42:31.983883,192.168.0.115
417,-1,-100,-100,-100,"0,0,0",1,0,-77,0,0,0,64,66,77,30,94,-47.74,8,25.0,-8.0,-988.0,12:42:32.085564,192.168.0.115
423,-1,-100,-100,-100,"0,0,0",1,0,-77,0,0,0,64,66,77,30,94,-47.77,8,28.0,14.0,-987.0,12:42:32.188280,192.168.0.115
427,-1,-100,-100,-100,"0,0,0",0,0,-77,0,0,0,64,66,77,30,94,-47.73,8,25.0,-9.0,-994.0,12:42:32.289857,192.168.0.115
433,-1,-100,-100,-100,"0,0,0",0,0,-77,0,0,0,63,65,78,30,94,-47.78,8,44.0,-11.0,-986.0,12:42:32.393267,192.168.0.115
435,-1,-100,-100,-100,"0,0,0",0,0,-77,0,0,0,63,65,78,30,94,-47.75,8,24.0,-8.0,-993.0,12:42:32.442807,192.168.0.115
440,-1,-100,-100,-100,"0,0,0",0,0,-77,0,0,0,63,65,78,30,94,-47.79,8,6.0,4.0,-996.0,12:42:32.544712,192.168.0.115
446,-1,-100,-100,-100,"0,0,0",0,0,-77,0,0,0,63,65,78,30,94,-47.72,8,-4.0,8.0,-990.0,12:42:32.647865,192.168.0.115
450,-1,-100,-100,-100,"0,0,0",0,0,-77,0,0,0,63,65,78,30,94,-47.8,8,0.0,12.0,-975.0,12:42:32.748882,192.168.0.115
455,-1,-100,-100,-100,"0,0,0",0,0,-77,0,0,0,63,65,78,30,94,-47.71,8,-7.0,8.0,-987.0,12:42:32.850855,192.168.0.115
461,-1,-100,-100,-100,"0,0,0",0,0,-77,0,0,0,63,65,78,30,94,-47.72,9,-2.0,3.0,-987.0,12:42:32.953187,192.168.0.115
465,-1,-100,-100,-100,"0,0,0",0,0,-77,0,0,0,63,65,79,30,94,-47.7,9,6.0,-5.0,-1001.0,12:42:33.054944,192.168.0.115
470,-1,-100,-100,-100,"0,0,0",0,0,-77,0,0,0,63,65,78,30,94,-47.73,9,0.0,12.0,-1001.0,12:42:33.156955,192.168.0.115
476,-1,-100,-100,-100,"0,0,0",0,0,-77,0,0,0,63,65,78,30,94,-47.77,9,12.0,3.0,-1010.0,12:42:33.259491,192.168.0.115
480,-1,-100,-100,-100,"0,0,0",0,0,-77,0,0,0,63,65,79,30,94,-47.8,9,9.0,7.0,-1004.0,12:42:33.360790,192.168.0.115
486,-1,-100,-100,-100,"0,0,0",0,0,-77,0,0,0,63,65,79,30,94,-47.78,9,-21.0,32.0,-1000.0,12:42:33.464149,192.168.0.115
490,-1,-100,-100,-100,"0,0,0",0,0,-77,0,0,0,63,65,79,30,94,-47.76,9,13.0,-1.0,-993.0,12:42:33.564225,192.168.0.115
496,-1,-100,-100,-100,"0,0,0",0,0,-77,0,0,0,63,65,79,30,94,-47.75,9,-7.0,16.0,-1001.0,12:42:33.666787,192.168.0.115
501,-1,-100,-100,-100,"0,0,0",0,0,-77,0,0,0,63,65,78,30,94,-47.74,9,-25.0,26.0,-1006.0,12:42:33.768936,192.168.0.115
506,-1,-100,-100,-100,"0,0,0",0,0,-77,0,0,0,63,65,79,30,94,-47.79,9,-20.0,13.0,-999.0,12:42:33.870323,192.168.0.115
512,-1,-100,-100,-100,"0,0,0",-1,-1,-77,0,0,0,63,65,78,30,94,-47.77,10,-5.0,13.0,-1005.0,12:42:33.973137,192.168.0.115
516,-1,-100,-100,-100,"0,0,0",-1,-1,-77,0,0,0,63,65,79,30,94,-47.73,10,0.0,4.0,-991.0,12:42:34.074557,192.168.0.115
521,-1,-100,-100,-100,"0,0,0",0,0,-77,0,0,0,63,65,79,30,94,-47.76,10,11.0,4.0,-1004.0,12:42:34.176718,192.168.0.115
527,-1,-100,-100,-100,"0,0,0",0,0,-77,0,0,0,63,65,78,30,94,-47.76,10,4.0,-5.0,-1009.0,12:42:34.278724,192.168.0.115
533,-1,-100,-100,-100,"0,0,0",0,0,-77,0,0,0,63,66,78,30,94,-47.75,10,1.0,0.0,-999.0,12:42:34.381174,192.168.0.115
537,-1,-100,-100,-100,"0,0,0",0,0,-77,0,0,0,63,66,78,30,94,-47.81,10,-17.0,22.0,-1002.0,12:42:34.482716,192.168.0.115
542,-1,-100,-100,-100,"0,0,0",0,0,-77,0,0,0,63,66,78,30,94,-47.84,10,8.0,8.0,-1005.0,12:42:34.584744,192.168.0.115
548,-1,-100,-100,-100,"0,0,0",0,0,-77,0,0,0,63,66,78,30,94,-47.74,10,2.0,-10.0,-1011.0,12:42:34.687240,192.168.0.115
552,-1,-100,-100,-100,"0,0,0",0,0,-77,0,0,0,63,66,78,30,94,-47.72,10,14.0,10.0,-1001.0,12:42:34.788704,192.168.0.115
557,-1,-100,-100,-100,"0,0,0",0,0,-77,0,0,0,63,66,78,30,94,-47.8,10,-8.0,-3.0,-976.0,12:42:34.890712,192.168.0.115
563,-1,-100,-100,-100,"0,0,0",0,0,-77,0,0,0,63,66,77,30,94,-47.78,11,-11.0,12.0,-1018.0,12:42:34.992998,192.168.0.115
565,-1,-100,-100,-100,"0,0,0",0,0,-77,0,0,0,63,66,77,30,94,-47.76,11,-11.0,2.0,-1001.0,12:42:35.043566,192.168.0.115
570,-1,-100,-100,-100,"0,0,0",0,0,-77,0,0,0,63,66,77,30,94,-47.77,11,-1.0,-1.0,-994.0,12:42:35.145728,192.168.0.115
575,-1,-100,-100,-100,"0,0,0",0,0,-77,0,0,0,63,66,77,30,94,-47.79,11,16.0,4.0,-993.0,12:42:35.247822,192.168.0.115
580,-1,-100,-100,-100,"0,0,0",0,0,-76,0,0,0,63,66,77,30,94,-47.68,11,-9.0,12.0,-1011.0,12:42:35.349500,192.168.0.115
586,-1,-100,-100,-100,"0,0,0",0,0,-76,0,0,0,63,66,77,30,94,-47.66,11,44.0,-14.0,-1007.0,12:42:35.452202,192.168.0.115
590,-1,-100,-100,-100,"0,0,0",1,0,-76,0,0,0,63,66,77,30,94,-47.75,11,15.0,0.0,-990.0,12:42:35.553731,192.168.0.115
595,-1,-100,-100,-100,"0,0,0",1,0,-76,0,0,0,63,66,77,30,94,-47.65,11,31.0,-3.0,-991.0,12:42:35.655669,192.168.0.115
600,-1,-100,-100,-100,"0,0,0",0,0,-76,0,0,0,63,66,76,30,94,-47.56,11,15.0,-7.0,-994.0,12:42:35.757651,192.168.0.115
606,-1,-100,-100,-100,"0,0,0",1,0,-76,0,0,0,63,66,76,30,94,-47.67,11,30.0,-19.0,-1014.0,12:42:35.860714,192.168.0.115
611,-1,-100,-100,-100,"0,0,0",1,0,-76,0,0,0,63,66,76,30,94,-47.67,12,16.0,-11.0,-1037.0,12:42:35.962012,192.168.0.115
616,-1,-100,-100,-100,"0,0,0",1,0,-76,0,0,0,63,66,75,30,94,-47.69,12,11.0,-24.0,-1017.0,12:42:36.067777,192.168.0.115
620,-1,-100,-100,-100,"0,0,0",1,0,-77,0,0,0,63,66,76,30,94,-47.74,12,14.0,0.0,-1016.0,12:42:36.166810,192.168.0.115
626,-1,-100,-100,-100,"0,0,0",1,1,-77,0,0,0,63,66,76,30,94,-47.7,12,25.0,-7.0,-991.0,12:42:36.269143,192.168.0.115
631,-1,-100,-100,-100,"0,0,0",0,1,-77,0,0,0,64,65,76,30,94,-47.72,12,-12.0,3.0,-998.0,12:42:36.370042,192.168.0.115
635,-1,-100,-100,-100,"0,0,0",1,0,-77,0,0,0,64,65,76,30,94,-47.72,12,-8.0,-6.0,-1015.0,12:42:36.471651,192.168.0.115
640,-1,-100,-100,-100,"0,0,0",0,0,-77,0,0,0,64,65,76,30,94,-47.8,12,16.0,4.0,-1006.0,12:42:36.573749,192.168.0.115
646,-1,-100,-100,-100,"0,0,0",0,0,-77,0,0,0,64,65,76,30,94,-47.74,12,6.0,9.0,-1020.0,12:42:36.676246,192.168.0.115
650,-1,-100,-100,-100,"0,0,0",0,0,-77,0,0,0,64,65,77,30,94,-47.73,12,-3.0,18.0,-1004.0,12:42:36.777772,192.168.0.115
657,-1,-100,-100,-100,"0,0,0",0,0,-77,0,0,0,64,65,76,30,94,-47.75,12,10.0,16.0,-983.0,12:42:36.880141,192.168.0.115
662,-1,-100,-100,-100,"0,0,0",0,0,-77,0,0,0,64,65,77,30,94,-47.72,13,-13.0,8.0,-1001.0,12:42:36.982408,192.168.0.115
667,-1,-100,-100,-100,"0,0,0",0,0,-77,0,0,0,64,65,77,30,94,-47.78,13,11.0,-5.0,-992.0,12:42:37.083778,192.168.0.115
672,-1,-100,-100,-100,"0,0,0",0,0,-77,0,0,0,64,65,77,30,94,-47.71,13,-9.0,14.0,-1002.0,12:42:37.185667,192.168.0.115
677,-1,-100,-100,-100,"0,0,0",0,-1,-77,0,0,0,64,65,78,30,94,-47.71,13,-12.0,18.0,-1011.0,12:42:37.287421,192.168.0.115
683,-1,-100,-100,-100,"0,0,0",0,-1,-77,0,0,0,64,65,77,30,94,-47.69,13,-11.0,12.0,-993.0,12:42:37.390110,192.168.0.115
687,-1,-100,-100,-100,"0,0,0",0,-1,-77,0,0,0,64,65,77,30,94,-47.73,13,-4.0,2.0,-996.0,12:42:37.491677,192.168.0.115
690,-1,-100,-100,-100,"0,0,0",-1,-1,-77,0,0,0,64,65,77,30,94,-47.75,13,-2.0,-16.0,-971.0,12:42:37.542443,192.168.0.115
695,-1,-100,-100,-100,"0,0,0",-1,0,-77,0,0,0,64,65,76,30,94,-47.75,13,0.0,-16.0,-1001.0,12:42:37.644605,192.168.0.115
700,-1,-100,-100,-100,"0,0,0",-1,0,-77,0,0,0,64,65,76,30,94,-47.65,13,-13.0,-12.0,-988.0,12:42:37.748612,192.168.0.115
705,-1,-100,-100,-100,"0,0,0",-1,0,-77,0,0,0,64,65,76,30,94,-47.75,13,-18.0,5.0,-1014.0,12:42:37.848652,192.168.0.115
710,-1,-100,-100,-100,"0,0,0",-1,0,-77,0,0,0,64,65,76,30,94,-47.74,14,7.0,-19.0,-1015.0,12:42:37.950587,192.168.0.115
715,-1,-100,-100,-100,"0,0,0",-1,0,-77,0,0,0,64,65,76,30,94,-47.73,14,5.0,-7.0,-1000.0,12:42:38.052556,192.168.0.115
720,-1,-100,-100,-100,"0,0,0",-1,0,-77,0,0,0,64,65,75,30,94,-47.74,14,-12.0,-3.0,-1005.0,12:42:38.154680,192.168.0.115
726,-1,-100,-100,-100,"0,0,0",-1,0,-77,0,0,0,64,65,75,30,94,-47.78,14,10.0,-12.0,-1016.0,12:42:38.257520,192.168.0.115
730,-1,-100,-100,-100,"0,0,0",-1,0,-77,0,0,0,64,65,75,30,94,-47.79,14,-44.0,-4.0,-1004.0,12:42:38.358390,192.168.0.115
735,-1,-100,-100,-100,"0,0,0",-1,0,-77,0,0,0,64,65,75,30,94,-47.79,14,-11.0,3.0,-997.0,12:42:38.460577,192.168.0.115
741,-1,-100,-100,-100,"0,0,0",-1,0,-77,0,0,0,64,65,76,30,94,-47.83,14,0.0,-2.0,-988.0,12:42:38.563078,192.168.0.115
745,-1,-100,-100,-100,"0,0,0",-1,0,-77,0,0,0,64,65,76,30,94,-47.84,14,-28.0,17.0,-991.0,12:42:38.664229,192.168.0.115
750,-1,-100,-100,-100,"0,0,0",-1,0,-77,0,0,0,64,65,76,30,94,-47.74,14,-2.0,24.0,-997.0,12:42:38.766536,192.168.0.115
755,-1,-100,-100,-100,"0,0,0",-1,0,-77,0,0,0,64,65,76,30,94,-47.74,14,6.0,0.0,-992.0,12:42:38.868229,192.168.0.115
760,-1,-100,-100,-100,"0,0,0",-1,0,-77,0,0,0,64,65,76,30,94,-47.78,15,0.0,3.0,-1013.0,12:42:38.970577,192.168.0.115
765,-1,-100,-100,-100,"0,0,0",-1,0,-77,0,0,0,64,65,76,30,94,-47.74,15,-20.0,11.0,-992.0,12:42:39.072565,192.168.0.115
770,-1,-100,-100,-100,"0,0,0",0,0,-77,0,0,0,64,65,76,30,94,-47.74,15,-12.0,27.0,-978.0,12:42:39.174585,192.168.0.115
776,-1,-100,-100,-100,"0,0,0",0,0,-77,0,0,0,64,65,76,30,94,-47.68,15,1.0,-9.0,-991.0,12:42:39.277306,192.168.0.115
781,-1,-100,-100,-100,"0,0,0",0,0,-77,0,0,0,63,65,76,30,94,-47.76,15,19.0,-6.0,-998.0,12:42:39.379903,192.168.0.115
787,-1,-100,-100,-100,"0,0,0",0,0,-77,0,0,0,63,65,77,30,94,-47.7,15,-22.0,14.0,-985.0,12:42:39.482164,192.168.0.115
791,-1,-100,-100,-100,"0,0,0",0,0,-77,0,0,0,63,65,76,30,94,-47.83,15,3.0,19.0,-996.0,12:42:39.583867,192.168.0.115
796,-1,-100,-100,-100,"0,0,0",0,-1,-77,0,0,0,63,65,76,30,94,-47.78,15,-18.0,13.0,-996.0,12:42:39.686559,192.168.0.115
801,-1,-100,-100,-100,"0,0,0",0,0,-77,0,0,0,63,65,76,30,94,-47.78,15,-8.0,11.0,-1003.0,12:42:39.788914,192.168.0.115
806,-1,-100,-100,-100,"0,0,0",0,0,-77,0,0,0,63,65,76,30,94,-47.78,15,-21.0,38.0,-1013.0,12:42:39.888410,192.168.0.115
811,-1,-100,-100,-100,"0,0,0",0,-1,-77,0,0,0,63,65,76,30,94,-47.74,16,-15.0,31.0,-1003.0,12:42:39.990338,192.168.0.115
816,-1,-100,-100,-100,"0,0,0",0,-1,-77,0,0,0,63,65,76,30,94,-47.84,16,-22.0,10.0,-1012.0,12:42:40.096227,192.168.0.115
820,-1,-100,-100,-100,"0,0,0",0,0,-77,0,0,0,63,65,76,30,94,-47.81,16,11.0,5.0,-1006.0,12:42:40.144179,192.168.0.115
825,-1,-100,-100,-100,"0,0,0",0,-1,-77,0,0,0,63,65,76,30,94,-47.79,16,-7.0,19.0,-997.0,12:42:40.245493,192.168.0.115
830,-1,-100,-100,-100,"0,0,0",0,-1,-77,0,0,0,64,66,76,30,94,-47.75,16,-1.0,2.0,-999.0,12:42:40.347528,192.168.0.115
835,-1,-100,-100,-100,"0,0,0",0,-1,-77,0,0,0,64,66,76,30,94,-47.77,16,15.0,16.0,-1001.0,12:42:40.449400,192.168.0.115
840,-1,-100,-100,-100,"0,0,0",0,0,-77,0,0,0,64,66,76,30,94,-47.77,16,-8.0,21.0,-1007.0,12:42:40.551373,192.168.0.115
845,-1,-100,-100,-100,"0,0,0",0,0,-77,0,0,0,64,66,76,30,94,-47.77,16,9.0,2.0,-1012.0,12:42:40.653433,192.168.0.115
850,-1,-100,-100,-100,"0,0,0",0,0,-77,0,0,0,64,66,75,30,94,-47.8,16,-4.0,0.0,-1004.0,12:42:40.755510,192.168.0.115
855,-1,-100,-100,-100,"0,0,0",0,0,-77,0,0,0,64,66,76,30,94,-47.79,16,11.0,-7.0,-999.0,12:42:40.857591,192.168.0.115
860,-1,-100,-100,-100,"0,0,0",0,0,-77,0,0,0,64,66,75,30,94,-47.77,17,8.0,10.0,-1014.0,12:42:40.959485,192.168.0.115
865,-1,-100,-100,-100,"0,0,0",0,0,-77,0,0,0,64,66,76,30,94,-47.83,17,-22.0,6.0,-1009.0,12:42:41.065371,192.168.0.115
870,-1,-100,-100,-100,"0,0,0",-1,0,-77,0,0,0,64,66,75,30,94,-47.81,17,-12.0,8.0,-999.0,12:42:41.163473,192.168.0.115
875,-1,-100,-100,-100,"0,0,0",-1,0,-77,0,0,0,64,66,76,30,94,-47.83,17,-33.0,20.0,-1001.0,12:42:41.265532,192.168.0.115
880,-1,-100,-100,-100,"0,0,0",-1,0,-77,0,0,0,64,66,76,30,94,-47.82,17,-8.0,28.0,-1005.0,12:42:41.367479,192.168.0.115
885,-1,-100,-100,-100,"0,0,0",-1,0,-76,0,0,0,64,66,76,30,94,-47.78,17,-10.0,6.0,-989.0,12:42:41.469792,192.168.0.115
890,-1,-100,-100,-100,"0,0,0",-1,-1,-76,0,0,0,64,66,76,30,94,-47.84,17,-22.0,23.0,-995.0,12:42:41.571832,192.168.0.115
895,-1,-100,-100,-100,"0,0,0",-1,-1,-76,0,0,0,64,66,76,30,94,-47.83,17,-3.0,10.0,-1003.0,12:42:41.673891,192.168.0.115
900,-1,-100,-100,-100,"0,0,0",-1,-1,-76,0,0,0,64,66,76,30,94,-47.82,17,-13.0,12.0,-975.0,12:42:41.775698,192.168.0.115
905,-1,-100,-100,-100,"0,0,0",-1,-1,-76,0,0,0,64,66,77,30,94,-47.73,17,0.0,4.0,-1010.0,12:42:41.877723,192.168.0.115
910,-1,-100,-100,-100,"0,0,0",0,0,-76,0,0,0,64,66,77,30,94,-47.77,18,-17.0,27.0,-994.0,12:42:41.980038,192.168.0.115
915,-1,-100,-100,-100,"0,0,0",0,0,-76,0,0,0,64,66,77,30,94,-47.77,18,9.0,6.0,-985.0,12:42:42.082263,192.168.0.115
920,-1,-100,-100,-100,"0,0,0",0,-1,-76,0,0,0,64,66,77,30,94,-47.76,18,11.0,19.0,-1007.0,12:42:42.183427,192.168.0.115
925,-1,-100,-100,-100,"0,0,0",0,-1,-76,0,0,0,64,66,76,30,94,-47.8,18,-24.0,5.0,-993.0,12:42:42.285489,192.168.0.115
931,-1,-100,-100,-100,"0,0,0",0,-1,-76,0,0,0,64,66,76,30,94,-47.82,18,-14.0,37.0,-996.0,12:42:42.387418,192.168.0.115
936,-1,-100,-100,-100,"0,0,0",0,-1,-76,0,0,0,64,66,76,30,94,-47.74,18,-29.0,34.0,-981.0,12:42:42.489510,192.168.0.115
942,-1,-100,-100,-100,"0,0,0",0,-1,-76,0,0,0,64,66,76,30,94,-47.83,18,-3.0,4.0,-1035.0,12:42:42.592903,192.168.0.115
946,-1,-100,-100,-100,"0,0,0",0,0,-76,0,0,0,64,66,75,30,94,-47.75,18,1.0,-7.0,-1038.0,12:42:42.693454,192.168.0.115
951,-1,-100,-100,-100,"0,0,0",0,-1,-76,0,0,0,64,66,76,30,94,-47.7,18,-36.0,7.0,-1004.0,12:42:42.795320,192.168.0.115
956,-1,-100,-100,-100,"0,0,0",-1,0,-76,0,0,0,64,66,76,30,94,-47.79,18,-30.0,-11.0,-998.0,12:42:42.897159,192.168.0.115
961,-1,-100,-100,-100,"0,0,0",-1,0,-76,0,0,0,64,66,75,30,94,-47.85,19,-39.0,22.0,-990.0,12:42:42.998965,192.168.0.115
966,-1,-100,-100,-100,"0,0,0",-1,0,-76,0,0,0,64,66,75,30,94,-47.86,19,-40.0,10.0,-998.0,12:42:43.101654,192.168.0.115
971,-1,-100,-100,-100,"0,0,0",-1,0,-76,0,0,0,64,66,75,30,94,-47.81,19,-25.0,-2.0,-1019.0,12:42:43.203110,192.168.0.115
975,-1,-100,-100,-100,"0,0,0",-1,0,-77,0,0,0,64,66,75,30,94,-47.81,19,-36.0,14.0,-1020.0,12:42:43.254506,192.168.0.115
981,-1,-100,-100,-100,"0,0,0",-2,0,-77,0,0,0,64,66,76,30,94,-47.82,19,-16.0,-8.0,-1007.0,12:42:43.407466,192.168.0.115
986,-1,-100,-100,-100,"0,0,0",-2,0,-77,0,0,0,64,66,76,30,94,-47.89,19,-23.0,-14.0,-1007.0,12:42:43.509425,192.168.0.115
992,-1,-100,-100,-100,"0,0,0",-2,0,-77,0,0,0,64,66,76,30,94,-47.85,19,-41.0,8.0,-996.0,12:42:43.612871,192.168.0.115
995,-1,-100,-100,-100,"0,0,0",-2,0,-77,0,0,0,64,66,76,30,94,-47.84,19,3.0,-2.0,-988.0,12:42:43.668377,192.168.0.115
1000,-1,-100,-100,-100,"0,0,0",-1,0,-77,0,0,0,64,66,76,30,94,-47.8,19,-22.0,0.0,-996.0,12:42:43.765567,192.168.0.115
1005,-1,-100,-100,-100,"0,0,0",-1,0,-77,0,0,0,64,66,77,30,94,-47.86,19,-16.0,4.0,-1004.0,12:42:43.866184,192.168.0.115
1010,-1,-100,-100,-100,"0,0,0",-1,0,-77,0,0,0,64,66,77,30,94,-47.82,20,-19.0,8.0,-1000.0,12:42:43.968311,192.168.0.115
1015,-1,-100,-100,-100,"0,0,0",-1,0,-77,0,0,0,64,66,77,30,94,-47.87,20,-17.0,16.0,-1002.0,12:42:44.070385,192.168.0.115
1020,-1,-100,-100,-100,"0,0,0",-1,0,-77,0,0,0,64,66,77,30,94,-47.85,20,-28.0,14.0,-993.0,12:42:44.172168,192.168.0.115
1025,-1,-100,-100,-100,"0,0,0",-1,0,-77,0,0,0,64,66,78,30,94,-47.8,20,-16.0,13.0,-977.0,12:42:44.274299,192.168.0.115
1030,-1,-100,-100,-100,"0,0,0",-2,-1,-77,0,0,0,64,65,78,30,94,-47.85,20,-2.0,13.0,-977.0,12:42:44.376335,192.168.0.115
1035,-1,-100,-100,-100,"0,0,0",-1,-1,-77,0,0,0,64,65,78,30,94,-47.84,20,-10.0,6.0,-990.0,12:42:44.478250,192.168.0.115
1040,-1,-100,-100,-100,"0,0,0",-1,0,-77,0,0,0,64,65,78,30,94,-47.82,20,-14.0,19.0,-1006.0,12:42:44.580434,192.168.0.115
1045,-1,-100,-100,-100,"0,0,0",0,0,-77,0,0,0,64,65,78,30,94,-47.84,20,-20.0,17.0,-1003.0,12:42:44.682939,192.168.0.115
1050,-1,-100,-100,-100,"0,0,0",-1,0,-77,0,0,0,64,65,78,30,94,-47.84,20,-37.0,19.0,-987.0,12:42:44.784938,192.168.0.115
1055,-1,-100,-100,-100,"0,0,0",-1,-1,-77,0,0,0,64,65,78,30,94,-47.85,20,-23.0,0.0,-996.0,12:42:44.886225,192.168.0.115
1060,-1,-100,-100,-100,"0,0,0",-1,-1,-77,0,0,0,64,65,78,30,94,-47.85,21,-27.0,19.0,-997.0,12:42:44.989571,192.168.0.115
1065,-1,-100,-100,-100,"0,0,0",-1,0,-77,0,0,0,64,65,78,30,94,-47.83,21,-35.0,30.0,-1011.0,12:42:45.090120,192.168.0.115
1070,-1,-100,-100,-100,"0,0,0",-1,0,-77,0,0,0,64,65,78,30,94,-47.81,21,-12.0,25.0,-1001.0,12:42:45.193146,192.168.0.115
1075,-1,-100,-100,-100,"0,0,0",-1,0,-76,0,0,0,64,65,78,30,94,-47.79,21,-5.0,-11.0,-1005.0,12:42:45.294310,192.168.0.115
1080,-1,-100,-100,-100,"0,0,0",0,0,-76,0,0,0,64,66,78,30,94,-47.84,21,-28.0,17.0,-1004.0,12:42:45.396340,192.168.0.115
1085,-1,-100,-100,-100,"0,0,0",0,0,-76,0,0,0,64,66,78,30,94,-47.81,21,-9.0,-10.0,-981.0,12:42:45.498365,192.168.0.115
1091,-1,-100,-100,-100,"0,0,0",0,0,-76,0,0,0,64,66,77,30,94,-47.86,21,-10.0,1.0,-1014.0,12:42:45.600378,192.168.0.115
1095,-1,-100,-100,-100,"0,0,0",0,0,-77,0,0,0,64,66,77,30,94,-47.86,21,-17.0,10.0,-991.0,12:42:45.702259,192.168.0.115
1101,-1,-100,-100,-100,"0,0,0",0,0,-77,0,0,0,64,66,77,30,94,-47.75,21,-6.0,6.0,-985.0,12:42:45.804317,192.168.0.115
1106,-1,-100,-100,-100,"0,0,0",0,0,-77,0,0,0,64,66,77,30,94,-47.8,21,-10.0,-2.0,-993.0,12:42:45.906422,192.168.0.115
1111,-1,-100,-100,-100,"0,0,0",0,0,-77,0,0,0,64,66,77,30,94,-47.87,22,-28.0,13.0,-998.0,12:42:46.008429,192.168.0.115
1116,-1,-100,-100,-100,"0,0,0",0,0,-77,0,0,0,64,66,76,30,94,-47.87,22,-22.0,-2.0,-1005.0,12:42:46.110128,192.168.0.115
1121,-1,-100,-100,-100,"0,0,0",0,0,-77,0,0,0,64,66,77,30,94,-47.9,22,-22.0,7.0,-1018.0,12:42:46.212330,192.168.0.115
1126,-1,-100,-100,-100,"0,0,0",0,0,-77,0,0,0,64,66,76,30,94,-47.86,22,-10.0,-3.0,-1002.0,12:42:46.314302,192.168.0.115
1131,-1,-100,-100,-100,"0,0,0",0,0,-77,0,0,0,64,66,76,30,94,-47.81,22,-5.0,9.0,-983.0,12:42:46.416306,192.168.0.115
1136,-1,-100,-100,-100,"0,0,0",0,0,-77,0,0,0,64,66,76,30,94,-47.83,22,-7.0,0.0,-987.0,12:42:46.518370,192.168.0.115
1142,-1,-100,-100,-100,"0,0,0",0,0,-77,0,0,0,64,66,76,30,94,-47.79,22,-9.0,-6.0,-988.0,12:42:46.621756,192.168.0.115
1146,-1,-100,-100,-100,"0,0,0",0,0,-77,0,0,0,64,66,76,30,94,-47.81,22,4.0,-3.0,-995.0,12:42:46.723436,192.168.0.115
1151,-1,-100,-100,-100,"0,0,0",0,0,-77,0,0,0,64,66,76,30,94,-47.81,22,-10.0,-3.0,-1011.0,12:42:46.824266,192.168.0.115
1156,-1,-100,-100,-100,"0,0,0",0,0,-77,0,0,0,64,66,76,30,94,-47.8,22,-28.0,-4.0,-995.0,12:42:46.926276,192.168.0.115
1161,-1,-100,-100,-100,"0,0,0",0,0,-77,0,0,0,64,66,76,30,94,-47.87,23,-12.0,7.0,-1009.0,12:42:47.028742,192.168.0.115
1165,-1,-100,-100,-100,"0,0,0",0,0,-77,0,0,0,64,66,76,30,94,-47.81,23,2.0,-4.0,-997.0,12:42:47.085374,192.168.0.115
1170,-1,-100,-100,-100,"0,0,0",-1,0,-77,0,0,0,64,66,76,30,94,-47.87,23,-22.0,3.0,-999.0,12:42:47.181486,192.168.0.115
1175,-1,-100,-100,-100,"0,0,0",-1,0,-77,0,0,0,64,66,76,30,94,-47.81,23,-18.0,1.0,-1005.0,12:42:47.283218,192.168.0.115
1180,-1,-100,-100,-100,"0,0,0",-1,0,-77,0,0,0,64,66,75,30,94,-47.79,23,-19.0,2.0,-991.0,12:42:47.385370,192.168.0.115
1185,-1,-100,-100,-100,"0,0,0",-1,0,-77,0,0,0,64,66,76,30,94,-47.86,23,-8.0,-11.0,-1016.0,12:42:47.487243,192.168.0.115
1190,-1,-100,-100,-100,"0,0,0",-1,0,-77,0,0,0,64,66,75,30,94,-47.83,23,-6.0,-4.0,-1001.0,12:42:47.588865,192.168.0.115
1195,-1,-100,-100,-100,"0,0,0",0,0,-77,0,0,0,64,66,76,30,94,-47.94,23,24.0,-25.0,-1005.0,12:42:47.691244,192.168.0.115
1200,-1,-100,-100,-100,"0,0,0",0,0,-77,0,0,0,64,66,75,30,94,-47.83,23,-9.0,-10.0,-1008.0,12:42:47.793329,192.168.0.115
1205,-1,-100,-100,-100,"0,0,0",0,0,-77,0,0,0,64,66,76,30,94,-47.86,23,-17.0,11.0,-998.0,12:42:47.895160,192.168.0.115
1210,-1,-100,-100,-100,"0,0,0",0,1,-77,0,0,0,64,66,76,30,94,-47.83,24,7.0,-10.0,-999.0,12:42:47.997362,192.168.0.115
1215,-1,-100,-100,-100,"0,0,0",0,1,-77,0,0,0,64,66,76,30,94,-47.88,24,-9.0,-3.0,-1015.0,12:42:48.099290,192.168.0.115
1220,-1,-100,-100,-100,"0,0,0",0,0,-77,0,0,0,64,66,76,30,94,-47.87,24,-8.0,-20.0,-998.0,12:42:48.200837,192.168.0.115
1225,-1,-100,-100,-100,"0,0,0",-1,0,-77,0,0,0,64,66,76,30,94,-47.83,24,5.0,-31.0,-996.0,12:42:48.303095,192.168.0.115
1230,-1,-100,-100,-100,"0,0,0",0,0,-77,0,0,0,63,66,76,30,94,-47.86,24,11.0,-9.0,-1000.0,12:42:48.405253,192.168.0.115
1235,-1,-100,-100,-100,"0,0,0",0,0,-77,0,0,0,63,66,76,30,94,-47.76,24,-16.0,-1.0,-1012.0,12:42:48.507087,192.168.0.115
1240,-1,-100,-100,-100,"0,0,0",0,0,-77,0,0,0,63,66,76,30,94,-47.84,24,-27.0,-18.0,-1003.0,12:42:48.609237,192.168.0.115
1245,-1,-100,-100,-100,"0,0,0",0,0,-77,0,0,0,63,66,76,30,94,-47.85,24,19.0,-17.0,-994.0,12:42:48.711536,192.168.0.115
1250,-1,-100,-100,-100,"0,0,0",0,0,-77,0,0,0,63,66,76,30,94,-47.81,24,-16.0,-2.0,-989.0,12:42:48.813333,192.168.0.115
1256,-1,-100,-100,-100,"0,0,0",0,0,-77,0,0,0,63,66,76,30,94,-47.84,24,-15.0,-3.0,-996.0,12:42:48.924991,192.168.0.115
1262,-1,-100,-100,-100,"0,0,0",0,0,-77,0,0,0,63,66,76,30,94,-47.84,25,-17.0,17.0,-998.0,12:42:49.018591,192.168.0.115
1267,-1,-100,-100,-100,"0,0,0",0,0,-77,0,0,0,63,66,76,30,94,-47.91,25,7.0,-3.0,-1013.0,12:42:49.120504,192.168.0.115
1271,-1,-100,-100,-100,"0,0,0",0,0,-77,0,0,0,63,66,76,30,94,-47.8,25,-23.0,-28.0,-994.0,12:42:49.221235,192.168.0.115
1276,-1,-100,-100,-100,"0,0,0",0,0,-77,0,0,0,63,66,76,30,94,-47.89,25,-22.0,-4.0,-1011.0,12:42:49.322867,192.168.0.115
1281,-1,-100,-100,-100,"0,0,0",0,0,-77,0,0,0,63,66,76,30,94,-47.8,25,-16.0,-6.0,-1016.0,12:42:49.425999,192.168.0.115
1287,-1,-100,-100,-100,"0,0,0",0,0,-76,0,0,0,63,66,76,30,94,-47.83,25,-14.0,-14.0,-978.0,12:42:49.528782,192.168.0.115
1291,-1,-100,-100,-100,"0,0,0",0,0,-76,0,0,0,63,66,76,30,94,-47.8,25,-5.0,-25.0,-1007.0,12:42:49.630244,192.168.0.115
1297,-1,-100,-100,-100,"0,0,0",0,0,-76,0,0,0,63,66,76,30,94,-47.83,25,-12.0,-2.0,-1005.0,12:42:49.732680,192.168.0.115
1301,-1,-100,-100,-100,"0,0,0",0,0,-76,0,0,0,63,66,76,30,94,-47.83,25,-1.0,-7.0,-1012.0,12:42:49.834107,192.168.0.115
1307,-1,-100,-100,-100,"0,0,0",0,0,-76,0,0,0,63,66,76,30,94,-47.89,25,-33.0,-10.0,-992.0,12:42:49.936702,192.168.0.115
1311,-1,-100,-100,-100,"0,0,0",-1,0,-76,0,0,0,63,66,76,30,94,-47.91,26,-26.0,9.0,-992.0,12:42:50.038239,192.168.0.115
1316,-1,-100,-100,-100,"0,0,0",-1,0,-76,0,0,0,63,66,76,30,94,-47.83,26,-2.0,-18.0,-1000.0,12:42:50.140316,192.168.0.115
1321,-1,-100,-100,-100,"0,0,0",-1,0,-76,0,0,0,63,66,76,30,94,-47.88,26,-16.0,-5.0,-1010.0,12:42:50.242354,192.168.0.115
1325,-1,-100,-100,-100,"0,0,0",0,0,-76,0,0,0,63,66,76,30,94,-47.86,26,11.0,-24.0,-1011.0,12:42:50.293148,192.168.0.115
1331,-1,-100,-100,-100,"0,0,0",0,0,-76,0,0,0,65,66,76,30,94,-47.83,26,-25.0,-22.0,-1017.0,12:42:50.445869,192.168.0.115
1337,-1,-100,-100,-100,"0,0,0",-1,0,-76,0,0,0,65,66,75,30,94,-47.97,26,0.0,-24.0,-995.0,12:42:50.548114,192.168.0.115
1342,-1,-100,-100,-100,"0,0,0",-1,0,-76,0,0,0,65,66,75,30,94,-47.97,26,-2.0,-24.0,-994.0,12:42:50.650136,192.168.0.115
1345,-1,-100,-100,-100,"0,0,0",0,0,-76,0,0,0,65,66,75,30,94,-47.94,26,-9.0,-18.0,-1006.0,12:42:50.701770,192.168.0.115
1350,-1,-100,-100,-100,"0,0,0",0,1,-76,0,0,0,65,66,75,30,94,-47.91,26,22.0,-7.0,-1024.0,12:42:50.804282,192.168.0.115
1355,-1,-100,-100,-100,"0,0,0",0,1,-76,0,0,0,65,66,75,30,94,-47.91,27,4.0,-20.0,-1012.0,12:42:50.906773,192.168.0.115
1360,-1,-100,-100,-100,"0,0,0",0,1,-76,0,0,0,65,66,75,30,94,-47.93,27,-9.0,-10.0,-1005.0,12:42:51.008890,192.168.0.115
1365,-1,-100,-100,-100,"0,0,0",0,1,-77,0,0,0,65,66,75,30,94,-47.9,27,-13.0,-27.0,-1001.0,12:42:51.109234,192.168.0.115
1370,-1,-100,-100,-100,"0,0,0",0,1,-77,0,0,0,65,66,75,30,94,-47.87,27,-10.0,-23.0,-1000.0,12:42:51.211125,192.168.0.115
1375,-1,-100,-100,-100,"0,0,0",0,1,-77,0,0,0,65,66,75,30,94,-47.81,27,-24.0,-13.0,-1000.0,12:42:51.313089,192.168.0.115
1380,-1,-100,-100,-100,"0,0,0",0,1,-77,0,0,0,64,66,75,30,94,-47.81,27,-14.0,-24.0,-984.0,12:42:51.415089,192.168.0.115
1385,-1,-100,-100,-100,"0,0,0",0,1,-77,0,0,0,64,66,75,30,94,-47.75,27,-15.0,-6.0,-990.0,12:42:51.517949,192.168.0.115
1390,-1,-100,-100,-100,"0,0,0",0,0,-77,0,0,0,64,66,75,30,94,-47.79,27,-24.0,-17.0,-978.0,12:42:51.619096,192.168.0.115
1395,-1,-100,-100,-100,"0,0,0",-1,0,-77,0,0,0,64,66,75,30,94,-47.88,27,-15.0,-20.0,-1006.0,12:42:51.721266,192.168.0.115
1400,-1,-100,-100,-100,"0,0,0",-1,0,-77,0,0,0,64,66,74,30,94,-47.89,27,-11.0,-1.0,-992.0,12:42:51.823099,192.168.0.115
1405,-1,-100,-100,-100,"0,0,0",-1,0,-77,0,0,0,64,66,74,30,94,-47.87,28,9.0,-6.0,-1015.0,12:42:51.925479,192.168.0.115
1410,-1,-100,-100,-100,"0,0,0",0,0,-77,0,0,0,64,66,74,30,94,-47.9,28,3.0,-5.0,-1009.0,12:42:52.028228,192.168.0.115
1415,-1,-100,-100,-100,"0,0,0",0,0,-77,0,0,0,64,66,74,30,94,-47.85,28,14.0,8.0,-1005.0,12:42:52.129144,192.168.0.115
1420,-1,-100,-100,-100,"0,0,0",0,0,-77,0,0,0,64,66,74,30,94,-47.77,28,-26.0,11.0,-1003.0,12:42:52.231576,192.168.0.115
1425,-1,-100,-100,-100,"0,0,0",0,0,-77,0,0,0,64,66,74,30,94,-47.89,28,-12.0,4.0,-1011.0,12:42:52.333046,192.168.0.115
1430,-1,-100,-100,-100,"0,0,0",0,0,-77,0,0,0,64,67,74,30,94,-47.86,28,-5.0,10.0,-1004.0,12:42:52.436744,192.168.0.115
1436,-1,-100,-100,-100,"0,0,0",0,0,-77,0,0,0,64,67,74,30,94,-47.92,28,-13.0,5.0,-1002.0,12:42:52.539899,192.168.0.115
1441,-1,-100,-100,-100,"0,0,0",-1,-1,-77,0,0,0,64,67,74,30,94,-47.79,28,-18.0,6.0,-993.0,12:42:52.638595,192.168.0.115
1446,-1,-100,-100,-100,"0,0,0",0,0,-77,0,0,0,64,67,74,30,94,-47.84,28,-15.0,-4.0,-995.0,12:42:52.740603,192.168.0.115
1451,-1,-100,-100,-100,"0,0,0",0,0,-77,0,0,0,64,67,74,30,94,-47.85,28,-17.0,-5.0,-1000.0,12:42:52.843008,192.168.0.115
1456,-1,-100,-100,-100,"0,0,0",-1,0,-77,0,0,0,64,67,74,30,94,-47.87,29,-20.0,11.0,-1014.0,12:42:52.947354,192.168.0.115
1461,-1,-100,-100,-100,"0,0,0",-1,0,-77,0,0,0,64,67,74,30,94,-47.83,29,16.0,-23.0,-1012.0,12:42:53.047162,192.168.0.115
1466,-1,-100,-100,-100,"0,0,0",-1,0,-77,0,0,0,64,67,75,30,94,-47.95,29,-28.0,18.0,-1005.0,12:42:53.149059,192.168.0.115
1471,-1,-100,-100,-100,"0,0,0",0,0,-77,0,0,0,64,67,75,30,94,-47.96,29,-6.0,8.0,-966.0,12:42:53.251975,192.168.0.115
1476,-1,-100,-100,-100,"0,0,0",0,0,-77,0,0,0,64,67,75,30,94,-47.84,29,-10.0,4.0,-998.0,12:42:53.354737,192.168.0.115
1481,-1,-100,-100,-100,"0,0,0",0,0,-77,0,0,0,64,66,75,30,94,-47.85,29,-11.0,9.0,-983.0,12:42:53.455005,192.168.0.115
1486,-1,-100,-100,-100,"0,0,0",0,0,-77,0,0,0,64,66,75,30,94,-47.92,29,-13.0,3.0,-978.0,12:42:53.556747,192.168.0.115
1491,-1,-100,-100,-100,"0,0,0",0,0,-77,0,0,0,64,66,75,30,94,-47.93,29,-25.0,6.0,-1025.0,12:42:53.658889,192.168.0.115
1496,-1,-100,-100,-100,"0,0,0",0,0,-77,0,0,0,64,66,75,30,94,-47.94,29,-6.0,-6.0,-1017.0,12:42:53.761146,192.168.0.115
1500,-1,-100,-100,-100,"0,0,0",0,0,-77,0,0,0,64,66,75,30,94,-47.84,29,0.0,-3.0,-1004.0,12:42:53.812169,192.168.0.115
1505,-1,-100,-100,-100,"0,0,0",0,0,-77,0,0,0,64,66,75,30,94,-47.82,30,-20.0,-4.0,-995.0,12:42:53.913659,192.168.0.115
1510,-1,-100,-100,-100,"0,0,0",0,0,-77,0,0,0,64,66,75,30,94,-47.84,30,17.0,-10.0,-1013.0,12:42:54.015988,192.168.0.115
1515,-1,-100,-100,-100,"0,0,0",0,0,-77,0,0,0,64,66,75,30,94,-47.86,30,-4.0,-5.0,-1009.0,12:42:54.118023,192.168.0.115
1520,-1,-100,-100,-100,"0,0,0",0,0,-77,0,0,0,64,66,75,30,94,-47.81,30,-2.0,3.0,-992.0,12:42:54.223104,192.168.0.115
1525,-1,-100,-100,-100,"0,0,0",0,0,-77,0,0,0,64,66,75,30,94,-47.82,30,5.0,0.0,-993.0,12:42:54.325088,192.168.0.115
1530,-1,-100,-100,-100,"0,0,0",0,0,-77,0,0,0,64,67,75,30,94,-47.87,30,-26.0,13.0,-1000.0,12:42:54.424525,192.168.0.115
1535,-1,-100,-100,-100,"0,0,0",0,0,-77,0,0,0,64,67,76,30,94,-47.91,30,0.0,-2.0,-1007.0,12:42:54.525963,192.168.0.115
1540,-1,-100,-100,-100,"0,0,0",0,0,-77,0,0,0,64,67,75,30,94,-47.95,30,-8.0,-7.0,-1001.0,12:42:54.628015,192.168.0.115
1545,-1,-100,-100,-100,"0,0,0",0,0,-77,0,0,0,64,67,75,30,94,-47.87,30,-16.0,5.0,-1021.0,12:42:54.733650,192.168.0.115
1550,-1,-100,-100,-100,"0,0,0",0,0,-77,0,0,0,64,67,76,30,94,-47.87,30,-9.0,0.0,-1005.0,12:42:54.833457,192.168.0.115
1555,-1,-100,-100,-100,"0,0,0",0,0,-76,0,0,0,64,67,75,30,94,-47.86,31,-31.0,15.0,-1004.0,12:42:54.934542,192.168.0.115
1560,-1,-100,-100,-100,"0,0,0",0,0,-76,0,0,0,64,67,76,30,94,-47.82,31,-4.0,-3.0,-1007.0,12:42:55.036009,192.168.0.115
1565,-1,-100,-100,-100,"0,0,0",0,0,-76,0,0,0,64,67,76,30,94,-47.84,31,-12.0,-7.0,-1009.0,12:42:55.138882,192.168.0.115
1570,-1,-100,-100,-100,"0,0,0",0,0,-76,0,0,0,64,67,76,30,94,-47.82,31,0.0,11.0,-998.0,12:42:55.241059,192.168.0.115
1575,-1,-100,-100,-100,"0,0,0",0,0,-76,0,0,0,64,67,77,30,94,-47.84,31,-3.0,10.0,-1010.0,12:42:55.343015,192.168.0.115
1581,-1,-100,-100,-100,"0,0,0",0,0,-76,0,0,0,65,67,77,30,94,-47.81,31,-8.0,-3.0,-996.0,12:42:55.445479,192.168.0.115
1585,-1,-100,-100,-100,"0,0,0",0,0,-76,0,0,0,65,67,77,30,94,-47.82,31,-3.0,6.0,-1002.0,12:42:55.545844,192.168.0.115
1590,-1,-100,-100,-100,"0,0,0",0,0,-77,0,0,0,65,67,77,30,94,-47.84,31,-14.0,8.0,-1011.0,12:42:55.648022,192.168.0.115
1595,-1,-100,-100,-100,"0,0,0",0,0,-77,0,0,0,65,67,76,30,94,-47.8,31,-11.0,-1.0,-992.0,12:42:55.750994,192.168.0.115
1600,-1,-100,-100,-100,"0,0,0",0,0,-77,0,0,0,65,67,76,30,94,-47.84,31,-5.0,-7.0,-994.0,12:42:55.853765,192.168.0.115
1605,-1,-100,-100,-100,"0,0,0",0,0,-77,0,0,0,65,67,76,30,94,-47.82,32,-15.0,1.0,-1014.0,12:42:55.953791,192.168.0.115
1611,-1,-100,-100,-100,"0,0,0",0,0,-77,0,0,0,65,67,76,30,94,-47.9,32,-8.0,10.0,-1009.0,12:42:56.056770,192.168.0.115
1616,-1,-100,-100,-100,"0,0,0",0,0,-77,0,0,0,65,67,76,30,94,-47.89,32,-12.0,1.0,-1019.0,12:42:56.157835,192.168.0.115
1621,-1,-100,-100,-100,"0,0,0",0,0,-77,0,0,0,65,67,76,30,94,-47.85,32,27.0,-26.0,-997.0,12:42:56.259766,192.168.0.115
1626,-1,-100,-100,-100,"0,0,0",0,0,-77,0,0,0,65,67,75,30,94,-47.84,32,15.0,-18.0,-997.0,12:42:56.363377,192.168.0.115
1631,-1,-100,-100,-100,"0,0,0",0,0,-77,0,0,0,65,67,75,30,94,-47.86,32,-5.0,-9.0,-1000.0,12:42:56.464044,192.168.0.115
1636,-1,-100,-100,-100,"0,0,0",0,0,-77,0,0,0,65,67,75,30,94,-47.79,32,26.0,-31.0,-1013.0,12:42:56.565432,192.168.0.115
1641,-1,-100,-100,-100,"0,0,0",0,0,-77,0,0,0,65,67,75,30,94,-47.86,32,9.0,-20.0,-1008.0,12:42:56.668115,192.168.0.115
1646,-1,-100,-100,-100,"0,0,0",0,0,-77,0,0,0,65,67,75,30,94,-47.87,32,12.0,-23.0,-1004.0,12:42:56.769785,192.168.0.115
1652,-1,-100,-100,-100,"0,0,0",0,0,-77,0,0,0,65,67,75,30,94,-47.88,32,-8.0,-3.0,-1016.0,12:42:56.871766,192.168.0.115
1656,-1,-100,-100,-100,"0,0,0",0,0,-77,0,0,0,65,67,75,30,94,-47.9,33,28.0,-22.0,-982.0,12:42:56.973797,192.168.0.115
1661,-1,-100,-100,-100,"0,0,0",0,1,-77,0,0,0,65,67,75,30,94,-47.84,33,17.0,-28.0,-997.0,12:42:57.075881,192.168.0.115
1666,-1,-100,-100,-100,"0,0,0",0,1,-77,0,0,0,65,67,75,30,94,-47.87,33,42.0,-30.0,-999.0,12:42:57.178018,192.168.0.115
1670,-1,-100,-100,-100,"0,0,0",1,1,-77,0,0,0,65,67,76,30,94,-47.82,33,19.0,-33.0,-988.0,12:42:57.228790,192.168.0.115
1675,-1,-100,-100,-100,"0,0,0",1,1,-77,0,0,0,65,67,75,30,94,-47.76,33,-2.0,-28.0,-975.0,12:42:57.330888,192.168.0.115
1680,-1,-100,-100,-100,"0,0,0",1,2,-77,0,0,0,64,67,75,30,94,-47.71,33,0.0,1.0,-966.0,12:42:57.432871,192.168.0.115
1685,-1,-100,-100,-100,"0,0,0",0,1,-77,0,0,0,64,67,75,30,94,-47.66,33,-5.0,-9.0,-1040.0,12:42:57.537480,192.168.0.115
1690,-1,-100,-100,-100,"0,0,0",0,0,-77,0,0,0,64,67,75,30,94,-47.84,33,27.0,-1.0,-1038.0,12:42:57.636964,192.168.0.115
1695,-1,-100,-100,-100,"0,0,0",0,0,-77,0,0,0,64,67,75,30,94,-47.72,33,7.0,26.0,-1008.0,12:42:57.739139,192.168.0.115
1700,-1,-100,-100,-100,"0,0,0",0,0,-77,0,0,0,64,67,75,30,94,-47.8,33,32.0,-34.0,-943.0,12:42:57.840758,192.168.0.115
1705,-1,-100,-100,-100,"0,0,0",0,0,-77,0,0,0,64,67,75,30,94,-47.79,34,33.0,-25.0,-994.0,12:42:57.942895,192.168.0.115
1710,-1,-100,-100,-100,"0,0,0",0,0,-77,0,0,0,64,67,75,30,94,-47.68,34,21.0,66.0,-1045.0,12:42:58.044934,192.168.0.115
1715,-1,-100,-100,-100,"0,0,0",1,0,-77,0,0,0,64,67,76,30,94,-47.81,34,22.0,10.0,-958.0,12:42:58.148068,192.168.0.115
1720,-1,-100,-100,-100,"0,0,0",1,-1,-77,0,0,0,64,67,76,30,94,-47.69,34,-3.0,76.0,-1063.0,12:42:58.248891,192.168.0.115
1725,-1,-100,-100,-100,"0,0,0",1,-1,-77,0,0,0,64,67,76,30,94,-47.76,34,4.0,13.0,-1036.0,12:42:58.350875,192.168.0.115
1730,-1,-100,-100,-100,"0,0,0",1,-1,-77,0,0,0,65,66,76,30,94,-47.84,34,25.0,20.0,-1018.0,12:42:58.453000,192.168.0.115
1735,-1,-100,-100,-100,"0,0,0",1,-1,-77,0,0,0,65,66,76,30,94,-47.83,34,23.0,25.0,-996.0,12:42:58.554766,192.168.0.115
1740,-1,-100,-100,-100,"0,0,0",1,-1,-77,0,0,0,65,66,77,30,94,-47.74,34,13.0,37.0,-993.0,12:42:58.656937,192.168.0.115
1745,-1,-100,-100,-100,"0,0,0",1,-2,-77,0,0,0,65,66,76,30,94,-47.75,34,20.0,37.0,-1009.0,12:42:58.758730,192.168.0.115
1750,-1,-100,-100,-100,"0,0,0",1,-3,-77,0,0,0,65,66,77,30,94,-47.83,34,29.0,17.0,-1007.0,12:42:58.862180,192.168.0.115
1755,-1,-100,-100,-100,"0,0,0",1,-2,-77,0,0,0,65,66,76,30,94,-47.83,35,34.0,2.0,-982.0,12:42:58.962847,192.168.0.115
1760,-1,-100,-100,-100,"0,0,0",1,-1,-77,0,0,0,65,66,77,30,94,-47.9,35,21.0,17.0,-970.0,12:42:59.064866,192.168.0.115
1766,-1,-100,-100,-100,"0,0,0",1,0,-77,0,0,0,65,66,76,30,94,-47.82,35,10.0,8.0,-975.0,12:42:59.166753,192.168.0.115
1771,-1,-100,-100,-100,"0,0,0",1,0,-76,0,0,0,65,66,76,30,94,-47.92,35,9.0,22.0,-986.0,12:42:59.268999,192.168.0.115
1776,-1,-100,-100,-100,"0,0,0",0,-1,-76,0,0,0,65,66,77,30,94,-47.77,35,24.0,29.0,-986.0,12:42:59.371459,192.168.0.115
1781,-1,-100,-100,-100,"0,0,0",0,-1,-76,0,0,0,65,67,77,30,94,-47.83,35,16.0,18.0,-984.0,12:42:59.472672,192.168.0.115
1786,-1,-100,-100,-100,"0,0,0",0,-1,-76,0,0,0,65,67,77,30,94,-47.85,35,-2.0,28.0,-999.0,12:42:59.574868,192.168.0.115
1791,-1,-100,-100,-100,"0,0,0",0,-1,-77,0,0,0,65,67,76,30,94,-47.87,35,16.0,23.0,-981.0,12:42:59.676907,192.168.0.115
1796,-1,-100,-100,-100,"0,0,0",0,-1,-77,0,0,0,65,67,76,30,94,-47.89,35,0.0,25.0,-985.0,12:42:59.779188,192.168.0.115
1801,-1,-100,-100,-100,"0,0,0",0,-1,-77,0,0,0,65,67,76,30,94,-47.93,35,-11.0,15.0,-991.0,12:42:59.880848,192.168.0.115
1806,-1,-100,-100,-100,"0,0,0",0,-1,-77,0,0,0,65,67,76,30,94,-47.88,36,-10.0,24.0,-1013.0,12:42:59.983920,192.168.0.115
1811,-1,-100,-100,-100,"0,0,0",0,-1,-76,0,0,0,65,67,76,30,94,-47.83,36,-18.0,18.0,-1025.0,12:43:00.084681,192.168.0.115
1816,-1,-100,-100,-100,"0,0,0",0,-1,-76,0,0,0,65,67,76,30,94,-47.88,36,0.0,16.0,-1005.0,12:43:00.186736,192.168.0.115
1821,-1,-100,-100,-100,"0,0,0",0,-1,-76,0,0,0,65,67,76,30,94,-47.87,36,-9.0,13.0,-1016.0,12:43:00.288270,192.168.0.115
1827,-1,-100,-100,-100,"0,0,0",0,-1,-76,0,0,0,65,67,76,30,94,-47.84,36,-16.0,18.0,-981.0,12:43:00.390695,192.168.0.115
1832,-1,-100,-100,-100,"0,0,0",0,-1,-76,0,0,0,65,66,76,30,94,-47.82,36,0.0,8.0,-994.0,12:43:00.493614,192.168.0.115
1835,-1,-100,-100,-100,"0,0,0",0,0,-76,0,0,0,65,66,76,30,94,-47.83,36,20.0,6.0,-991.0,12:43:00.544766,192.168.0.115
1840,-1,-100,-100,-100,"0,0,0",0,0,-76,0,0,0,65,66,77,30,94,-47.83,36,-1.0,6.0,-991.0,12:43:00.646780,192.168.0.115
1845,-1,-100,-100,-100,"0,0,0",0,0,-76,0,0,0,65,66,77,30,94,-47.76,36,-24.0,21.0,-1024.0,12:43:00.748933,192.168.0.115
1850,-1,-100,-100,-100,"0,0,0",0,0,-76,0,0,0,65,66,77,30,94,-47.8,36,7.0,1.0,-1005.0,12:43:00.850787,192.168.0.115
1855,-1,-100,-100,-100,"0,0,0",0,0,-76,0,0,0,65,66,77,30,94,-47.74,37,-15.0,4.0,-996.0,12:43:00.952787,192.168.0.115
1860,-1,-100,-100,-100,"0,0,0",0,0,-76,0,0,0,65,66,77,30,94,-47.89,37,13.0,-14.0,-1002.0,12:43:01.054747,192.168.0.115
1865,-1,-100,-100,-100,"0,0,0",0,0,-76,0,0,0,65,66,78,30,94,-47.88,37,-2.0,-5.0,-1011.0,12:43:01.156807,192.168.0.115
1870,-1,-100,-100,-100,"0,0,0",0,0,-76,0,0,0,65,66,78,30,94,-47.91,37,-5.0,-2.0,-982.0,12:43:01.259709,192.168.0.115
1875,-1,-100,-100,-100,"0,0,0",0,0,-76,0,0,0,65,66,78,30,94,-47.95,37,8.0,3.0,-994.0,12:43:01.361151,192.168.0.115
1880,-1,-100,-100,-100,"0,0,0",0,0,-76,0,0,0,65,67,78,30,94,-47.86,37,-8.0,-8.0,-981.0,12:43:01.462783,192.168.0.115
1885,-1,-100,-100,-100,"0,0,0",0,0,-76,0,0,0,65,67,78,30,94,-47.81,37,7.0,4.0,-1015.0,12:43:01.564656,192.168.0.115
1890,-1,-100,-100,-100,"0,0,0",0,0,-76,0,0,0,65,67,78,30,94,-47.87,37,8.0,-11.0,-999.0,12:43:01.666726,192.168.0.115
1895,-1,-100,-100,-100,"0,0,0",0,0,-76,0,0,0,65,67,78,30,94,-47.88,37,15.0,-22.0,-998.0,12:43:01.768707,192.168.0.115
1900,-1,-100,-100,-100,"0,0,0",0,1,-76,0,0,0,65,67,78,30,94,-47.9,37,6.0,-7.0,-999.0,12:43:01.870567,192.168.0.115
1905,-1,-100,-100,-100,"0,0,0",0,1,-76,0,0,0,65,67,78,30,94,-47.84,38,-6.0,-5.0,-1016.0,12:43:01.972600,192.168.0.115
1910,-1,-100,-100,-100,"0,0,0",0,1,-76,0,0,0,65,67,77,30,94,-47.79,38,8.0,-9.0,-998.0,12:43:02.074721,192.168.0.115
1915,-1,-100,-100,-100,"0,0,0",0,0,-77,0,0,0,65,67,77,30,94,-47.82,38,28.0,-26.0,-1008.0,12:43:02.176918,192.168.0.115
1920,-1,-100,-100,-100,"0,0,0",0,1,-77,0,0,0,65,67,77,30,94,-47.85,38,9.0,-8.0,-994.0,12:43:02.278685,192.168.0.115
1925,-1,-100,-100,-100,"0,0,0",0,1,-77,0,0,0,65,67,77,30,94,-47.88,38,30.0,-26.0,-1017.0,12:43:02.380700,192.168.0.115
1930,-1,-100,-100,-100,"0,0,0",1,1,-77,0,0,0,65,67,77,30,94,-47.84,38,4.0,-7.0,-998.0,12:43:02.482978,192.168.0.115
1935,-1,-100,-100,-100,"0,0,0",0,0,-77,0,0,0,65,67,77,30,94,-47.89,38,-6.0,-8.0,-999.0,12:43:02.584653,192.168.0.115
1941,-1,-100,-100,-100,"0,0,0",0,0,-77,0,0,0,65,67,77,30,94,-47.77,38,7.0,-15.0,-993.0,12:43:02.686664,192.168.0.115
1945,-1,-100,-100,-100,"0,0,0",0,0,-77,0,0,0,65,67,77,30,94,-47.78,38,-11.0,-9.0,-1025.0,12:43:02.788403,192.168.0.115
1950,-1,-100,-100,-100,"0,0,0",0,0,-77,0,0,0,65,67,76,30,94,-47.82,38,4.0,-1.0,-1001.0,12:43:02.890893,192.168.0.115
1955,-1,-100,-100,-100,"0,0,0",0,0,-77,0,0,0,65,67,76,30,94,-47.85,39,15.0,-1.0,-999.0,12:43:02.992562,192.168.0.115
1960,-1,-100,-100,-100,"0,0,0",0,0,-77,0,0,0,65,67,76,30,94,-47.84,39,-2.0,-8.0,-982.0,12:43:03.094866,192.168.0.115
1966,-1,-100,-100,-100,"0,0,0",0,0,-77,0,0,0,65,67,76,30,94,-47.84,39,-11.0,-16.0,-992.0,12:43:03.196703,192.168.0.115
1971,-1,-100,-100,-100,"0,0,0",0,0,-77,0,0,0,65,67,76,30,94,-47.85,39,0.0,-17.0,-989.0,12:43:03.298720,192.168.0.115
1976,-1,-100,-100,-100,"0,0,0",0,0,-77,0,0,0,65,67,76,30,94,-47.88,39,-4.0,-8.0,-998.0,12:43:03.400679,192.168.0.115
1981,-1,-100,-100,-100,"0,0,0",0,0,-77,0,0,0,65,66,75,30,94,-47.83,39,-31.0,2.0,-998.0,12:43:03.504468,192.168.0.115
1986,-1,-100,-100,-100,"0,0,0",-1,0,-77,0,0,0,65,66,76,30,94,-47.85,39,-23.0,4.0,-1009.0,12:43:03.604499,192.168.0.115
1992,-1,-100,-100,-100,"0,0,0",-1,0,-77,0,0,0,65,66,76,30,94,-47.9,39,-13.0,-26.0,-1010.0,12:43:03.710789,192.168.0.115
1997,-1,-100,-100,-100,"0,0,0",-1,0,-77,0,0,0,65,66,76,30,94,-47.89,39,-15.0,-2.0,-1000.0,12:43:03.808491,192.168.0.115
2003,-1,-100,-100,-100,"0,0,0",0,0,-77,0,0,0,65,66,76,30,94,-47.85,39,-12.0,-1.0,-995.0,12:43:03.913701,192.168.0.115
2004,-1,-100,-100,-100,"0,0,0",0,0,-77,0,0,0,65,66,76,30,94,-47.89,40,0.0,8.0,-1008.0,12:43:03.961271,192.168.0.115
2009,-1,-100,-100,-100,"0,0,0",0,0,-77,0,0,0,65,66,75,30,94,-47.93,40,-34.0,18.0,-986.0,12:43:04.063594,192.168.0.115
2015,-1,-100,-100,-100,"0,0,0",0,0,-77,0,0,0,65,66,75,30,94,-47.92,40,11.0,-8.0,-1007.0,12:43:04.165565,192.168.0.115
2020,-1,-100,-100,-100,"0,0,0",0,0,-77,0,0,0,65,66,76,30,94,-47.87,40,-35.0,-2.0,-1008.0,12:43:04.267663,192.168.0.115
2025,-1,-100,-100,-100,"0,0,0",0,0,-76,0,0,0,65,66,76,30,94,-47.86,40,-1.0,-18.0,-1025.0,12:43:04.370765,192.168.0.115
2030,-1,-100,-100,-100,"0,0,0",0,0,-76,0,0,0,65,68,76,30,94,-47.83,40,-9.0,-10.0,-990.0,12:43:04.471477,192.168.0.115
2035,-1,-100,-100,-100,"0,0,0",0,0,-76,0,0,0,65,68,76,30,94,-47.84,40,-20.0,-4.0,-993.0,12:43:04.573778,192.168.0.115
2040,-1,-100,-100,-100,"0,0,0",0,0,-76,0,0,0,65,68,77,30,94,-47.84,40,-31.0,-12.0,-990.0,12:43:04.677954,192.168.0.115
2045,-1,-100,-100,-100,"0,0,0",-1,0,-77,0,0,0,65,68,76,30,94,-47.84,40,-2.0,-7.0,-989.0,12:43:04.778328,192.168.0.115
2050,-1,-100,-100,-100,"0,0,0",-1,0,-77,0,0,0,65,68,76,30,94,-47.76,40,-29.0,2.0,-995.0,12:43:04.881349,192.168.0.115
2055,-1,-100,-100,-100,"0,0,0",-1,0,-77,0,0,0,65,68,77,30,94,-47.78,41,-17.0,-21.0,-1012.0,12:43:04.981643,192.168.0.115
2060,-1,-100,-100,-100,"0,0,0",-1,0,-77,0,0,0,65,68,76,30,94,-47.85,41,-2.0,0.0,-1003.0,12:43:05.084292,192.168.0.115
2065,-1,-100,-100,-100,"0,0,0",-1,0,-77,0,0,0,65,68,76,30,94,-47.84,41,5.0,-13.0,-995.0,12:43:05.185543,192.168.0.115
2070,-1,-100,-100,-100,"0,0,0",0,0,-76,0,0,0,65,68,76,30,94,-47.88,41,-20.0,3.0,-1003.0,12:43:05.287594,192.168.0.115
2075,-1,-100,-100,-100,"0,0,0",0,0,-76,0,0,0,65,68,77,30,94,-47.89,41,-16.0,-1.0,-996.0,12:43:05.390260,192.168.0.115
2080,-1,-100,-100,-100,"0,0,0",0,0,-76,0,0,0,65,67,76,30,94,-47.82,41,-21.0,0.0,-988.0,12:43:05.491785,192.168.0.115
2085,-1,-100,-100,-100,"0,0,0",0,0,-76,0,0,0,65,67,77,30,94,-47.84,41,-14.0,0.0,-996.0,12:43:05.594193,192.168.0.115
2090,-1,-100,-100,-100,"0,0,0",0,0,-76,0,0,0,65,67,76,30,94,-47.83,41,6.0,10.0,-992.0,12:43:05.696474,192.168.0.115
2095,-1,-100,-100,-100,"0,0,0",0,0,-76,0,0,0,65,67,76,30,94,-47.88,41,-20.0,-5.0,-980.0,12:43:05.798997,192.168.0.115
2100,-1,-100,-100,-100,"0,0,0",0,0,-76,0,0,0,65,67,76,30,94,-47.73,41,0.0,-15.0,-997.0,12:43:05.901451,192.168.0.115
2106,-1,-100,-100,-100,"0,0,0",0,0,-76,0,0,0,65,67,76,30,94,-47.74,42,-11.0,1.0,-1009.0,12:43:06.004675,192.168.0.115
2110,-1,-100,-100,-100,"0,0,0",0,0,-76,0,0,0,65,67,75,30,94,-47.76,42,-1.0,5.0,-1010.0,12:43:06.107301,192.168.0.115
2116,-1,-100,-100,-100,"0,0,0",0,0,-76,0,0,0,65,67,76,30,94,-47.83,42,-17.0,16.0,-998.0,12:43:06.205755,192.168.0.115
2121,-1,-100,-100,-100,"0,0,0",0,0,-76,0,0,0,65,67,75,30,94,-47.84,42,-9.0,12.0,-1004.0,12:43:06.307871,192.168.0.115
2126,-1,-100,-100,-100,"0,0,0",0,0,-76,0,0,0,65,67,75,30,94,-47.9,42,-5.0,-2.0,-1012.0,12:43:06.409597,192.168.0.115
2131,-1,-100,-100,-100,"0,0,0",0,0,-76,0,0,0,65,67,75,30,94,-47.9,42,-26.0,2.0,-987.0,12:43:06.511560,192.168.0.115
2136,-1,-100,-100,-100,"0,0,0",0,0,-76,0,0,0,65,67,75,30,94,-47.89,42,-34.0,9.0,-1017.0,12:43:06.613558,192.168.0.115
2141,-1,-100,-100,-100,"0,0,0",0,0,-76,0,0,0,65,67,75,30,94,-47.85,42,-3.0,-5.0,-996.0,12:43:06.716043,192.168.0.115
2146,-1,-100,-100,-100,"0,0,0",0,0,-76,0,0,0,65,67,74,30,94,-47.89,42,-11.0,6.0,-980.0,12:43:06.817405,192.168.0.115
2151,-1,-100,-100,-100,"0,0,0",0,0,-76,0,0,0,65,67,74,30,94,-47.89,42,-22.0,4.0,-1005.0,12:43:06.919581,192.168.0.115
2156,-1,-100,-100,-100,"0,0,0",0,0,-76,0,0,0,65,67,74,30,94,-47.84,43,-2.0,14.0,-993.0,12:43:07.021630,192.168.0.115
2159,-1,-100,-100,-100,"0,0,0",0,0,-76,0,0,0,65,67,74,30,94,-47.85,43,-1.0,8.0,-1005.0,12:43:07.073115,192.168.0.115
2164,-1,-100,-100,-100,"0,0,0",0,0,-76,0,0,0,65,67,74,30,94,-47.87,43,9.0,-8.0,-991.0,12:43:07.175186,192.168.0.115
2170,-1,-100,-100,-100,"0,0,0",0,0,-76,0,0,0,65,67,74,30,94,-47.89,43,-9.0,-8.0,-1007.0,12:43:07.276661,192.168.0.115
2175,-1,-100,-100,-100,"0,0,0",0,0,-76,0,0,0,65,67,74,30,94,-47.82,43,0.0,3.0,-1021.0,12:43:07.380225,192.168.0.115
2180,-1,-100,-100,-100,"0,0,0",0,0,-76,0,0,0,64,67,74,30,94,-47.82,43,-7.0,-5.0,-1004.0,12:43:07.480526,192.168.0.115
2185,-1,-100,-100,-100,"0,0,0",0,0,-76,0,0,0,64,67,74,30,94,-47.82,43,30.0,-13.0,-1001.0,12:43:07.583911,192.168.0.115
2190,-1,-100,-100,-100,"0,0,0",0,0,-76,0,0,0,64,67,74,30,94,-47.71,43,6.0,-10.0,-993.0,12:43:07.684780,192.168.0.115
2195,-1,-100,-100,-100,"0,0,0",0,0,-76,0,0,0,64,67,74,30,94,-47.8,43,10.0,1.0,-1004.0,12:43:07.786538,192.168.0.115
2200,-1,-100,-100,-100,"0,0,0",0,0,-76,0,0,0,64,67,73,30,94,-47.81,43,22.0,-4.0,-1001.0,12:43:07.888369,192.168.0.115
2205,-1,-100,-100,-100,"0,0,0",0,0,-76,0,0,0,64,67,74,30,94,-47.83,44,-8.0,1.0,-1012.0,12:43:07.991007,192.168.0.115
2210,-1,-100,-100,-100,"0,0,0",0,0,-76,0,0,0,64,67,74,30,94,-47.82,44,33.0,-11.0,-974.0,12:43:08.093852,192.168.0.115
2215,-1,-100,-100,-100,"0,0,0",0,0,-76,0,0,0,64,67,75,30,94,-47.81,44,0.0,3.0,-990.0,12:43:08.196518,192.168.0.115
2220,-1,-100,-100,-100,"0,0,0",0,0,-76,0,0,0,64,67,74,30,94,-47.85,44,0.0,-15.0,-993.0,12:43:08.296648,192.168.0.115
2226,-1,-100,-100,-100,"0,0,0",0,0,-76,0,0,0,64,67,74,30,94,-47.89,44,6.0,-6.0,-996.0,12:43:08.401815,192.168.0.115
2230,-1,-100,-100,-100,"0,0,0",0,0,-76,0,0,0,65,67,74,30,94,-47.81,44,1.0,-2.0,-982.0,12:43:08.500094,192.168.0.115
2235,-1,-100,-100,-100,"0,0,0",0,0,-76,0,0,0,65,67,74,30,94,-47.85,44,-18.0,6.0,-997.0,12:43:08.603583,192.168.0.115
2240,-1,-100,-100,-100,"0,0,0",0,0,-76,0,0,0,65,67,74,30,94,-47.88,44,10.0,-1.0,-1016.0,12:43:08.704480,192.168.0.115
2245,-1,-100,-100,-100,"0,0,0",0,0,-77,0,0,0,65,67,74,30,94,-47.92,44,-33.0,10.0,-1001.0,12:43:08.806558,192.168.0.115
2250,-1,-100,-100,-100,"0,0,0",0,0,-77,0,0,0,65,67,74,30,94,-47.83,44,1.0,-4.0,-1009.0,12:43:08.908416,192.168.0.115
2255,-1,-100,-100,-100,"0,0,0",0,0,-77,0,0,0,65,67,75,30,94,-47.84,45,-7.0,10.0,-996.0,12:43:09.010500,192.168.0.115
2260,-1,-100,-100,-100,"0,0,0",0,0,-77,0,0,0,65,67,75,30,94,-47.82,45,-13.0,-1.0,-988.0,12:43:09.113447,192.168.0.115
2265,-1,-100,-100,-100,"0,0,0",0,0,-77,0,0,0,65,67,75,30,94,-47.86,45,-30.0,-3.0,-981.0,12:43:09.215586,192.168.0.115
2270,-1,-100,-100,-100,"0,0,0",0,0,-77,0,0,0,65,67,75,30,94,-47.89,45,-14.0,12.0,-994.0,12:43:09.317464,192.168.0.115
2276,-1,-100,-100,-100,"0,0,0",0,0,-77,0,0,0,65,67,75,30,94,-47.89,45,-21.0,0.0,-988.0,12:43:09.419492,192.168.0.115
2281,-1,-100,-100,-100,"0,0,0",0,0,-77,0,0,0,65,68,76,30,94,-47.95,45,1.0,0.0,-1015.0,12:43:09.520588,192.168.0.115
2286,-1,-100,-100,-100,"0,0,0",-1,0,-77,0,0,0,65,68,76,30,94,-47.9,45,-31.0,10.0,-1016.0,12:43:09.622885,192.168.0.115
2291,-1,-100,-100,-100,"0,0,0",-1,0,-77,0,0,0,65,68,76,30,94,-47.85,45,-24.0,6.0,-993.0,12:43:09.724906,192.168.0.115
2296,-1,-100,-100,-100,"0,0,0",-1,0,-77,0,0,0,65,68,76,30,94,-47.86,45,-19.0,8.0,-995.0,12:43:09.826506,192.168.0.115
2301,-1,-100,-100,-100,"0,0,0",-1,0,-77,0,0,0,65,68,76,30,94,-47.92,45,-8.0,8.0,-998.0,12:43:09.928471,192.168.0.115
2306,-1,-100,-100,-100,"0,0,0",-1,0,-77,0,0,0,65,68,77,30,94,-47.79,46,-2.0,-3.0,-985.0,12:43:10.030321,192.168.0.115
2311,-1,-100,-100,-100,"0,0,0",-1,0,-77,0,0,0,65,68,77,30,94,-47.79,46,-15.0,-2.0,-996.0,12:43:10.136305,192.168.0.115
2316,-1,-100,-100,-100,"0,0,0",-1,0,-77,0,0,0,65,68,77,30,94,-47.82,46,-25.0,3.0,-1002.0,12:43:10.234452,192.168.0.115
2319,-1,-100,-100,-100,"0,0,0",-1,0,-77,0,0,0,65,68,77,30,94,-47.77,46,-10.0,-5.0,-986.0,12:43:10.286694,192.168.0.115
2324,-1,-100,-100,-100,"0,0,0",-1,0,-77,0,0,0,65,68,77,30,94,-47.86,46,-38.0,0.0,-989.0,12:43:10.387714,192.168.0.115
2332,-1,-100,-100,-100,"0,0,0",-1,0,-77,0,0,0,64,67,77,30,94,-47.86,46,-24.0,-4.0,-1015.0,12:43:10.540808,192.168.0.115
2335,-1,-100,-100,-100,"0,0,0",-1,0,-77,0,0,0,64,67,77,30,94,-47.9,46,-44.0,-1.0,-1019.0,12:43:10.591428,192.168.0.115
2340,-1,-100,-100,-100,"0,0,0",-1,0,-77,0,0,0,64,67,78,30,94,-47.95,46,-27.0,-9.0,-997.0,12:43:10.693508,192.168.0.115
2345,-1,-100,-100,-100,"0,0,0",-1,0,-77,0,0,0,64,67,77,30,94,-47.93,46,-10.0,-11.0,-999.0,12:43:10.795982,192.168.0.115
2350,-1,-100,-100,-100,"0,0,0",-1,0,-77,0,0,0,64,67,77,30,94,-47.84,46,-29.0,-20.0,-983.0,12:43:10.897402,192.168.0.115
2355,-1,-100,-100,-100,"0,0,0",-1,0,-77,0,0,0,64,67,77,30,94,-47.83,47,-15.0,-4.0,-1002.0,12:43:10.999443,192.168.0.115
2360,-1,-100,-100,-100,"0,0,0",0,1,-77,0,0,0,64,67,77,30,94,-47.78,47,-33.0,-16.0,-966.0,12:43:11.101317,192.168.0.115
2365,-1,-100,-100,-100,"0,0,0",0,1,-77,0,0,0,64,67,77,30,94,-47.83,47,-19.0,-18.0,-988.0,12:43:11.203319,192.168.0.115
2370,-1,-100,-100,-100,"0,0,0",0,1,-77,0,0,0,64,67,76,30,94,-47.85,47,-36.0,-20.0,-1003.0,12:43:11.305130,192.168.0.115
2375,-1,-100,-100,-100,"0,0,0",0,1,-77,0,0,0,64,67,76,30,94,-47.8,47,-19.0,-11.0,-1004.0,12:43:11.407467,192.168.0.115
2380,-1,-100,-100,-100,"0,0,0",0,1,-77,0,0,0,65,67,76,30,94,-47.73,47,-2.0,-21.0,-1021.0,12:43:11.512872,192.168.0.115
2385,-1,-100,-100,-100,"0,0,0",0,1,-77,0,0,0,65,67,75,30,94,-47.8,47,20.0,-13.0,-994.0,12:43:11.611221,192.168.0.115
2390,-1,-100,-100,-100,"0,0,0",0,1,-77,0,0,0,65,67,75,30,94,-47.89,47,11.0,-23.0,-1009.0,12:43:11.713488,192.168.0.115
2395,-1,-100,-100,-100,"0,0,0",0,1,-77,0,0,0,65,67,74,30,94,-47.82,47,10.0,-32.0,-1019.0,12:43:11.815422,192.168.0.115
2400,-1,-100,-100,-100,"0,0,0",0,1,-77,0,0,0,65,67,75,30,94,-47.88,48,17.0,-19.0,-1023.0,12:43:11.917349,192.168.0.115
2405,-1,-100,-100,-100,"0,0,0",0,1,-77,0,0,0,65,67,75,30,94,-47.78,48,-29.0,-12.0,-1029.0,12:43:12.019344,192.168.0.115
2410,-1,-100,-100,-100,"0,0,0",0,1,-77,0,0,0,65,67,75,30,94,-47.82,48,7.0,-41.0,-1018.0,12:43:12.121354,192.168.0.115
2415,-1,-100,-100,-100,"0,0,0",0,1,-77,0,0,0,65,67,75,30,94,-47.9,48,-1.0,-31.0,-993.0,12:43:12.223449,192.168.0.115
2420,-1,-100,-100,-100,"0,0,0",0,1,-77,0,0,0,65,67,76,30,94,-47.83,48,-2.0,-19.0,-985.0,12:43:12.325468,192.168.0.115
2425,-1,-100,-100,-100,"0,0,0",0,1,-77,0,0,0,65,67,76,30,94,-47.8,48,-6.0,-11.0,-985.0,12:43:12.427373,192.168.0.115
2431,-1,-100,-100,-100,"0,0,0",0,1,-77,0,0,0,65,67,76,30,94,-47.87,48,6.0,-18.0,-987.0,12:43:12.529789,192.168.0.115
2436,-1,-100,-100,-100,"0,0,0",0,0,-77,0,0,0,65,67,77,30,94,-47.83,48,6.0,-7.0,-1002.0,12:43:12.631340,192.168.0.115
2441,-1,-100,-100,-100,"0,0,0",0,0,-77,0,0,0,65,67,76,30,94,-47.85,48,25.0,-13.0,-990.0,12:43:12.733408,192.168.0.115
2445,-1,-100,-100,-100,"0,0,0",0,0,-77,0,0,0,65,67,76,30,94,-47.79,48,11.0,-14.0,-1006.0,12:43:12.838020,192.168.0.115
2451,-1,-100,-100,-100,"0,0,0",0,0,-77,0,0,0,65,67,76,30,94,-47.75,49,38.0,-31.0,-993.0,12:43:12.937361,192.168.0.115
2456,-1,-100,-100,-100,"0,0,0",0,0,-77,0,0,0,65,67,76,30,94,-47.74,49,-3.0,1.0,-1009.0,12:43:13.039204,192.168.0.115
2461,-1,-100,-100,-100,"0,0,0",1,0,-77,0,0,0,65,67,76,30,94,-47.87,49,16.0,-18.0,-985.0,12:43:13.141403,192.168.0.115
2466,-1,-100,-100,-100,"0,0,0",1,0,-77,0,0,0,65,67,76,30,94,-47.77,49,-1.0,17.0,-1012.0,12:43:13.243343,192.168.0.115
2471,-1,-100,-100,-100,"0,0,0",1,0,-77,0,0,0,65,67,77,30,94,-47.79,49,9.0,-3.0,-1000.0,12:43:13.345322,192.168.0.115
2476,-1,-100,-100,-100,"0,0,0",1,0,-77,0,0,0,65,67,77,30,94,-47.84,49,-3.0,3.0,-1003.0,12:43:13.447199,192.168.0.115
2481,-1,-100,-100,-100,"0,0,0",1,0,-77,0,0,0,65,67,77,30,94,-47.76,49,14.0,-4.0,-1008.0,12:43:13.549395,192.168.0.115
2487,-1,-100,-100,-100,"0,0,0",0,0,-77,0,0,0,65,67,77,30,94,-47.78,49,-28.0,17.0,-999.0,12:43:13.654802,192.168.0.115
2491,-1,-100,-100,-100,"0,0,0",0,0,-77,0,0,0,65,67,77,30,94,-47.72,49,0.0,13.0,-997.0,12:43:13.753329,192.168.0.115
2496,-1,-100,-100,-100,"0,0,0",0,0,-77,0,0,0,65,67,77,30,94,-47.76,49,-10.0,21.0,-976.0,12:43:13.855903,192.168.0.115
2501,-1,-100,-100,-100,"0,0,0",0,0,-77,0,0,0,65,67,77,30,94,-47.82,50,-3.0,10.0,-1005.0,12:43:13.957029,192.168.0.115
2505,-1,-100,-100,-100,"0,0,0",0,0,-77,0,0,0,65,67,76,30,94,-47.88,50,-7.0,0.0,-1007.0,12:43:14.008361,192.168.0.115
2510,-1,-100,-100,-100,"0,0,0",0,0,-77,0,0,0,65,67,76,30,94,-47.87,50,-35.0,0.0,-987.0,12:43:14.110470,192.168.0.115
2515,-1,-100,-100,-100,"0,0,0",0,0,-77,0,0,0,65,67,76,30,94,-47.91,50,-10.0,2.0,-1030.0,12:43:14.213169,192.168.0.115
2520,-1,-100,-100,-100,"0,0,0",0,0,-77,0,0,0,65,67,76,30,94,-47.9,50,-8.0,-3.0,-1022.0,12:43:14.314268,192.168.0.115
2525,-1,-100,-100,-100,"0,0,0",0,0,-77,0,0,0,65,67,76,30,94,-47.85,50,-9.0,-13.0,-997.0,12:43:14.421127,192.168.0.115
2530,-1,-100,-100,-100,"0,0,0",0,0,-77,0,0,0,66,67,75,30,94,-47.87,50,-12.0,-11.0,-1001.0,12:43:14.518551,192.168.0.115
2535,-1,-100,-100,-100,"0,0,0",0,0,-77,0,0,0,66,67,76,30,94,-47.92,50,10.0,-19.0,-1010.0,12:43:14.620284,192.168.0.115
2540,-1,-100,-100,-100,"0,0,0",0,0,-76,0,0,0,66,67,75,30,94,-47.86,50,-37.0,0.0,-995.0,12:43:14.722251,192.168.0.115
2545,-1,-100,-100,-100,"0,0,0",-1,0,-77,0,0,0,66,67,76,30,94,-47.89,50,-29.0,0.0,-1012.0,12:43:14.825336,192.168.0.115
