,mid,x,y,z,mpry,pitch,roll,yaw,vgx,vgy,vgz,templ,temph,tof,h,bat,baro,time,agx,agy,agz,timestamp,address
3,-1,-100,-100,-100,"0,0,0",0,0,4,0,0,0,57,60,10,0,100,-15.06,0,0.0,-5.0,-997.0,11:42:49.850370,192.168.0.113
8,-1,-100,-100,-100,"0,0,0",0,0,4,0,0,0,57,60,10,0,100,-15.05,0,0.0,-2.0,-998.0,11:42:49.952691,192.168.0.113
13,-1,-100,-100,-100,"0,0,0",0,0,4,0,0,0,57,60,10,0,100,-15.05,0,0.0,-4.0,-1000.0,11:42:50.054555,192.168.0.113
18,-1,-100,-100,-100,"0,0,0",0,0,4,0,0,0,57,60,10,0,100,-15.05,0,-1.0,-5.0,-1000.0,11:42:50.156567,192.168.0.113
23,-1,-100,-100,-100,"0,0,0",0,0,4,0,0,0,57,60,10,0,100,-15.05,0,-8.0,-13.0,-998.0,11:42:50.258519,192.168.0.113
28,-1,-100,-100,-100,"0,0,0",0,0,4,0,0,0,57,60,10,0,100,-15.05,0,7.0,-18.0,-1001.0,11:42:50.360811,192.168.0.113
33,-1,-100,-100,-100,"0,0,0",0,0,4,0,0,0,57,60,10,0,100,-15.05,0,-7.0,1.0,-1126.0,11:42:50.462968,192.168.0.113
39,-1,-100,-100,-100,"0,0,0",0,0,4,0,0,1,57,60,10,0,100,-15.05,0,-19.0,-21.0,-1306.0,11:42:50.564636,192.168.0.113
40,-1,-100,-100,-100,"0,0,0",0,0,4,0,0,5,57,61,10,0,100,-15.05,0,-56.0,-37.0,-1313.0,11:42:50.615714,192.168.0.113
45,-1,-100,-100,-100,"0,0,0",-1,1,4,0,0,7,57,61,10,10,100,-15.01,0,-46.0,-40.0,-1114.0,11:42:50.717504,192.168.0.113
50,-1,-100,-100,-100,"0,0,0",-2,2,4,1,1,8,57,61,17,10,100,-14.66,0,-79.0,-33.0,-1024.0,11:42:50.819593,192.168.0.113
55,-1,-100,-100,-100,"0,0,0",-3,3,4,1,0,8,57,61,27,20,100,-14.56,0,-70.0,-32.0,-961.0,11:42:50.921516,192.168.0.113
60,-1,-100,-100,-100,"0,0,0",-3,3,4,1,0,7,57,61,35,30,100,-14.55,1,-89.0,-30.0,-939.0,11:42:51.023514,192.168.0.113
65,-1,-100,-100,-100,"0,0,0",-4,2,4,1,0,6,57,61,43,30,100,-14.58,1,-75.0,-24.0,-894.0,11:42:51.126561,192.168.0.113
70,-1,-100,-100,-100,"0,0,0",-5,2,4,1,0,5,57,61,50,40,100,-14.53,1,-69.0,-5.0,-879.0,11:42:51.227831,192.168.0.113
75,-1,-100,-100,-100,"0,0,0",-5,0,4,1,0,4,57,61,56,50,100,-14.39,1,-34.0,12.0,-904.0,11:42:51.329878,192.168.0.113
81,-1,-100,-100,-100,"0,0,0",-4,0,4,0,0,3,57,61,61,50,100,-14.35,1,-43.0,3.0,-891.0,11:42:51.431280,192.168.0.113
86,-1,-100,-100,-100,"0,0,0",-3,-2,4,0,0,2,57,61,65,50,100,-14.39,1,-76.0,-25.0,-952.0,11:42:51.533271,192.168.0.113
91,-1,-100,-100,-100,"0,0,0",-3,-2,4,0,0,2,58,61,68,50,100,-14.43,1,-38.0,-33.0,-955.0,11:42:51.635520,192.168.0.113
97,-1,-100,-100,-100,"0,0,0",-3,0,4,0,0,1,58,61,71,60,100,-14.25,1,-44.0,-10.0,-942.0,11:42:51.737418,192.168.0.113
102,-1,-100,-100,-100,"0,0,0",-3,0,4,0,0,1,58,61,73,60,100,-14.22,1,-56.0,14.0,-960.0,11:42:51.839436,192.168.0.113
107,-1,-100,-100,-100,"0,0,0",-3,0,4,0,0,0,58,61,74,60,100,-14.27,1,-60.0,11.0,-976.0,11:42:51.941403,192.168.0.113
112,-1,-100,-100,-100,"0,0,0",-3,0,4,0,0,0,58,61,76,60,100,-14.29,2,-36.0,18.0,-982.0,11:42:52.043324,192.168.0.113
117,-1,-100,-100,-100,"0,0,0",-3,-1,4,0,0,0,58,61,77,60,100,-14.22,2,-73.0,-13.0,-994.0,11:42:52.145334,192.168.0.113
123,-1,-100,-100,-100,"0,0,0",-2,-1,4,0,0,0,58,61,78,60,100,-14.3,2,-40.0,3.0,-965.0,11:42:52.252959,192.168.0.113
127,-1,-100,-100,-100,"0,0,0",-3,0,4,0,0,0,58,61,80,70,100,-14.18,2,-49.0,24.0,-982.0,11:42:52.349237,192.168.0.113
133,-1,-100,-100,-100,"0,0,0",-3,-1,4,0,0,0,58,61,82,70,100,-14.07,2,-59.0,-7.0,-1009.0,11:42:52.451307,192.168.0.113
138,-1,-100,-100,-100,"0,0,0",-3,0,4,0,0,0,58,61,82,70,100,-14.36,2,-45.0,24.0,-942.0,11:42:52.553156,192.168.0.113
143,-1,-100,-100,-100,"0,0,0",-3,-2,4,0,0,0,58,60,83,70,100,-14.28,2,-33.0,22.0,-1019.0,11:42:52.655493,192.168.0.113
148,-1,-100,-100,-100,"0,0,0",-3,-2,4,0,0,0,58,60,84,70,100,-14.29,2,-50.0,11.0,-992.0,11:42:52.757314,192.168.0.113
153,-1,-100,-100,-100,"0,0,0",-2,-1,4,0,0,0,58,60,84,70,100,-14.28,2,-24.0,26.0,-1012.0,11:42:52.859192,192.168.0.113
158,-1,-100,-100,-100,"0,0,0",-2,-2,4,0,0,0,58,60,84,70,100,-14.23,2,-33.0,15.0,-976.0,11:42:52.961199,192.168.0.113
163,-1,-100,-100,-100,"0,0,0",-2,-2,4,0,0,0,58,60,84,70,100,-14.19,3,-34.0,17.0,-1019.0,11:42:53.063212,192.168.0.113
165,-1,-100,-100,-100,"0,0,0",-1,-2,4,0,0,0,58,60,85,70,100,-14.17,3,-34.0,25.0,-986.0,11:42:53.114202,192.168.0.113
170,-1,-100,-100,-100,"0,0,0",-1,-2,4,0,0,0,58,60,85,70,100,-14.17,3,-9.0,0.0,-965.0,11:42:53.216178,192.168.0.113
175,-1,-100,-100,-100,"0,0,0",0,-2,4,0,0,0,58,60,85,70,100,-14.22,3,-28.0,2.0,-995.0,11:42:53.318202,192.168.0.113
180,-1,-100,-100,-100,"0,0,0",0,-1,4,0,0,0,58,60,85,70,100,-14.07,3,-10.0,32.0,-976.0,11:42:53.420207,192.168.0.113
185,-1,-100,-100,-100,"0,0,0",0,-1,4,0,0,0,58,60,85,70,100,-14.3,3,-19.0,38.0,-1012.0,11:42:53.522197,192.168.0.113
190,-1,-100,-100,-100,"0,0,0",0,-2,4,0,0,0,58,61,85,70,100,-14.27,3,-37.0,7.0,-1007.0,11:42:53.624468,192.168.0.113
195,-1,-100,-100,-100,"0,0,0",-1,-2,4,0,0,0,58,61,85,70,100,-14.22,3,-20.0,-1.0,-1012.0,11:42:53.726166,192.168.0.113
200,-1,-100,-100,-100,"0,0,0",-1,-1,4,0,0,0,58,61,85,70,100,-14.18,3,-17.0,-12.0,-991.0,11:42:53.828688,192.168.0.113
206,-1,-100,-100,-100,"0,0,0",-1,0,4,0,1,0,58,61,85,70,100,-14.09,3,-18.0,-5.0,-993.0,11:42:53.932518,192.168.0.113
211,-1,-100,-100,-100,"0,0,0",0,0,4,0,0,0,58,61,85,70,100,-14.06,4,-9.0,28.0,-983.0,11:42:54.031956,192.168.0.113
216,-1,-100,-100,-100,"0,0,0",0,0,4,0,0,0,58,61,85,70,100,-14.16,4,-11.0,28.0,-957.0,11:42:54.133957,192.168.0.113
221,-1,-100,-100,-100,"0,0,0",0,0,4,0,0,0,58,61,84,70,100,-14.28,4,-44.0,36.0,-1020.0,11:42:54.236784,192.168.0.113
227,-1,-100,-100,-100,"0,0,0",0,-2,4,0,0,0,58,61,84,70,100,-14.24,4,-47.0,28.0,-1020.0,11:42:54.337487,192.168.0.113
233,-1,-100,-100,-100,"0,0,0",-1,-3,4,0,0,0,58,61,84,70,100,-14.26,4,-8.0,34.0,-991.0,11:42:54.443679,192.168.0.113
237,-1,-100,-100,-100,"0,0,0",-1,-2,4,0,0,0,58,61,83,70,100,-14.32,4,-24.0,29.0,-1012.0,11:42:54.541961,192.168.0.113
242,-1,-100,-100,-100,"0,0,0",-1,-2,4,0,0,0,58,61,84,70,100,-14.25,4,-20.0,27.0,-986.0,11:42:54.643992,192.168.0.113
247,-1,-100,-100,-100,"0,0,0",0,-2,3,0,0,0,58,61,84,70,100,-14.25,4,-8.0,14.0,-986.0,11:42:54.745936,192.168.0.113
252,-1,-100,-100,-100,"0,0,0",0,-1,3,0,0,0,58,61,84,70,100,-14.4,4,-52.0,-17.0,-1033.0,11:42:54.847955,192.168.0.113
257,-1,-100,-100,-100,"0,0,0",0,-1,3,0,0,0,58,61,83,70,100,-14.5,4,-11.0,-30.0,-994.0,11:42:54.950103,192.168.0.113
262,-1,-100,-100,-100,"0,0,0",0,-1,4,0,1,0,58,61,83,70,100,-14.39,5,-64.0,-31.0,-1006.0,11:42:55.051872,192.168.0.113
267,-1,-100,-100,-100,"0,0,0",-1,0,4,0,1,0,58,61,84,70,100,-14.46,5,-64.0,-22.0,-989.0,11:42:55.157030,192.168.0.113
273,-1,-100,-100,-100,"0,0,0",-2,1,4,0,1,0,58,61,84,70,100,-14.47,5,-54.0,-10.0,-974.0,11:42:55.258804,192.168.0.113
277,-1,-100,-100,-100,"0,0,0",-3,1,4,0,1,0,58,61,85,70,100,-14.34,5,-22.0,-14.0,-978.0,11:42:55.359643,192.168.0.113
282,-1,-100,-100,-100,"0,0,0",-2,0,4,0,1,0,58,61,85,70,100,-14.47,5,-67.0,-17.0,-1027.0,11:42:55.459571,192.168.0.113
288,-1,-100,-100,-100,"0,0,0",-3,0,4,0,1,0,58,61,85,70,100,-14.31,5,-45.0,-65.0,-989.0,11:42:55.565266,192.168.0.113
293,-1,-100,-100,-100,"0,0,0",-3,1,4,0,1,0,58,61,85,70,100,-14.29,5,-48.0,-10.0,-951.0,11:42:55.663891,192.168.0.113
295,-1,-100,-100,-100,"0,0,0",-3,0,4,0,0,0,58,61,84,70,100,-14.45,5,-84.0,-24.0,-1035.0,11:42:55.714815,192.168.0.113
300,-1,-100,-100,-100,"0,0,0",-3,0,4,0,0,0,58,61,84,70,100,-14.39,5,-84.0,7.0,-1013.0,11:42:55.816628,192.168.0.113
305,-1,-100,-100,-100,"0,0,0",-3,0,4,0,0,0,58,61,83,70,100,-14.4,5,-43.0,-27.0,-1005.0,11:42:55.918831,192.168.0.113
310,-1,-100,-100,-100,"0,0,0",-3,0,4,0,0,0,58,61,83,70,100,-14.29,6,-36.0,-33.0,-994.0,11:42:56.020837,192.168.0.113
315,-1,-100,-100,-100,"0,0,0",-2,2,5,0,0,0,58,61,83,70,100,-14.33,6,-55.0,28.0,-957.0,11:42:56.122671,192.168.0.113
320,-1,-100,-100,-100,"0,0,0",-2,1,5,0,0,0,58,61,82,70,100,-14.46,6,-31.0,10.0,-961.0,11:42:56.224807,192.168.0.113
325,-1,-100,-100,-100,"0,0,0",-2,-1,4,0,0,0,58,61,81,70,100,-14.41,6,-50.0,-13.0,-1008.0,11:42:56.326736,192.168.0.113
330,-1,-100,-100,-100,"0,0,0",-2,-1,4,0,0,0,58,61,81,70,100,-14.44,6,-49.0,-7.0,-975.0,11:42:56.428300,192.168.0.113
336,-1,-100,-100,-100,"0,0,0",-2,0,4,0,0,0,58,61,81,70,100,-14.44,6,-52.0,-2.0,-990.0,11:42:56.531814,192.168.0.113
341,-1,-100,-100,-100,"0,0,0",-2,0,4,0,0,0,58,62,81,70,100,-14.32,6,-51.0,39.0,-1000.0,11:42:56.632619,192.168.0.113
346,-1,-100,-100,-100,"0,0,0",-2,-1,4,0,0,0,58,62,80,70,100,-14.24,6,-28.0,38.0,-985.0,11:42:56.735301,192.168.0.113
352,-1,-100,-100,-100,"0,0,0",-2,-3,4,0,0,0,58,62,80,70,100,-14.39,6,-53.0,56.0,-1000.0,11:42:56.836738,192.168.0.113
357,-1,-100,-100,-100,"0,0,0",-1,-3,4,0,0,0,58,62,79,70,100,-14.53,6,-22.0,35.0,-1016.0,11:42:56.938510,192.168.0.113
362,-1,-100,-100,-100,"0,0,0",-1,-3,4,0,0,0,58,62,79,70,100,-14.61,7,-30.0,22.0,-1045.0,11:42:57.040534,192.168.0.113
367,-1,-100,-100,-100,"0,0,0",-1,-4,4,0,0,0,58,62,80,70,100,-14.46,7,-50.0,13.0,-1022.0,11:42:57.142509,192.168.0.113
372,-1,-100,-100,-100,"0,0,0",-1,-4,4,0,0,0,58,62,80,70,100,-14.39,7,-39.0,5.0,-1022.0,11:42:57.244591,192.168.0.113
377,-1,-100,-100,-100,"0,0,0",0,-2,4,0,0,0,58,62,80,70,100,-14.5,7,-88.0,-14.0,-981.0,11:42:57.346534,192.168.0.113
382,-1,-100,-100,-100,"0,0,0",0,-1,3,0,0,0,58,62,81,70,100,-14.39,7,-82.0,-50.0,-978.0,11:42:57.448529,192.168.0.113
387,-1,-100,-100,-100,"0,0,0",-2,-1,4,0,1,0,58,62,81,70,100,-14.3,7,-80.0,-29.0,-954.0,11:42:57.550932,192.168.0.113
392,-1,-100,-100,-100,"0,0,0",-3,0,4,0,0,0,58,61,81,70,100,-14.33,7,-63.0,38.0,-929.0,11:42:57.652508,192.168.0.113
397,-1,-100,-100,-100,"0,0,0",-3,0,4,0,0,0,58,61,82,70,100,-14.45,7,-55.0,26.0,-1007.0,11:42:57.754508,192.168.0.113
402,-1,-100,-100,-100,"0,0,0",-1,-1,4,0,0,0,58,61,81,70,100,-14.32,7,-19.0,42.0,-989.0,11:42:57.856643,192.168.0.113
407,-1,-100,-100,-100,"0,0,0",0,-2,4,0,0,0,58,61,81,70,100,-14.34,7,-13.0,22.0,-1002.0,11:42:57.958244,192.168.0.113
412,-1,-100,-100,-100,"0,0,0",0,-3,4,0,0,0,58,61,80,70,100,-14.41,8,-19.0,20.0,-1017.0,11:42:58.060550,192.168.0.113
417,-1,-100,-100,-100,"0,0,0",0,-2,4,0,0,0,58,61,80,70,100,-14.34,8,-38.0,42.0,-999.0,11:42:58.162430,192.168.0.113
423,-1,-100,-100,-100,"0,0,0",0,-2,4,0,0,0,58,61,80,70,100,-14.38,8,-32.0,14.0,-997.0,11:42:58.265924,192.168.0.113
428,-1,-100,-100,-100,"0,0,0",0,-2,4,0,0,0,58,61,80,70,100,-14.42,8,-20.0,5.0,-988.0,11:42:58.366443,192.168.0.113
430,-1,-100,-100,-100,"0,0,0",0,-2,4,0,0,0,58,61,80,70,100,-14.27,8,-24.0,22.0,-1000.0,11:42:58.419633,192.168.0.113
435,-1,-100,-100,-100,"0,0,0",0,-2,4,0,0,0,58,61,80,70,100,-14.3,8,0.0,31.0,-977.0,11:42:58.519431,192.168.0.113
440,-1,-100,-100,-100,"0,0,0",0,-2,4,0,0,0,59,62,81,70,100,-14.22,8,0.0,8.0,-990.0,11:42:58.621420,192.168.0.113
445,-1,-100,-100,-100,"0,0,0",1,-1,4,0,0,0,59,62,81,70,100,-14.23,8,11.0,15.0,-998.0,11:42:58.723350,192.168.0.113
450,-1,-100,-100,-100,"0,0,0",1,-1,4,0,0,0,59,62,81,70,100,-14.06,8,0.0,49.0,-965.0,11:42:58.825451,192.168.0.113
455,-1,-100,-100,-100,"0,0,0",1,-3,4,0,0,0,59,62,80,70,100,-14.17,8,-26.0,40.0,-1053.0,11:42:58.929247,192.168.0.113
460,-1,-100,-100,-100,"0,0,0",0,-3,4,0,0,0,59,62,79,70,100,-14.31,9,-6.0,16.0,-1009.0,11:42:59.029303,192.168.0.113
466,-1,-100,-100,-100,"0,0,0",0,-2,4,0,0,0,59,62,80,70,100,-14.21,9,9.0,19.0,-1007.0,11:42:59.131090,192.168.0.113
471,-1,-100,-100,-100,"0,0,0",1,-1,4,0,0,0,59,62,79,70,100,-14.13,9,-20.0,11.0,-975.0,11:42:59.233886,192.168.0.113
476,-1,-100,-100,-100,"0,0,0",1,-2,4,0,0,0,59,62,80,70,100,-14.16,9,-31.0,14.0,-1039.0,11:42:59.335227,192.168.0.113
481,-1,-100,-100,-100,"0,0,0",1,-2,4,0,0,0,59,62,80,70,100,-14.23,9,-11.0,33.0,-1019.0,11:42:59.437188,192.168.0.113
487,-1,-100,-100,-100,"0,0,0",1,0,4,0,0,0,59,62,80,70,100,-14.21,9,-4.0,31.0,-963.0,11:42:59.539275,192.168.0.113
491,-1,-100,-100,-100,"0,0,0",1,-1,4,0,0,0,59,62,80,70,100,-14.22,9,0.0,5.0,-1007.0,11:42:59.641231,192.168.0.113
497,-1,-100,-100,-100,"0,0,0",1,-1,4,0,0,0,59,62,81,70,100,-14.19,9,-6.0,1.0,-974.0,11:42:59.743374,192.168.0.113
502,-1,-100,-100,-100,"0,0,0",1,-2,4,0,0,0,59,62,81,70,100,-14.23,9,0.0,1.0,-1009.0,11:42:59.845178,192.168.0.113
507,-1,-100,-100,-100,"0,0,0",0,-3,4,0,0,0,59,62,81,70,100,-14.26,9,-40.0,4.0,-1050.0,11:42:59.947057,192.168.0.113
512,-1,-100,-100,-100,"0,0,0",0,-2,4,0,0,0,59,62,81,70,100,-14.03,10,-20.0,34.0,-956.0,11:43:00.049433,192.168.0.113
517,-1,-100,-100,-100,"0,0,0",0,-3,4,0,0,0,59,62,81,70,100,-14.17,10,-26.0,11.0,-986.0,11:43:00.151153,192.168.0.113
522,-1,-100,-100,-100,"0,0,0",0,-1,4,0,1,0,59,62,80,70,100,-14.21,10,-13.0,-14.0,-993.0,11:43:00.253027,192.168.0.113
527,-1,-100,-100,-100,"0,0,0",0,0,4,0,1,0,59,62,80,70,100,-14.23,10,-12.0,-2.0,-979.0,11:43:00.356927,192.168.0.113
532,-1,-100,-100,-100,"0,0,0",0,0,4,0,1,0,59,62,80,70,100,-14.16,10,-1.0,-4.0,-979.0,11:43:00.458426,192.168.0.113
537,-1,-100,-100,-100,"0,0,0",0,0,4,0,1,0,59,62,80,70,100,-14.14,10,-52.0,-1.0,-995.0,11:43:00.558984,192.168.0.113
542,-1,-100,-100,-100,"0,0,0",0,0,4,0,1,0,58,62,80,70,100,-14.18,10,-20.0,-28.0,-1007.0,11:43:00.660348,192.168.0.113
548,-1,-100,-100,-100,"0,0,0",0,0,4,0,1,0,58,62,80,70,100,-14.28,10,-45.0,-30.0,-994.0,11:43:00.762375,192.168.0.113
553,-1,-100,-100,-100,"0,0,0",0,1,4,1,1,0,58,62,81,70,100,-14.42,10,-17.0,-21.0,-989.0,11:43:00.864300,192.168.0.113
558,-1,-100,-100,-100,"0,0,0",0,0,4,1,1,0,58,62,81,70,100,-14.11,10,-28.0,-13.0,-956.0,11:43:00.967158,192.168.0.113
560,-1,-100,-100,-100,"0,0,0",-1,0,4,1,1,0,58,62,82,70,100,-13.99,11,-5.0,-28.0,-994.0,11:43:01.017368,192.168.0.113
565,-1,-100,-100,-100,"0,0,0",0,0,4,0,1,0,58,62,82,70,100,-13.92,11,-31.0,-2.0,-910.0,11:43:01.120087,192.168.0.113
570,-1,-100,-100,-100,"0,0,0",0,0,4,0,1,0,58,62,82,70,100,-13.93,11,-40.0,0.0,-957.0,11:43:01.222014,192.168.0.113
575,-1,-100,-100,-100,"0,0,0",0,1,4,0,0,0,58,62,82,70,100,-13.9,11,16.0,-8.0,-974.0,11:43:01.324310,192.168.0.113
580,-1,-100,-100,-100,"0,0,0",0,0,4,0,0,0,58,62,81,70,100,-13.68,11,-39.0,17.0,-955.0,11:43:01.425704,192.168.0.113
585,-1,-100,-100,-100,"0,0,0",0,0,5,0,0,0,58,62,81,70,100,-13.76,11,-32.0,-14.0,-1006.0,11:43:01.528261,192.168.0.113
590,-1,-100,-100,-100,"0,0,0",0,0,5,0,0,0,59,62,79,70,100,-13.72,11,21.0,-18.0,-1002.0,11:43:01.629846,192.168.0.113
595,-1,-100,-100,-100,"0,0,0",1,0,4,0,0,0,59,62,79,70,100,-13.87,11,24.0,41.0,-1028.0,11:43:01.731876,192.168.0.113
600,-1,-100,-100,-100,"0,0,0",2,0,4,0,0,0,59,62,79,60,100,-13.92,11,12.0,41.0,-1040.0,11:43:01.833882,192.168.0.113
605,-1,-100,-100,-100,"0,0,0",1,-2,4,0,0,0,59,62,78,60,100,-13.85,11,-34.0,11.0,-1050.0,11:43:01.936248,192.168.0.113
610,-1,-100,-100,-100,"0,0,0",0,-3,5,0,0,0,59,62,79,60,100,-14.01,12,0.0,3.0,-1068.0,11:43:02.037950,192.168.0.113
615,-1,-100,-100,-100,"0,0,0",1,-1,5,0,0,0,59,62,80,70,100,-13.99,12,-38.0,52.0,-989.0,11:43:02.140450,192.168.0.113
620,-1,-100,-100,-100,"0,0,0",1,-1,4,0,0,1,59,62,81,70,100,-14.1,12,-22.0,8.0,-1021.0,11:43:02.241417,192.168.0.113
626,-1,-100,-100,-100,"0,0,0",0,0,4,0,0,1,59,62,82,70,100,-14.18,12,0.0,17.0,-999.0,11:43:02.343964,192.168.0.113
631,-1,-100,-100,-100,"0,0,0",0,-1,4,0,0,0,59,62,83,70,100,-13.98,12,-5.0,61.0,-929.0,11:43:02.448863,192.168.0.113
636,-1,-100,-100,-100,"0,0,0",0,-3,4,0,0,0,59,62,84,70,100,-13.94,12,-9.0,55.0,-1005.0,11:43:02.547201,192.168.0.113
641,-1,-100,-100,-100,"0,0,0",0,-3,4,0,0,0,59,62,85,70,100,-13.9,12,-16.0,48.0,-959.0,11:43:02.649608,192.168.0.113
646,-1,-100,-100,-100,"0,0,0",1,-4,4,0,0,0,59,62,85,70,100,-13.84,12,12.0,30.0,-1000.0,11:43:02.751803,192.168.0.113
651,-1,-100,-100,-100,"0,0,0",2,-3,3,0,0,0,59,62,86,70,100,-13.98,12,26.0,49.0,-975.0,11:43:02.853628,192.168.0.113
656,-1,-100,-100,-100,"0,0,0",2,-4,3,0,0,0,59,62,86,70,100,-13.9,12,23.0,56.0,-999.0,11:43:02.955834,192.168.0.113
661,-1,-100,-100,-100,"0,0,0",2,-4,3,0,0,0,59,62,86,70,100,-13.88,13,27.0,28.0,-1020.0,11:43:03.057808,192.168.0.113
666,-1,-100,-100,-100,"0,0,0",1,-4,3,0,0,0,59,62,85,70,100,-13.82,13,-3.0,51.0,-1001.0,11:43:03.159637,192.168.0.113
672,-1,-100,-100,-100,"0,0,0",2,-3,3,0,0,0,59,62,85,70,100,-13.96,13,3.0,48.0,-976.0,11:43:03.261741,192.168.0.113
678,-1,-100,-100,-100,"0,0,0",2,-3,3,0,0,0,59,62,85,70,100,-13.87,13,-17.0,37.0,-994.0,11:43:03.367140,192.168.0.113
683,-1,-100,-100,-100,"0,0,0",1,-4,4,0,0,0,59,62,85,70,100,-13.85,13,11.0,7.0,-1013.0,11:43:03.466145,192.168.0.113
688,-1,-100,-100,-100,"0,0,0",1,-3,4,0,0,0,59,62,85,70,100,-13.86,13,0.0,27.0,-954.0,11:43:03.567615,192.168.0.113
692,-1,-100,-100,-100,"0,0,0",1,-1,4,0,0,0,59,61,84,70,100,-13.84,13,37.0,41.0,-942.0,11:43:03.669495,192.168.0.113
698,-1,-100,-100,-100,"0,0,0",2,-3,4,0,0,0,59,61,83,70,100,-13.71,13,0.0,74.0,-985.0,11:43:03.771639,192.168.0.113
703,-1,-100,-100,-100,"0,0,0",2,-4,3,0,0,0,59,61,82,70,100,-13.7,13,-6.0,52.0,-1060.0,11:43:03.873731,192.168.0.113
708,-1,-100,-100,-100,"0,0,0",2,-4,3,0,0,0,59,61,82,70,100,-13.92,13,0.0,29.0,-1016.0,11:43:03.975675,192.168.0.113
713,-1,-100,-100,-100,"0,0,0",2,-4,3,0,0,0,59,61,82,70,100,-13.88,14,9.0,47.0,-1030.0,11:43:04.077389,192.168.0.113
718,-1,-100,-100,-100,"0,0,0",2,-5,4,0,0,0,59,61,83,70,100,-13.91,14,9.0,34.0,-988.0,11:43:04.179540,192.168.0.113
723,-1,-100,-100,-100,"0,0,0",2,-3,4,0,0,0,59,61,83,70,100,-13.78,14,13.0,38.0,-938.0,11:43:04.281511,192.168.0.113
725,-1,-100,-100,-100,"0,0,0",2,-2,4,0,0,0,59,61,83,70,100,-13.74,14,16.0,59.0,-1010.0,11:43:04.332516,192.168.0.113
730,-1,-100,-100,-100,"0,0,0",1,-3,3,0,0,0,59,61,83,70,100,-13.99,14,-3.0,50.0,-1032.0,11:43:04.434555,192.168.0.113
735,-1,-100,-100,-100,"0,0,0",1,-4,3,0,0,0,59,61,83,70,100,-13.93,14,-6.0,8.0,-989.0,11:43:04.536484,192.168.0.113
740,-1,-100,-100,-100,"0,0,0",1,-3,3,0,1,0,59,61,83,70,100,-13.86,14,12.0,37.0,-998.0,11:43:04.638471,192.168.0.113
746,-1,-100,-100,-100,"0,0,0",1,-2,3,0,1,0,59,61,84,70,100,-13.8,14,16.0,46.0,-1004.0,11:43:04.743188,192.168.0.113
750,-1,-100,-100,-100,"0,0,0",2,-2,3,0,1,0,59,61,84,70,100,-13.89,14,30.0,35.0,-1002.0,11:43:04.842450,192.168.0.113
755,-1,-100,-100,-100,"0,0,0",2,-3,3,0,1,0,59,61,84,70,100,-13.92,14,28.0,24.0,-981.0,11:43:04.944381,192.168.0.113
760,-1,-100,-100,-100,"0,0,0",2,-3,3,0,1,0,59,61,83,70,100,-13.82,15,29.0,9.0,-999.0,11:43:05.046834,192.168.0.113
765,-1,-100,-100,-100,"0,0,0",3,-2,3,0,1,0,59,61,83,70,100,-13.77,15,49.0,4.0,-974.0,11:43:05.149098,192.168.0.113
770,-1,-100,-100,-100,"0,0,0",3,-1,3,0,1,0,59,61,83,70,100,-13.76,15,21.0,-34.0,-964.0,11:43:05.250985,192.168.0.113
775,-1,-100,-100,-100,"0,0,0",3,0,3,0,1,0,59,61,82,70,100,-13.85,15,23.0,-27.0,-993.0,11:43:05.352365,192.168.0.113
780,-1,-100,-100,-100,"0,0,0",3,0,3,0,2,0,59,61,81,70,100,-13.86,15,-5.0,-2.0,-996.0,11:43:05.454175,192.168.0.113
785,-1,-100,-100,-100,"0,0,0",2,1,4,0,2,0,59,61,81,70,100,-13.82,15,2.0,-21.0,-1015.0,11:43:05.556331,192.168.0.113
790,-1,-100,-100,-100,"0,0,0",2,1,3,0,1,0,60,62,81,70,100,-13.87,15,8.0,-31.0,-1025.0,11:43:05.658404,192.168.0.113
796,-1,-100,-100,-100,"0,0,0",2,1,3,1,1,0,60,62,81,70,100,-13.88,15,10.0,-5.0,-993.0,11:43:05.760892,192.168.0.113
802,-1,-100,-100,-100,"0,0,0",2,0,3,1,1,0,60,62,81,70,100,-14.0,15,10.0,11.0,-1003.0,11:43:05.863079,192.168.0.113
807,-1,-100,-100,-100,"0,0,0",1,0,3,1,0,0,60,62,82,70,100,-14.0,15,17.0,-5.0,-1021.0,11:43:05.965236,192.168.0.113
812,-1,-100,-100,-100,"0,0,0",0,-1,3,1,0,0,60,62,82,70,100,-13.99,16,-14.0,28.0,-1034.0,11:43:06.067354,192.168.0.113
817,-1,-100,-100,-100,"0,0,0",1,-1,3,1,1,0,60,62,81,70,100,-13.97,16,24.0,29.0,-980.0,11:43:06.169299,192.168.0.113
822,-1,-100,-100,-100,"0,0,0",1,0,3,1,1,0,60,62,81,70,100,-14.0,16,-3.0,-14.0,-1026.0,11:43:06.271282,192.168.0.113
827,-1,-100,-100,-100,"0,0,0",1,0,4,1,1,0,60,62,81,70,100,-14.04,16,10.0,-8.0,-1035.0,11:43:06.373932,192.168.0.113
832,-1,-100,-100,-100,"0,0,0",1,0,4,1,1,0,60,62,82,70,100,-14.02,16,6.0,-17.0,-993.0,11:43:06.475222,192.168.0.113
837,-1,-100,-100,-100,"0,0,0",0,0,4,1,0,0,60,62,82,70,100,-14.02,16,-4.0,-30.0,-1026.0,11:43:06.577251,192.168.0.113
842,-1,-100,-100,-100,"0,0,0",1,1,4,1,0,0,60,63,82,70,100,-13.87,16,28.0,7.0,-990.0,11:43:06.679817,192.168.0.113
847,-1,-100,-100,-100,"0,0,0",1,0,4,0,0,0,60,63,81,70,100,-13.96,16,-11.0,-13.0,-975.0,11:43:06.781233,192.168.0.113
852,-1,-100,-100,-100,"0,0,0",1,0,4,1,0,0,60,63,82,70,100,-13.89,16,11.0,10.0,-1009.0,11:43:06.882980,192.168.0.113
857,-1,-100,-100,-100,"0,0,0",1,0,4,1,0,0,60,63,81,70,100,-13.98,16,-3.0,9.0,-1015.0,11:43:06.985022,192.168.0.113
862,-1,-100,-100,-100,"0,0,0",0,0,4,0,0,0,60,63,81,70,100,-13.96,17,-15.0,2.0,-991.0,11:43:07.087047,192.168.0.113
868,-1,-100,-100,-100,"0,0,0",0,0,4,0,0,0,60,63,81,70,100,-14.02,17,-21.0,9.0,-1018.0,11:43:07.189187,192.168.0.113
873,-1,-100,-100,-100,"0,0,0",0,-1,4,0,0,0,60,63,81,70,100,-13.98,17,3.0,-17.0,-982.0,11:43:07.291147,192.168.0.113
878,-1,-100,-100,-100,"0,0,0",0,-1,4,0,0,0,60,63,80,70,100,-14.08,17,-17.0,3.0,-1004.0,11:43:07.393127,192.168.0.113
883,-1,-100,-100,-100,"0,0,0",0,-1,4,0,0,0,60,63,81,70,100,-14.02,17,-9.0,20.0,-1004.0,11:43:07.495027,192.168.0.113
888,-1,-100,-100,-100,"0,0,0",0,0,4,0,0,0,60,63,81,70,100,-13.99,17,20.0,0.0,-945.0,11:43:07.597088,192.168.0.113
893,-1,-100,-100,-100,"0,0,0",1,0,4,0,0,0,60,63,81,70,100,-13.91,17,10.0,35.0,-1001.0,11:43:07.699075,192.168.0.113
898,-1,-100,-100,-100,"0,0,0",1,-1,4,0,0,0,60,63,80,70,100,-14.0,17,26.0,25.0,-1006.0,11:43:07.801254,192.168.0.113
900,-1,-100,-100,-100,"0,0,0",1,-3,4,0,0,0,60,63,81,70,100,-14.02,17,5.0,16.0,-992.0,11:43:07.852148,192.168.0.113
905,-1,-100,-100,-100,"0,0,0",2,-3,4,0,0,0,60,63,80,70,100,-13.99,17,1.0,33.0,-1006.0,11:43:07.953828,192.168.0.113
910,-1,-100,-100,-100,"0,0,0",2,-2,4,0,0,0,60,63,80,70,100,-13.93,18,-2.0,44.0,-980.0,11:43:08.055703,192.168.0.113
915,-1,-100,-100,-100,"0,0,0",2,-2,4,0,0,0,60,63,80,70,100,-13.91,18,21.0,51.0,-1006.0,11:43:08.158069,192.168.0.113
920,-1,-100,-100,-100,"0,0,0",1,-3,4,0,0,0,60,63,79,70,100,-13.83,18,10.0,4.0,-1069.0,11:43:08.259995,192.168.0.113
925,-1,-100,-100,-100,"0,0,0",1,-4,4,0,0,0,60,63,80,70,100,-13.83,18,-5.0,45.0,-1004.0,11:43:08.362093,192.168.0.113
930,-1,-100,-100,-100,"0,0,0",2,-3,4,0,0,0,60,63,80,70,100,-13.82,18,-9.0,29.0,-997.0,11:43:08.464112,192.168.0.113
935,-1,-100,-100,-100,"0,0,0",2,-3,4,0,0,0,60,63,79,70,100,-14.11,18,-24.0,43.0,-1000.0,11:43:08.565894,192.168.0.113
940,-1,-100,-100,-100,"0,0,0",1,-3,4,1,0,0,60,62,79,70,100,-14.03,18,-21.0,56.0,-1024.0,11:43:08.667938,192.168.0.113
946,-1,-100,-100,-100,"0,0,0",0,-3,4,1,0,0,60,62,78,70,100,-14.06,18,-43.0,38.0,-1052.0,11:43:08.769899,192.168.0.113
951,-1,-100,-100,-100,"0,0,0",0,-3,4,0,0,0,60,62,78,70,100,-14.05,18,-5.0,14.0,-1020.0,11:43:08.871937,192.168.0.113
957,-1,-100,-100,-100,"0,0,0",0,-2,4,1,0,0,60,62,78,70,100,-13.97,18,1.0,3.0,-1007.0,11:43:08.973884,192.168.0.113
962,-1,-100,-100,-100,"0,0,0",0,-2,4,1,0,0,60,62,77,70,100,-14.08,19,-26.0,10.0,-1033.0,11:43:09.075855,192.168.0.113
967,-1,-100,-100,-100,"0,0,0",0,-1,4,0,1,0,60,62,78,70,100,-14.11,19,-32.0,10.0,-1020.0,11:43:09.177557,192.168.0.113
972,-1,-100,-100,-100,"0,0,0",0,-1,4,1,1,0,60,62,78,70,100,-14.17,19,-27.0,0.0,-995.0,11:43:09.279703,192.168.0.113
977,-1,-100,-100,-100,"0,0,0",0,-1,4,1,1,0,60,62,78,70,100,-14.03,19,-13.0,0.0,-1010.0,11:43:09.381891,192.168.0.113
982,-1,-100,-100,-100,"0,0,0",0,-1,4,0,1,0,60,62,78,70,100,-14.03,19,-5.0,-30.0,-985.0,11:43:09.483914,192.168.0.113
987,-1,-100,-100,-100,"0,0,0",0,-1,4,0,1,0,60,62,79,70,100,-14.06,19,-17.0,12.0,-1008.0,11:43:09.585711,192.168.0.113
992,-1,-100,-100,-100,"0,0,0",0,0,4,0,1,0,60,64,78,70,100,-14.12,19,-36.0,-2.0,-1032.0,11:43:09.687852,192.168.0.113
997,-1,-100,-100,-100,"0,0,0",0,0,4,0,1,0,60,64,78,70,100,-14.12,19,-5.0,-37.0,-967.0,11:43:09.789831,192.168.0.113
1002,-1,-100,-100,-100,"0,0,0",0,0,4,0,1,0,60,64,78,70,100,-14.15,19,-5.0,17.0,-1005.0,11:43:09.891583,192.168.0.113
1007,-1,-100,-100,-100,"0,0,0",0,0,4,0,0,0,60,64,78,70,100,-14.09,19,-25.0,14.0,-1037.0,11:43:09.993701,192.168.0.113
1013,-1,-100,-100,-100,"0,0,0",0,0,4,0,0,0,60,64,78,70,100,-13.99,20,-16.0,-2.0,-994.0,11:43:10.095803,192.168.0.113
1018,-1,-100,-100,-100,"0,0,0",0,0,4,0,0,0,60,64,77,70,100,-14.13,20,-25.0,43.0,-1027.0,11:43:10.197711,192.168.0.113
1023,-1,-100,-100,-100,"0,0,0",0,-1,4,0,0,0,60,64,77,70,100,-14.1,20,-1.0,50.0,-1024.0,11:43:10.300028,192.168.0.113
1028,-1,-100,-100,-100,"0,0,0",0,-2,4,0,0,0,60,64,76,70,100,-13.94,20,5.0,67.0,-1005.0,11:43:10.401512,192.168.0.113
1033,-1,-100,-100,-100,"0,0,0",0,-3,4,0,0,0,60,64,77,70,100,-14.0,20,11.0,55.0,-977.0,11:43:10.503387,192.168.0.113
1038,-1,-100,-100,-100,"0,0,0",0,-4,4,0,0,0,60,64,78,70,100,-13.88,20,-23.0,31.0,-1039.0,11:43:10.605583,192.168.0.113
1043,-1,-100,-100,-100,"0,0,0",0,-4,3,0,0,0,60,63,78,70,100,-13.65,20,-21.0,8.0,-1005.0,11:43:10.707650,192.168.0.113
1048,-1,-100,-100,-100,"0,0,0",0,-5,3,0,0,0,60,63,77,70,100,-13.56,20,-33.0,-20.0,-1025.0,11:43:10.809630,192.168.0.113
1053,-1,-100,-100,-100,"0,0,0",0,-3,3,0,0,0,60,63,78,70,100,-13.69,20,-32.0,16.0,-988.0,11:43:10.911540,192.168.0.113
1058,-1,-100,-100,-100,"0,0,0",0,-1,4,0,1,0,60,63,78,70,100,-13.62,20,-4.0,-2.0,-973.0,11:43:11.013571,192.168.0.113
1063,-1,-100,-100,-100,"0,0,0",0,0,4,0,1,0,60,63,79,70,100,-13.72,21,-21.0,16.0,-1001.0,11:43:11.116974,192.168.0.113
1068,-1,-100,-100,-100,"0,0,0",0,0,4,0,0,0,60,63,79,70,100,-13.84,21,-36.0,33.0,-1041.0,11:43:11.217543,192.168.0.113
1070,-1,-100,-100,-100,"0,0,0",0,-1,4,0,0,0,60,63,79,70,100,-14.0,21,0.0,32.0,-1006.0,11:43:11.269082,192.168.0.113
1075,-1,-100,-100,-100,"0,0,0",0,-1,3,0,0,0,60,63,79,70,100,-14.24,21,-4.0,12.0,-1022.0,11:43:11.372093,192.168.0.113
1080,-1,-100,-100,-100,"0,0,0",0,0,3,0,0,0,60,63,80,70,100,-14.18,21,3.0,1.0,-1002.0,11:43:11.473981,192.168.0.113
1085,-1,-100,-100,-100,"0,0,0",0,0,3,0,0,0,60,63,80,70,100,-14.33,21,-5.0,22.0,-994.0,11:43:11.575550,192.168.0.113
1090,-1,-100,-100,-100,"0,0,0",1,-1,4,0,0,0,61,63,82,70,100,-14.48,21,-9.0,29.0,-1007.0,11:43:11.769622,192.168.0.113
1095,-1,-100,-100,-100,"0,0,0",1,-1,4,0,0,0,61,63,82,70,100,-14.48,21,10.0,9.0,-972.0,11:43:11.779605,192.168.0.113
1100,-1,-100,-100,-100,"0,0,0",0,-1,4,0,0,0,61,63,82,70,100,-14.55,21,2.0,-13.0,-1003.0,11:43:11.976199,192.168.0.113
1105,-1,-100,-100,-100,"0,0,0",0,-1,4,0,0,0,61,63,83,70,100,-14.36,21,-6.0,4.0,-996.0,11:43:11.984472,192.168.0.113
1110,-1,-100,-100,-100,"0,0,0",1,0,4,0,0,0,61,63,82,70,100,-14.5,22,6.0,28.0,-1005.0,11:43:12.182241,192.168.0.113
1116,-1,-100,-100,-100,"0,0,0",0,0,4,0,0,0,61,63,82,70,100,-14.41,22,-16.0,6.0,-985.0,11:43:12.188715,192.168.0.113
1121,-1,-100,-100,-100,"0,0,0",0,-2,4,0,0,0,61,63,82,70,100,-14.33,22,-29.0,38.0,-977.0,11:43:12.291098,192.168.0.113
1127,-1,-100,-100,-100,"0,0,0",1,-1,4,0,0,0,61,63,82,70,100,-14.39,22,-31.0,48.0,-1036.0,11:43:12.394192,192.168.0.113
1132,-1,-100,-100,-100,"0,0,0",0,-1,4,0,0,0,61,63,82,70,100,-14.35,22,-15.0,40.0,-961.0,11:43:12.589055,192.168.0.113
1137,-1,-100,-100,-100,"0,0,0",0,-2,4,0,0,0,61,63,82,70,100,-14.24,22,-34.0,58.0,-1007.0,11:43:12.595317,192.168.0.113
1142,-1,-100,-100,-100,"0,0,0",0,-3,4,0,0,0,61,63,81,70,100,-14.16,22,-27.0,55.0,-1055.0,11:43:12.794511,192.168.0.113
1147,-1,-100,-100,-100,"0,0,0",0,-4,4,0,0,0,61,63,81,70,100,-14.12,22,2.0,56.0,-1011.0,11:43:12.799347,192.168.0.113
1152,-1,-100,-100,-100,"0,0,0",0,-4,4,0,0,0,61,63,81,70,100,-14.45,22,-13.0,33.0,-1036.0,11:43:13.000300,192.168.0.113
1157,-1,-100,-100,-100,"0,0,0",0,-4,3,0,0,0,61,63,81,70,100,-14.47,22,-12.0,12.0,-979.0,11:43:13.003249,192.168.0.113
1162,-1,-100,-100,-100,"0,0,0",0,-4,3,0,0,0,61,63,81,70,100,-14.48,23,-52.0,-5.0,-1040.0,11:43:13.206104,192.168.0.113
1167,-1,-100,-100,-100,"0,0,0",0,-2,4,0,0,0,61,63,81,70,100,-14.31,23,-27.0,35.0,-992.0,11:43:13.207016,192.168.0.113
1172,-1,-100,-100,-100,"0,0,0",0,-1,3,0,0,0,61,63,82,70,100,-14.46,23,-43.0,-15.0,-985.0,11:43:13.413302,192.168.0.113
1177,-1,-100,-100,-100,"0,0,0",-1,-2,3,0,1,0,61,63,82,70,100,-14.35,23,-25.0,-25.0,-1007.0,11:43:13.414192,192.168.0.113
1182,-1,-100,-100,-100,"0,0,0",-1,0,3,0,1,0,61,63,81,70,100,-14.44,23,5.0,24.0,-985.0,11:43:13.622947,192.168.0.113
1187,-1,-100,-100,-100,"0,0,0",-1,0,3,0,1,0,61,63,81,70,100,-14.39,23,1.0,24.0,-985.0,11:43:13.623970,192.168.0.113
1192,-1,-100,-100,-100,"0,0,0",0,0,3,0,0,0,60,63,82,70,100,-14.35,23,-11.0,13.0,-1022.0,11:43:13.828729,192.168.0.113
1197,-1,-100,-100,-100,"0,0,0",1,0,3,0,0,0,60,63,82,70,100,-14.4,23,-17.0,-2.0,-1017.0,11:43:13.829678,192.168.0.113
1203,-1,-100,-100,-100,"0,0,0",0,-1,3,0,0,0,60,63,82,70,100,-14.53,23,-32.0,12.0,-993.0,11:43:13.920552,192.168.0.113
1208,-1,-100,-100,-100,"0,0,0",0,-1,3,0,0,0,60,63,82,70,100,-14.6,23,-57.0,0.0,-998.0,11:43:14.023212,192.168.0.113
1213,-1,-100,-100,-100,"0,0,0",0,-1,3,0,0,0,60,63,82,70,100,-14.58,24,-57.0,-7.0,-990.0,11:43:14.125446,192.168.0.113
1218,-1,-100,-100,-100,"0,0,0",0,0,3,0,1,0,60,63,82,70,100,-14.48,24,-49.0,-25.0,-1009.0,11:43:14.227145,192.168.0.113
1223,-1,-100,-100,-100,"0,0,0",0,0,3,0,1,0,60,63,83,70,100,-14.49,24,5.0,-11.0,-965.0,11:43:14.330110,192.168.0.113
1228,-1,-100,-100,-100,"0,0,0",-1,0,3,0,1,0,60,63,83,70,100,-14.56,24,-18.0,19.0,-997.0,11:43:14.431044,192.168.0.113
1230,-1,-100,-100,-100,"0,0,0",0,1,3,0,0,0,60,63,83,70,100,-14.53,24,-5.0,12.0,-983.0,11:43:14.482116,192.168.0.113
1235,-1,-100,-100,-100,"0,0,0",0,0,3,0,0,0,60,63,83,70,100,-14.53,24,0.0,0.0,-1009.0,11:43:14.584162,192.168.0.113
1240,-1,-100,-100,-100,"0,0,0",0,0,3,0,0,0,62,63,83,70,100,-14.51,24,0.0,-30.0,-978.0,11:43:14.686116,192.168.0.113
1245,-1,-100,-100,-100,"0,0,0",0,-1,3,0,0,0,62,63,83,70,100,-13.99,24,-29.0,-47.0,-1002.0,11:43:14.788082,192.168.0.113
1250,-1,-100,-100,-100,"0,0,0",0,-1,3,0,0,0,62,63,82,70,100,-14.38,24,-23.0,-21.0,-972.0,11:43:14.889649,192.168.0.113
1255,-1,-100,-100,-100,"0,0,0",0,1,4,0,1,0,62,63,82,70,100,-14.01,24,-24.0,-17.0,-1029.0,11:43:14.991839,192.168.0.113
1260,-1,-100,-100,-100,"0,0,0",0,1,4,0,0,0,62,63,82,70,100,-14.01,25,-14.0,16.0,-983.0,11:43:15.094021,192.168.0.113
1265,-1,-100,-100,-100,"0,0,0",0,0,4,0,0,0,62,63,82,70,100,-14.01,25,-3.0,-11.0,-1018.0,11:43:15.196075,192.168.0.113
1270,-1,-100,-100,-100,"0,0,0",0,0,4,0,0,0,62,63,82,70,100,-14.07,25,-8.0,7.0,-1027.0,11:43:15.298020,192.168.0.113
1276,-1,-100,-100,-100,"0,0,0",0,0,4,0,0,0,62,63,82,70,100,-14.02,25,1.0,22.0,-993.0,11:43:15.402702,192.168.0.113
1280,-1,-100,-100,-100,"0,0,0",0,0,4,0,0,0,62,63,82,70,100,-13.94,25,13.0,35.0,-956.0,11:43:15.501901,192.168.0.113
1286,-1,-100,-100,-100,"0,0,0",0,0,4,0,0,0,62,63,82,70,100,-14.09,25,1.0,34.0,-1000.0,11:43:15.604038,192.168.0.113
1291,-1,-100,-100,-100,"0,0,0",1,-1,4,0,0,0,61,64,83,70,100,-14.14,25,13.0,45.0,-971.0,11:43:15.705941,192.168.0.113
1296,-1,-100,-100,-100,"0,0,0",1,-3,3,0,0,0,61,64,82,70,100,-14.27,25,-6.0,41.0,-1015.0,11:43:15.808046,192.168.0.113
1302,-1,-100,-100,-100,"0,0,0",0,-3,4,0,0,0,61,64,82,70,100,-14.23,25,-15.0,12.0,-1018.0,11:43:15.909835,192.168.0.113
1307,-1,-100,-100,-100,"0,0,0",0,-1,4,0,0,0,61,64,82,70,100,-14.08,25,-11.0,-31.0,-1056.0,11:43:16.011340,192.168.0.113
1312,-1,-100,-100,-100,"0,0,0",0,0,4,0,0,0,61,64,83,70,100,-14.07,26,-6.0,1.0,-968.0,11:43:16.113705,192.168.0.113
1317,-1,-100,-100,-100,"0,0,0",0,0,4,0,0,0,61,64,83,70,100,-14.02,26,7.0,-19.0,-994.0,11:43:16.218395,192.168.0.113
1322,-1,-100,-100,-100,"0,0,0",0,0,4,0,0,0,61,64,82,70,100,-14.09,26,4.0,-5.0,-990.0,11:43:16.317951,192.168.0.113
1327,-1,-100,-100,-100,"0,0,0",1,0,4,0,0,0,61,64,82,70,100,-14.14,26,18.0,3.0,-990.0,11:43:16.419622,192.168.0.113
1332,-1,-100,-100,-100,"0,0,0",1,-1,4,0,0,0,61,64,82,70,100,-14.13,26,22.0,16.0,-1025.0,11:43:16.521768,192.168.0.113
1337,-1,-100,-100,-100,"0,0,0",1,0,4,0,0,0,61,64,82,70,100,-14.15,26,22.0,0.0,-1013.0,11:43:16.624066,192.168.0.113
1342,-1,-100,-100,-100,"0,0,0",1,-1,4,0,0,0,61,65,82,70,100,-14.18,26,19.0,38.0,-1005.0,11:43:16.725854,192.168.0.113
1347,-1,-100,-100,-100,"0,0,0",1,-1,4,0,0,0,61,65,82,70,100,-14.11,26,-1.0,25.0,-1013.0,11:43:16.827729,192.168.0.113
1352,-1,-100,-100,-100,"0,0,0",1,-1,4,0,0,0,61,65,81,70,100,-14.2,26,-11.0,-3.0,-1008.0,11:43:16.929740,192.168.0.113
1357,-1,-100,-100,-100,"0,0,0",0,-1,4,0,0,0,61,65,81,70,100,-14.17,26,12.0,17.0,-1009.0,11:43:17.031863,192.168.0.113
1362,-1,-100,-100,-100,"0,0,0",0,-1,4,0,0,0,61,65,81,70,100,-14.06,27,-3.0,2.0,-996.0,11:43:17.133615,192.168.0.113
1368,-1,-100,-100,-100,"0,0,0",0,-1,4,0,0,0,61,65,81,70,100,-14.06,27,12.0,11.0,-991.0,11:43:17.236223,192.168.0.113
1373,-1,-100,-100,-100,"0,0,0",1,-1,4,0,0,0,61,65,81,70,100,-14.13,27,0.0,36.0,-969.0,11:43:17.337544,192.168.0.113
1378,-1,-100,-100,-100,"0,0,0",1,-2,4,0,0,0,61,65,81,70,100,-14.3,27,29.0,31.0,-1012.0,11:43:17.439693,192.168.0.113
1383,-1,-100,-100,-100,"0,0,0",1,-3,3,0,0,0,61,65,81,70,100,-14.22,27,11.0,41.0,-1022.0,11:43:17.541583,192.168.0.113
1385,-1,-100,-100,-100,"0,0,0",1,-3,3,0,0,0,61,65,81,70,100,-14.36,27,-2.0,17.0,-998.0,11:43:17.592633,192.168.0.113
1393,-1,-100,-100,-100,"0,0,0",1,-2,3,0,0,0,62,65,80,70,100,-14.16,27,-1.0,14.0,-999.0,11:43:17.745597,192.168.0.113
1398,-1,-100,-100,-100,"0,0,0",1,-2,3,0,0,0,62,65,80,70,100,-14.15,27,-4.0,-11.0,-986.0,11:43:17.847650,192.168.0.113
1400,-1,-100,-100,-100,"0,0,0",1,-1,3,0,0,0,62,65,80,70,100,-14.2,27,4.0,-11.0,-1014.0,11:43:17.898607,192.168.0.113
1405,-1,-100,-100,-100,"0,0,0",0,0,3,0,1,0,62,65,80,70,100,-14.16,27,-16.0,2.0,-997.0,11:43:18.001349,192.168.0.113
1410,-1,-100,-100,-100,"0,0,0",0,0,4,0,1,0,62,65,79,70,100,-14.11,28,-14.0,-10.0,-1018.0,11:43:18.102617,192.168.0.113
1415,-1,-100,-100,-100,"0,0,0",0,0,4,0,1,0,62,65,80,70,100,-14.15,28,-11.0,0.0,-1011.0,11:43:18.204466,192.168.0.113
1420,-1,-100,-100,-100,"0,0,0",0,0,4,0,0,0,62,65,80,70,100,-14.21,28,14.0,-33.0,-986.0,11:43:18.306553,192.168.0.113
1425,-1,-100,-100,-100,"0,0,0",0,0,4,0,0,0,62,65,80,70,100,-14.15,28,26.0,-9.0,-990.0,11:43:18.408409,192.168.0.113
1430,-1,-100,-100,-100,"0,0,0",0,0,4,0,1,0,62,65,80,70,100,-14.22,28,-4.0,7.0,-999.0,11:43:18.510927,192.168.0.113
1435,-1,-100,-100,-100,"0,0,0",0,1,4,0,0,0,62,65,80,70,100,-14.19,28,28.0,-9.0,-1011.0,11:43:18.612561,192.168.0.113
1440,-1,-100,-100,-100,"0,0,0",1,0,4,0,0,0,62,65,81,70,100,-14.21,28,-11.0,17.0,-998.0,11:43:18.714944,192.168.0.113
1445,-1,-100,-100,-100,"0,0,0",1,0,4,0,0,0,62,65,81,70,100,-14.08,28,10.0,40.0,-961.0,11:43:18.816645,192.168.0.113
1450,-1,-100,-100,-100,"0,0,0",1,0,4,0,0,0,62,65,81,70,100,-14.03,28,-1.0,34.0,-1011.0,11:43:18.918458,192.168.0.113
1455,-1,-100,-100,-100,"0,0,0",2,-2,4,0,0,0,62,65,81,70,100,-14.24,29,5.0,4.0,-1044.0,11:43:19.019982,192.168.0.113
1461,-1,-100,-100,-100,"0,0,0",2,-2,4,0,0,0,62,65,82,70,100,-14.22,29,-1.0,29.0,-1023.0,11:43:19.122345,192.168.0.113
1466,-1,-100,-100,-100,"0,0,0",1,-1,4,0,0,0,62,65,81,70,100,-14.18,29,10.0,16.0,-996.0,11:43:19.224401,192.168.0.113
1471,-1,-100,-100,-100,"0,0,0",1,-1,4,0,0,0,62,65,81,70,100,-14.18,29,9.0,17.0,-996.0,11:43:19.326270,192.168.0.113
1476,-1,-100,-100,-100,"0,0,0",1,-2,4,0,0,0,62,65,80,70,100,-14.28,29,-1.0,-8.0,-1031.0,11:43:19.428226,192.168.0.113
1481,-1,-100,-100,-100,"0,0,0",0,-1,4,0,0,0,62,65,81,70,100,-14.17,29,16.0,-12.0,-1010.0,11:43:19.530358,192.168.0.113
1486,-1,-100,-100,-100,"0,0,0",0,0,5,0,0,0,62,65,81,70,100,-14.05,29,27.0,10.0,-991.0,11:43:19.632401,192.168.0.113
1492,-1,-100,-100,-100,"0,0,0",0,0,5,0,0,0,62,64,81,70,100,-13.89,29,36.0,30.0,-943.0,11:43:19.734365,192.168.0.113
1497,-1,-100,-100,-100,"0,0,0",1,-1,4,0,0,0,62,64,81,70,100,-14.18,29,27.0,29.0,-996.0,11:43:19.836353,192.168.0.113
1502,-1,-100,-100,-100,"0,0,0",1,-2,4,0,0,0,62,64,80,70,100,-14.29,29,14.0,36.0,-1034.0,11:43:19.938284,192.168.0.113
1507,-1,-100,-100,-100,"0,0,0",1,-3,4,0,0,0,62,64,80,70,100,-14.37,30,-9.0,31.0,-1030.0,11:43:20.040468,192.168.0.113
1512,-1,-100,-100,-100,"0,0,0",0,-2,4,0,0,0,62,64,80,70,100,-14.29,30,6.0,19.0,-1010.0,11:43:20.143013,192.168.0.113
1517,-1,-100,-100,-100,"0,0,0",0,-1,4,0,0,0,62,64,79,70,100,-14.28,30,11.0,15.0,-990.0,11:43:20.244337,192.168.0.113
1522,-1,-100,-100,-100,"0,0,0",0,-2,4,0,0,0,62,64,79,70,100,-14.27,30,-1.0,1.0,-1000.0,11:43:20.346394,192.168.0.113
1527,-1,-100,-100,-100,"0,0,0",0,-2,4,0,0,0,62,64,79,70,100,-14.17,30,4.0,10.0,-1024.0,11:43:20.447747,192.168.0.113
1532,-1,-100,-100,-100,"0,0,0",0,0,5,0,0,0,62,64,79,70,100,-14.05,30,18.0,32.0,-981.0,11:43:20.549762,192.168.0.113
1537,-1,-100,-100,-100,"0,0,0",1,-1,5,0,0,0,62,64,79,70,100,-14.25,30,3.0,6.0,-976.0,11:43:20.652194,192.168.0.113
1542,-1,-100,-100,-100,"0,0,0",0,-1,5,0,0,0,62,65,79,70,100,-14.17,30,33.0,11.0,-995.0,11:43:20.754213,192.168.0.113
1548,-1,-100,-100,-100,"0,0,0",1,0,5,0,0,0,62,65,79,70,100,-14.14,30,38.0,9.0,-965.0,11:43:20.856227,192.168.0.113
1553,-1,-100,-100,-100,"0,0,0",1,-1,4,0,0,0,62,65,78,70,100,-14.23,30,19.0,20.0,-1027.0,11:43:20.957647,192.168.0.113
1558,-1,-100,-100,-100,"0,0,0",2,-1,4,0,0,0,62,65,77,70,100,-14.26,31,1.0,27.0,-1070.0,11:43:21.059850,192.168.0.113
1563,-1,-100,-100,-100,"0,0,0",1,-1,4,0,0,0,62,65,77,70,100,-14.11,31,6.0,37.0,-1044.0,11:43:21.162031,192.168.0.113
1568,-1,-100,-100,-100,"0,0,0",0,-1,4,0,0,0,62,65,77,70,100,-14.21,31,39.0,33.0,-1000.0,11:43:21.264298,192.168.0.113
1570,-1,-100,-100,-100,"0,0,0",1,-1,4,0,0,0,62,65,78,70,100,-14.26,31,25.0,23.0,-981.0,11:43:21.315243,192.168.0.113
1575,-1,-100,-100,-100,"0,0,0",1,-2,4,0,0,0,62,65,78,70,100,-14.24,31,3.0,29.0,-992.0,11:43:21.417684,192.168.0.113
1580,-1,-100,-100,-100,"0,0,0",1,-3,4,0,0,0,62,65,78,70,100,-14.41,31,-38.0,14.0,-1023.0,11:43:21.518556,192.168.0.113
1585,-1,-100,-100,-100,"0,0,0",0,-1,4,0,0,0,62,65,78,70,100,-14.3,31,16.0,16.0,-925.0,11:43:21.621117,192.168.0.113
1590,-1,-100,-100,-100,"0,0,0",0,-1,4,0,0,0,62,64,78,70,100,-14.09,31,12.0,31.0,-948.0,11:43:21.722931,192.168.0.113
1595,-1,-100,-100,-100,"0,0,0",0,-1,4,0,0,0,62,64,79,70,100,-14.17,31,11.0,38.0,-990.0,11:43:21.824881,192.168.0.113
1600,-1,-100,-100,-100,"0,0,0",1,-2,4,0,0,0,62,64,79,70,100,-14.16,31,4.0,59.0,-1027.0,11:43:21.927027,192.168.0.113
1605,-1,-100,-100,-100,"0,0,0",1,-2,4,0,0,0,62,64,80,70,100,-14.2,32,50.0,43.0,-1016.0,11:43:22.028570,192.168.0.113
1610,-1,-100,-100,-100,"0,0,0",1,-2,4,0,0,0,62,64,81,70,100,-14.23,32,7.0,68.0,-1001.0,11:43:22.131157,192.168.0.113
1615,-1,-100,-100,-100,"0,0,0",2,-3,3,0,0,0,62,64,81,70,100,-14.31,32,6.0,59.0,-1042.0,11:43:22.233744,192.168.0.113
1620,-1,-100,-100,-100,"0,0,0",1,-3,3,0,0,0,62,64,82,70,100,-14.31,32,-3.0,47.0,-1011.0,11:43:22.335708,192.168.0.113
1625,-1,-100,-100,-100,"0,0,0",0,-3,3,0,0,0,62,64,81,70,100,-14.23,32,0.0,22.0,-997.0,11:43:22.437315,192.168.0.113
1630,-1,-100,-100,-100,"0,0,0",0,-3,3,0,0,0,62,64,82,70,100,-14.26,32,-4.0,23.0,-979.0,11:43:22.539045,192.168.0.113
1635,-1,-100,-100,-100,"0,0,0",0,-2,3,0,0,0,62,64,82,70,100,-14.29,32,-5.0,29.0,-1000.0,11:43:22.640974,192.168.0.113
1641,-1,-100,-100,-100,"0,0,0",0,-2,3,0,0,0,63,64,82,70,100,-14.25,32,-8.0,16.0,-984.0,11:43:22.742737,192.168.0.113
1647,-1,-100,-100,-100,"0,0,0",0,-1,3,0,0,0,63,64,82,70,100,-14.24,32,-17.0,10.0,-996.0,11:43:22.846963,192.168.0.113
1651,-1,-100,-100,-100,"0,0,0",0,0,3,0,0,0,63,64,81,70,100,-14.18,32,27.0,27.0,-989.0,11:43:22.946793,192.168.0.113
1657,-1,-100,-100,-100,"0,0,0",0,-1,3,0,0,0,63,64,81,70,100,-14.21,33,-5.0,15.0,-974.0,11:43:23.048976,192.168.0.113
1662,-1,-100,-100,-100,"0,0,0",0,-1,3,0,0,0,63,64,81,70,100,-14.22,33,20.0,18.0,-984.0,11:43:23.150832,192.168.0.113
1667,-1,-100,-100,-100,"0,0,0",0,-1,3,0,0,0,63,64,81,70,100,-14.22,33,10.0,46.0,-984.0,11:43:23.253545,192.168.0.113
1672,-1,-100,-100,-100,"0,0,0",0,-1,3,0,0,0,63,64,80,70,100,-14.28,33,-6.0,-4.0,-975.0,11:43:23.354918,192.168.0.113
1677,-1,-100,-100,-100,"0,0,0",0,-1,3,0,1,0,63,64,80,70,100,-14.3,33,4.0,-40.0,-1009.0,11:43:23.456749,192.168.0.113
1682,-1,-100,-100,-100,"0,0,0",0,0,4,0,1,0,63,64,81,70,100,-14.22,33,3.0,-15.0,-1043.0,11:43:23.558886,192.168.0.113
1687,-1,-100,-100,-100,"0,0,0",0,2,4,0,1,0,63,64,82,70,100,-14.02,33,0.0,40.0,-947.0,11:43:23.660741,192.168.0.113
1692,-1,-100,-100,-100,"0,0,0",0,2,4,0,0,0,62,65,81,70,100,-14.21,33,1.0,27.0,-957.0,11:43:23.762263,192.168.0.113
1697,-1,-100,-100,-100,"0,0,0",0,0,4,0,0,0,62,65,81,70,100,-14.15,33,-8.0,33.0,-1046.0,11:43:23.864536,192.168.0.113
1702,-1,-100,-100,-100,"0,0,0",0,-1,4,0,0,0,62,65,81,70,100,-14.13,33,-15.0,9.0,-1035.0,11:43:23.966838,192.168.0.113
1707,-1,-100,-100,-100,"0,0,0",0,-2,3,0,0,0,62,65,80,70,100,-14.19,34,-33.0,24.0,-1020.0,11:43:24.069237,192.168.0.113
1712,-1,-100,-100,-100,"0,0,0",0,-2,3,0,0,0,62,65,81,70,100,-14.25,34,-64.0,7.0,-1006.0,11:43:24.170739,192.168.0.113
1717,-1,-100,-100,-100,"0,0,0",-1,-1,3,0,0,0,62,65,82,70,100,-14.22,34,-49.0,29.0,-1021.0,11:43:24.272960,192.168.0.113
1723,-1,-100,-100,-100,"0,0,0",-2,0,3,0,0,0,62,65,82,70,100,-14.19,34,-17.0,0.0,-981.0,11:43:24.374632,192.168.0.113
1728,-1,-100,-100,-100,"0,0,0",-1,0,4,0,0,0,62,65,83,70,100,-14.18,34,-27.0,9.0,-1029.0,11:43:24.476557,192.168.0.113
1733,-1,-100,-100,-100,"0,0,0",0,0,4,0,0,0,62,65,83,70,100,-14.14,34,-19.0,36.0,-945.0,11:43:24.578639,192.168.0.113
1735,-1,-100,-100,-100,"0,0,0",0,0,4,0,0,0,62,65,83,70,100,-14.08,34,-6.0,12.0,-1000.0,11:43:24.629674,192.168.0.113
1743,-1,-100,-100,-100,"0,0,0",0,-1,4,0,0,0,62,65,83,70,100,-14.24,34,-27.0,-14.0,-1033.0,11:43:24.783062,192.168.0.113
1745,-1,-100,-100,-100,"0,0,0",0,-1,4,0,0,0,62,65,83,70,100,-14.0,34,-20.0,11.0,-1008.0,11:43:24.833700,192.168.0.113
1750,-1,-100,-100,-100,"0,0,0",0,0,4,0,0,0,62,65,84,70,100,-14.04,34,7.0,30.0,-977.0,11:43:24.935631,192.168.0.113
1755,-1,-100,-100,-100,"0,0,0",0,0,4,0,0,0,62,65,84,70,100,-14.08,35,0.0,44.0,-980.0,11:43:25.037526,192.168.0.113
1760,-1,-100,-100,-100,"0,0,0",0,0,4,0,0,0,62,65,84,70,100,-14.07,35,-9.0,35.0,-982.0,11:43:25.139735,192.168.0.113
1765,-1,-100,-100,-100,"0,0,0",0,-1,4,0,0,0,62,65,84,70,100,-14.12,35,-10.0,38.0,-994.0,11:43:25.241559,192.168.0.113
1770,-1,-100,-100,-100,"0,0,0",0,-2,4,0,0,0,62,65,84,70,100,-14.09,35,-6.0,28.0,-997.0,11:43:25.343611,192.168.0.113
1775,-1,-100,-100,-100,"0,0,0",0,-2,4,0,0,0,62,65,83,70,100,-13.93,35,0.0,33.0,-1011.0,11:43:25.445163,192.168.0.113
1780,-1,-100,-100,-100,"0,0,0",0,-3,4,0,0,0,62,65,84,70,100,-14.03,35,-20.0,19.0,-1002.0,11:43:25.547672,192.168.0.113
1785,-1,-100,-100,-100,"0,0,0",0,-1,3,0,0,0,62,65,84,70,100,-14.05,35,-10.0,44.0,-1013.0,11:43:25.649540,192.168.0.113
1790,-1,-100,-100,-100,"0,0,0",0,-2,4,0,0,0,62,65,83,70,100,-14.04,35,2.0,20.0,-998.0,11:43:25.751826,192.168.0.113
1795,-1,-100,-100,-100,"0,0,0",0,-2,3,0,0,0,62,65,83,70,100,-14.11,35,-8.0,41.0,-982.0,11:43:25.853610,192.168.0.113
1800,-1,-100,-100,-100,"0,0,0",0,-2,3,0,0,0,62,65,82,70,100,-14.09,35,-16.0,36.0,-1009.0,11:43:25.955513,192.168.0.113
1806,-1,-100,-100,-100,"0,0,0",0,-2,4,0,0,0,62,65,83,70,100,-14.03,36,-2.0,46.0,-1007.0,11:43:26.057460,192.168.0.113
1811,-1,-100,-100,-100,"0,0,0",0,-2,4,0,0,0,62,65,82,70,100,-14.11,36,-6.0,35.0,-1016.0,11:43:26.160332,192.168.0.113
1817,-1,-100,-100,-100,"0,0,0",0,-2,4,0,0,0,62,65,83,70,100,-14.15,36,-26.0,41.0,-1009.0,11:43:26.261540,192.168.0.113
1821,-1,-100,-100,-100,"0,0,0",0,-1,4,0,0,0,62,65,83,70,100,-13.91,36,4.0,20.0,-990.0,11:43:26.363465,192.168.0.113
1826,-1,-100,-100,-100,"0,0,0",0,-1,4,0,0,0,62,65,82,70,100,-14.02,36,-23.0,28.0,-1013.0,11:43:26.465451,192.168.0.113
1831,-1,-100,-100,-100,"0,0,0",0,-1,4,0,0,0,62,65,82,70,100,-14.09,36,-1.0,21.0,-981.0,11:43:26.569000,192.168.0.113
1837,-1,-100,-100,-100,"0,0,0",0,-1,4,0,0,0,62,65,82,70,100,-14.06,36,0.0,19.0,-988.0,11:43:26.669486,192.168.0.113
1842,-1,-100,-100,-100,"0,0,0",0,-1,4,0,0,0,63,66,82,70,100,-14.02,36,-9.0,13.0,-972.0,11:43:26.771504,192.168.0.113
1847,-1,-100,-100,-100,"0,0,0",0,-1,5,0,0,0,63,66,82,70,100,-14.07,36,13.0,8.0,-986.0,11:43:26.873410,192.168.0.113
1852,-1,-100,-100,-100,"0,0,0",0,0,5,0,0,0,63,66,82,70,100,-14.07,36,6.0,29.0,-1003.0,11:43:26.975302,192.168.0.113
1857,-1,-100,-100,-100,"0,0,0",0,0,5,0,0,0,63,66,81,70,100,-14.16,37,-36.0,17.0,-984.0,11:43:27.077254,192.168.0.113
1862,-1,-100,-100,-100,"0,0,0",0,-1,5,0,0,0,63,66,81,70,100,-14.12,37,-10.0,6.0,-995.0,11:43:27.179169,192.168.0.113
1867,-1,-100,-100,-100,"0,0,0",0,-1,4,0,0,0,63,66,81,70,100,-14.04,37,-10.0,5.0,-1048.0,11:43:27.281379,192.168.0.113
1872,-1,-100,-100,-100,"0,0,0",0,0,4,0,0,0,63,66,81,70,100,-14.08,37,37.0,1.0,-1032.0,11:43:27.383207,192.168.0.113
1877,-1,-100,-100,-100,"0,0,0",0,0,4,0,0,0,63,66,81,70,100,-14.09,37,9.0,16.0,-1008.0,11:43:27.485367,192.168.0.113
1883,-1,-100,-100,-100,"0,0,0",0,0,4,0,0,0,63,66,81,70,100,-14.06,37,19.0,6.0,-1017.0,11:43:27.587695,192.168.0.113
1888,-1,-100,-100,-100,"0,0,0",0,0,4,0,0,0,63,66,82,70,100,-14.12,37,33.0,2.0,-988.0,11:43:27.689796,192.168.0.113
1893,-1,-100,-100,-100,"0,0,0",0,0,4,0,0,0,63,66,82,70,100,-14.06,37,28.0,6.0,-964.0,11:43:27.791483,192.168.0.113
1898,-1,-100,-100,-100,"0,0,0",1,0,4,0,0,0,63,66,81,70,100,-13.99,37,34.0,15.0,-996.0,11:43:27.893361,192.168.0.113
1903,-1,-100,-100,-100,"0,0,0",1,0,4,0,0,0,63,66,82,70,100,-14.02,37,38.0,22.0,-1024.0,11:43:27.995184,192.168.0.113
1908,-1,-100,-100,-100,"0,0,0",2,0,4,0,0,0,63,66,82,70,100,-14.13,38,19.0,16.0,-984.0,11:43:28.097227,192.168.0.113
1913,-1,-100,-100,-100,"0,0,0",2,0,4,0,0,0,63,66,83,70,100,-14.12,38,35.0,17.0,-998.0,11:43:28.198811,192.168.0.113
1915,-1,-100,-100,-100,"0,0,0",1,0,4,0,0,0,63,66,83,70,100,-14.05,38,25.0,14.0,-988.0,11:43:28.250127,192.168.0.113
1920,-1,-100,-100,-100,"0,0,0",2,-1,4,0,0,0,63,66,83,70,100,-14.01,38,16.0,23.0,-995.0,11:43:28.352226,192.168.0.113
1925,-1,-100,-100,-100,"0,0,0",2,-1,3,0,0,0,63,66,82,70,100,-14.07,38,31.0,18.0,-1005.0,11:43:28.454210,192.168.0.113
1930,-1,-100,-100,-100,"0,0,0",2,-1,3,0,0,0,63,66,83,70,100,-14.15,38,5.0,45.0,-1004.0,11:43:28.556352,192.168.0.113
1935,-1,-100,-100,-100,"0,0,0",1,-1,3,0,0,0,63,66,83,70,100,-14.05,38,16.0,31.0,-971.0,11:43:28.658214,192.168.0.113
1940,-1,-100,-100,-100,"0,0,0",1,-1,3,0,0,0,63,65,82,70,100,-14.04,38,13.0,23.0,-1002.0,11:43:28.760214,192.168.0.113
1945,-1,-100,-100,-100,"0,0,0",1,-2,4,0,0,0,63,65,83,70,100,-14.1,38,5.0,33.0,-1013.0,11:43:28.862127,192.168.0.113
1950,-1,-100,-100,-100,"0,0,0",1,-2,4,0,0,0,63,65,82,70,100,-14.02,38,6.0,14.0,-1013.0,11:43:28.964222,192.168.0.113
1955,-1,-100,-100,-100,"0,0,0",1,-2,4,0,0,0,63,65,82,70,100,-14.0,39,2.0,23.0,-1011.0,11:43:29.066069,192.168.0.113
1960,-1,-100,-100,-100,"0,0,0",0,-2,4,0,0,0,63,65,81,70,100,-14.21,39,13.0,14.0,-985.0,11:43:29.168414,192.168.0.113
1965,-1,-100,-100,-100,"0,0,0",0,-1,4,0,0,0,63,65,81,70,100,-14.1,39,21.0,36.0,-999.0,11:43:29.270213,192.168.0.113
1970,-1,-100,-100,-100,"0,0,0",0,-1,4,0,0,0,63,65,81,70,100,-13.97,39,35.0,33.0,-1022.0,11:43:29.372312,192.168.0.113
1975,-1,-100,-100,-100,"0,0,0",0,-1,4,0,0,0,63,65,81,70,100,-14.03,39,11.0,23.0,-988.0,11:43:29.474982,192.168.0.113
1980,-1,-100,-100,-100,"0,0,0",0,0,4,0,0,0,63,65,81,70,100,-14.02,39,14.0,35.0,-985.0,11:43:29.576070,192.168.0.113
1985,-1,-100,-100,-100,"0,0,0",1,-1,3,0,0,0,63,65,82,70,100,-14.06,39,0.0,31.0,-984.0,11:43:29.678144,192.168.0.113
1991,-1,-100,-100,-100,"0,0,0",1,-1,3,0,0,0,63,66,81,70,100,-14.12,39,-2.0,27.0,-987.0,11:43:29.780066,192.168.0.113
1996,-1,-100,-100,-100,"0,0,0",0,-1,3,0,0,0,63,66,81,70,100,-14.01,39,37.0,9.0,-989.0,11:43:29.882007,192.168.0.113
2001,-1,-100,-100,-100,"0,0,0",0,-1,3,0,0,0,63,66,81,70,100,-14.05,39,41.0,10.0,-989.0,11:43:29.983972,192.168.0.113
2007,-1,-100,-100,-100,"0,0,0",1,-1,3,0,0,0,63,66,80,70,100,-14.03,40,11.0,19.0,-1010.0,11:43:30.085962,192.168.0.113
2012,-1,-100,-100,-100,"0,0,0",1,-1,3,0,0,0,63,66,80,70,100,-14.1,40,28.0,6.0,-1006.0,11:43:30.188032,192.168.0.113
2017,-1,-100,-100,-100,"0,0,0",0,-1,3,0,0,0,63,66,80,70,100,-14.04,40,0.0,25.0,-1006.0,11:43:30.289937,192.168.0.113
2022,-1,-100,-100,-100,"0,0,0",0,-1,4,0,0,0,63,66,80,70,100,-14.09,40,3.0,7.0,-997.0,11:43:30.391618,192.168.0.113
2027,-1,-100,-100,-100,"0,0,0",0,-1,4,0,0,0,63,66,79,70,100,-14.07,40,18.0,-4.0,-1007.0,11:43:30.493732,192.168.0.113
2032,-1,-100,-100,-100,"0,0,0",0,-1,4,0,0,0,63,66,80,70,100,-14.18,40,1.0,26.0,-1003.0,11:43:30.595900,192.168.0.113
2038,-1,-100,-100,-100,"0,0,0",0,0,4,0,0,0,63,66,80,70,100,-14.14,40,29.0,-12.0,-1004.0,11:43:30.701592,192.168.0.113
2042,-1,-100,-100,-100,"0,0,0",0,0,4,0,0,0,63,65,82,70,100,-14.07,40,35.0,-6.0,-986.0,11:43:30.800439,192.168.0.113
2047,-1,-100,-100,-100,"0,0,0",0,0,4,0,0,0,63,65,81,70,100,-14.16,40,41.0,-7.0,-988.0,11:43:30.902078,192.168.0.113
2052,-1,-100,-100,-100,"0,0,0",1,0,4,0,0,0,63,65,81,70,100,-14.16,40,26.0,8.0,-985.0,11:43:31.007294,192.168.0.113
2057,-1,-100,-100,-100,"0,0,0",1,0,4,0,0,0,63,65,82,70,100,-14.05,41,23.0,-10.0,-1033.0,11:43:31.105864,192.168.0.113
2063,-1,-100,-100,-100,"0,0,0",0,0,4,0,0,0,63,65,81,70,100,-14.13,41,17.0,32.0,-1014.0,11:43:31.208710,192.168.0.113
2068,-1,-100,-100,-100,"0,0,0",1,0,4,0,0,0,63,65,81,70,100,-14.01,41,33.0,16.0,-997.0,11:43:31.309835,192.168.0.113
2073,-1,-100,-100,-100,"0,0,0",1,0,4,0,0,0,63,65,82,70,100,-13.99,41,12.0,1.0,-967.0,11:43:31.412067,192.168.0.113
2078,-1,-100,-100,-100,"0,0,0",1,0,4,0,0,0,63,65,82,70,100,-13.96,41,13.0,-4.0,-977.0,11:43:31.513615,192.168.0.113
2083,-1,-100,-100,-100,"0,0,0",2,0,4,0,0,0,63,65,82,70,100,-13.95,41,20.0,22.0,-1013.0,11:43:31.615566,192.168.0.113
2085,-1,-100,-100,-100,"0,0,0",1,0,4,0,0,0,63,65,82,70,100,-13.94,41,31.0,15.0,-983.0,11:43:31.666554,192.168.0.113
2093,-1,-100,-100,-100,"0,0,0",1,-1,4,0,0,0,63,66,82,70,100,-13.92,41,28.0,-22.0,-998.0,11:43:31.819821,192.168.0.113
2098,-1,-100,-100,-100,"0,0,0",1,-1,4,0,0,0,63,66,82,70,100,-14.05,41,15.0,0.0,-1007.0,11:43:31.921688,192.168.0.113
2100,-1,-100,-100,-100,"0,0,0",1,0,4,0,0,0,63,66,82,70,100,-14.01,41,31.0,11.0,-994.0,11:43:31.972771,192.168.0.113
2105,-1,-100,-100,-100,"0,0,0",1,0,4,0,0,0,63,66,82,70,100,-14.1,42,14.0,3.0,-1013.0,11:43:32.074647,192.168.0.113
2110,-1,-100,-100,-100,"0,0,0",2,0,4,0,0,0,63,66,82,70,100,-13.92,42,4.0,21.0,-989.0,11:43:32.176630,192.168.0.113
2115,-1,-100,-100,-100,"0,0,0",1,0,4,0,0,0,63,66,81,70,100,-13.76,42,33.0,5.0,-1001.0,11:43:32.279149,192.168.0.113
2120,-1,-100,-100,-100,"0,0,0",1,0,5,0,0,0,63,66,82,70,100,-13.82,42,61.0,-19.0,-995.0,11:43:32.380690,192.168.0.113
2125,-1,-100,-100,-100,"0,0,0",1,1,5,0,0,0,63,66,81,70,100,-13.86,42,60.0,15.0,-933.0,11:43:32.482702,192.168.0.113
2130,-1,-100,-100,-100,"0,0,0",2,0,5,0,0,0,63,66,81,70,100,-13.82,42,55.0,27.0,-995.0,11:43:32.584714,192.168.0.113
2135,-1,-100,-100,-100,"0,0,0",2,0,5,0,0,0,63,66,80,70,100,-13.78,42,52.0,27.0,-952.0,11:43:32.686582,192.168.0.113
2140,-1,-100,-100,-100,"0,0,0",1,-2,5,0,0,0,63,66,79,70,100,-13.8,42,67.0,25.0,-1033.0,11:43:32.788550,192.168.0.113
2145,-1,-100,-100,-100,"0,0,0",2,-2,5,0,0,0,63,66,78,70,100,-13.86,42,73.0,21.0,-974.0,11:43:32.890541,192.168.0.113
2150,-1,-100,-100,-100,"0,0,0",2,-2,4,0,0,0,63,66,78,70,100,-13.85,42,55.0,49.0,-1037.0,11:43:32.992568,192.168.0.113
2157,-1,-100,-100,-100,"0,0,0",2,-2,4,0,0,0,63,66,77,60,100,-14.04,43,20.0,41.0,-1042.0,11:43:33.094700,192.168.0.113
2162,-1,-100,-100,-100,"0,0,0",2,-3,3,0,0,0,63,66,78,60,100,-14.06,43,28.0,31.0,-1046.0,11:43:33.196657,192.168.0.113
2167,-1,-100,-100,-100,"0,0,0",2,-3,3,0,0,0,63,66,79,70,100,-13.91,43,29.0,24.0,-1002.0,11:43:33.298532,192.168.0.113
2172,-1,-100,-100,-100,"0,0,0",2,-2,3,0,0,0,63,66,79,70,100,-13.88,43,25.0,10.0,-1013.0,11:43:33.400491,192.168.0.113
2177,-1,-100,-100,-100,"0,0,0",1,-2,4,0,0,0,63,66,81,70,100,-14.01,43,25.0,-1.0,-976.0,11:43:33.502548,192.168.0.113
2182,-1,-100,-100,-100,"0,0,0",2,-1,4,0,0,0,63,66,81,70,100,-13.88,43,-12.0,2.0,-943.0,11:43:33.604582,192.168.0.113
2187,-1,-100,-100,-100,"0,0,0",1,-2,4,0,0,0,63,66,81,70,100,-13.78,43,41.0,-32.0,-1022.0,11:43:33.706435,192.168.0.113
2192,-1,-100,-100,-100,"0,0,0",1,0,4,0,0,0,64,66,82,70,100,-13.95,43,39.0,24.0,-957.0,11:43:33.808383,192.168.0.113
2197,-1,-100,-100,-100,"0,0,0",0,0,4,0,0,0,64,66,81,70,100,-13.81,43,21.0,31.0,-1020.0,11:43:33.910447,192.168.0.113
2202,-1,-100,-100,-100,"0,0,0",0,-1,4,0,0,0,64,66,81,70,100,-13.76,43,6.0,19.0,-980.0,11:43:34.012417,192.168.0.113
2207,-1,-100,-100,-100,"0,0,0",0,-1,4,0,0,0,64,66,81,70,100,-13.77,44,-18.0,33.0,-997.0,11:43:34.114595,192.168.0.113
2212,-1,-100,-100,-100,"0,0,0",0,-1,5,0,0,0,64,66,80,70,100,-13.76,44,-7.0,13.0,-985.0,11:43:34.216349,192.168.0.113
2218,-1,-100,-100,-100,"0,0,0",0,0,4,0,0,0,64,66,80,70,100,-13.73,44,54.0,-34.0,-938.0,11:43:34.318331,192.168.0.113
2223,-1,-100,-100,-100,"0,0,0",0,0,4,0,0,0,64,66,80,70,100,-13.82,44,35.0,-12.0,-1008.0,11:43:34.420909,192.168.0.113
2228,-1,-100,-100,-100,"0,0,0",0,0,4,0,0,0,64,66,79,70,100,-13.73,44,-3.0,11.0,-1003.0,11:43:34.522396,192.168.0.113
2233,-1,-100,-100,-100,"0,0,0",0,0,4,0,0,0,64,66,79,70,100,-13.73,44,27.0,-7.0,-1019.0,11:43:34.624313,192.168.0.113
2238,-1,-100,-100,-100,"0,0,0",1,0,4,0,0,0,64,66,78,70,100,-13.79,44,7.0,-12.0,-978.0,11:43:34.726519,192.168.0.113
2243,-1,-100,-100,-100,"0,0,0",0,0,4,0,0,0,64,65,78,70,100,-13.89,44,27.0,-11.0,-1087.0,11:43:34.828159,192.168.0.113
2248,-1,-100,-100,-100,"0,0,0",0,0,4,0,0,0,64,65,79,70,100,-13.88,44,10.0,9.0,-1055.0,11:43:34.930299,192.168.0.113
2253,-1,-100,-100,-100,"0,0,0",0,0,3,0,0,0,64,65,79,70,100,-13.87,44,9.0,-2.0,-1036.0,11:43:35.032295,192.168.0.113
2255,-1,-100,-100,-100,"0,0,0",0,0,3,0,0,0,64,65,81,70,100,-13.86,45,26.0,-2.0,-997.0,11:43:35.083279,192.168.0.113
2260,-1,-100,-100,-100,"0,0,0",0,0,3,0,0,0,64,65,81,70,100,-13.83,45,18.0,3.0,-988.0,11:43:35.185307,192.168.0.113
2265,-1,-100,-100,-100,"0,0,0",1,0,4,0,0,0,64,65,82,70,100,-13.7,45,48.0,-4.0,-968.0,11:43:35.287239,192.168.0.113
2270,-1,-100,-100,-100,"0,0,0",1,0,4,0,0,0,64,65,82,70,100,-13.68,45,43.0,0.0,-1001.0,11:43:35.388751,192.168.0.113
2275,-1,-100,-100,-100,"0,0,0",1,0,4,0,0,0,64,65,82,70,100,-13.71,45,52.0,1.0,-978.0,11:43:35.491115,192.168.0.113
2280,-1,-100,-100,-100,"0,0,0",2,0,4,0,0,0,64,65,82,70,100,-13.73,45,55.0,-23.0,-1005.0,11:43:35.593239,192.168.0.113
2285,-1,-100,-100,-100,"0,0,0",2,0,4,0,0,0,64,65,82,70,100,-13.81,45,47.0,-11.0,-994.0,11:43:35.695379,192.168.0.113
2290,-1,-100,-100,-100,"0,0,0",3,0,4,0,0,0,64,65,82,70,100,-13.86,45,57.0,-11.0,-1006.0,11:43:35.797196,192.168.0.113
2295,-1,-100,-100,-100,"0,0,0",2,0,4,0,0,0,64,65,82,70,100,-13.93,45,17.0,2.0,-978.0,11:43:35.899257,192.168.0.113
2300,-1,-100,-100,-100,"0,0,0",2,0,3,0,0,0,64,65,82,70,100,-13.85,45,36.0,-15.0,-1050.0,11:43:36.000968,192.168.0.113
2305,-1,-100,-100,-100,"0,0,0",2,0,3,0,0,0,64,65,82,70,100,-13.91,46,20.0,10.0,-1014.0,11:43:36.103052,192.168.0.113
2311,-1,-100,-100,-100,"0,0,0",2,0,3,0,0,0,64,65,82,70,100,-13.82,46,34.0,7.0,-995.0,11:43:36.205086,192.168.0.113
2316,-1,-100,-100,-100,"0,0,0",2,0,3,0,0,0,64,65,83,70,100,-14.03,46,11.0,20.0,-975.0,11:43:36.307147,192.168.0.113
2321,-1,-100,-100,-100,"0,0,0",2,0,4,0,0,0,64,65,82,70,100,-13.86,46,10.0,17.0,-990.0,11:43:36.409078,192.168.0.113
2326,-1,-100,-100,-100,"0,0,0",1,-1,3,0,0,0,64,65,82,70,100,-13.94,46,11.0,17.0,-982.0,11:43:36.511016,192.168.0.113
2330,-1,-100,-100,-100,"0,0,0",1,-1,3,0,0,0,64,65,81,70,100,-13.92,46,29.0,-10.0,-987.0,11:43:36.613128,192.168.0.113
2336,-1,-100,-100,-100,"0,0,0",1,0,3,0,0,0,64,65,81,70,100,-13.94,46,21.0,-2.0,-990.0,11:43:36.715169,192.168.0.113
2342,-1,-100,-100,-100,"0,0,0",1,0,3,0,0,0,63,67,81,70,100,-13.93,46,1.0,1.0,-963.0,11:43:36.817467,192.168.0.113
2347,-1,-100,-100,-100,"0,0,0",1,0,3,0,0,0,63,67,80,70,100,-13.7,46,29.0,-34.0,-985.0,11:43:36.919377,192.168.0.113
2352,-1,-100,-100,-100,"0,0,0",0,0,3,0,0,0,63,67,79,70,100,-13.74,46,-3.0,-27.0,-1010.0,11:43:37.020985,192.168.0.113
2357,-1,-100,-100,-100,"0,0,0",0,0,3,0,0,0,63,67,79,70,100,-13.81,47,0.0,-33.0,-986.0,11:43:37.122832,192.168.0.113
2362,-1,-100,-100,-100,"0,0,0",0,0,3,0,0,0,63,67,78,70,100,-13.91,47,3.0,-43.0,-1015.0,11:43:37.224925,192.168.0.113
2367,-1,-100,-100,-100,"0,0,0",0,2,3,0,1,0,63,67,77,70,100,-13.93,47,-49.0,-20.0,-1031.0,11:43:37.326883,192.168.0.113
2372,-1,-100,-100,-100,"0,0,0",-1,2,3,0,0,0,63,67,77,70,100,-13.92,47,-15.0,-9.0,-1018.0,11:43:37.429115,192.168.0.113
2377,-1,-100,-100,-100,"0,0,0",0,3,4,0,0,0,63,67,77,70,100,-14.08,47,-19.0,-2.0,-1029.0,11:43:37.530993,192.168.0.113
2383,-1,-100,-100,-100,"0,0,0",-1,1,4,1,0,0,63,67,77,70,100,-13.93,47,-3.0,-20.0,-1011.0,11:43:37.632874,192.168.0.113
2388,-1,-100,-100,-100,"0,0,0",-1,0,4,0,0,0,63,67,77,70,100,-13.96,47,6.0,-34.0,-1008.0,11:43:37.734888,192.168.0.113
2393,-1,-100,-100,-100,"0,0,0",-1,2,4,0,0,0,63,67,76,70,100,-13.97,47,6.0,-7.0,-995.0,11:43:37.837239,192.168.0.113
2398,-1,-100,-100,-100,"0,0,0",0,2,4,0,0,0,63,67,76,70,100,-13.88,47,-4.0,-26.0,-1041.0,11:43:37.938844,192.168.0.113
2403,-1,-100,-100,-100,"0,0,0",0,1,4,0,0,0,63,67,76,70,100,-13.85,48,18.0,-33.0,-994.0,11:43:38.040841,192.168.0.113
2408,-1,-100,-100,-100,"0,0,0",0,1,4,0,0,0,63,67,75,70,100,-13.81,48,14.0,-46.0,-989.0,11:43:38.142878,192.168.0.113
2413,-1,-100,-100,-100,"0,0,0",0,2,4,0,0,0,63,67,76,70,100,-13.73,48,-16.0,-30.0,-1009.0,11:43:38.244800,192.168.0.113
2418,-1,-100,-100,-100,"0,0,0",0,2,4,0,0,0,63,67,75,60,100,-13.87,48,6.0,-27.0,-1061.0,11:43:38.346746,192.168.0.113
2423,-1,-100,-100,-100,"0,0,0",0,2,4,0,0,0,63,67,75,60,100,-13.83,48,3.0,-10.0,-970.0,11:43:38.449125,192.168.0.113
2425,-1,-100,-100,-100,"0,0,0",0,1,4,0,0,0,63,67,75,60,100,-13.69,48,-7.0,15.0,-998.0,11:43:38.499685,192.168.0.113
2430,-1,-100,-100,-100,"0,0,0",0,0,4,0,0,0,63,67,75,60,100,-13.87,48,8.0,0.0,-987.0,11:43:38.601830,192.168.0.113
2435,-1,-100,-100,-100,"0,0,0",0,0,4,0,-1,0,63,67,75,60,100,-13.79,48,-30.0,27.0,-944.0,11:43:38.703935,192.168.0.113
2440,-1,-100,-100,-100,"0,0,0",0,0,4,0,-1,0,64,67,75,60,100,-14.05,48,-42.0,16.0,-1025.0,11:43:38.805861,192.168.0.113
2445,-1,-100,-100,-100,"0,0,0",0,-1,4,0,-1,0,64,67,75,60,100,-13.92,48,-44.0,33.0,-988.0,11:43:38.907839,192.168.0.113
2450,-1,-100,-100,-100,"0,0,0",-1,-1,4,0,-1,0,64,67,75,60,100,-13.92,49,-40.0,33.0,-989.0,11:43:39.009818,192.168.0.113
2455,-1,-100,-100,-100,"0,0,0",-2,-2,4,0,-1,0,64,67,76,60,100,-13.99,49,-15.0,23.0,-1012.0,11:43:39.111945,192.168.0.113
2460,-1,-100,-100,-100,"0,0,0",-1,-2,4,0,-1,0,64,67,76,70,100,-13.97,49,-32.0,51.0,-1014.0,11:43:39.213734,192.168.0.113
2465,-1,-100,-100,-100,"0,0,0",-1,-3,4,0,0,0,64,67,76,70,100,-13.95,49,-39.0,4.0,-987.0,11:43:39.315707,192.168.0.113
2470,-1,-100,-100,-100,"0,0,0",-1,-2,4,0,0,0,64,67,77,70,100,-13.92,49,-12.0,28.0,-1007.0,11:43:39.417528,192.168.0.113
2475,-1,-100,-100,-100,"0,0,0",-1,-2,3,0,0,0,64,67,77,70,100,-13.84,49,-29.0,28.0,-975.0,11:43:39.519089,192.168.0.113
2480,-1,-100,-100,-100,"0,0,0",-1,-2,4,0,0,0,64,67,78,70,100,-13.93,49,-24.0,18.0,-977.0,11:43:39.621425,192.168.0.113
2485,-1,-100,-100,-100,"0,0,0",0,-2,4,0,0,0,64,67,78,70,100,-13.88,49,-11.0,13.0,-974.0,11:43:39.723600,192.168.0.113
2491,-1,-100,-100,-100,"0,0,0",0,-1,4,0,0,0,64,67,78,70,100,-13.85,49,-27.0,-6.0,-958.0,11:43:39.825684,192.168.0.113
2496,-1,-100,-100,-100,"0,0,0",0,0,4,0,0,0,64,67,78,70,100,-13.82,49,-43.0,7.0,-967.0,11:43:39.927093,192.168.0.113
2501,-1,-100,-100,-100,"0,0,0",0,0,4,0,0,0,64,67,78,70,100,-13.93,50,-67.0,-33.0,-1038.0,11:43:40.029531,192.168.0.113
2507,-1,-100,-100,-100,"0,0,0",-1,0,4,0,1,0,64,67,78,70,100,-13.77,50,-48.0,-36.0,-1018.0,11:43:40.131588,192.168.0.113
2512,-1,-100,-100,-100,"0,0,0",-2,2,4,0,1,0,64,67,78,70,100,-13.84,50,-73.0,-16.0,-1002.0,11:43:40.233546,192.168.0.113
2517,-1,-100,-100,-100,"0,0,0",-3,3,4,0,1,0,64,67,79,70,100,-13.95,50,-66.0,-7.0,-1001.0,11:43:40.335561,192.168.0.113
2522,-1,-100,-100,-100,"0,0,0",-3,2,4,0,0,0,64,67,79,70,100,-13.79,50,-18.0,-21.0,-1002.0,11:43:40.437485,192.168.0.113
2527,-1,-100,-100,-100,"0,0,0",-3,1,4,0,0,0,64,67,78,70,100,-13.8,50,-18.0,-20.0,-947.0,11:43:40.539578,192.168.0.113
2532,-1,-100,-100,-100,"0,0,0",-2,1,4,0,0,0,64,67,78,70,100,-13.96,50,-41.0,2.0,-1006.0,11:43:40.643197,192.168.0.113
2537,-1,-100,-100,-100,"0,0,0",-3,1,4,0,0,0,64,67,78,70,100,-13.82,50,-6.0,-18.0,-999.0,11:43:40.743650,192.168.0.113
2542,-1,-100,-100,-100,"0,0,0",-2,1,4,0,0,0,64,67,78,70,100,-13.74,50,-15.0,20.0,-980.0,11:43:40.845561,192.168.0.113
2547,-1,-100,-100,-100,"0,0,0",0,2,4,0,0,0,64,67,77,70,100,-13.7,50,-17.0,72.0,-1006.0,11:43:40.946930,192.168.0.113
2552,-1,-100,-100,-100,"0,0,0",0,0,4,0,-1,0,64,67,77,70,100,-13.79,51,23.0,14.0,-1008.0,11:43:41.049429,192.168.0.113
2557,-1,-100,-100,-100,"0,0,0",0,-2,4,0,-1,0,64,67,76,60,100,-13.77,51,-13.0,39.0,-1024.0,11:43:41.151516,192.168.0.113
