,mid,x,y,z,mpry,pitch,roll,yaw,vgx,vgy,vgz,templ,temph,tof,h,bat,baro,time,agx,agy,agz,timestamp,address
4,-1,-100,-100,-100,"0,0,0",0,0,-3,0,0,0,52,56,10,0,100,-14.46,0,5.0,-8.0,-1001.0,11:42:49.852790,192.168.0.111
9,-1,-100,-100,-100,"0,0,0",0,0,-3,0,0,0,52,56,10,0,100,-14.47,0,4.0,-9.0,-999.0,11:42:49.954880,192.168.0.111
14,-1,-100,-100,-100,"0,0,0",0,0,-3,0,0,0,52,56,10,0,100,-14.47,0,3.0,-9.0,-1000.0,11:42:50.057075,192.168.0.111
19,-1,-100,-100,-100,"0,0,0",0,0,-3,0,0,0,52,56,10,0,100,-14.47,0,6.0,-6.0,-999.0,11:42:50.159077,192.168.0.111
24,-1,-100,-100,-100,"0,0,0",0,0,-3,0,0,0,52,55,10,0,100,-14.47,0,3.0,0.0,-1002.0,11:42:50.261015,192.168.0.111
29,-1,-100,-100,-100,"0,0,0",0,0,-3,0,0,0,52,55,10,0,100,-14.47,0,-7.0,-1.0,-1003.0,11:42:50.363107,192.168.0.111
34,-1,-100,-100,-100,"0,0,0",0,0,-3,0,0,0,52,55,10,0,100,-14.47,0,-3.0,-11.0,-1162.0,11:42:50.464922,192.168.0.111
35,-1,-100,-100,-100,"0,0,0",1,0,-3,0,0,1,52,55,10,0,100,-14.47,0,-45.0,-29.0,-1417.0,11:42:50.516099,192.168.0.111
41,-1,-100,-100,-100,"0,0,0",0,0,-3,1,0,4,52,55,10,0,100,-14.47,0,-41.0,-31.0,-1256.0,11:42:50.618157,192.168.0.111
46,-1,-100,-100,-100,"0,0,0",-3,0,-3,1,0,7,52,55,10,0,100,-14.34,0,-52.0,-33.0,-1138.0,11:42:50.720208,192.168.0.111
51,-1,-100,-100,-100,"0,0,0",-2,1,-3,1,0,8,52,55,18,10,100,-14.24,0,-75.0,-13.0,-1000.0,11:42:50.822138,192.168.0.111
56,-1,-100,-100,-100,"0,0,0",-3,1,-3,1,0,8,52,55,29,20,100,-14.05,0,-64.0,6.0,-926.0,11:42:50.923959,192.168.0.111
61,-1,-100,-100,-100,"0,0,0",-4,0,-3,1,0,7,52,55,38,20,100,-13.95,1,-49.0,3.0,-914.0,11:42:51.026106,192.168.0.111
66,-1,-100,-100,-100,"0,0,0",-4,0,-3,1,0,6,52,55,46,30,100,-13.96,1,-50.0,0.0,-903.0,11:42:51.128305,192.168.0.111
71,-1,-100,-100,-100,"0,0,0",-4,0,-2,0,0,5,52,55,53,40,100,-13.99,1,-44.0,12.0,-875.0,11:42:51.230107,192.168.0.111
76,-1,-100,-100,-100,"0,0,0",-4,0,-3,0,0,4,52,55,59,40,100,-13.85,1,-68.0,4.0,-890.0,11:42:51.332180,192.168.0.111
82,3,-4,-4,43,"5,1,-178",-3,-1,-3,0,0,3,52,55,65,50,100,-13.89,1,-71.0,-17.0,-934.0,11:42:51.433640,192.168.0.111
87,3,-4,-4,43,"5,1,-178",-3,-1,-2,0,0,2,52,55,68,50,100,-13.8,1,-67.0,-13.0,-932.0,11:42:51.535992,192.168.0.111
92,3,-4,-4,43,"5,1,-178",-3,0,-2,0,0,2,52,55,72,50,100,-13.78,1,-58.0,-1.0,-924.0,11:42:51.638056,192.168.0.111
98,3,-4,-4,43,"5,1,-178",-4,0,-2,0,0,1,52,55,74,50,100,-13.73,1,-50.0,-14.0,-955.0,11:42:51.739874,192.168.0.111
103,3,-3,-5,66,"6,1,178",-3,0,-3,0,0,1,52,55,77,60,100,-13.81,1,-49.0,-13.0,-978.0,11:42:51.841945,192.168.0.111
108,3,-3,-5,66,"6,1,178",-3,0,-3,0,0,0,52,55,79,60,100,-13.75,1,-34.0,-27.0,-962.0,11:42:51.943695,192.168.0.111
113,3,-3,-5,66,"6,1,178",-3,0,-3,0,0,0,52,55,81,60,100,-13.75,2,-39.0,-20.0,-977.0,11:42:52.045589,192.168.0.111
118,3,-3,-5,66,"6,1,178",-2,0,-3,0,0,0,52,55,83,60,100,-13.7,2,-19.0,-20.0,-979.0,11:42:52.147974,192.168.0.111
122,3,-5,-5,79,"6,0,178",-2,0,-3,0,0,0,52,57,83,60,100,-13.64,2,-18.0,-29.0,-996.0,11:42:52.252731,192.168.0.111
128,3,-5,-5,79,"6,0,178",-1,1,-3,0,0,0,52,57,84,60,100,-13.63,2,-27.0,-18.0,-979.0,11:42:52.351882,192.168.0.111
134,3,-5,-5,79,"6,0,178",0,1,-3,0,0,0,52,57,85,70,100,-13.58,2,-7.0,-10.0,-972.0,11:42:52.453898,192.168.0.111
139,3,-3,-4,85,"5,1,179",0,1,-2,0,0,0,52,57,86,70,100,-13.5,2,-16.0,2.0,-959.0,11:42:52.560044,192.168.0.111
144,3,-3,-4,85,"5,1,179",0,1,-2,0,0,0,52,57,86,70,100,-13.42,2,-3.0,-1.0,-982.0,11:42:52.657936,192.168.0.111
149,3,-3,-4,85,"5,1,179",0,0,-3,0,0,0,52,57,86,70,100,-13.46,2,-13.0,5.0,-1005.0,11:42:52.759792,192.168.0.111
154,3,-3,-4,85,"5,1,179",0,0,-3,0,0,0,52,57,86,70,100,-13.54,2,-12.0,6.0,-1000.0,11:42:52.864641,192.168.0.111
159,3,-2,-6,89,"0,0,-177",0,0,-3,0,0,0,52,57,87,70,100,-13.63,2,-12.0,0.0,-994.0,11:42:52.963718,192.168.0.111
164,3,-2,-6,89,"0,0,-177",0,0,-3,0,0,0,52,57,86,70,100,-13.55,3,-7.0,6.0,-977.0,11:42:53.065715,192.168.0.111
166,3,-2,-6,89,"0,0,-177",0,0,-3,0,0,0,52,57,87,70,100,-13.52,3,-6.0,7.0,-976.0,11:42:53.116769,192.168.0.111
171,3,-2,-6,89,"0,0,-177",0,0,-3,0,0,0,53,56,86,70,100,-13.55,3,-17.0,12.0,-1007.0,11:42:53.218693,192.168.0.111
176,3,2,-7,89,"0,0,-179",0,-1,-3,0,0,0,53,56,86,70,100,-13.61,3,-25.0,8.0,-1003.0,11:42:53.320831,192.168.0.111
181,3,2,-7,89,"0,0,-179",0,-1,-3,0,0,0,53,56,86,70,100,-13.54,3,-33.0,17.0,-1009.0,11:42:53.424234,192.168.0.111
186,3,2,-7,89,"0,0,-179",0,-1,-3,0,0,0,53,56,86,70,100,-13.63,3,-21.0,6.0,-1022.0,11:42:53.524635,192.168.0.111
191,3,2,-7,89,"0,0,-179",0,-2,-2,0,0,0,53,56,85,70,100,-13.56,3,-7.0,15.0,-992.0,11:42:53.626776,192.168.0.111
196,3,4,-7,89,"0,0,178",0,-2,-2,0,0,0,53,56,85,70,100,-13.57,3,-3.0,20.0,-986.0,11:42:53.728342,192.168.0.111
201,3,4,-7,89,"0,0,178",0,-2,-2,0,0,0,53,56,85,70,100,-13.59,3,-12.0,16.0,-997.0,11:42:53.830559,192.168.0.111
207,3,4,-7,89,"0,0,178",0,-1,-2,0,0,0,53,56,84,70,100,-13.57,3,-6.0,-2.0,-992.0,11:42:53.932803,192.168.0.111
212,3,6,-12,87,"1,0,178",0,-1,-2,0,0,0,53,56,84,70,100,-13.74,4,-2.0,-20.0,-997.0,11:42:54.034913,192.168.0.111
217,3,6,-12,87,"1,0,178",0,0,-2,0,0,0,53,56,83,70,100,-13.64,4,7.0,3.0,-997.0,11:42:54.137016,192.168.0.111
222,3,6,-12,87,"1,0,178",0,0,-2,0,0,0,53,56,83,70,100,-13.6,4,7.0,-6.0,-1007.0,11:42:54.239174,192.168.0.111
228,3,6,-12,87,"1,0,178",0,0,-2,0,0,0,53,56,82,70,100,-13.59,4,10.0,21.0,-1003.0,11:42:54.340269,192.168.0.111
232,3,6,-15,85,"0,0,-179",0,0,-2,0,0,0,53,56,82,70,100,-13.62,4,20.0,4.0,-1013.0,11:42:54.442941,192.168.0.111
238,3,6,-15,85,"0,0,-179",0,0,-2,0,0,0,53,56,82,70,100,-13.68,4,7.0,-4.0,-990.0,11:42:54.544421,192.168.0.111
243,3,6,-15,85,"0,0,-179",0,0,-2,0,0,0,53,56,82,70,100,-13.7,4,13.0,1.0,-1001.0,11:42:54.646468,192.168.0.111
248,3,6,-15,85,"0,0,-179",0,0,-2,0,0,0,53,56,81,70,100,-13.48,4,12.0,1.0,-990.0,11:42:54.748334,192.168.0.111
253,3,7,-10,85,"0,0,178",1,0,-2,0,0,0,53,56,81,70,100,-13.64,4,23.0,9.0,-1016.0,11:42:54.850483,192.168.0.111
258,3,7,-10,85,"0,0,178",1,0,-2,0,0,0,53,56,82,60,100,-13.66,4,13.0,0.0,-985.0,11:42:54.952403,192.168.0.111
263,3,7,-10,85,"0,0,178",1,0,-2,0,0,0,53,56,82,60,100,-13.58,5,25.0,21.0,-983.0,11:42:55.054660,192.168.0.111
268,3,7,-10,85,"0,0,178",1,0,-2,0,0,0,53,56,81,60,100,-13.57,5,16.0,13.0,-978.0,11:42:55.157268,192.168.0.111
272,3,7,-16,82,"-1,0,-176",2,0,-2,0,0,0,53,57,81,60,100,-13.59,5,11.0,23.0,-986.0,11:42:55.258488,192.168.0.111
278,3,7,-16,82,"-1,0,-176",2,-1,-2,0,0,0,53,57,81,60,100,-13.58,5,-7.0,21.0,-991.0,11:42:55.360754,192.168.0.111
283,3,7,-16,82,"-1,0,-176",1,-1,-2,0,0,0,53,57,80,60,100,-13.43,5,19.0,0.0,-981.0,11:42:55.462255,192.168.0.111
287,3,9,-15,82,"-3,0,-177",1,-1,-2,0,0,0,53,57,80,60,100,-13.51,5,23.0,5.0,-993.0,11:42:55.564791,192.168.0.111
290,3,9,-15,82,"-3,0,-177",1,0,-2,0,0,0,53,57,79,60,100,-13.42,5,10.0,22.0,-999.0,11:42:55.615369,192.168.0.111
296,3,9,-15,82,"-3,0,-177",1,0,-2,0,0,0,53,57,79,60,100,-13.54,5,35.0,2.0,-1030.0,11:42:55.717285,192.168.0.111
301,3,9,-15,82,"-3,0,-177",0,-1,-2,0,0,0,53,57,79,60,100,-13.57,5,35.0,10.0,-1042.0,11:42:55.819490,192.168.0.111
306,3,10,-12,82,"-2,0,179",1,-1,-2,0,0,0,53,57,79,60,100,-13.65,5,32.0,14.0,-1003.0,11:42:55.921302,192.168.0.111
311,3,10,-12,82,"-2,0,179",2,-1,-2,0,0,0,53,57,80,60,100,-13.61,6,25.0,19.0,-1018.0,11:42:56.024149,192.168.0.111
316,3,10,-12,82,"-2,0,179",2,-1,-3,0,0,0,53,57,80,60,100,-13.65,6,18.0,27.0,-991.0,11:42:56.125258,192.168.0.111
321,3,10,-12,82,"-2,0,179",2,-1,-3,0,0,0,54,57,80,60,100,-13.57,6,35.0,31.0,-982.0,11:42:56.227281,192.168.0.111
326,3,14,-17,79,"0,0,-178",2,-1,-3,0,0,0,54,57,81,60,100,-13.64,6,23.0,36.0,-980.0,11:42:56.329374,192.168.0.111
331,3,14,-17,79,"0,0,-178",1,-1,-3,0,0,0,54,57,81,70,100,-13.63,6,16.0,34.0,-980.0,11:42:56.432863,192.168.0.111
337,3,14,-17,79,"0,0,-178",1,-2,-3,0,0,0,54,57,81,70,100,-13.61,6,8.0,28.0,-984.0,11:42:56.533216,192.168.0.111
342,3,14,-17,79,"0,0,-178",1,-2,-3,0,0,0,54,57,81,70,100,-13.62,6,13.0,30.0,-1001.0,11:42:56.635270,192.168.0.111
347,3,14,-19,81,"-2,0,-177",1,-2,-3,0,0,0,54,57,81,70,100,-13.68,6,20.0,25.0,-989.0,11:42:56.737032,192.168.0.111
353,3,14,-19,81,"-2,0,-177",1,-1,-3,0,0,0,54,57,81,70,100,-13.72,6,33.0,20.0,-989.0,11:42:56.839136,192.168.0.111
358,3,14,-19,81,"-2,0,-177",1,-1,-3,0,0,0,54,57,81,70,100,-13.7,6,19.0,17.0,-988.0,11:42:56.941089,192.168.0.111
363,3,12,-19,83,"-2,0,-179",1,-1,-3,0,0,0,54,57,82,70,100,-13.68,7,17.0,19.0,-980.0,11:42:57.043060,192.168.0.111
368,3,12,-19,83,"-2,0,-179",1,-1,-3,0,0,0,54,57,81,70,100,-13.66,7,16.0,4.0,-1004.0,11:42:57.145106,192.168.0.111
373,3,12,-19,83,"-2,0,-179",2,-1,-2,0,0,0,54,57,81,70,100,-13.67,7,10.0,4.0,-1004.0,11:42:57.247138,192.168.0.111
378,3,12,-19,83,"-2,0,-179",1,-1,-2,0,0,0,54,57,81,70,100,-13.67,7,3.0,2.0,-990.0,11:42:57.349111,192.168.0.111
383,3,13,-25,81,"-1,0,-175",1,-1,-2,0,0,0,54,57,81,70,100,-13.59,7,1.0,15.0,-974.0,11:42:57.451260,192.168.0.111
388,3,13,-25,81,"-1,0,-175",1,-1,-2,0,0,0,54,57,81,70,100,-13.65,7,20.0,-5.0,-1011.0,11:42:57.553756,192.168.0.111
393,3,13,-25,81,"-1,0,-175",1,0,-2,0,0,0,54,57,81,60,100,-13.61,7,-9.0,12.0,-997.0,11:42:57.655105,192.168.0.111
398,3,13,-25,81,"-1,0,-175",0,0,-2,0,0,0,54,57,81,60,100,-13.61,7,19.0,-19.0,-1004.0,11:42:57.757079,192.168.0.111
403,3,11,-20,83,"-2,0,-177",0,0,-2,0,0,0,54,57,81,60,100,-13.64,7,3.0,3.0,-997.0,11:42:57.859031,192.168.0.111
408,3,11,-20,83,"-2,0,-177",0,0,-2,0,0,0,54,57,81,60,100,-13.6,7,9.0,-3.0,-997.0,11:42:57.960839,192.168.0.111
413,3,11,-20,83,"-2,0,-177",0,0,-2,0,0,0,54,57,81,60,100,-13.57,8,2.0,-5.0,-992.0,11:42:58.062699,192.168.0.111
418,3,11,-20,83,"-2,0,-177",0,0,-2,0,0,0,54,57,81,60,100,-13.57,8,-12.0,10.0,-984.0,11:42:58.164967,192.168.0.111
420,3,12,-17,83,"0,0,-178",0,0,-2,0,0,0,54,57,81,60,100,-13.51,8,-10.0,-4.0,-1014.0,11:42:58.216594,192.168.0.111
425,3,12,-17,83,"0,0,-178",0,0,-2,0,0,0,54,57,81,60,100,-13.52,8,-6.0,5.0,-1007.0,11:42:58.319072,192.168.0.111
431,3,12,-17,83,"0,0,-178",0,0,-2,0,0,0,54,57,81,60,100,-13.53,8,3.0,7.0,-967.0,11:42:58.419997,192.168.0.111
436,3,9,-13,83,"0,0,180",0,0,-2,0,0,0,54,57,80,60,100,-13.54,8,9.0,8.0,-1015.0,11:42:58.522139,192.168.0.111
441,3,9,-13,83,"0,0,180",0,0,-2,0,0,0,54,57,80,60,100,-13.54,8,24.0,-4.0,-1008.0,11:42:58.624147,192.168.0.111
446,3,9,-13,83,"0,0,180",0,-1,-2,0,0,0,54,57,80,60,100,-13.57,8,22.0,8.0,-1012.0,11:42:58.725907,192.168.0.111
451,3,9,-13,83,"0,0,180",0,0,-2,0,0,0,54,57,80,60,100,-13.53,8,44.0,3.0,-1007.0,11:42:58.828306,192.168.0.111
456,3,8,-14,82,"0,0,-178",1,0,-2,0,0,0,54,57,80,60,100,-13.55,8,25.0,2.0,-1000.0,11:42:58.929566,192.168.0.111
461,3,8,-14,82,"0,0,-178",1,0,-2,0,0,0,54,57,81,60,100,-13.48,9,29.0,9.0,-995.0,11:42:59.031704,192.168.0.111
467,3,8,-14,82,"0,0,-178",2,0,-2,0,0,0,54,57,80,60,100,-13.45,9,26.0,-16.0,-1001.0,11:42:59.134084,192.168.0.111
472,3,8,-14,82,"0,0,-178",2,0,-2,0,0,0,55,57,80,60,100,-13.43,9,33.0,2.0,-1014.0,11:42:59.235868,192.168.0.111
477,3,8,-13,82,"-1,0,179",2,0,-2,0,0,0,55,57,80,60,100,-13.54,9,20.0,17.0,-983.0,11:42:59.337837,192.168.0.111
482,3,8,-13,82,"-1,0,179",2,0,-2,0,0,0,55,57,81,60,100,-13.49,9,22.0,26.0,-1017.0,11:42:59.439885,192.168.0.111
488,3,8,-13,82,"-1,0,179",2,0,-3,0,0,0,55,57,81,60,100,-13.34,9,21.0,40.0,-1009.0,11:42:59.541769,192.168.0.111
492,3,9,-14,82,"-3,0,-178",2,-1,-2,0,0,0,55,57,81,60,100,-13.47,9,30.0,23.0,-1016.0,11:42:59.644018,192.168.0.111
498,3,9,-14,82,"-3,0,-178",1,-2,-2,0,0,0,55,57,82,60,100,-13.45,9,29.0,12.0,-993.0,11:42:59.745782,192.168.0.111
503,3,9,-14,82,"-3,0,-178",1,-2,-3,0,0,0,55,57,82,60,100,-13.46,9,27.0,7.0,-1009.0,11:42:59.847863,192.168.0.111
508,3,9,-14,82,"-3,0,-178",1,-2,-3,0,0,0,55,57,82,60,100,-13.43,9,19.0,7.0,-995.0,11:42:59.949555,192.168.0.111
513,3,13,-17,82,"-1,0,-179",2,-1,-3,0,0,0,55,57,82,70,100,-13.46,10,29.0,2.0,-993.0,11:43:00.051592,192.168.0.111
518,3,13,-17,82,"-1,0,-179",2,-1,-3,0,0,0,55,57,83,70,100,-13.52,10,30.0,-2.0,-995.0,11:43:00.153832,192.168.0.111
523,3,13,-17,82,"-1,0,-179",2,-1,-3,0,0,0,54,57,83,70,100,-13.55,10,33.0,-5.0,-1003.0,11:43:00.255637,192.168.0.111
528,3,13,-17,82,"-1,0,-179",2,0,-3,0,0,0,54,57,84,70,100,-13.59,10,39.0,-10.0,-1014.0,11:43:00.357257,192.168.0.111
533,3,9,-19,84,"-4,0,-178",2,0,-3,0,0,0,54,57,84,70,100,-13.51,10,42.0,-14.0,-973.0,11:43:00.459166,192.168.0.111
538,3,9,-19,84,"-4,0,-178",3,0,-3,0,0,0,54,57,84,70,100,-13.51,10,39.0,-9.0,-988.0,11:43:00.561595,192.168.0.111
543,3,9,-19,84,"-4,0,-178",2,0,-3,0,0,0,54,57,84,70,100,-13.53,10,42.0,1.0,-966.0,11:43:00.662901,192.168.0.111
545,3,9,-19,84,"-4,0,-178",2,0,-3,0,0,0,54,57,84,70,100,-13.44,10,40.0,5.0,-983.0,11:43:00.716887,192.168.0.111
550,3,13,-17,85,"-2,0,-178",3,0,-3,0,0,0,54,57,84,70,100,-13.47,10,28.0,0.0,-1019.0,11:43:00.816245,192.168.0.111
555,3,13,-17,85,"-2,0,-178",3,0,-3,0,0,0,54,57,83,70,100,-13.56,10,33.0,12.0,-1000.0,11:43:00.917889,192.168.0.111
561,3,13,-17,85,"-2,0,-178",2,0,-3,0,0,0,54,57,83,70,100,-13.66,11,33.0,12.0,-996.0,11:43:01.019900,192.168.0.111
566,3,15,-18,85,"-2,0,-175",2,0,-3,0,0,0,54,57,83,70,100,-13.51,11,33.0,7.0,-1012.0,11:43:01.122542,192.168.0.111
571,3,15,-18,85,"-2,0,-175",2,0,-3,0,0,0,54,58,82,70,100,-13.64,11,55.0,3.0,-1012.0,11:43:01.224561,192.168.0.111
576,3,15,-18,85,"-2,0,-175",2,0,-3,0,0,0,54,58,82,70,100,-13.51,11,40.0,11.0,-1001.0,11:43:01.326871,192.168.0.111
581,3,15,-18,85,"-2,0,-175",2,-1,-3,0,0,0,54,58,82,70,100,-13.5,11,50.0,11.0,-1002.0,11:43:01.428455,192.168.0.111
586,3,16,-19,82,"-1,0,-175",2,-1,-3,0,0,0,54,58,83,70,100,-13.52,11,58.0,3.0,-994.0,11:43:01.530402,192.168.0.111
591,3,16,-19,82,"-1,0,-175",3,-1,-3,0,0,0,54,58,82,70,100,-13.5,11,49.0,3.0,-1007.0,11:43:01.632496,192.168.0.111
596,3,16,-19,82,"-1,0,-175",3,-1,-2,0,0,0,54,58,82,70,100,-13.48,11,42.0,-10.0,-991.0,11:43:01.734639,192.168.0.111
601,3,16,-19,82,"-1,0,-175",3,0,-2,0,0,0,54,58,82,70,100,-13.47,11,54.0,-12.0,-995.0,11:43:01.836487,192.168.0.111
606,3,16,-20,82,"-2,0,-176",3,0,-2,0,0,0,54,58,82,70,100,-13.5,11,52.0,-3.0,-975.0,11:43:01.938416,192.168.0.111
611,3,16,-20,82,"-2,0,-176",3,0,-2,0,0,0,54,58,82,70,100,-13.5,12,59.0,-6.0,-1006.0,11:43:02.040655,192.168.0.111
616,3,16,-20,82,"-2,0,-176",3,0,-2,0,0,0,54,58,82,70,100,-13.43,12,50.0,0.0,-1003.0,11:43:02.142385,192.168.0.111
621,3,16,-20,82,"-2,0,-176",3,0,-3,0,0,0,55,57,82,60,100,-13.49,12,46.0,-6.0,-995.0,11:43:02.244139,192.168.0.111
627,3,17,-19,82,"-2,0,-176",3,0,-2,0,0,0,55,57,81,60,100,-13.52,12,55.0,-8.0,-996.0,11:43:02.346370,192.168.0.111
630,3,17,-19,82,"-2,0,-176",3,0,-2,0,0,0,55,57,81,60,100,-13.55,12,55.0,-8.0,-1004.0,11:43:02.448573,192.168.0.111
637,3,17,-19,82,"-2,0,-176",3,0,-2,0,0,0,55,57,82,60,100,-13.48,12,51.0,-5.0,-989.0,11:43:02.549728,192.168.0.111
642,3,16,-18,83,"-4,0,-176",3,0,-2,0,0,0,55,57,81,60,100,-13.56,12,42.0,0.0,-1009.0,11:43:02.654721,192.168.0.111
647,3,16,-18,83,"-4,0,-176",3,0,-3,0,0,0,55,57,82,60,100,-13.55,12,40.0,-1.0,-1006.0,11:43:02.754360,192.168.0.111
652,3,16,-18,83,"-4,0,-176",3,0,-3,0,0,0,55,57,81,60,100,-13.56,12,46.0,-12.0,-1004.0,11:43:02.856178,192.168.0.111
657,3,16,-18,83,"-4,0,-176",3,0,-3,0,0,0,55,57,81,60,100,-13.54,12,45.0,-14.0,-996.0,11:43:02.958374,192.168.0.111
662,3,14,-17,83,"-5,0,-177",3,0,-3,0,0,0,55,57,81,60,100,-13.47,13,37.0,4.0,-997.0,11:43:03.060301,192.168.0.111
667,3,14,-17,83,"-5,0,-177",3,0,-3,0,0,0,55,57,81,60,100,-13.53,13,44.0,-1.0,-1007.0,11:43:03.162257,192.168.0.111
673,3,14,-17,83,"-5,0,-177",3,0,-3,0,0,0,55,57,82,60,100,-13.55,13,51.0,-5.0,-992.0,11:43:03.264307,192.168.0.111
675,3,14,-17,83,"-5,0,-177",2,0,-3,0,0,0,55,57,82,60,100,-13.52,13,50.0,-7.0,-988.0,11:43:03.315178,192.168.0.111
680,3,13,-22,81,"-5,0,-173",3,0,-3,0,0,0,55,57,82,60,100,-13.49,13,47.0,0.0,-998.0,11:43:03.417139,192.168.0.111
685,3,13,-22,81,"-5,0,-173",3,0,-3,0,0,0,55,57,82,60,100,-13.51,13,51.0,-4.0,-994.0,11:43:03.519932,192.168.0.111
690,3,13,-22,81,"-5,0,-173",3,0,-3,0,0,0,55,57,81,60,100,-13.52,13,44.0,4.0,-1000.0,11:43:03.620972,192.168.0.111
695,3,13,-22,81,"-5,0,-173",2,0,-3,0,0,0,55,57,82,60,100,-13.49,13,48.0,-3.0,-1001.0,11:43:03.723051,192.168.0.111
700,3,15,-20,82,"-3,0,-175",2,0,-3,0,0,0,55,57,82,60,100,-13.43,13,38.0,1.0,-995.0,11:43:03.825276,192.168.0.111
705,3,15,-20,82,"-3,0,-175",2,-1,-3,0,0,0,55,57,82,60,100,-13.41,13,42.0,-8.0,-1003.0,11:43:03.927221,192.168.0.111
710,3,15,-20,82,"-3,0,-175",2,0,-3,0,0,0,55,57,81,60,100,-13.45,14,44.0,-7.0,-1004.0,11:43:04.029455,192.168.0.111
715,3,17,-19,82,"-1,0,-176",2,0,-3,0,0,0,55,57,82,70,100,-13.41,14,42.0,1.0,-986.0,11:43:04.131237,192.168.0.111
720,3,17,-19,82,"-1,0,-176",2,0,-3,0,0,0,56,58,82,70,100,-13.5,14,31.0,1.0,-995.0,11:43:04.233163,192.168.0.111
726,3,17,-19,82,"-1,0,-176",2,0,-3,0,0,0,56,58,82,70,100,-13.47,14,44.0,-21.0,-999.0,11:43:04.335113,192.168.0.111
731,3,17,-19,82,"-1,0,-176",2,0,-3,0,0,0,56,58,82,70,100,-13.47,14,36.0,-9.0,-1004.0,11:43:04.437102,192.168.0.111
736,3,15,-22,81,"-1,0,-174",2,0,-3,0,0,0,56,58,82,70,100,-13.47,14,45.0,-8.0,-1003.0,11:43:04.539112,192.168.0.111
741,3,15,-22,81,"-1,0,-174",2,0,-3,0,0,0,56,58,82,70,100,-13.52,14,27.0,-14.0,-992.0,11:43:04.641085,192.168.0.111
745,3,15,-22,81,"-1,0,-174",2,0,-3,0,0,0,56,58,82,70,100,-13.46,14,33.0,-16.0,-998.0,11:43:04.742986,192.168.0.111
751,3,15,-22,81,"-1,0,-174",2,0,-3,0,0,0,56,58,82,70,100,-13.41,14,33.0,-9.0,-985.0,11:43:04.844970,192.168.0.111
756,3,14,-22,81,"-1,0,-174",2,0,-3,0,0,0,56,58,82,70,100,-13.41,14,26.0,-15.0,-994.0,11:43:04.946865,192.168.0.111
761,3,14,-22,81,"-1,0,-174",2,0,-3,0,0,0,56,58,81,70,100,-13.39,15,27.0,-14.0,-999.0,11:43:05.049027,192.168.0.111
766,3,14,-22,81,"-1,0,-174",2,0,-3,0,0,0,56,58,81,60,100,-13.45,15,26.0,-9.0,-999.0,11:43:05.150965,192.168.0.111
771,3,14,-22,81,"-1,0,-174",2,0,-3,0,0,0,55,58,82,60,100,-13.42,15,29.0,-15.0,-1002.0,11:43:05.253006,192.168.0.111
776,3,11,-16,83,"-3,0,-177",2,0,-3,0,0,0,55,58,81,60,100,-13.41,15,32.0,-14.0,-998.0,11:43:05.355147,192.168.0.111
781,3,11,-16,83,"-3,0,-177",2,0,-3,0,0,0,55,58,81,60,100,-13.42,15,33.0,-12.0,-1003.0,11:43:05.456758,192.168.0.111
786,3,11,-16,83,"-3,0,-177",1,0,-3,0,0,0,55,58,81,60,100,-13.43,15,27.0,-15.0,-988.0,11:43:05.558938,192.168.0.111
791,3,10,-15,83,"-2,0,-177",1,0,-3,0,0,0,55,58,80,60,100,-13.42,15,29.0,-15.0,-994.0,11:43:05.660909,192.168.0.111
797,3,10,-15,83,"-2,0,-177",1,0,-3,0,0,0,55,58,81,60,100,-13.37,15,19.0,-15.0,-1000.0,11:43:05.763398,192.168.0.111
799,3,10,-15,83,"-2,0,-177",1,0,-3,0,0,0,55,58,81,60,100,-13.49,15,17.0,-9.0,-1009.0,11:43:05.815836,192.168.0.111
805,3,10,-15,83,"-2,0,-177",1,0,-3,0,0,0,55,58,81,60,100,-13.46,15,16.0,-26.0,-1014.0,11:43:05.917236,192.168.0.111
809,3,8,-18,81,"-2,0,-175",1,0,-3,0,0,0,55,58,81,60,100,-13.41,16,14.0,-18.0,-985.0,11:43:06.018908,192.168.0.111
814,3,8,-18,81,"-2,0,-175",1,0,-3,0,0,0,55,58,81,60,100,-13.42,16,10.0,-21.0,-1001.0,11:43:06.120937,192.168.0.111
819,3,8,-18,81,"-2,0,-175",1,0,-2,0,0,0,56,59,81,60,100,-13.32,16,15.0,-24.0,-998.0,11:43:06.222877,192.168.0.111
825,3,8,-18,81,"-2,0,-175",0,0,-2,0,0,0,56,59,81,60,100,-13.43,16,-2.0,-33.0,-996.0,11:43:06.324787,192.168.0.111
830,3,7,-14,83,"-3,0,-178",0,0,-2,0,0,0,56,59,81,60,100,-13.39,16,9.0,-26.0,-996.0,11:43:06.426696,192.168.0.111
835,3,7,-14,83,"-3,0,-178",0,1,-3,0,0,0,56,59,80,60,100,-13.36,16,15.0,-35.0,-1002.0,11:43:06.529198,192.168.0.111
840,3,7,-14,83,"-3,0,-178",0,1,-3,0,0,0,56,59,81,60,100,-13.38,16,12.0,-26.0,-986.0,11:43:06.631083,192.168.0.111
845,3,9,-16,82,"0,0,-176",0,0,-3,0,0,0,56,59,81,60,100,-13.53,16,7.0,-29.0,-1012.0,11:43:06.732713,192.168.0.111
850,3,9,-16,82,"0,0,-176",0,0,-3,0,0,0,56,59,80,60,100,-13.52,16,21.0,-42.0,-996.0,11:43:06.834315,192.168.0.111
855,3,9,-16,82,"0,0,-176",0,1,-3,0,0,0,56,59,81,60,100,-13.45,16,6.0,-35.0,-982.0,11:43:06.936708,192.168.0.111
860,3,9,-16,82,"0,0,-176",0,1,-3,0,0,0,56,59,81,60,100,-13.37,17,4.0,-36.0,-979.0,11:43:07.038747,192.168.0.111
865,3,6,-14,82,"-1,0,-177",0,1,-3,0,0,0,56,59,80,60,100,-13.48,17,5.0,-33.0,-1006.0,11:43:07.140682,192.168.0.111
870,3,6,-14,82,"-1,0,-177",0,1,-3,0,0,0,55,59,80,60,100,-13.47,17,22.0,-44.0,-1009.0,11:43:07.242750,192.168.0.111
875,3,6,-14,82,"-1,0,-177",0,1,-2,0,0,0,55,59,80,60,100,-13.44,17,12.0,-39.0,-1022.0,11:43:07.344624,192.168.0.111
880,3,6,-14,82,"-1,0,-177",0,1,-2,0,0,0,55,59,80,60,100,-13.36,17,22.0,-22.0,-984.0,11:43:07.446759,192.168.0.111
885,3,5,-9,83,"-1,0,-179",1,1,-2,0,0,0,55,59,80,60,100,-13.4,17,18.0,-22.0,-988.0,11:43:07.549259,192.168.0.111
890,3,5,-9,83,"-1,0,-179",1,1,-2,0,0,0,55,59,80,60,100,-13.43,17,6.0,-17.0,-998.0,11:43:07.650771,192.168.0.111
895,3,5,-9,83,"-1,0,-179",1,0,-2,0,0,0,55,59,80,60,100,-13.34,17,3.0,-1.0,-969.0,11:43:07.752598,192.168.0.111
901,3,5,-11,83,"-2,0,-176",1,0,-2,0,0,0,55,59,80,60,100,-13.43,17,2.0,-18.0,-1030.0,11:43:07.854630,192.168.0.111
906,3,5,-11,83,"-2,0,-176",1,0,-2,0,0,0,55,59,79,60,100,-13.33,17,18.0,-18.0,-1016.0,11:43:07.956164,192.168.0.111
911,3,5,-11,83,"-2,0,-176",1,0,-2,0,0,0,55,59,80,60,100,-13.36,18,15.0,-3.0,-988.0,11:43:08.058316,192.168.0.111
916,3,5,-11,83,"-2,0,-176",1,0,-2,0,0,0,55,59,79,60,100,-13.43,18,20.0,-17.0,-1012.0,11:43:08.160632,192.168.0.111
921,3,6,-14,81,"-2,0,-176",1,0,-2,0,0,0,56,60,80,60,100,-13.53,18,-1.0,-22.0,-1018.0,11:43:08.262588,192.168.0.111
926,3,6,-14,81,"-2,0,-176",1,0,-2,0,0,0,56,60,80,60,100,-13.46,18,-11.0,-15.0,-953.0,11:43:08.364544,192.168.0.111
931,3,6,-14,81,"-2,0,-176",1,0,-2,0,0,0,56,60,80,60,100,-13.29,18,-10.0,-29.0,-976.0,11:43:08.466598,192.168.0.111
936,3,6,-14,81,"-2,0,-176",0,0,-2,0,0,0,56,60,80,60,100,-13.43,18,-24.0,-22.0,-984.0,11:43:08.571263,192.168.0.111
941,3,7,-14,82,"-1,0,180",0,0,-2,0,0,0,56,60,80,60,100,-13.47,18,-31.0,-33.0,-1001.0,11:43:08.670557,192.168.0.111
947,3,7,-14,82,"-1,0,180",0,0,-2,0,0,0,56,60,80,60,100,-13.45,18,-21.0,-8.0,-983.0,11:43:08.772562,192.168.0.111
952,3,7,-14,82,"-1,0,180",-1,0,-2,0,0,0,56,60,80,60,100,-13.41,18,-33.0,-20.0,-1018.0,11:43:08.874367,192.168.0.111
954,3,7,-14,82,"-1,0,180",-1,0,-2,0,0,0,56,60,80,60,100,-13.41,18,-36.0,-35.0,-1018.0,11:43:08.925385,192.168.0.111
959,3,9,-16,81,"0,0,-178",-1,0,-2,0,0,0,56,60,81,60,100,-13.37,19,-14.0,-32.0,-984.0,11:43:09.027586,192.168.0.111
964,3,9,-16,81,"0,0,-178",-1,0,-2,0,0,0,56,60,80,60,100,-13.32,19,-2.0,-14.0,-993.0,11:43:09.129432,192.168.0.111
969,3,9,-16,81,"0,0,-178",-1,0,-2,0,0,0,56,59,81,60,100,-13.47,19,0.0,-27.0,-1016.0,11:43:09.231527,192.168.0.111
975,3,9,-16,81,"0,0,-178",0,0,-2,0,0,0,56,59,82,60,100,-13.35,19,-18.0,9.0,-944.0,11:43:09.333680,192.168.0.111
980,3,9,-16,81,"0,0,-178",0,0,-2,0,0,0,56,59,81,60,100,-13.43,19,9.0,-2.0,-964.0,11:43:09.435787,192.168.0.111
985,3,9,-16,81,"0,0,-178",0,0,-2,0,0,0,56,59,82,70,100,-13.27,19,0.0,9.0,-995.0,11:43:09.537429,192.168.0.111
990,3,9,-16,81,"0,0,-178",0,0,-2,0,0,0,56,59,82,70,100,-13.31,19,14.0,6.0,-970.0,11:43:09.639448,192.168.0.111
995,3,5,-15,83,"0,0,-178",0,0,-2,0,0,0,56,59,82,60,100,-13.27,19,14.0,19.0,-1012.0,11:43:09.741382,192.168.0.111
1000,3,5,-15,83,"0,0,-178",1,0,-2,0,0,0,56,59,81,60,100,-13.34,19,8.0,28.0,-1020.0,11:43:09.845572,192.168.0.111
1005,3,5,-15,83,"0,0,-178",1,-1,-2,0,0,0,56,59,81,60,100,-13.3,19,14.0,20.0,-1052.0,11:43:09.945344,192.168.0.111
1010,3,5,-15,83,"0,0,-178",1,-2,-2,0,0,0,56,59,81,60,100,-13.26,20,22.0,20.0,-1017.0,11:43:10.047697,192.168.0.111
1015,3,7,-16,83,"0,0,180",1,-2,-2,0,0,0,56,59,81,60,100,-13.37,20,9.0,34.0,-997.0,11:43:10.149707,192.168.0.111
1020,3,7,-16,83,"0,0,180",1,-2,-3,0,0,0,57,58,82,70,100,-13.31,20,9.0,47.0,-999.0,11:43:10.252312,192.168.0.111
1025,3,7,-16,83,"0,0,180",1,-3,-3,0,0,0,57,58,82,70,100,-13.3,20,3.0,39.0,-1021.0,11:43:10.353225,192.168.0.111
1030,3,10,-26,80,"0,0,-177",1,-4,-3,0,0,0,57,58,81,60,100,-13.3,20,5.0,18.0,-1012.0,11:43:10.454843,192.168.0.111
1035,3,10,-26,80,"0,0,-177",1,-3,-3,0,0,0,57,58,81,70,100,-13.23,20,5.0,19.0,-982.0,11:43:10.557756,192.168.0.111
1040,3,10,-26,80,"0,0,-177",0,-3,-3,0,0,0,57,58,81,70,100,-13.05,20,14.0,10.0,-976.0,11:43:10.659208,192.168.0.111
1045,3,10,-26,80,"0,0,-177",1,-3,-4,0,0,0,57,58,81,70,100,-13.03,20,-17.0,-7.0,-1031.0,11:43:10.761265,192.168.0.111
1050,4,-10,48,76,"-1,4,169",1,-3,-3,0,0,0,57,58,81,70,100,-13.14,20,-33.0,-10.0,-1029.0,11:43:10.863226,192.168.0.111
1055,4,-10,48,76,"-1,4,169",0,-1,-3,0,1,0,57,58,82,70,100,-12.97,20,-3.0,-10.0,-994.0,11:43:10.965490,192.168.0.111
1060,4,-10,48,76,"-1,4,169",0,0,-3,0,1,0,57,58,81,70,100,-13.09,21,-18.0,6.0,-978.0,11:43:11.067459,192.168.0.111
1065,4,-10,48,76,"-1,4,169",0,0,-3,0,1,0,57,58,82,70,100,-13.22,21,-1.0,-5.0,-991.0,11:43:11.169199,192.168.0.111
1071,4,-9,45,78,"0,4,172",0,0,-3,0,1,0,57,59,81,70,100,-13.43,21,-12.0,-8.0,-998.0,11:43:11.270659,192.168.0.111
1076,4,-9,45,78,"0,4,172",0,0,-3,0,1,0,57,59,81,70,100,-13.49,21,-15.0,-9.0,-974.0,11:43:11.373204,192.168.0.111
1081,4,-9,45,78,"0,4,172",-1,0,-3,0,1,0,57,59,81,70,100,-13.64,21,-30.0,-8.0,-1002.0,11:43:11.474982,192.168.0.111
1086,4,-9,45,78,"0,4,172",-1,0,-3,0,1,0,57,59,81,70,100,-13.66,21,-21.0,-6.0,-991.0,11:43:11.577136,192.168.0.111
1091,3,13,-28,81,"3,1,-176",-1,0,-3,0,0,0,57,59,80,70,100,-13.86,21,-19.0,3.0,-989.0,11:43:11.769844,192.168.0.111
1096,3,13,-28,81,"3,1,-176",-1,0,-3,0,0,0,57,59,81,60,100,-13.88,21,2.0,-4.0,-994.0,11:43:11.781092,192.168.0.111
1101,3,13,-28,81,"3,1,-176",0,0,-3,0,0,0,57,59,80,60,100,-13.97,21,-1.0,-13.0,-1021.0,11:43:11.976400,192.168.0.111
1106,3,5,-22,83,"0,0,-176",0,0,-3,0,0,0,57,59,80,60,100,-13.85,21,-5.0,-24.0,-1001.0,11:43:11.984782,192.168.0.111
1111,3,5,-22,83,"0,0,-176",0,0,-3,0,0,0,57,59,80,60,100,-13.83,22,-12.0,-44.0,-1005.0,11:43:12.182478,192.168.0.111
1117,3,5,-22,83,"0,0,-176",0,0,-3,0,1,0,57,59,80,60,100,-13.67,22,-10.0,-19.0,-977.0,11:43:12.189127,192.168.0.111
1122,3,5,-22,83,"0,0,-176",0,1,-3,0,1,0,57,60,80,60,100,-13.6,22,1.0,-41.0,-1014.0,11:43:12.291339,192.168.0.111
1126,3,7,-19,82,"0,1,180",0,1,-3,0,0,0,57,60,79,60,100,-13.41,22,4.0,-27.0,-948.0,11:43:12.393913,192.168.0.111
1129,3,7,-19,82,"0,1,180",1,1,-3,0,1,0,57,60,79,60,100,-13.94,22,-55.0,-32.0,-1096.0,11:43:12.588388,192.168.0.111
1134,3,7,-19,82,"0,1,180",0,2,-3,0,0,0,57,60,79,60,100,-13.55,22,-30.0,-13.0,-993.0,11:43:12.589531,192.168.0.111
1139,3,7,-19,82,"0,1,180",-1,1,-3,0,0,0,57,60,80,60,100,-13.73,22,-27.0,-25.0,-1010.0,11:43:12.793785,192.168.0.111
1144,3,9,-18,81,"0,1,-176",-1,1,-3,0,0,0,57,60,80,60,100,-13.76,22,-28.0,-25.0,-986.0,11:43:12.794903,192.168.0.111
1149,3,9,-18,81,"0,1,-176",0,1,-3,0,0,0,57,60,80,60,100,-13.84,22,-23.0,-36.0,-1002.0,11:43:12.999573,192.168.0.111
1154,3,9,-18,81,"0,1,-176",0,0,-3,0,0,0,57,60,81,60,100,-13.82,22,-39.0,-19.0,-981.0,11:43:13.000682,192.168.0.111
1159,3,7,-13,83,"1,1,-178",0,1,-3,0,0,0,57,60,80,60,100,-13.84,23,-21.0,-16.0,-967.0,11:43:13.205405,192.168.0.111
1164,3,7,-13,83,"1,1,-178",-1,1,-3,0,0,0,57,60,81,60,100,-13.78,23,-25.0,-1.0,-1033.0,11:43:13.206510,192.168.0.111
1169,3,7,-13,83,"1,1,-178",-1,0,-3,0,0,0,58,60,81,60,100,-13.78,23,-12.0,15.0,-1007.0,11:43:13.412593,192.168.0.111
1174,3,7,-13,83,"1,1,-178",-1,0,-3,0,0,0,58,60,81,60,100,-13.86,23,-27.0,-24.0,-1026.0,11:43:13.413661,192.168.0.111
1179,3,6,-13,84,"1,1,-178",0,-1,-3,0,0,0,58,60,82,60,100,-13.9,23,-49.0,-26.0,-968.0,11:43:13.619694,192.168.0.111
1185,3,6,-13,84,"1,1,-178",0,0,-3,0,0,0,58,60,82,60,100,-13.8,23,-81.0,-33.0,-1008.0,11:43:13.623499,192.168.0.111
1190,3,6,-13,84,"1,1,-178",-2,0,-3,1,0,0,58,60,82,70,100,-13.88,23,-57.0,5.0,-965.0,11:43:13.828285,192.168.0.111
1195,3,6,-13,84,"1,1,-178",-2,0,-2,0,0,0,58,60,82,70,100,-13.9,23,-21.0,-5.0,-992.0,11:43:13.829303,192.168.0.111
1200,3,10,-16,84,"3,1,178",-2,-1,-2,0,0,0,58,60,82,70,100,-13.91,23,-34.0,-25.0,-1007.0,11:43:13.871717,192.168.0.111
1205,3,10,-16,84,"3,1,178",-2,-1,-3,0,0,0,58,60,82,70,100,-13.77,23,-38.0,-38.0,-992.0,11:43:13.973732,192.168.0.111
1210,3,10,-16,84,"3,1,178",-2,0,-3,0,0,0,58,60,82,70,100,-13.64,24,-15.0,-42.0,-1014.0,11:43:14.075912,192.168.0.111
1215,3,10,-16,84,"3,1,178",0,0,-3,0,1,0,58,60,82,70,100,-13.95,24,-51.0,-35.0,-1007.0,11:43:14.177952,192.168.0.111
1220,3,5,-18,84,"4,1,179",-1,2,-2,0,0,0,57,60,82,70,100,-13.87,24,-41.0,-31.0,-1028.0,11:43:14.280129,192.168.0.111
1225,3,5,-18,84,"4,1,179",-2,2,-2,0,0,0,57,60,82,70,100,-13.92,24,-54.0,-18.0,-967.0,11:43:14.381653,192.168.0.111
1231,3,5,-18,84,"4,1,179",-1,1,-3,0,0,0,57,60,83,70,100,-13.97,24,-27.0,-21.0,-989.0,11:43:14.483856,192.168.0.111
1236,3,3,-15,85,"1,0,-178",-1,0,-3,0,0,0,57,60,82,70,100,-13.94,24,-46.0,-25.0,-1003.0,11:43:14.585710,192.168.0.111
1241,3,3,-15,85,"1,0,-178",-2,1,-3,0,0,0,57,60,83,70,100,-13.87,24,-37.0,-30.0,-1043.0,11:43:14.687711,192.168.0.111
1246,3,3,-15,85,"1,0,-178",-2,2,-3,0,1,0,57,60,83,70,100,-13.43,24,-26.0,-53.0,-987.0,11:43:14.789668,192.168.0.111
1251,3,3,-15,85,"1,0,-178",-1,3,-2,0,1,0,57,60,83,70,100,-13.62,24,-11.0,-69.0,-901.0,11:43:14.891513,192.168.0.111
1256,3,4,-13,85,"3,1,179",-1,2,-2,0,0,0,57,60,83,70,100,-13.75,24,-19.0,-36.0,-939.0,11:43:14.993356,192.168.0.111
1261,3,4,-13,85,"3,1,179",0,2,-2,0,0,0,57,60,82,70,100,-13.56,25,-35.0,-27.0,-933.0,11:43:15.095600,192.168.0.111
1266,3,4,-13,85,"3,1,179",-1,2,-3,0,0,0,57,60,83,70,100,-13.58,25,-66.0,-29.0,-1021.0,11:43:15.197445,192.168.0.111
1271,3,4,-13,85,"3,1,179",-3,1,-3,1,0,0,57,61,83,70,100,-13.46,25,-84.0,-37.0,-974.0,11:43:15.299643,192.168.0.111
1275,3,4,-14,85,"1,0,-177",-4,1,-3,1,0,0,57,61,83,70,100,-13.55,25,-72.0,-7.0,-974.0,11:43:15.402296,192.168.0.111
1281,3,4,-14,85,"1,0,-177",-4,0,-2,0,0,0,57,61,83,70,100,-13.57,25,-74.0,-8.0,-972.0,11:43:15.503503,192.168.0.111
1287,3,4,-14,85,"1,0,-177",-4,0,-2,0,0,0,57,61,83,70,100,-13.53,25,-55.0,-25.0,-994.0,11:43:15.605652,192.168.0.111
1292,3,6,-13,85,"5,1,-178",-4,0,-2,0,0,0,57,61,82,60,100,-13.6,25,-51.0,-2.0,-968.0,11:43:15.707602,192.168.0.111
1297,3,6,-13,85,"5,1,-178",-3,0,-2,0,0,0,57,61,82,60,100,-13.6,25,-48.0,5.0,-1011.0,11:43:15.810614,192.168.0.111
1299,3,6,-13,85,"5,1,-178",-2,0,-2,0,0,0,57,61,82,60,100,-13.45,25,-41.0,1.0,-1024.0,11:43:15.860595,192.168.0.111
1304,3,6,-13,85,"5,1,-178",-2,0,-3,0,0,0,57,61,82,60,100,-13.61,26,-36.0,-1.0,-1014.0,11:43:15.962540,192.168.0.111
1309,3,4,-13,85,"6,0,179",-2,-1,-3,0,0,0,57,61,82,60,100,-13.54,26,-7.0,20.0,-1009.0,11:43:16.064631,192.168.0.111
1314,3,4,-13,85,"6,0,179",0,-1,-3,-1,0,0,57,61,82,60,100,-13.6,26,-7.0,14.0,-1014.0,11:43:16.166496,192.168.0.111
1319,3,4,-13,85,"6,0,179",0,-2,-3,0,0,0,58,61,82,60,100,-13.7,26,-26.0,-16.0,-1003.0,11:43:16.268953,192.168.0.111
1324,3,4,-13,85,"6,0,179",0,-2,-3,0,0,0,58,61,83,60,100,-13.58,26,-34.0,-19.0,-1002.0,11:43:16.371232,192.168.0.111
1329,3,5,-19,83,"4,1,179",0,0,-3,0,0,0,58,61,82,60,100,-13.64,26,-32.0,2.0,-991.0,11:43:16.472428,192.168.0.111
1335,3,5,-19,83,"4,1,179",0,0,-3,0,0,0,58,61,82,60,100,-13.49,26,-18.0,-1.0,-972.0,11:43:16.574443,192.168.0.111
1340,3,5,-19,83,"4,1,179",-1,0,-3,0,0,0,58,61,82,60,100,-13.4,26,-2.0,-12.0,-998.0,11:43:16.676483,192.168.0.111
1345,3,9,-23,84,"1,1,179",0,0,-4,0,0,0,58,61,82,60,100,-13.49,26,-6.0,-13.0,-993.0,11:43:16.778346,192.168.0.111
1350,3,9,-23,84,"1,1,179",0,0,-3,0,0,0,58,61,82,60,100,-13.55,26,-5.0,-12.0,-992.0,11:43:16.880848,192.168.0.111
1355,3,9,-23,84,"1,1,179",0,0,-3,0,0,0,58,61,82,60,100,-13.51,27,-10.0,0.0,-1014.0,11:43:16.982335,192.168.0.111
1360,3,9,-23,84,"1,1,179",0,0,-3,0,0,0,58,61,82,60,100,-13.55,27,-2.0,7.0,-994.0,11:43:17.084429,192.168.0.111
1365,3,8,-22,84,"1,1,-179",1,0,-3,0,0,0,58,61,82,60,100,-13.6,27,-6.0,5.0,-1010.0,11:43:17.186497,192.168.0.111
1370,3,8,-22,84,"1,1,-179",0,0,-3,0,0,0,58,61,82,60,100,-13.7,27,-11.0,3.0,-989.0,11:43:17.291203,192.168.0.111
1375,3,8,-22,84,"1,1,-179",1,0,-3,0,0,0,58,61,82,60,100,-13.8,27,-9.0,0.0,-1025.0,11:43:17.390370,192.168.0.111
1380,3,8,-22,84,"1,1,-179",0,0,-3,0,0,0,58,61,82,60,100,-13.73,27,-26.0,-13.0,-1009.0,11:43:17.492349,192.168.0.111
1386,3,12,-25,82,"0,1,-176",0,0,-3,0,0,0,58,61,82,70,100,-13.62,27,10.0,-7.0,-984.0,11:43:17.594376,192.168.0.111
1390,3,12,-25,82,"0,1,-176",0,0,-3,0,0,0,58,61,83,70,100,-13.6,27,9.0,-4.0,-989.0,11:43:17.696341,192.168.0.111
1395,3,12,-25,82,"0,1,-176",0,0,-3,0,0,0,58,61,83,70,100,-13.67,27,5.0,-1.0,-990.0,11:43:17.798226,192.168.0.111
1401,3,12,-25,82,"0,1,-176",0,0,-3,0,0,0,58,61,84,70,100,-13.76,27,-3.0,10.0,-996.0,11:43:17.900097,192.168.0.111
1406,3,11,-27,82,"-2,0,-175",1,0,-2,0,0,0,58,61,83,70,100,-13.73,28,-23.0,-1.0,-1016.0,11:43:18.001844,192.168.0.111
1411,3,11,-27,82,"-2,0,-175",0,-1,-3,0,0,0,58,61,83,70,100,-13.65,28,-28.0,-22.0,-1011.0,11:43:18.104288,192.168.0.111
1416,3,11,-27,82,"-2,0,-175",0,0,-3,0,0,0,58,61,84,70,100,-13.36,28,-19.0,-34.0,-955.0,11:43:18.206455,192.168.0.111
1421,3,14,-27,83,"-1,0,-175",-1,1,-3,0,0,0,58,61,84,70,100,-13.47,28,5.0,1.0,-936.0,11:43:18.308219,192.168.0.111
1426,3,14,-27,83,"-1,0,-175",0,1,-3,0,0,0,58,61,83,70,100,-13.45,28,8.0,-16.0,-1012.0,11:43:18.410176,192.168.0.111
1431,3,14,-27,83,"-1,0,-175",0,1,-3,0,0,0,58,61,83,70,100,-13.51,28,13.0,14.0,-994.0,11:43:18.512199,192.168.0.111
1436,3,14,-27,83,"-1,0,-175",0,0,-3,0,0,0,58,61,83,70,100,-13.54,28,27.0,16.0,-994.0,11:43:18.614165,192.168.0.111
1441,3,15,-22,85,"2,1,-176",1,-1,-2,0,0,0,58,61,83,70,100,-13.49,28,29.0,7.0,-1000.0,11:43:18.716166,192.168.0.111
1446,3,15,-22,85,"2,1,-176",1,-1,-2,0,0,0,58,61,83,70,100,-13.56,28,37.0,5.0,-1011.0,11:43:18.818160,192.168.0.111
1451,3,15,-22,85,"2,1,-176",2,0,-2,0,0,0,58,61,82,70,100,-13.59,28,27.0,2.0,-992.0,11:43:18.920254,192.168.0.111
1456,3,15,-22,85,"2,1,-176",2,0,-2,0,0,0,58,61,82,70,100,-13.53,29,29.0,0.0,-1000.0,11:43:19.021459,192.168.0.111
1462,3,17,-25,82,"0,0,-176",2,0,-2,0,0,0,58,61,82,70,100,-13.67,29,19.0,-8.0,-1000.0,11:43:19.124029,192.168.0.111
1467,3,17,-25,82,"0,0,-176",2,0,-2,0,0,0,58,61,83,70,100,-13.56,29,19.0,-3.0,-994.0,11:43:19.226130,192.168.0.111
1472,3,17,-25,82,"0,0,-176",2,0,-2,0,0,0,59,61,83,70,100,-13.61,29,18.0,4.0,-1000.0,11:43:19.327887,192.168.0.111
1477,3,17,-25,82,"0,0,-176",2,0,-2,0,0,0,59,61,83,70,100,-13.59,29,22.0,5.0,-991.0,11:43:19.429706,192.168.0.111
1482,3,21,-28,81,"0,0,-175",2,0,-3,0,0,0,59,61,83,70,100,-13.57,29,15.0,-9.0,-967.0,11:43:19.532051,192.168.0.111
1487,3,21,-28,81,"0,0,-175",2,0,-3,0,0,0,59,61,83,70,100,-13.58,29,28.0,-7.0,-998.0,11:43:19.633803,192.168.0.111
1489,3,21,-28,81,"0,0,-175",2,0,-2,0,0,0,59,61,82,70,100,-13.6,29,15.0,-3.0,-993.0,11:43:19.685038,192.168.0.111
1494,3,18,-32,80,"-2,-1,-171",2,0,-3,0,0,0,59,61,82,70,100,-13.62,29,14.0,5.0,-997.0,11:43:19.787070,192.168.0.111
1500,3,18,-32,80,"-2,-1,-171",1,0,-3,0,0,0,59,61,83,70,100,-13.55,29,7.0,-13.0,-1000.0,11:43:19.889033,192.168.0.111
1505,3,18,-32,80,"-2,-1,-171",1,0,-3,0,0,0,59,61,83,70,100,-13.66,30,37.0,-19.0,-1016.0,11:43:19.991118,192.168.0.111
1509,3,18,-32,80,"-2,-1,-171",1,0,-3,0,0,0,59,61,83,70,100,-13.62,30,34.0,0.0,-990.0,11:43:20.095103,192.168.0.111
1515,3,22,-31,79,"0,-1,-172",1,0,-3,0,0,0,59,61,83,70,100,-13.64,30,35.0,3.0,-980.0,11:43:20.195003,192.168.0.111
1520,3,22,-31,79,"0,-1,-172",2,0,-3,0,0,0,59,61,83,70,100,-13.64,30,31.0,0.0,-984.0,11:43:20.300229,192.168.0.111
1525,3,22,-31,79,"0,-1,-172",2,-1,-3,0,0,0,59,61,83,70,100,-13.69,30,-6.0,-5.0,-999.0,11:43:20.398389,192.168.0.111
1530,3,22,-31,79,"0,-1,-172",1,-1,-3,0,0,0,59,61,83,70,100,-13.54,30,0.0,-18.0,-991.0,11:43:20.500917,192.168.0.111
1535,3,22,-31,79,"0,-1,-172",1,0,-3,0,0,0,59,61,82,70,100,-13.64,30,-1.0,-22.0,-1001.0,11:43:20.602956,192.168.0.111
1540,3,22,-31,79,"0,-1,-172",0,0,-3,1,0,0,59,61,82,70,100,-13.56,30,7.0,-27.0,-985.0,11:43:20.705405,192.168.0.111
1545,3,22,-31,79,"0,-1,-172",0,0,-3,1,0,0,59,61,82,70,100,-13.59,30,2.0,-7.0,-1014.0,11:43:20.807423,192.168.0.111
1550,3,20,-33,78,"0,0,-172",0,1,-3,1,0,0,59,61,83,70,100,-13.59,30,0.0,-10.0,-993.0,11:43:20.908346,192.168.0.111
1555,3,20,-33,78,"0,0,-172",0,1,-2,0,0,0,59,61,82,70,100,-13.69,31,6.0,-8.0,-1000.0,11:43:21.010328,192.168.0.111
1560,3,20,-33,78,"0,0,-172",0,1,-2,0,0,0,59,61,82,70,100,-13.58,31,-1.0,4.0,-996.0,11:43:21.112848,192.168.0.111
1565,3,20,-33,78,"0,0,-172",0,1,-2,0,0,0,59,61,82,70,100,-13.54,31,9.0,9.0,-983.0,11:43:21.214985,192.168.0.111
1571,3,14,-30,80,"-1,0,-171",0,0,-2,0,0,0,59,62,82,70,100,-13.51,31,19.0,19.0,-1014.0,11:43:21.317175,192.168.0.111
1576,3,14,-30,80,"-1,0,-171",0,-1,-2,0,0,0,59,62,82,60,100,-13.53,31,30.0,29.0,-997.0,11:43:21.418526,192.168.0.111
1581,3,14,-30,80,"-1,0,-171",0,-1,-2,0,0,0,59,62,81,60,100,-13.55,31,10.0,23.0,-997.0,11:43:21.520094,192.168.0.111
1586,3,14,-30,80,"-1,0,-171",0,-1,-2,0,0,0,59,62,82,60,100,-13.5,31,12.0,34.0,-1004.0,11:43:21.622306,192.168.0.111
1591,3,14,-21,83,"0,0,-177",0,-2,-2,0,0,0,59,62,81,60,100,-13.55,31,11.0,41.0,-1015.0,11:43:21.724438,192.168.0.111
1596,3,14,-21,83,"0,0,-177",0,-3,-2,0,0,0,59,62,82,60,100,-13.58,31,17.0,37.0,-990.0,11:43:21.826808,192.168.0.111
1601,3,14,-21,83,"0,0,-177",0,-3,-3,0,0,0,59,62,81,60,100,-13.56,31,6.0,27.0,-979.0,11:43:21.928663,192.168.0.111
1606,3,14,-21,83,"0,0,-177",1,-3,-3,0,0,0,59,62,81,60,100,-13.56,32,18.0,24.0,-1001.0,11:43:22.030300,192.168.0.111
1611,3,15,-26,81,"0,0,-177",1,-3,-3,0,0,0,59,62,81,60,100,-13.56,32,16.0,26.0,-1010.0,11:43:22.132600,192.168.0.111
1616,3,15,-26,81,"0,0,-177",1,-2,-3,0,0,0,59,62,81,60,100,-13.59,32,-5.0,26.0,-1009.0,11:43:22.234524,192.168.0.111
1621,3,15,-26,81,"0,0,-177",0,-2,-2,0,0,0,59,62,80,60,100,-13.65,32,1.0,20.0,-1012.0,11:43:22.336451,192.168.0.111
1626,3,15,-26,81,"0,0,-177",0,-2,-2,0,0,0,59,62,81,60,100,-13.8,32,-2.0,25.0,-1003.0,11:43:22.438683,192.168.0.111
1631,3,15,-26,81,"0,0,-177",0,-1,-3,0,0,0,59,62,80,60,100,-13.64,32,-12.0,15.0,-992.0,11:43:22.541037,192.168.0.111
1636,3,15,-26,81,"0,0,-177",0,-1,-3,0,0,0,59,62,81,60,100,-13.63,32,-39.0,-7.0,-1040.0,11:43:22.642014,192.168.0.111
1642,3,15,-26,81,"0,0,-177",0,-1,-3,0,0,0,59,62,80,60,100,-13.66,32,27.0,11.0,-975.0,11:43:22.744299,192.168.0.111
1646,3,15,-26,81,"0,0,-177",0,-1,-3,0,0,0,59,62,80,60,100,-13.72,32,10.0,18.0,-1005.0,11:43:22.846719,192.168.0.111
1652,3,16,-32,79,"0,0,-177",0,-1,-3,0,0,0,59,62,80,60,100,-13.68,32,0.0,5.0,-998.0,11:43:22.948730,192.168.0.111
1654,3,16,-32,79,"0,0,-177",0,-1,-3,1,0,0,59,62,80,60,100,-13.74,33,-18.0,21.0,-1021.0,11:43:23.000087,192.168.0.111
1659,3,16,-32,79,"0,0,-177",0,0,-3,1,1,0,59,62,81,60,100,-13.69,33,-16.0,-3.0,-1004.0,11:43:23.101622,192.168.0.111
1664,3,14,-31,79,"0,0,-176",-1,0,-3,1,1,0,59,62,81,60,100,-13.61,33,-14.0,-34.0,-1015.0,11:43:23.203598,192.168.0.111
1669,3,14,-31,79,"0,0,-176",-1,0,-2,0,1,0,59,62,81,60,100,-13.69,33,-3.0,-33.0,-1031.0,11:43:23.305706,192.168.0.111
1674,3,14,-31,79,"0,0,-176",-1,1,-3,0,1,0,59,62,81,60,100,-13.75,33,-6.0,-40.0,-1032.0,11:43:23.407672,192.168.0.111
1679,3,14,-31,79,"0,0,-176",-1,2,-3,0,1,0,59,62,81,60,100,-13.71,33,-15.0,-48.0,-1006.0,11:43:23.509561,192.168.0.111
1685,3,11,-22,82,"2,1,-178",-1,3,-3,0,1,0,59,62,81,70,100,-13.6,33,-12.0,-34.0,-962.0,11:43:23.611573,192.168.0.111
1690,3,11,-22,82,"2,1,-178",0,2,-3,0,1,0,59,62,81,70,100,-13.47,33,13.0,-27.0,-969.0,11:43:23.713561,192.168.0.111
1695,3,11,-22,82,"2,1,-178",0,2,-3,0,1,0,59,62,81,70,100,-13.56,33,11.0,-33.0,-986.0,11:43:23.815486,192.168.0.111
1700,3,11,-22,82,"2,1,-178",0,2,-2,0,0,0,59,62,80,70,100,-13.57,33,7.0,-32.0,-1026.0,11:43:23.917077,192.168.0.111
1705,3,9,-15,84,"1,1,-177",1,2,-2,0,0,0,59,62,80,70,100,-13.7,34,-23.0,-23.0,-997.0,11:43:24.019507,192.168.0.111
1710,3,9,-15,84,"1,1,-177",0,2,-2,0,0,0,59,62,80,70,100,-13.59,34,-17.0,-13.0,-972.0,11:43:24.121485,192.168.0.111
1715,3,9,-15,84,"1,1,-177",0,2,-2,0,0,0,59,62,81,70,100,-13.52,34,-8.0,-3.0,-968.0,11:43:24.223467,192.168.0.111
1720,3,9,-15,84,"1,1,-177",0,1,-2,0,0,0,59,63,81,60,100,-13.56,34,-5.0,-13.0,-996.0,11:43:24.325545,192.168.0.111
1725,3,8,-14,84,"-2,0,-176",0,0,-2,0,0,0,59,63,80,60,100,-13.65,34,-1.0,-17.0,-1008.0,11:43:24.427873,192.168.0.111
1730,3,8,-14,84,"-2,0,-176",0,0,-2,0,0,0,59,63,80,60,100,-13.58,34,-21.0,-10.0,-1021.0,11:43:24.530046,192.168.0.111
1736,3,8,-14,84,"-2,0,-176",0,0,-2,0,0,0,59,63,80,60,100,-13.63,34,-5.0,3.0,-1012.0,11:43:24.631326,192.168.0.111
1740,3,11,-17,82,"0,0,-175",0,0,-2,0,0,0,59,63,80,60,100,-13.59,34,-24.0,-10.0,-1003.0,11:43:24.733397,192.168.0.111
1746,3,11,-17,82,"0,0,-175",0,0,-2,0,0,0,59,63,80,60,100,-13.55,34,1.0,-3.0,-997.0,11:43:24.835330,192.168.0.111
1751,3,11,-17,82,"0,0,-175",0,-1,-2,0,0,0,59,63,81,60,100,-13.56,34,-5.0,0.0,-997.0,11:43:24.937360,192.168.0.111
1756,3,11,-17,82,"0,0,-175",0,0,-2,0,0,0,59,63,80,60,100,-13.51,35,9.0,10.0,-984.0,11:43:25.039245,192.168.0.111
1761,3,12,-20,81,"-1,0,-176",0,0,-2,0,0,0,59,63,81,60,100,-13.48,35,3.0,-8.0,-1006.0,11:43:25.141266,192.168.0.111
1766,3,12,-20,81,"-1,0,-176",0,-1,-2,0,0,0,59,63,81,60,100,-13.57,35,0.0,-1.0,-996.0,11:43:25.243387,192.168.0.111
1771,3,12,-20,81,"-1,0,-176",1,-1,-2,0,0,0,59,62,81,60,100,-13.59,35,-12.0,-2.0,-1008.0,11:43:25.345334,192.168.0.111
1776,3,12,-20,81,"-1,0,-176",0,-1,-2,0,0,0,59,62,81,60,100,-13.59,35,-19.0,-2.0,-991.0,11:43:25.447201,192.168.0.111
1781,3,14,-26,80,"0,0,-174",0,0,-2,0,0,0,59,62,82,60,100,-13.57,35,-9.0,9.0,-1011.0,11:43:25.549376,192.168.0.111
1786,3,14,-26,80,"0,0,-174",0,0,-2,0,0,0,59,62,82,60,100,-13.58,35,3.0,5.0,-993.0,11:43:25.651158,192.168.0.111
1791,3,14,-26,80,"0,0,-174",0,0,-2,0,0,0,59,62,82,60,100,-13.62,35,-9.0,0.0,-991.0,11:43:25.753271,192.168.0.111
1796,3,18,-23,81,"2,0,-177",0,0,-2,0,0,0,59,62,82,60,100,-13.53,35,-10.0,0.0,-1002.0,11:43:25.855274,192.168.0.111
1801,3,18,-23,81,"2,0,-177",0,0,-2,0,0,0,59,62,83,70,100,-13.49,35,2.0,2.0,-985.0,11:43:25.957209,192.168.0.111
1807,3,18,-23,81,"2,0,-177",0,0,-2,0,0,0,59,62,83,70,100,-13.53,36,10.0,3.0,-1008.0,11:43:26.059100,192.168.0.111
1812,3,18,-23,81,"2,0,-177",0,0,-2,0,0,0,59,62,83,70,100,-13.64,36,-4.0,-4.0,-993.0,11:43:26.161325,192.168.0.111
1814,3,19,-24,81,"2,0,-176",0,0,-3,0,0,0,59,62,83,70,100,-13.56,36,-15.0,1.0,-1016.0,11:43:26.212183,192.168.0.111
1822,3,19,-24,81,"2,0,-176",0,0,-3,0,0,0,59,62,82,70,100,-13.68,36,-5.0,-2.0,-987.0,11:43:26.365219,192.168.0.111
1827,3,19,-24,81,"2,0,-176",0,0,-3,0,0,0,59,62,83,70,100,-13.61,36,13.0,-9.0,-996.0,11:43:26.467140,192.168.0.111
1832,3,19,-24,81,"2,0,-176",0,0,-3,0,0,0,59,62,83,70,100,-13.54,36,0.0,6.0,-999.0,11:43:26.569318,192.168.0.111
1834,3,16,-22,83,"0,0,-178",0,0,-3,0,0,0,59,62,82,70,100,-13.52,36,9.0,2.0,-987.0,11:43:26.620288,192.168.0.111
1839,3,16,-22,83,"0,0,-178",0,0,-3,0,0,0,59,62,82,70,100,-13.5,36,16.0,9.0,-990.0,11:43:26.722296,192.168.0.111
1844,3,16,-22,83,"0,0,-178",0,0,-3,0,0,0,59,62,83,70,100,-13.61,36,14.0,3.0,-1014.0,11:43:26.824152,192.168.0.111
1850,3,14,-25,82,"0,0,-175",1,0,-3,0,0,0,59,62,83,70,100,-13.43,36,21.0,12.0,-1000.0,11:43:26.926103,192.168.0.111
1855,3,14,-25,82,"0,0,-175",1,0,-3,0,0,0,59,62,82,70,100,-13.54,37,28.0,5.0,-989.0,11:43:27.028137,192.168.0.111
1860,3,14,-25,82,"0,0,-175",1,0,-3,0,0,0,59,62,83,70,100,-13.58,37,31.0,0.0,-1000.0,11:43:27.131301,192.168.0.111
1865,3,14,-25,82,"0,0,-175",2,0,-3,0,0,0,59,62,82,70,100,-13.57,37,25.0,1.0,-1015.0,11:43:27.231814,192.168.0.111
1870,3,18,-25,81,"0,0,-175",2,0,-3,0,0,0,59,62,82,70,100,-13.57,37,23.0,-11.0,-993.0,11:43:27.333917,192.168.0.111
1875,3,18,-25,81,"0,0,-175",2,0,-3,0,0,0,59,62,83,70,100,-13.53,37,31.0,-3.0,-994.0,11:43:27.436139,192.168.0.111
1880,3,18,-25,81,"0,0,-175",2,0,-3,0,0,0,59,62,83,70,100,-13.66,37,19.0,-8.0,-1000.0,11:43:27.540275,192.168.0.111
1885,3,18,-25,81,"0,0,-175",2,0,-3,0,0,0,59,62,82,70,100,-13.65,37,17.0,-15.0,-998.0,11:43:27.640181,192.168.0.111
1890,3,21,-29,79,"0,0,-173",2,0,-3,0,0,0,59,62,82,70,100,-13.56,37,16.0,-16.0,-997.0,11:43:27.742013,192.168.0.111
1895,3,21,-29,79,"0,0,-173",2,0,-3,0,0,0,59,62,82,70,100,-13.61,37,13.0,-7.0,-1011.0,11:43:27.844271,192.168.0.111
1900,3,21,-29,79,"0,0,-173",1,0,-3,0,0,0,59,62,82,70,100,-13.57,37,31.0,-5.0,-994.0,11:43:27.945992,192.168.0.111
1905,3,21,-29,79,"0,0,-173",1,0,-3,0,0,0,59,62,82,70,100,-13.58,38,34.0,-9.0,-998.0,11:43:28.048069,192.168.0.111
1910,3,20,-26,81,"-1,0,-173",1,0,-3,0,0,0,59,62,82,70,100,-13.55,38,28.0,-11.0,-999.0,11:43:28.149960,192.168.0.111
1916,3,20,-26,81,"-1,0,-173",2,0,-3,0,0,0,59,62,82,70,100,-13.53,38,34.0,-14.0,-1011.0,11:43:28.251933,192.168.0.111
1921,3,20,-26,81,"-1,0,-173",2,0,-3,0,0,0,59,62,82,70,100,-13.56,38,29.0,-12.0,-998.0,11:43:28.353648,192.168.0.111
1926,3,20,-23,82,"-1,0,-175",2,0,-3,0,0,0,59,62,82,70,100,-13.56,38,36.0,-16.0,-994.0,11:43:28.456030,192.168.0.111
1931,3,20,-23,82,"-1,0,-175",2,0,-3,0,0,0,59,62,81,60,100,-13.54,38,29.0,-26.0,-1004.0,11:43:28.558000,192.168.0.111
1936,3,20,-23,82,"-1,0,-175",2,0,-3,0,0,0,59,62,82,60,100,-13.6,38,33.0,-14.0,-996.0,11:43:28.659937,192.168.0.111
1941,3,20,-23,82,"-1,0,-175",2,1,-3,0,0,0,59,62,82,60,100,-13.52,38,34.0,-28.0,-1003.0,11:43:28.762676,192.168.0.111
1946,3,21,-25,81,"-2,0,-173",2,0,-3,0,0,0,59,62,82,60,100,-13.52,38,20.0,-22.0,-1007.0,11:43:28.863918,192.168.0.111
1951,3,21,-25,81,"-2,0,-173",2,0,-3,0,0,0,59,62,81,60,100,-13.57,38,27.0,-11.0,-971.0,11:43:28.965871,192.168.0.111
1956,3,21,-25,81,"-2,0,-173",2,1,-3,0,0,0,59,62,82,60,100,-13.54,39,33.0,-16.0,-1018.0,11:43:29.067860,192.168.0.111
1961,3,21,-25,81,"-2,0,-173",2,0,-3,0,0,0,59,62,82,60,100,-13.53,39,41.0,-28.0,-1039.0,11:43:29.169838,192.168.0.111
1966,3,21,-21,82,"-2,0,-175",2,0,-3,0,0,0,59,62,81,60,100,-13.48,39,22.0,-34.0,-1031.0,11:43:29.271902,192.168.0.111
1971,3,21,-21,82,"-2,0,-175",1,0,-3,0,0,0,60,63,81,60,100,-13.52,39,29.0,-40.0,-1032.0,11:43:29.373499,192.168.0.111
1976,3,21,-21,82,"-2,0,-175",1,1,-3,0,0,0,60,63,81,60,100,-13.53,39,18.0,-34.0,-1023.0,11:43:29.475594,192.168.0.111
1981,3,21,-21,82,"-2,0,-175",1,1,-3,0,0,0,60,63,81,60,100,-13.48,39,20.0,-49.0,-1011.0,11:43:29.577751,192.168.0.111
1986,3,20,-20,82,"-2,0,-175",1,1,-3,0,0,0,60,63,81,60,100,-13.52,39,25.0,-47.0,-1010.0,11:43:29.679720,192.168.0.111
1992,3,20,-20,82,"-2,0,-175",1,2,-3,0,0,0,60,63,81,60,100,-13.51,39,28.0,-44.0,-1000.0,11:43:29.781520,192.168.0.111
1997,3,20,-20,82,"-2,0,-175",0,2,-3,0,0,0,60,63,81,60,100,-13.48,39,25.0,-43.0,-991.0,11:43:29.883674,192.168.0.111
2002,3,19,-22,80,"-1,0,-172",1,2,-3,0,0,0,60,63,81,60,100,-13.49,39,25.0,-48.0,-1009.0,11:43:29.985708,192.168.0.111
2004,3,19,-22,80,"-1,0,-172",1,2,-3,0,0,0,60,63,81,60,100,-13.6,40,14.0,-51.0,-1017.0,11:43:30.036591,192.168.0.111
2009,3,19,-22,80,"-1,0,-172",1,1,-2,0,0,0,60,63,81,60,100,-13.55,40,-5.0,-41.0,-1002.0,11:43:30.138716,192.168.0.111
2014,3,19,-22,80,"-1,0,-172",0,2,-2,0,0,0,60,63,81,60,100,-13.5,40,-28.0,-38.0,-993.0,11:43:30.240778,192.168.0.111
2019,3,15,-18,82,"-3,0,-173",0,3,-2,0,0,0,60,63,81,60,100,-13.47,40,-36.0,-1.0,-963.0,11:43:30.342675,192.168.0.111
2024,3,15,-18,82,"-3,0,-173",0,2,-1,1,0,0,60,63,81,60,100,-13.48,40,0.0,92.0,-1124.0,11:43:30.445370,192.168.0.111
2030,3,15,-18,82,"-3,0,-173",0,0,-1,1,-1,0,60,63,82,60,100,-13.54,40,-69.0,94.0,-1016.0,11:43:30.547500,192.168.0.111
2035,3,15,-18,82,"-3,0,-173",-1,0,-2,1,-1,0,60,63,82,60,100,-13.59,40,-36.0,-16.0,-948.0,11:43:30.652327,192.168.0.111
2040,3,13,-15,83,"-1,0,-173",-1,0,-2,1,-1,0,60,63,83,70,100,-13.63,40,-11.0,-38.0,-950.0,11:43:30.762003,192.168.0.111
2045,3,13,-15,83,"-1,0,-173",-2,-2,-2,1,0,0,60,63,83,70,100,-13.76,40,-50.0,-42.0,-985.0,11:43:30.853843,192.168.0.111
2050,3,13,-15,83,"-1,0,-173",-3,-2,-2,1,0,0,60,63,82,70,100,-13.68,40,-47.0,-27.0,-953.0,11:43:30.955647,192.168.0.111
2055,3,11,-16,84,"1,0,-179",-3,0,-2,1,0,0,60,63,83,70,100,-13.79,41,-34.0,-9.0,-1000.0,11:43:31.057591,192.168.0.111
2060,3,11,-16,84,"1,0,-179",-3,0,-2,1,0,0,60,63,81,70,100,-13.73,41,-43.0,7.0,-1004.0,11:43:31.159595,192.168.0.111
2065,3,11,-16,84,"1,0,-179",-3,0,-2,0,0,0,60,63,82,70,100,-13.7,41,-42.0,-17.0,-997.0,11:43:31.261793,192.168.0.111
2070,3,11,-16,84,"1,0,-179",-3,0,-2,0,0,0,60,62,82,70,100,-13.66,41,-24.0,-10.0,-1013.0,11:43:31.363654,192.168.0.111
2075,3,8,-16,84,"4,1,179",-2,0,-3,0,0,0,60,62,81,60,100,-13.56,41,-49.0,-15.0,-994.0,11:43:31.465906,192.168.0.111
2080,3,8,-16,84,"4,1,179",-2,0,-3,0,0,0,60,62,80,60,100,-13.67,41,-59.0,-11.0,-980.0,11:43:31.567324,192.168.0.111
2086,3,8,-16,84,"4,1,179",-2,0,-3,0,0,0,60,62,80,60,100,-13.63,41,-38.0,-8.0,-1032.0,11:43:31.669374,192.168.0.111
2090,3,8,-16,84,"4,1,179",-2,0,-3,0,0,0,60,62,80,60,100,-13.58,41,-49.0,-8.0,-1015.0,11:43:31.771506,192.168.0.111
2095,3,6,-18,82,"4,1,180",-1,0,-2,0,0,0,60,62,80,60,100,-13.71,41,-47.0,-16.0,-1021.0,11:43:31.873501,192.168.0.111
2101,3,6,-18,82,"4,1,180",-2,0,-3,0,0,0,60,62,79,60,100,-13.68,41,-35.0,-27.0,-1040.0,11:43:31.975295,192.168.0.111
2106,3,6,-18,82,"4,1,180",-2,0,-3,0,0,0,60,62,80,60,100,-13.57,42,-30.0,-25.0,-1015.0,11:43:32.078698,192.168.0.111
2111,3,6,-18,82,"4,1,180",-2,0,-3,0,0,0,60,62,80,60,100,-13.66,42,-19.0,-20.0,-1013.0,11:43:32.179395,192.168.0.111
2116,3,6,-19,81,"3,1,-179",-1,0,-3,0,0,0,60,62,79,60,100,-13.53,42,-20.0,-12.0,-996.0,11:43:32.281597,192.168.0.111
2121,3,6,-19,81,"3,1,-179",-1,0,-3,0,0,0,60,63,80,60,100,-13.65,42,-19.0,-13.0,-1009.0,11:43:32.383383,192.168.0.111
2126,3,6,-19,81,"3,1,-179",0,0,-3,0,0,0,60,63,80,60,100,-13.69,42,-27.0,-7.0,-992.0,11:43:32.485405,192.168.0.111
2131,3,6,-19,81,"3,1,-179",0,0,-3,0,0,0,60,63,80,60,100,-13.52,42,-22.0,-12.0,-1007.0,11:43:32.587411,192.168.0.111
2136,3,8,-19,81,"3,1,-178",0,0,-3,0,0,0,60,63,81,60,100,-13.46,42,-30.0,-13.0,-1004.0,11:43:32.690786,192.168.0.111
2141,3,8,-19,81,"3,1,-178",0,0,-3,0,0,0,60,63,81,60,100,-13.45,42,-20.0,-17.0,-1001.0,11:43:32.791377,192.168.0.111
2146,3,8,-19,81,"3,1,-178",0,1,-3,0,0,0,60,63,81,60,100,-13.43,42,4.0,-22.0,-969.0,11:43:32.893315,192.168.0.111
2151,3,12,-23,79,"3,1,-175",0,1,-3,0,0,0,60,63,81,60,100,-13.52,42,-5.0,-9.0,-987.0,11:43:32.995238,192.168.0.111
2154,3,12,-23,79,"3,1,-175",1,0,-3,0,0,0,60,63,81,60,100,-13.46,43,12.0,-5.0,-990.0,11:43:33.046151,192.168.0.111
2159,3,12,-23,79,"3,1,-175",1,0,-3,0,0,0,60,63,81,60,100,-13.49,43,17.0,-4.0,-994.0,11:43:33.148986,192.168.0.111
2164,3,12,-23,79,"3,1,-175",1,0,-3,0,0,0,60,63,81,60,100,-13.49,43,11.0,-2.0,-992.0,11:43:33.250226,192.168.0.111
2169,3,13,-26,79,"1,0,-173",1,0,-3,0,0,0,60,63,82,60,100,-13.35,43,-3.0,-10.0,-1008.0,11:43:33.352300,192.168.0.111
2174,3,13,-26,79,"1,0,-173",1,0,-3,0,0,0,60,63,81,60,100,-13.39,43,19.0,-15.0,-995.0,11:43:33.454267,192.168.0.111
2179,3,13,-26,79,"1,0,-173",1,0,-3,0,0,0,60,63,82,60,100,-13.31,43,20.0,-18.0,-971.0,11:43:33.556305,192.168.0.111
2184,3,13,-26,79,"1,0,-173",2,0,-3,0,0,0,60,63,82,60,100,-13.31,43,14.0,-13.0,-979.0,11:43:33.658820,192.168.0.111
2189,3,17,-23,81,"0,1,-177",2,0,-3,0,0,0,60,63,82,60,100,-13.34,43,24.0,-14.0,-1011.0,11:43:33.760967,192.168.0.111
2194,3,17,-23,81,"0,1,-177",2,0,-3,0,0,0,60,63,81,60,100,-13.42,43,21.0,2.0,-1004.0,11:43:33.862273,192.168.0.111
2200,3,17,-23,81,"0,1,-177",1,0,-3,0,0,0,60,63,82,60,100,-13.38,43,10.0,-11.0,-1000.0,11:43:33.964422,192.168.0.111
2205,3,21,-25,81,"0,0,-175",1,0,-3,0,0,0,60,63,82,70,100,-13.33,44,13.0,7.0,-993.0,11:43:34.066252,192.168.0.111
2210,3,21,-25,81,"0,0,-175",1,0,-3,0,0,0,60,63,82,70,100,-13.4,44,21.0,-10.0,-994.0,11:43:34.168300,192.168.0.111
2215,3,21,-25,81,"0,0,-175",1,0,-3,0,0,0,60,63,82,70,100,-13.34,44,17.0,-3.0,-1008.0,11:43:34.270144,192.168.0.111
2220,3,21,-25,81,"0,0,-175",2,0,-3,0,0,0,60,63,82,70,100,-13.26,44,9.0,0.0,-991.0,11:43:34.372185,192.168.0.111
2225,3,25,-28,78,"2,0,-173",1,0,-3,0,0,0,60,63,81,70,100,-13.32,44,3.0,-12.0,-984.0,11:43:34.474074,192.168.0.111
2230,3,25,-28,78,"2,0,-173",0,0,-3,0,0,0,60,63,82,70,100,-13.24,44,4.0,-3.0,-1002.0,11:43:34.576139,192.168.0.111
2235,3,25,-28,78,"2,0,-173",0,0,-2,0,0,0,60,63,82,70,100,-13.32,44,18.0,-3.0,-1018.0,11:43:34.678982,192.168.0.111
2240,3,25,-28,78,"2,0,-173",0,0,-2,0,0,0,60,63,82,60,100,-13.31,44,20.0,-4.0,-991.0,11:43:34.780056,192.168.0.111
2245,3,16,-31,81,"-4,0,-173",1,0,-2,0,0,0,60,63,81,60,100,-13.28,44,25.0,0.0,-1000.0,11:43:34.882036,192.168.0.111
2250,3,16,-31,81,"-4,0,-173",1,0,-2,0,0,0,60,63,81,70,100,-13.22,45,30.0,-9.0,-998.0,11:43:34.984072,192.168.0.111
2256,3,16,-31,81,"-4,0,-173",1,0,-3,0,0,0,60,63,81,70,100,-13.26,45,40.0,-6.0,-987.0,11:43:35.086039,192.168.0.111
2261,3,16,-31,81,"-4,0,-173",2,0,-3,0,0,0,60,63,81,70,100,-13.29,45,47.0,-3.0,-986.0,11:43:35.187963,192.168.0.111
2266,3,23,-26,81,"2,0,-176",2,0,-3,0,0,0,60,63,81,70,100,-13.34,45,46.0,1.0,-1004.0,11:43:35.289976,192.168.0.111
2271,3,23,-26,81,"2,0,-176",2,0,-3,0,0,0,60,64,81,60,100,-13.2,45,40.0,-3.0,-1009.0,11:43:35.391454,192.168.0.111
2276,3,23,-26,81,"2,0,-176",3,0,-3,0,0,0,60,64,81,60,100,-13.22,45,48.0,-8.0,-1009.0,11:43:35.494464,192.168.0.111
2281,3,20,-29,81,"-1,0,-174",3,0,-3,0,0,0,60,64,81,60,100,-13.29,45,49.0,-21.0,-998.0,11:43:35.596046,192.168.0.111
2286,3,20,-29,81,"-1,0,-174",3,0,-3,0,0,0,60,64,82,60,100,-13.32,45,38.0,-10.0,-1008.0,11:43:35.698054,192.168.0.111
2291,3,20,-29,81,"-1,0,-174",3,0,-3,0,0,0,60,64,81,60,100,-13.4,45,39.0,-11.0,-1017.0,11:43:35.800633,192.168.0.111
2296,3,20,-29,81,"-1,0,-174",3,0,-2,0,0,0,60,64,81,60,100,-13.27,45,47.0,-7.0,-994.0,11:43:35.901910,192.168.0.111
2301,3,21,-27,82,"-3,0,-175",3,0,-2,0,0,0,60,64,81,60,100,-13.29,46,36.0,-16.0,-1010.0,11:43:36.003923,192.168.0.111
2306,3,21,-27,82,"-3,0,-175",3,0,-2,0,0,0,60,64,81,60,100,-13.27,46,50.0,-7.0,-1008.0,11:43:36.105816,192.168.0.111
2312,3,21,-27,82,"-3,0,-175",3,0,-2,0,0,0,60,64,81,60,100,-13.35,46,52.0,-7.0,-996.0,11:43:36.207931,192.168.0.111
2317,3,21,-27,82,"-3,0,-175",3,0,-2,0,0,0,60,64,81,60,100,-13.29,46,45.0,-18.0,-1006.0,11:43:36.313201,192.168.0.111
2322,3,24,-27,81,"-1,0,-175",3,0,-2,0,0,0,60,64,81,60,100,-13.23,46,37.0,-15.0,-993.0,11:43:36.412111,192.168.0.111
2327,3,24,-27,81,"-1,0,-175",3,1,-2,0,0,0,60,64,81,60,100,-13.25,46,41.0,-8.0,-984.0,11:43:36.513845,192.168.0.111
2331,3,24,-27,81,"-1,0,-175",3,1,-2,0,0,0,60,64,81,60,100,-13.26,46,42.0,-22.0,-1009.0,11:43:36.615843,192.168.0.111
2337,3,24,-27,81,"-1,0,-175",2,0,-2,0,0,0,60,64,80,60,100,-13.25,46,32.0,-20.0,-1004.0,11:43:36.718353,192.168.0.111
2339,3,23,-26,82,"-2,0,-176",2,0,-2,0,0,0,60,64,80,60,100,-13.27,46,40.0,-26.0,-1008.0,11:43:36.768745,192.168.0.111
2344,3,23,-26,82,"-2,0,-176",2,1,-2,0,0,0,60,64,80,60,100,-13.28,46,32.0,-29.0,-1003.0,11:43:36.870897,192.168.0.111
2350,3,23,-26,82,"-2,0,-176",2,1,-3,0,0,0,60,64,81,60,100,-13.32,47,32.0,-17.0,-1002.0,11:43:36.972810,192.168.0.111
2355,3,20,-26,81,"-3,0,-174",2,1,-2,0,0,0,60,64,81,60,100,-13.25,47,59.0,-7.0,-984.0,11:43:37.074655,192.168.0.111
2359,3,20,-26,81,"-3,0,-174",2,0,-2,0,0,0,60,64,81,60,100,-13.32,47,30.0,-23.0,-1001.0,11:43:37.176609,192.168.0.111
2365,3,20,-26,81,"-3,0,-174",2,1,-2,0,0,0,60,64,81,60,100,-13.29,47,29.0,-33.0,-1005.0,11:43:37.279065,192.168.0.111
2370,3,20,-26,81,"-3,0,-174",1,1,-2,0,0,0,60,63,80,60,100,-13.31,47,27.0,-24.0,-994.0,11:43:37.380833,192.168.0.111
2375,3,20,-26,81,"-2,0,-173",1,1,-2,0,0,0,60,63,80,60,100,-13.27,47,37.0,-39.0,-978.0,11:43:37.482743,192.168.0.111
2380,3,20,-26,81,"-2,0,-173",1,1,-2,0,0,0,60,63,80,60,100,-13.25,47,46.0,-28.0,-988.0,11:43:37.584612,192.168.0.111
2385,3,20,-26,81,"-2,0,-173",2,1,-2,0,0,0,60,63,80,60,100,-13.2,47,24.0,-25.0,-998.0,11:43:37.686276,192.168.0.111
2390,3,20,-26,81,"-2,0,-173",2,0,-2,0,0,0,60,63,80,60,100,-13.19,47,34.0,-32.0,-1017.0,11:43:37.788738,192.168.0.111
2395,3,20,-22,81,"-1,0,-175",1,0,-2,0,0,0,60,63,80,60,100,-13.19,47,23.0,-27.0,-964.0,11:43:37.890668,192.168.0.111
2400,3,20,-22,81,"-1,0,-175",2,1,-2,0,0,0,60,63,80,60,100,-13.16,48,5.0,-22.0,-992.0,11:43:37.992641,192.168.0.111
2405,3,20,-22,81,"-1,0,-175",2,1,-2,0,0,0,60,63,79,60,100,-13.15,48,28.0,-31.0,-998.0,11:43:38.094555,192.168.0.111
2410,3,18,-23,80,"-2,0,-174",2,1,-1,0,0,0,60,63,78,60,100,-13.15,48,0.0,0.0,-1015.0,11:43:38.196618,192.168.0.111
2415,3,18,-23,80,"-2,0,-174",1,0,-2,0,0,0,60,63,78,60,100,-13.22,48,3.0,6.0,-1030.0,11:43:38.298804,192.168.0.111
2420,3,18,-23,80,"-2,0,-174",1,0,-2,0,0,0,61,64,78,60,100,-13.15,48,4.0,7.0,-1003.0,11:43:38.400978,192.168.0.111
2426,3,18,-23,80,"-2,0,-174",0,0,-2,0,0,0,61,64,78,60,100,-13.07,48,11.0,1.0,-1014.0,11:43:38.503415,192.168.0.111
2431,3,18,-23,80,"-2,0,-174",0,0,-1,0,0,0,61,64,78,60,100,-13.14,48,1.0,12.0,-1001.0,11:43:38.605919,192.168.0.111
2436,3,18,-23,80,"-2,0,-174",0,0,-1,1,0,0,61,64,78,60,100,-13.14,48,0.0,5.0,-995.0,11:43:38.708739,192.168.0.111
2441,3,18,-23,80,"-2,0,-174",0,-1,-1,1,0,0,61,64,79,60,100,-13.17,48,-21.0,4.0,-991.0,11:43:38.810678,192.168.0.111
2446,3,18,-23,80,"-2,0,-174",0,-1,-2,1,0,0,61,64,79,60,100,-13.24,48,11.0,-12.0,-991.0,11:43:38.910617,192.168.0.111
2451,3,16,-25,78,"0,0,-176",0,-1,-2,0,0,0,61,64,79,60,100,-13.29,49,15.0,16.0,-979.0,11:43:39.012755,192.168.0.111
2456,3,16,-25,78,"0,0,-176",0,-1,-2,0,0,0,61,64,78,60,100,-13.37,49,-9.0,21.0,-1014.0,11:43:39.114586,192.168.0.111
2461,3,16,-25,78,"0,0,-176",0,-2,-2,0,0,0,61,64,78,60,100,-13.35,49,4.0,5.0,-1033.0,11:43:39.216521,192.168.0.111
2466,3,14,-33,75,"2,0,-173",0,-3,-2,0,0,0,61,64,78,60,100,-13.28,49,-8.0,-13.0,-1004.0,11:43:39.318468,192.168.0.111
2471,3,14,-33,75,"2,0,-173",0,-1,-2,0,0,0,61,64,78,60,100,-13.18,49,6.0,-9.0,-986.0,11:43:39.420141,192.168.0.111
2476,3,14,-33,75,"2,0,-173",0,0,-1,0,0,0,61,64,79,60,100,-13.22,49,0.0,12.0,-983.0,11:43:39.521748,192.168.0.111
2481,3,14,-33,75,"2,0,-173",0,-1,0,0,0,0,61,64,78,60,100,-13.18,49,2.0,8.0,-996.0,11:43:39.624229,192.168.0.111
2486,4,-10,45,75,"0,4,171",0,0,0,0,0,0,61,64,78,60,100,-13.16,49,11.0,14.0,-960.0,11:43:39.726460,192.168.0.111
2492,4,-10,45,75,"0,4,171",1,-1,0,0,0,0,61,64,78,60,100,-13.21,49,-12.0,-4.0,-1015.0,11:43:39.828527,192.168.0.111
2497,4,-10,45,75,"0,4,171",0,-1,1,0,0,0,61,64,77,60,100,-13.31,49,-18.0,-8.0,-1019.0,11:43:39.929853,192.168.0.111
2502,4,-10,45,75,"0,4,171",0,0,1,0,0,0,61,64,77,60,100,-13.34,50,-22.0,-11.0,-997.0,11:43:40.032328,192.168.0.111
2504,3,11,-33,76,"0,-2,-173",0,0,-2,0,0,0,61,64,77,60,100,-13.3,50,-4.0,-31.0,-1011.0,11:43:40.083446,192.168.0.111
2509,3,11,-33,76,"0,-2,-173",0,0,-4,0,1,0,61,64,77,60,100,-13.1,50,-21.0,-2.0,-1045.0,11:43:40.185458,192.168.0.111
2514,3,11,-33,76,"0,-2,-173",0,1,-4,0,1,0,61,64,78,60,100,-13.19,50,-2.0,-26.0,-1023.0,11:43:40.287234,192.168.0.111
2520,3,11,-33,76,"0,-2,-173",0,1,-3,0,1,0,61,63,78,60,100,-13.16,50,-19.0,-7.0,-997.0,11:43:40.389205,192.168.0.111
2525,3,11,-33,76,"0,-2,-173",0,1,-3,0,0,0,61,63,79,60,100,-13.05,50,15.0,-40.0,-944.0,11:43:40.491198,192.168.0.111
2530,3,11,-33,76,"0,-2,-173",0,1,-3,0,1,0,61,63,80,60,100,-13.19,50,25.0,-38.0,-978.0,11:43:40.593334,192.168.0.111
2535,3,11,-33,76,"0,-2,-173",1,2,-4,0,1,0,61,63,80,60,100,-13.19,50,20.0,-35.0,-979.0,11:43:40.695436,192.168.0.111
2540,3,14,-26,78,"1,2,-174",1,2,-4,0,0,0,61,63,80,60,100,-13.11,50,33.0,-29.0,-1022.0,11:43:40.799446,192.168.0.111
2545,3,14,-26,78,"1,2,-174",2,2,-3,0,0,0,61,63,81,60,100,-13.14,50,19.0,-34.0,-982.0,11:43:40.900818,192.168.0.111
2550,3,14,-26,78,"1,2,-174",2,1,-3,0,0,0,61,63,82,70,100,-13.12,51,43.0,-34.0,-1003.0,11:43:41.002077,192.168.0.111
2555,3,14,-26,78,"1,2,-174",2,1,-3,0,0,0,61,63,82,70,100,-13.11,51,9.0,-42.0,-980.0,11:43:41.103322,192.168.0.111
2560,3,10,-21,82,"-2,2,-175",2,1,-3,0,0,0,61,63,83,70,100,-13.06,51,29.0,-50.0,-959.0,11:43:41.205638,192.168.0.111
2565,3,10,-21,82,"-2,2,-175",2,1,-3,0,0,0,61,63,83,70,100,-13.16,51,34.0,-40.0,-976.0,11:43:41.307339,192.168.0.111
2570,3,10,-21,82,"-2,2,-175",2,1,-3,0,0,0,61,63,82,70,100,-13.16,51,41.0,-32.0,-975.0,11:43:41.409191,192.168.0.111
2575,3,10,-21,82,"-2,2,-175",2,2,-3,0,0,0,61,63,82,70,100,-13.17,51,27.0,-35.0,-985.0,11:43:41.511883,192.168.0.111
2580,3,12,-20,84,"-3,1,-176",1,2,-3,0,0,0,61,63,82,70,100,-13.14,51,18.0,-31.0,-1024.0,11:43:41.614005,192.168.0.111
2586,3,12,-20,84,"-3,1,-176",1,1,-3,0,0,0,61,63,82,70,100,-13.18,51,-166.0,121.0,-1027.0,11:43:41.716236,192.168.0.111
2590,3,12,-20,84,"-3,1,-176",1,1,-3,0,0,0,61,63,83,70,100,-13.19,51,22.0,-33.0,-1000.0,11:43:41.818194,192.168.0.111
2595,3,12,-20,84,"-3,1,-176",1,1,-3,0,0,0,61,63,83,70,100,-13.12,51,21.0,-42.0,-1005.0,11:43:41.920364,192.168.0.111
2600,3,17,-25,81,"-1,1,-170",2,1,-3,0,0,0,61,63,83,70,100,-13.28,52,34.0,-30.0,-990.0,11:43:42.021977,192.168.0.111
2606,3,17,-25,81,"-1,1,-170",1,1,-3,0,0,0,61,63,83,70,100,-13.3,52,19.0,-21.0,-997.0,11:43:42.124165,192.168.0.111
2611,3,17,-25,81,"-1,1,-170",1,1,-3,0,0,0,61,63,83,70,100,-13.3,52,18.0,-34.0,-1000.0,11:43:42.226088,192.168.0.111
