,mid,x,y,z,mpry,pitch,roll,yaw,vgx,vgy,vgz,templ,temph,tof,h,bat,baro,time,agx,agy,agz,timestamp,address
0,-1,-100,-100,-100,"0,0,0",0,0,0,0,0,0,60,62,10,0,100,-14.92,0,-5.0,-7.0,-1004.0,11:42:49.826298,192.168.0.114
5,-1,-100,-100,-100,"0,0,0",0,0,0,0,0,0,61,62,10,0,100,-14.91,0,-4.0,-6.0,-998.0,11:42:49.926223,192.168.0.114
10,-1,-100,-100,-100,"0,0,0",0,0,0,0,0,0,61,62,10,0,100,-14.93,0,-6.0,-3.0,-1001.0,11:42:50.028291,192.168.0.114
15,-1,-100,-100,-100,"0,0,0",0,0,0,0,0,0,61,62,10,0,100,-14.93,0,2.0,-8.0,-995.0,11:42:50.130783,192.168.0.114
20,-1,-100,-100,-100,"0,0,0",0,0,0,0,0,0,61,62,10,0,100,-14.93,0,8.0,5.0,-994.0,11:42:50.232208,192.168.0.114
25,-1,-100,-100,-100,"0,0,0",0,0,0,0,0,0,61,62,10,0,100,-14.93,0,10.0,-26.0,-1046.0,11:42:50.334359,192.168.0.114
30,-1,-100,-100,-100,"0,0,0",0,0,0,0,0,0,61,62,10,0,100,-14.93,0,-8.0,-16.0,-1212.0,11:42:50.435968,192.168.0.114
36,-1,-100,-100,-100,"0,0,0",0,0,0,0,0,1,61,62,10,0,100,-14.93,0,-18.0,-40.0,-1420.0,11:42:50.538646,192.168.0.114
42,-1,-100,-100,-100,"0,0,0",0,1,0,0,0,4,61,62,10,0,100,-14.93,0,-52.0,-30.0,-1225.0,11:42:50.640354,192.168.0.114
47,-1,-100,-100,-100,"0,0,0",-1,1,0,0,0,7,61,62,13,0,100,-14.82,0,-58.0,-54.0,-1078.0,11:42:50.742402,192.168.0.114
52,-1,-100,-100,-100,"0,0,0",-1,1,0,0,0,8,61,62,21,10,100,-14.48,0,-97.0,-43.0,-1001.0,11:42:50.844456,192.168.0.114
57,-1,-100,-100,-100,"0,0,0",-2,2,0,1,0,8,61,62,29,20,100,-14.49,0,-102.0,-20.0,-936.0,11:42:50.946255,192.168.0.114
62,-1,-100,-100,-100,"0,0,0",-5,2,0,1,0,7,61,62,37,30,100,-14.48,1,-56.0,0.0,-931.0,11:42:51.048239,192.168.0.114
67,-1,-100,-100,-100,"0,0,0",-5,3,0,1,0,6,61,62,45,30,100,-14.32,1,-60.0,36.0,-878.0,11:42:51.150195,192.168.0.114
72,-1,-100,-100,-100,"0,0,0",-5,1,0,1,0,5,61,62,51,40,100,-14.37,1,-58.0,-7.0,-926.0,11:42:51.252273,192.168.0.114
77,-1,-100,-100,-100,"0,0,0",-5,-1,0,1,0,4,61,62,57,40,100,-14.38,1,-67.0,12.0,-934.0,11:42:51.354313,192.168.0.114
83,-1,-100,-100,-100,"0,0,0",-4,0,1,1,0,3,61,62,62,50,100,-14.31,1,-59.0,39.0,-899.0,11:42:51.456186,192.168.0.114
88,-1,-100,-100,-100,"0,0,0",-4,0,0,0,-1,2,61,62,65,50,100,-14.27,1,-79.0,16.0,-964.0,11:42:51.559255,192.168.0.114
93,-1,-100,-100,-100,"0,0,0",-5,-1,0,0,-1,2,61,62,68,50,100,-14.26,1,-71.0,12.0,-957.0,11:42:51.660255,192.168.0.114
99,-1,-100,-100,-100,"0,0,0",-5,-2,0,0,0,1,61,62,70,60,100,-14.22,1,-78.0,-23.0,-1015.0,11:42:51.762165,192.168.0.114
104,-1,-100,-100,-100,"0,0,0",-5,-1,0,0,0,1,61,62,73,60,100,-14.25,1,-73.0,16.0,-950.0,11:42:51.864240,192.168.0.114
109,-1,-100,-100,-100,"0,0,0",-5,0,0,0,0,1,60,63,75,60,100,-14.13,1,-92.0,64.0,-918.0,11:42:51.966103,192.168.0.114
114,-1,-100,-100,-100,"0,0,0",-4,0,0,0,0,1,60,63,77,60,100,-14.29,2,-89.0,34.0,-968.0,11:42:52.068017,192.168.0.114
119,-1,-100,-100,-100,"0,0,0",-5,-2,0,0,0,0,60,63,79,60,100,-14.34,2,-97.0,17.0,-1013.0,11:42:52.170948,192.168.0.114
124,-1,-100,-100,-100,"0,0,0",-5,-2,0,0,0,0,60,63,80,60,100,-14.2,2,-84.0,-6.0,-990.0,11:42:52.282452,192.168.0.114
129,-1,-100,-100,-100,"0,0,0",-5,-2,0,0,0,0,60,63,81,70,100,-14.01,2,-49.0,-1.0,-939.0,11:42:52.374002,192.168.0.114
130,-1,-100,-100,-100,"0,0,0",-5,0,0,0,0,0,60,63,82,70,100,-14.14,2,-55.0,5.0,-1011.0,11:42:52.427491,192.168.0.114
135,-1,-100,-100,-100,"0,0,0",-5,0,0,0,0,0,60,63,83,70,100,-14.05,2,-55.0,-2.0,-1011.0,11:42:52.530053,192.168.0.114
140,-1,-100,-100,-100,"0,0,0",-4,-1,0,0,0,0,60,63,84,70,100,-14.09,2,-61.0,-4.0,-959.0,11:42:52.629045,192.168.0.114
145,-1,-100,-100,-100,"0,0,0",-4,0,0,0,0,0,60,63,84,70,100,-14.06,2,-50.0,-4.0,-1009.0,11:42:52.731407,192.168.0.114
150,-1,-100,-100,-100,"0,0,0",-4,0,0,0,0,0,60,63,85,70,100,-14.18,2,-64.0,-10.0,-1007.0,11:42:52.832892,192.168.0.114
155,-1,-100,-100,-100,"0,0,0",-4,0,0,0,0,0,60,63,85,70,100,-14.27,2,-85.0,7.0,-973.0,11:42:52.935133,192.168.0.114
160,-1,-100,-100,-100,"0,0,0",-4,0,0,0,0,0,60,63,85,70,100,-14.06,3,-66.0,-4.0,-964.0,11:42:53.037074,192.168.0.114
167,-1,-100,-100,-100,"0,0,0",-4,0,0,0,0,0,60,63,86,70,100,-14.04,3,-41.0,-2.0,-977.0,11:42:53.138785,192.168.0.114
172,-1,-100,-100,-100,"0,0,0",-3,0,0,0,0,0,60,63,86,70,100,-14.02,3,-27.0,10.0,-971.0,11:42:53.240888,192.168.0.114
177,-1,-100,-100,-100,"0,0,0",-3,0,0,0,0,0,60,63,85,70,100,-14.0,3,-21.0,-2.0,-989.0,11:42:53.342706,192.168.0.114
182,-1,-100,-100,-100,"0,0,0",-2,0,0,-1,0,0,60,63,85,70,100,-13.97,3,-33.0,22.0,-986.0,11:42:53.445177,192.168.0.114
187,-1,-100,-100,-100,"0,0,0",-2,0,0,-1,0,0,60,63,85,70,100,-13.96,3,-23.0,42.0,-975.0,11:42:53.546742,192.168.0.114
192,-1,-100,-100,-100,"0,0,0",-1,0,0,-1,0,0,60,63,85,70,100,-14.11,3,-50.0,20.0,-971.0,11:42:53.648873,192.168.0.114
197,-1,-100,-100,-100,"0,0,0",-1,-1,0,0,0,0,60,63,85,70,100,-14.3,3,-44.0,-4.0,-1009.0,11:42:53.750765,192.168.0.114
202,-1,-100,-100,-100,"0,0,0",-2,-1,0,0,0,0,60,63,85,70,100,-14.07,3,-37.0,15.0,-992.0,11:42:53.852652,192.168.0.114
208,-1,-100,-100,-100,"0,0,0",-2,-1,0,0,0,0,61,63,84,70,100,-14.05,3,-19.0,1.0,-1010.0,11:42:53.954837,192.168.0.114
213,-1,-100,-100,-100,"0,0,0",-1,-1,0,0,0,0,61,63,84,70,100,-14.19,4,-39.0,-14.0,-1006.0,11:42:54.056612,192.168.0.114
218,-1,-100,-100,-100,"0,0,0",-2,0,0,0,0,0,61,63,84,70,100,-14.29,4,-53.0,10.0,-970.0,11:42:54.159223,192.168.0.114
223,-1,-100,-100,-100,"0,0,0",-2,0,0,0,0,0,61,63,84,70,100,-14.19,4,-65.0,1.0,-972.0,11:42:54.260590,192.168.0.114
229,-1,-100,-100,-100,"0,0,0",-2,0,0,0,0,0,61,63,84,70,100,-14.26,4,-69.0,31.0,-956.0,11:42:54.363244,192.168.0.114
234,-1,-100,-100,-100,"0,0,0",-3,0,0,0,0,0,61,63,84,70,100,-14.27,4,-33.0,19.0,-1003.0,11:42:54.464560,192.168.0.114
239,-1,-100,-100,-100,"0,0,0",-4,0,0,0,0,0,61,63,84,70,100,-14.16,4,-41.0,11.0,-972.0,11:42:54.566613,192.168.0.114
244,-1,-100,-100,-100,"0,0,0",-3,0,0,0,0,0,61,63,84,70,100,-14.34,4,-60.0,7.0,-1011.0,11:42:54.668452,192.168.0.114
249,-1,-100,-100,-100,"0,0,0",-3,-1,0,0,0,0,61,63,83,70,100,-14.2,4,-75.0,-32.0,-1041.0,11:42:54.777775,192.168.0.114
254,-1,-100,-100,-100,"0,0,0",-3,-1,0,0,0,0,61,63,83,70,100,-14.09,4,-49.0,-23.0,-990.0,11:42:54.872628,192.168.0.114
259,-1,-100,-100,-100,"0,0,0",-3,0,0,0,0,0,61,63,83,70,100,-14.14,4,-43.0,53.0,-926.0,11:42:54.974502,192.168.0.114
264,-1,-100,-100,-100,"0,0,0",-3,2,0,0,0,0,61,63,82,70,100,-14.17,5,-57.0,24.0,-1030.0,11:42:55.076496,192.168.0.114
269,-1,-100,-100,-100,"0,0,0",-4,0,0,0,0,0,61,63,82,70,100,-14.09,5,-53.0,30.0,-954.0,11:42:55.178484,192.168.0.114
274,-1,-100,-100,-100,"0,0,0",-3,0,0,0,0,0,61,63,82,70,100,-14.29,5,-75.0,5.0,-1049.0,11:42:55.280532,192.168.0.114
279,-1,-100,-100,-100,"0,0,0",-3,-2,0,0,0,0,61,63,82,70,100,-14.22,5,-66.0,-50.0,-1035.0,11:42:55.382202,192.168.0.114
284,-1,-100,-100,-100,"0,0,0",-4,-2,0,0,0,0,61,63,81,70,100,-14.25,5,-59.0,-18.0,-967.0,11:42:55.484453,192.168.0.114
289,-1,-100,-100,-100,"0,0,0",-3,0,0,0,0,0,61,63,81,70,100,-14.37,5,-52.0,1.0,-1005.0,11:42:55.586426,192.168.0.114
294,-1,-100,-100,-100,"0,0,0",-4,1,1,0,0,0,61,63,81,70,100,-14.35,5,-63.0,9.0,-1006.0,11:42:55.688615,192.168.0.114
299,-1,-100,-100,-100,"0,0,0",-4,0,0,0,0,0,61,63,81,70,100,-14.32,5,-83.0,45.0,-1000.0,11:42:55.790562,192.168.0.114
302,-1,-100,-100,-100,"0,0,0",-4,-1,0,0,0,0,61,63,80,70,100,-14.38,5,-76.0,14.0,-1053.0,11:42:55.841543,192.168.0.114
309,-1,-100,-100,-100,"0,0,0",-4,-2,0,0,0,0,61,63,81,70,100,-14.3,5,-73.0,5.0,-1026.0,11:42:55.994347,192.168.0.114
312,-1,-100,-100,-100,"0,0,0",-4,-1,0,0,0,0,61,63,81,70,100,-14.52,6,-89.0,56.0,-982.0,11:42:56.047553,192.168.0.114
317,-1,-100,-100,-100,"0,0,0",-4,-1,0,0,0,0,61,63,81,70,100,-14.39,6,-48.0,52.0,-944.0,11:42:56.147485,192.168.0.114
322,-1,-100,-100,-100,"0,0,0",-5,-1,0,0,0,0,61,63,81,70,100,-14.37,6,-51.0,41.0,-1049.0,11:42:56.249552,192.168.0.114
327,-1,-100,-100,-100,"0,0,0",-5,-3,0,0,0,0,61,63,81,70,100,-14.59,6,-57.0,1.0,-1030.0,11:42:56.351318,192.168.0.114
332,-1,-100,-100,-100,"0,0,0",-4,-3,0,0,0,0,61,63,81,70,100,-14.51,6,-70.0,-12.0,-953.0,11:42:56.453318,192.168.0.114
338,-1,-100,-100,-100,"0,0,0",-3,-1,0,0,0,0,61,63,81,70,100,-14.5,6,-77.0,-23.0,-1006.0,11:42:56.556131,192.168.0.114
343,-1,-100,-100,-100,"0,0,0",-3,0,0,0,0,0,61,63,81,70,100,-14.51,6,-65.0,-43.0,-976.0,11:42:56.657322,192.168.0.114
348,-1,-100,-100,-100,"0,0,0",-3,0,0,0,1,0,61,63,80,70,100,-14.47,6,-81.0,-5.0,-1022.0,11:42:56.759425,192.168.0.114
354,-1,-100,-100,-100,"0,0,0",-4,1,0,0,1,0,61,63,81,70,100,-14.49,6,-66.0,-1.0,-1002.0,11:42:56.861274,192.168.0.114
359,-1,-100,-100,-100,"0,0,0",-5,1,0,0,0,0,61,63,81,70,100,-14.27,6,-24.0,35.0,-979.0,11:42:56.963324,192.168.0.114
364,-1,-100,-100,-100,"0,0,0",-4,1,0,0,0,0,61,63,80,70,100,-14.35,7,-79.0,7.0,-1022.0,11:42:57.065258,192.168.0.114
369,-1,-100,-100,-100,"0,0,0",-4,-1,0,0,0,0,61,63,81,70,100,-14.28,7,-62.0,-29.0,-1069.0,11:42:57.168122,192.168.0.114
374,-1,-100,-100,-100,"0,0,0",-4,0,1,0,0,0,61,63,81,70,100,-14.42,7,-69.0,91.0,-960.0,11:42:57.269345,192.168.0.114
379,-1,-100,-100,-100,"0,0,0",-5,0,0,0,0,0,61,63,81,70,100,-14.39,7,-65.0,44.0,-985.0,11:42:57.371413,192.168.0.114
384,-1,-100,-100,-100,"0,0,0",-5,-2,0,0,0,0,61,63,81,70,100,-14.29,7,-45.0,35.0,-983.0,11:42:57.476680,192.168.0.114
389,-1,-100,-100,-100,"0,0,0",-4,-3,0,0,0,0,61,63,81,70,100,-14.26,7,-60.0,-16.0,-1012.0,11:42:57.575447,192.168.0.114
394,-1,-100,-100,-100,"0,0,0",-4,-3,0,0,0,0,61,63,81,70,100,-14.28,7,-52.0,-11.0,-998.0,11:42:57.678921,192.168.0.114
399,-1,-100,-100,-100,"0,0,0",-4,-1,0,0,0,0,61,63,81,70,100,-14.29,7,-40.0,5.0,-992.0,11:42:57.779714,192.168.0.114
404,-1,-100,-100,-100,"0,0,0",-3,0,0,0,0,0,61,63,81,70,100,-14.54,7,-39.0,32.0,-973.0,11:42:57.881223,192.168.0.114
409,-1,-100,-100,-100,"0,0,0",-2,0,0,0,0,0,61,63,81,70,100,-14.46,7,-60.0,32.0,-991.0,11:42:57.983140,192.168.0.114
414,-1,-100,-100,-100,"0,0,0",-2,-1,0,0,0,0,61,63,81,70,100,-14.44,8,-53.0,30.0,-999.0,11:42:58.085035,192.168.0.114
419,-1,-100,-100,-100,"0,0,0",-3,-1,0,0,0,0,61,63,81,70,100,-14.44,8,-41.0,37.0,-986.0,11:42:58.189303,192.168.0.114
424,-1,-100,-100,-100,"0,0,0",-2,-2,0,0,0,0,61,63,81,70,100,-14.34,8,-52.0,21.0,-987.0,11:42:58.289291,192.168.0.114
429,-1,-100,-100,-100,"0,0,0",-2,-1,0,0,0,0,61,63,81,70,100,-14.24,8,-44.0,48.0,-976.0,11:42:58.391315,192.168.0.114
434,-1,-100,-100,-100,"0,0,0",-2,-1,0,0,0,0,61,63,81,70,100,-14.36,8,-64.0,31.0,-990.0,11:42:58.493349,192.168.0.114
439,-1,-100,-100,-100,"0,0,0",-2,-2,0,0,0,0,61,63,81,70,100,-14.55,8,-53.0,14.0,-1004.0,11:42:58.595223,192.168.0.114
444,-1,-100,-100,-100,"0,0,0",-2,-2,0,0,0,0,61,63,81,70,100,-14.33,8,-74.0,51.0,-988.0,11:42:58.697039,192.168.0.114
449,-1,-100,-100,-100,"0,0,0",-2,-1,0,0,0,0,61,63,81,70,100,-14.24,8,-37.0,16.0,-990.0,11:42:58.799228,192.168.0.114
454,-1,-100,-100,-100,"0,0,0",-3,-3,0,0,0,0,61,63,81,70,100,-14.47,8,-74.0,-15.0,-1030.0,11:42:58.901750,192.168.0.114
459,-1,-100,-100,-100,"0,0,0",-3,-2,0,0,0,0,61,63,81,70,100,-14.16,8,-63.0,4.0,-962.0,11:42:59.009380,192.168.0.114
464,-1,-100,-100,-100,"0,0,0",-3,0,0,0,0,0,61,63,82,70,100,-14.25,9,-56.0,-1.0,-963.0,11:42:59.105073,192.168.0.114
469,-1,-100,-100,-100,"0,0,0",-3,0,0,0,0,0,61,63,80,70,100,-14.17,9,-47.0,11.0,-1057.0,11:42:59.207010,192.168.0.114
473,-1,-100,-100,-100,"0,0,0",-3,0,0,0,0,0,61,63,80,70,100,-14.39,9,-39.0,30.0,-1021.0,11:42:59.257980,192.168.0.114
478,-1,-100,-100,-100,"0,0,0",-2,0,0,0,0,0,61,63,80,70,100,-14.35,9,-51.0,12.0,-1017.0,11:42:59.360058,192.168.0.114
483,-1,-100,-100,-100,"0,0,0",-3,-1,0,0,0,0,61,63,81,70,100,-14.13,9,-66.0,-21.0,-1039.0,11:42:59.462112,192.168.0.114
489,-1,-100,-100,-100,"0,0,0",-3,-1,0,0,0,0,61,63,81,70,100,-14.14,9,-39.0,6.0,-926.0,11:42:59.563979,192.168.0.114
493,-1,-100,-100,-100,"0,0,0",-4,0,0,0,0,0,61,63,81,70,100,-14.03,9,-30.0,33.0,-958.0,11:42:59.665903,192.168.0.114
499,-1,-100,-100,-100,"0,0,0",-3,0,0,0,0,0,61,63,81,70,100,-14.28,9,-69.0,14.0,-996.0,11:42:59.767930,192.168.0.114
504,-1,-100,-100,-100,"0,0,0",-3,-1,0,0,0,0,61,63,81,70,100,-14.22,9,-26.0,11.0,-984.0,11:42:59.869863,192.168.0.114
509,-1,-100,-100,-100,"0,0,0",-3,0,0,0,0,0,62,63,80,70,100,-14.03,9,-47.0,-13.0,-1005.0,11:42:59.971726,192.168.0.114
514,-1,-100,-100,-100,"0,0,0",-3,0,0,0,0,0,62,63,80,70,100,-14.19,10,-38.0,10.0,-984.0,11:43:00.073786,192.168.0.114
519,-1,-100,-100,-100,"0,0,0",-2,-2,0,0,0,0,62,63,80,70,100,-13.97,10,-38.0,42.0,-985.0,11:43:00.175864,192.168.0.114
524,-1,-100,-100,-100,"0,0,0",-2,0,0,0,0,0,62,63,79,70,100,-13.99,10,-75.0,-29.0,-1042.0,11:43:00.277748,192.168.0.114
529,-1,-100,-100,-100,"0,0,0",-3,0,0,0,0,0,62,63,80,70,100,-13.99,10,-36.0,-12.0,-1008.0,11:43:00.382763,192.168.0.114
534,-1,-100,-100,-100,"0,0,0",-3,0,0,0,0,0,62,63,79,70,100,-14.04,10,11.0,14.0,-975.0,11:43:00.481258,192.168.0.114
539,-1,-100,-100,-100,"0,0,0",-2,-1,0,0,0,0,62,63,79,70,100,-14.01,10,-12.0,42.0,-1023.0,11:43:00.583519,192.168.0.114
544,-1,-100,-100,-100,"0,0,0",-1,-2,0,0,0,0,62,63,79,70,100,-14.13,10,-7.0,32.0,-1023.0,11:43:00.685005,192.168.0.114
549,-1,-100,-100,-100,"0,0,0",-1,-3,0,-1,0,0,62,63,79,70,100,-14.04,10,4.0,60.0,-1010.0,11:43:00.786981,192.168.0.114
554,-1,-100,-100,-100,"0,0,0",0,-3,0,-1,0,0,62,63,79,70,100,-13.99,10,-8.0,53.0,-1005.0,11:43:00.888961,192.168.0.114
559,-1,-100,-100,-100,"0,0,0",0,-4,0,-1,0,0,62,64,78,70,100,-14.11,10,-2.0,48.0,-1009.0,11:43:00.991559,192.168.0.114
564,-1,-100,-100,-100,"0,0,0",0,-5,0,-1,0,0,62,64,79,70,100,-14.08,11,46.0,13.0,-993.0,11:43:01.093444,192.168.0.114
569,-1,-100,-100,-100,"0,0,0",0,-4,0,-1,0,0,62,64,78,70,100,-14.08,11,-12.0,40.0,-983.0,11:43:01.195684,192.168.0.114
574,-1,-100,-100,-100,"0,0,0",0,-3,0,-1,0,0,62,64,78,70,100,-13.96,11,-16.0,36.0,-994.0,11:43:01.297137,192.168.0.114
579,-1,-100,-100,-100,"0,0,0",0,-3,0,0,0,0,62,64,78,70,100,-14.12,11,-5.0,28.0,-966.0,11:43:01.399535,192.168.0.114
584,-1,-100,-100,-100,"0,0,0",0,-3,0,0,0,0,62,64,78,70,100,-14.35,11,-2.0,-5.0,-1003.0,11:43:01.502008,192.168.0.114
589,-1,-100,-100,-100,"0,0,0",0,-3,0,0,0,0,62,64,79,70,100,-14.19,11,-39.0,-11.0,-1027.0,11:43:01.603611,192.168.0.114
594,-1,-100,-100,-100,"0,0,0",-1,-1,0,0,1,0,62,64,81,70,100,-13.98,11,3.0,13.0,-975.0,11:43:01.705856,192.168.0.114
599,-1,-100,-100,-100,"0,0,0",-1,1,0,0,1,0,62,64,81,70,100,-13.88,11,33.0,51.0,-979.0,11:43:01.807550,192.168.0.114
604,-1,-100,-100,-100,"0,0,0",-1,1,0,0,0,0,62,64,82,70,100,-14.11,11,-2.0,55.0,-1009.0,11:43:01.909544,192.168.0.114
609,-1,-100,-100,-100,"0,0,0",0,0,0,0,0,0,61,64,81,70,100,-13.98,11,53.0,36.0,-1043.0,11:43:02.011657,192.168.0.114
614,-1,-100,-100,-100,"0,0,0",0,-3,0,0,0,0,61,64,81,70,100,-13.91,12,21.0,29.0,-1048.0,11:43:02.112978,192.168.0.114
619,-1,-100,-100,-100,"0,0,0",0,-3,0,0,0,0,61,64,81,70,100,-13.93,12,-6.0,14.0,-1008.0,11:43:02.215583,192.168.0.114
624,-1,-100,-100,-100,"0,0,0",0,-3,0,0,0,0,61,64,82,70,100,-13.88,12,-8.0,21.0,-991.0,11:43:02.317742,192.168.0.114
629,-1,-100,-100,-100,"0,0,0",0,-2,0,0,0,0,61,64,83,70,100,-13.82,12,21.0,27.0,-950.0,11:43:02.419410,192.168.0.114
632,-1,-100,-100,-100,"0,0,0",0,-1,0,0,0,0,61,64,84,70,100,-13.76,12,-3.0,48.0,-920.0,11:43:02.470728,192.168.0.114
638,-1,-100,-100,-100,"0,0,0",0,0,0,0,0,0,61,64,84,70,100,-13.91,12,-16.0,22.0,-1049.0,11:43:02.572038,192.168.0.114
643,-1,-100,-100,-100,"0,0,0",0,-2,0,0,0,0,61,64,84,70,100,-13.94,12,-15.0,8.0,-1075.0,11:43:02.674557,192.168.0.114
648,-1,-100,-100,-100,"0,0,0",0,-4,0,0,0,0,61,64,84,70,100,-13.8,12,-12.0,13.0,-1017.0,11:43:02.776690,192.168.0.114
653,-1,-100,-100,-100,"0,0,0",-1,-2,0,0,0,0,61,64,86,70,100,-13.95,12,5.0,26.0,-979.0,11:43:02.878648,192.168.0.114
658,-1,-100,-100,-100,"0,0,0",-1,0,0,0,0,0,62,64,86,70,100,-13.75,13,34.0,22.0,-939.0,11:43:02.980576,192.168.0.114
663,-1,-100,-100,-100,"0,0,0",0,-1,0,0,0,0,62,64,86,70,100,-13.7,13,14.0,33.0,-1033.0,11:43:03.082537,192.168.0.114
668,-1,-100,-100,-100,"0,0,0",0,-1,0,0,0,0,62,64,85,70,100,-13.69,13,20.0,47.0,-1008.0,11:43:03.184560,192.168.0.114
674,-1,-100,-100,-100,"0,0,0",0,-2,0,0,0,0,62,64,84,70,100,-13.71,13,7.0,29.0,-1011.0,11:43:03.286574,192.168.0.114
679,-1,-100,-100,-100,"0,0,0",0,-3,0,0,0,0,62,64,84,70,100,-13.82,13,-12.0,38.0,-995.0,11:43:03.388577,192.168.0.114
684,-1,-100,-100,-100,"0,0,0",0,-2,0,0,0,0,62,64,84,70,100,-13.83,13,11.0,16.0,-997.0,11:43:03.490536,192.168.0.114
689,-1,-100,-100,-100,"0,0,0",0,-2,0,0,0,0,62,64,84,70,100,-13.74,13,8.0,40.0,-979.0,11:43:03.592773,192.168.0.114
693,-1,-100,-100,-100,"0,0,0",0,-2,0,0,0,0,62,64,84,70,100,-13.79,13,-8.0,22.0,-967.0,11:43:03.695928,192.168.0.114
699,-1,-100,-100,-100,"0,0,0",0,-2,0,0,0,0,62,64,83,70,100,-13.69,13,-12.0,20.0,-999.0,11:43:03.796555,192.168.0.114
704,-1,-100,-100,-100,"0,0,0",0,-2,0,0,0,0,62,64,83,70,100,-13.86,13,-17.0,23.0,-1010.0,11:43:03.900230,192.168.0.114
709,-1,-100,-100,-100,"0,0,0",-1,-2,0,0,0,0,62,64,82,70,100,-13.7,14,-16.0,23.0,-1042.0,11:43:04.000387,192.168.0.114
714,-1,-100,-100,-100,"0,0,0",-1,-2,0,0,0,0,62,64,82,70,100,-13.86,14,-26.0,29.0,-1044.0,11:43:04.102500,192.168.0.114
719,-1,-100,-100,-100,"0,0,0",-2,-2,0,0,0,0,62,64,81,70,100,-13.93,14,19.0,19.0,-1009.0,11:43:04.204491,192.168.0.114
724,-1,-100,-100,-100,"0,0,0",-1,-1,0,0,0,0,62,64,82,70,100,-13.77,14,3.0,52.0,-974.0,11:43:04.306405,192.168.0.114
729,-1,-100,-100,-100,"0,0,0",-1,-2,0,0,0,0,62,64,82,70,100,-13.77,14,7.0,45.0,-1029.0,11:43:04.408413,192.168.0.114
734,-1,-100,-100,-100,"0,0,0",0,-3,0,0,0,0,62,64,81,70,100,-13.76,14,14.0,47.0,-997.0,11:43:04.510353,192.168.0.114
739,-1,-100,-100,-100,"0,0,0",0,-2,0,0,0,0,62,64,81,70,100,-13.75,14,43.0,34.0,-1001.0,11:43:04.612632,192.168.0.114
744,-1,-100,-100,-100,"0,0,0",0,-2,0,-1,0,0,62,64,81,70,100,-13.7,14,23.0,55.0,-990.0,11:43:04.714604,192.168.0.114
749,-1,-100,-100,-100,"0,0,0",1,-2,0,-1,0,0,62,64,81,70,100,-13.68,14,42.0,26.0,-1009.0,11:43:04.816662,192.168.0.114
754,-1,-100,-100,-100,"0,0,0",1,-2,0,-1,0,0,62,64,81,70,100,-13.78,14,35.0,36.0,-995.0,11:43:04.919384,192.168.0.114
759,-1,-100,-100,-100,"0,0,0",2,-3,0,-1,0,0,62,64,81,70,100,-13.63,15,15.0,45.0,-995.0,11:43:05.021448,192.168.0.114
764,-1,-100,-100,-100,"0,0,0",2,-3,0,0,0,0,62,64,81,70,100,-13.73,15,-8.0,26.0,-979.0,11:43:05.124240,192.168.0.114
769,-1,-100,-100,-100,"0,0,0",1,-2,0,0,0,0,62,64,81,70,100,-13.7,15,-32.0,39.0,-1028.0,11:43:05.226866,192.168.0.114
774,-1,-100,-100,-100,"0,0,0",0,-2,0,0,0,0,62,64,80,70,100,-13.81,15,-19.0,40.0,-1008.0,11:43:05.328675,192.168.0.114
779,-1,-100,-100,-100,"0,0,0",-1,-2,0,0,0,0,62,64,81,70,100,-13.82,15,-7.0,45.0,-1004.0,11:43:05.427824,192.168.0.114
784,-1,-100,-100,-100,"0,0,0",-1,-3,0,0,0,0,62,64,81,70,100,-13.76,15,-34.0,34.0,-1004.0,11:43:05.533839,192.168.0.114
789,-1,-100,-100,-100,"0,0,0",-1,-3,0,0,0,0,62,64,81,70,100,-13.81,15,-22.0,37.0,-991.0,11:43:05.632225,192.168.0.114
794,-1,-100,-100,-100,"0,0,0",-2,-2,0,0,0,0,62,64,82,70,100,-13.78,15,-17.0,42.0,-984.0,11:43:05.734138,192.168.0.114
800,-1,-100,-100,-100,"0,0,0",-2,-2,0,0,0,0,62,64,82,70,100,-13.85,15,-22.0,45.0,-993.0,11:43:05.836726,192.168.0.114
803,-1,-100,-100,-100,"0,0,0",-2,-3,0,0,0,0,62,64,82,70,100,-13.75,15,-10.0,26.0,-997.0,11:43:05.888142,192.168.0.114
810,-1,-100,-100,-100,"0,0,0",-2,-3,0,0,0,0,62,65,83,70,100,-13.83,16,-34.0,28.0,-1010.0,11:43:06.040830,192.168.0.114
815,-1,-100,-100,-100,"0,0,0",-2,-2,0,0,0,0,62,65,83,70,100,-13.76,16,-21.0,17.0,-985.0,11:43:06.143045,192.168.0.114
820,-1,-100,-100,-100,"0,0,0",-2,-1,0,0,0,0,62,65,84,70,100,-13.79,16,-33.0,6.0,-990.0,11:43:06.245053,192.168.0.114
823,-1,-100,-100,-100,"0,0,0",-2,-1,0,0,1,0,62,65,84,70,100,-13.71,16,-6.0,5.0,-1000.0,11:43:06.296211,192.168.0.114
828,-1,-100,-100,-100,"0,0,0",-2,0,0,0,0,0,62,65,85,70,100,-13.73,16,-1.0,6.0,-984.0,11:43:06.399929,192.168.0.114
833,-1,-100,-100,-100,"0,0,0",-1,0,0,0,0,0,62,65,85,70,100,-13.72,16,15.0,13.0,-1001.0,11:43:06.500146,192.168.0.114
838,-1,-100,-100,-100,"0,0,0",-1,0,0,0,0,0,62,65,85,70,100,-13.72,16,22.0,-3.0,-985.0,11:43:06.602281,192.168.0.114
843,-1,-100,-100,-100,"0,0,0",0,-1,0,0,0,0,62,65,85,70,100,-13.65,16,-10.0,32.0,-970.0,11:43:06.704212,192.168.0.114
848,-1,-100,-100,-100,"0,0,0",0,-1,0,0,0,0,62,65,85,70,100,-13.75,16,13.0,29.0,-1000.0,11:43:06.805993,192.168.0.114
853,-1,-100,-100,-100,"0,0,0",0,-1,0,0,0,0,62,65,84,70,100,-13.66,16,24.0,12.0,-1015.0,11:43:06.907964,192.168.0.114
858,-1,-100,-100,-100,"0,0,0",0,-1,0,0,0,0,62,65,85,70,100,-13.68,17,26.0,17.0,-1004.0,11:43:07.010046,192.168.0.114
863,-1,-100,-100,-100,"0,0,0",0,0,0,0,0,0,62,65,84,70,100,-13.66,17,29.0,14.0,-986.0,11:43:07.112141,192.168.0.114
869,-1,-100,-100,-100,"0,0,0",0,0,0,0,0,0,62,65,84,70,100,-13.59,17,13.0,34.0,-1019.0,11:43:07.214041,192.168.0.114
874,-1,-100,-100,-100,"0,0,0",0,-1,0,0,0,0,62,65,84,70,100,-13.75,17,12.0,30.0,-999.0,11:43:07.316196,192.168.0.114
879,-1,-100,-100,-100,"0,0,0",0,-1,0,0,0,0,62,65,85,70,100,-13.86,17,28.0,39.0,-1016.0,11:43:07.418040,192.168.0.114
884,-1,-100,-100,-100,"0,0,0",0,-2,0,0,0,0,62,65,84,70,100,-13.87,17,6.0,26.0,-985.0,11:43:07.520121,192.168.0.114
889,-1,-100,-100,-100,"0,0,0",0,-2,0,0,0,0,62,65,84,70,100,-13.67,17,19.0,19.0,-984.0,11:43:07.621964,192.168.0.114
894,-1,-100,-100,-100,"0,0,0",0,-2,0,0,0,0,62,65,84,70,100,-13.75,17,20.0,26.0,-996.0,11:43:07.724019,192.168.0.114
899,-1,-100,-100,-100,"0,0,0",0,-2,0,0,0,0,62,65,84,70,100,-13.79,17,6.0,25.0,-995.0,11:43:07.826001,192.168.0.114
904,-1,-100,-100,-100,"0,0,0",0,-2,0,0,0,0,62,65,84,70,100,-13.78,17,0.0,35.0,-998.0,11:43:07.930567,192.168.0.114
909,-1,-100,-100,-100,"0,0,0",0,-2,0,0,0,0,62,65,83,70,100,-13.99,18,-28.0,21.0,-969.0,11:43:08.030647,192.168.0.114
914,-1,-100,-100,-100,"0,0,0",0,-2,0,0,0,0,62,65,83,70,100,-13.91,18,-19.0,39.0,-1002.0,11:43:08.132875,192.168.0.114
919,-1,-100,-100,-100,"0,0,0",-2,-2,0,0,0,0,62,65,83,70,100,-13.91,18,-23.0,21.0,-1001.0,11:43:08.234191,192.168.0.114
924,-1,-100,-100,-100,"0,0,0",-2,-2,0,0,0,0,62,65,83,70,100,-14.04,18,-17.0,15.0,-999.0,11:43:08.335966,192.168.0.114
929,-1,-100,-100,-100,"0,0,0",-2,-2,0,0,0,0,62,65,83,70,100,-14.06,18,-15.0,-8.0,-1030.0,11:43:08.437924,192.168.0.114
934,-1,-100,-100,-100,"0,0,0",-2,-1,0,0,0,0,62,65,83,70,100,-13.88,18,-32.0,25.0,-991.0,11:43:08.540008,192.168.0.114
939,-1,-100,-100,-100,"0,0,0",-2,-1,0,0,0,0,62,65,83,70,100,-14.09,18,-19.0,-3.0,-976.0,11:43:08.641881,192.168.0.114
944,-1,-100,-100,-100,"0,0,0",-2,0,0,0,0,0,62,65,83,70,100,-13.97,18,-28.0,-4.0,-980.0,11:43:08.743849,192.168.0.114
949,-1,-100,-100,-100,"0,0,0",-2,0,0,0,0,0,62,65,82,70,100,-14.1,18,-6.0,-3.0,-992.0,11:43:08.846314,192.168.0.114
955,-1,-100,-100,-100,"0,0,0",-2,0,0,0,0,0,62,65,82,70,100,-13.96,18,-31.0,-15.0,-1037.0,11:43:08.947801,192.168.0.114
960,-1,-100,-100,-100,"0,0,0",-2,0,0,0,1,0,63,65,82,70,100,-13.92,19,-45.0,-8.0,-1010.0,11:43:09.049578,192.168.0.114
965,-1,-100,-100,-100,"0,0,0",-2,0,0,0,1,0,63,65,82,70,100,-13.93,19,-8.0,-26.0,-1021.0,11:43:09.151589,192.168.0.114
970,-1,-100,-100,-100,"0,0,0",-2,0,0,0,0,0,63,65,81,70,100,-13.9,19,-21.0,0.0,-993.0,11:43:09.253693,192.168.0.114
973,-1,-100,-100,-100,"0,0,0",-2,0,0,0,0,0,63,65,81,70,100,-13.74,19,8.0,0.0,-950.0,11:43:09.304676,192.168.0.114
978,-1,-100,-100,-100,"0,0,0",-1,0,0,0,0,0,63,65,81,70,100,-13.63,19,7.0,6.0,-946.0,11:43:09.406509,192.168.0.114
983,-1,-100,-100,-100,"0,0,0",0,0,0,0,0,0,63,65,80,70,100,-13.79,19,11.0,9.0,-1032.0,11:43:09.508299,192.168.0.114
988,-1,-100,-100,-100,"0,0,0",0,0,0,0,0,0,63,65,80,70,100,-13.82,19,14.0,24.0,-1033.0,11:43:09.611487,192.168.0.114
993,-1,-100,-100,-100,"0,0,0",0,-1,0,0,0,0,63,65,80,70,100,-13.82,19,2.0,19.0,-987.0,11:43:09.714441,192.168.0.114
998,-1,-100,-100,-100,"0,0,0",0,-1,0,-1,0,0,63,65,79,70,100,-13.83,19,-1.0,23.0,-991.0,11:43:09.814448,192.168.0.114
1003,-1,-100,-100,-100,"0,0,0",0,-2,0,0,0,0,63,65,79,70,100,-14.13,19,-47.0,-5.0,-1097.0,11:43:09.916178,192.168.0.114
1008,-1,-100,-100,-100,"0,0,0",-1,-2,0,0,0,0,63,65,80,70,100,-14.2,20,-48.0,6.0,-1003.0,11:43:10.018451,192.168.0.114
1014,-1,-100,-100,-100,"0,0,0",-2,-1,0,0,0,0,63,65,82,70,100,-13.97,20,-51.0,0.0,-1002.0,11:43:10.120473,192.168.0.114
1019,-1,-100,-100,-100,"0,0,0",-2,0,0,0,0,0,63,65,82,70,100,-13.95,20,-64.0,9.0,-943.0,11:43:10.224522,192.168.0.114
1024,-1,-100,-100,-100,"0,0,0",-2,0,0,0,0,0,63,65,83,70,100,-14.08,20,-70.0,2.0,-994.0,11:43:10.327223,192.168.0.114
1029,-1,-100,-100,-100,"0,0,0",-3,0,0,0,0,0,63,65,84,70,100,-13.99,20,-42.0,2.0,-1005.0,11:43:10.425952,192.168.0.114
1034,-1,-100,-100,-100,"0,0,0",-4,0,0,0,0,0,63,65,83,70,100,-13.82,20,-42.0,24.0,-989.0,11:43:10.528225,192.168.0.114
1039,-1,-100,-100,-100,"0,0,0",-4,0,0,0,0,0,63,65,83,70,100,-13.65,20,-38.0,48.0,-980.0,11:43:10.630254,192.168.0.114
1044,-1,-100,-100,-100,"0,0,0",-4,-1,0,0,0,0,63,65,83,70,100,-13.52,20,-30.0,38.0,-949.0,11:43:10.732517,192.168.0.114
1049,-1,-100,-100,-100,"0,0,0",-4,-1,0,0,0,0,63,65,83,70,100,-13.52,20,-40.0,27.0,-1004.0,11:43:10.834302,192.168.0.114
1054,-1,-100,-100,-100,"0,0,0",-3,-2,0,0,0,0,63,65,83,70,100,-13.55,20,-28.0,36.0,-1012.0,11:43:10.936333,192.168.0.114
1059,-1,-100,-100,-100,"0,0,0",-3,-2,0,0,0,0,63,65,83,70,100,-13.56,21,-24.0,25.0,-994.0,11:43:11.038254,192.168.0.114
1064,-1,-100,-100,-100,"0,0,0",-3,-3,0,0,0,0,63,65,82,70,100,-13.7,21,-36.0,32.0,-991.0,11:43:11.140338,192.168.0.114
1069,-1,-100,-100,-100,"0,0,0",-3,-2,0,0,0,0,63,65,82,70,100,-13.84,21,-18.0,23.0,-1004.0,11:43:11.242377,192.168.0.114
1074,-1,-100,-100,-100,"0,0,0",-2,-2,0,0,0,0,63,65,82,70,100,-13.95,21,-4.0,19.0,-1009.0,11:43:11.344282,192.168.0.114
1079,-1,-100,-100,-100,"0,0,0",-2,-1,0,0,0,0,63,65,82,70,100,-14.12,21,-32.0,15.0,-1010.0,11:43:11.446092,192.168.0.114
1084,-1,-100,-100,-100,"0,0,0",-1,-2,0,0,0,0,63,65,81,70,100,-14.2,21,-57.0,17.0,-982.0,11:43:11.548198,192.168.0.114
1089,-1,-100,-100,-100,"0,0,0",-1,-1,0,0,0,0,63,65,81,70,100,-14.37,21,-45.0,24.0,-998.0,11:43:11.769409,192.168.0.114
1094,-1,-100,-100,-100,"0,0,0",-1,0,0,0,0,0,63,65,81,70,100,-14.19,21,-6.0,38.0,-1004.0,11:43:11.770482,192.168.0.114
1099,-1,-100,-100,-100,"0,0,0",-1,0,0,0,0,0,63,65,80,70,100,-14.37,21,-26.0,64.0,-1021.0,11:43:11.976004,192.168.0.114
1104,-1,-100,-100,-100,"0,0,0",-1,-2,0,0,0,0,63,65,80,70,100,-14.37,21,-13.0,48.0,-1067.0,11:43:11.976950,192.168.0.114
1109,-1,-100,-100,-100,"0,0,0",-1,-3,0,0,0,0,63,66,79,70,100,-14.36,22,-16.0,34.0,-1024.0,11:43:12.181928,192.168.0.114
1114,-1,-100,-100,-100,"0,0,0",-1,-3,0,0,0,0,63,66,80,70,100,-14.24,22,-36.0,18.0,-1021.0,11:43:12.183113,192.168.0.114
1119,-1,-100,-100,-100,"0,0,0",-1,-3,0,0,0,0,63,66,81,70,100,-14.22,22,-27.0,18.0,-988.0,11:43:12.261888,192.168.0.114
1124,-1,-100,-100,-100,"0,0,0",0,-1,0,0,0,0,63,66,81,70,100,-14.06,22,-15.0,24.0,-956.0,11:43:12.365349,192.168.0.114
1130,-1,-100,-100,-100,"0,0,0",-1,-2,0,0,0,0,63,66,82,70,100,-14.18,22,-8.0,26.0,-980.0,11:43:12.588639,192.168.0.114
1135,-1,-100,-100,-100,"0,0,0",-1,-2,0,0,0,0,63,66,82,70,100,-14.09,22,0.0,24.0,-1000.0,11:43:12.589846,192.168.0.114
1140,-1,-100,-100,-100,"0,0,0",-1,-2,0,0,0,0,63,66,83,70,100,-14.23,22,-25.0,19.0,-990.0,11:43:12.794049,192.168.0.114
1145,-1,-100,-100,-100,"0,0,0",0,-2,0,0,0,0,63,66,82,70,100,-14.27,22,-48.0,41.0,-999.0,11:43:12.795114,192.168.0.114
1150,-1,-100,-100,-100,"0,0,0",-1,-2,0,0,0,0,63,66,82,70,100,-14.26,22,-42.0,20.0,-1001.0,11:43:12.999906,192.168.0.114
1155,-1,-100,-100,-100,"0,0,0",-2,-2,0,0,0,0,63,66,82,70,100,-14.27,22,-41.0,10.0,-982.0,11:43:13.000861,192.168.0.114
1160,-1,-100,-100,-100,"0,0,0",-2,-1,0,0,0,0,63,66,83,70,100,-14.35,23,-45.0,13.0,-995.0,11:43:13.205710,192.168.0.114
1165,-1,-100,-100,-100,"0,0,0",-2,0,0,0,0,0,63,66,84,70,100,-14.28,23,-11.0,40.0,-940.0,11:43:13.206683,192.168.0.114
1170,-1,-100,-100,-100,"0,0,0",-2,0,0,0,0,0,63,66,83,70,100,-14.28,23,-43.0,37.0,-1000.0,11:43:13.412841,192.168.0.114
1175,-1,-100,-100,-100,"0,0,0",-2,-2,0,0,0,0,63,66,83,70,100,-14.36,23,-38.0,27.0,-997.0,11:43:13.413851,192.168.0.114
1180,-1,-100,-100,-100,"0,0,0",-2,-2,0,0,0,0,63,66,83,70,100,-14.33,23,-28.0,-15.0,-1040.0,11:43:13.622437,192.168.0.114
1183,-1,-100,-100,-100,"0,0,0",-2,-2,0,0,0,0,63,66,83,70,100,-14.46,23,-47.0,-22.0,-973.0,11:43:13.623127,192.168.0.114
1188,-1,-100,-100,-100,"0,0,0",-3,0,0,0,1,0,63,66,82,70,100,-14.45,23,-55.0,-3.0,-1002.0,11:43:13.639160,192.168.0.114
1193,-1,-100,-100,-100,"0,0,0",-3,0,0,0,1,0,63,66,83,70,100,-14.39,23,-57.0,-7.0,-977.0,11:43:13.828941,192.168.0.114
1198,-1,-100,-100,-100,"0,0,0",-3,0,0,0,0,0,63,66,83,70,100,-14.4,23,-40.0,-5.0,-986.0,11:43:13.842934,192.168.0.114
1204,-1,-100,-100,-100,"0,0,0",-3,0,0,0,0,0,63,66,83,70,100,-14.35,23,-46.0,-3.0,-961.0,11:43:13.944540,192.168.0.114
1209,-1,-100,-100,-100,"0,0,0",-3,0,0,0,0,0,65,66,83,70,100,-14.4,24,-42.0,12.0,-973.0,11:43:14.046864,192.168.0.114
1214,-1,-100,-100,-100,"0,0,0",-3,0,0,0,0,0,65,66,83,70,100,-14.41,24,-44.0,13.0,-1026.0,11:43:14.148886,192.168.0.114
1219,-1,-100,-100,-100,"0,0,0",-3,0,0,0,0,0,65,66,83,70,100,-14.48,24,-48.0,4.0,-1017.0,11:43:14.250885,192.168.0.114
1224,-1,-100,-100,-100,"0,0,0",-3,-1,0,0,0,0,65,66,83,70,100,-14.56,24,-55.0,-25.0,-1025.0,11:43:14.352946,192.168.0.114
1229,-1,-100,-100,-100,"0,0,0",-4,0,0,0,0,0,65,66,82,70,100,-14.45,24,-53.0,24.0,-1018.0,11:43:14.454866,192.168.0.114
1234,-1,-100,-100,-100,"0,0,0",-4,0,0,0,0,0,65,66,82,70,100,-14.56,24,-51.0,18.0,-977.0,11:43:14.558739,192.168.0.114
1239,-1,-100,-100,-100,"0,0,0",-3,-1,0,0,0,0,65,66,82,70,100,-14.62,24,-48.0,5.0,-1007.0,11:43:14.658718,192.168.0.114
1244,-1,-100,-100,-100,"0,0,0",-4,-1,0,0,0,0,65,66,81,70,100,-14.08,24,-37.0,21.0,-1012.0,11:43:14.761376,192.168.0.114
1249,-1,-100,-100,-100,"0,0,0",-3,0,0,0,0,0,65,66,82,70,100,-14.12,24,-16.0,40.0,-930.0,11:43:14.862692,192.168.0.114
1254,-1,-100,-100,-100,"0,0,0",-3,-1,0,0,0,0,65,66,81,70,100,-14.21,24,17.0,-10.0,-1021.0,11:43:14.965036,192.168.0.114
1259,-1,-100,-100,-100,"0,0,0",-3,-1,0,0,0,0,64,66,80,70,100,-13.97,25,-14.0,44.0,-1018.0,11:43:15.066785,192.168.0.114
1264,-1,-100,-100,-100,"0,0,0",-2,-1,0,0,0,0,64,66,80,70,100,-13.93,25,-25.0,28.0,-1032.0,11:43:15.168616,192.168.0.114
1269,-1,-100,-100,-100,"0,0,0",-1,-2,0,0,0,0,64,66,79,70,100,-13.99,25,-44.0,18.0,-1029.0,11:43:15.271076,192.168.0.114
1274,-1,-100,-100,-100,"0,0,0",-2,-3,0,0,0,0,64,66,79,70,100,-14.11,25,-33.0,-5.0,-1017.0,11:43:15.372607,192.168.0.114
1279,-1,-100,-100,-100,"0,0,0",-2,-2,0,0,0,0,64,66,79,70,100,-14.14,25,-57.0,17.0,-1005.0,11:43:15.474660,192.168.0.114
1284,-1,-100,-100,-100,"0,0,0",-2,-1,0,0,0,0,64,66,80,70,100,-14.03,25,-45.0,7.0,-959.0,11:43:15.576766,192.168.0.114
1289,-1,-100,-100,-100,"0,0,0",-1,-1,0,0,0,0,64,66,80,70,100,-14.1,25,-26.0,22.0,-1009.0,11:43:15.678533,192.168.0.114
1294,-1,-100,-100,-100,"0,0,0",-2,-1,0,0,0,0,64,66,80,70,100,-14.07,25,-37.0,21.0,-1024.0,11:43:15.780816,192.168.0.114
1300,-1,-100,-100,-100,"0,0,0",-2,-2,0,0,0,0,64,66,80,70,100,-13.97,25,-14.0,31.0,-1003.0,11:43:15.882707,192.168.0.114
1305,-1,-100,-100,-100,"0,0,0",-2,-1,0,0,0,0,64,66,81,70,100,-14.06,25,-10.0,16.0,-1004.0,11:43:15.984440,192.168.0.114
1310,-1,-100,-100,-100,"0,0,0",-1,-1,0,0,0,0,65,65,81,70,100,-14.09,26,-32.0,21.0,-957.0,11:43:16.086756,192.168.0.114
1315,-1,-100,-100,-100,"0,0,0",-1,-1,0,0,0,0,65,65,81,70,100,-14.12,26,-26.0,18.0,-1010.0,11:43:16.188582,192.168.0.114
1320,-1,-100,-100,-100,"0,0,0",-1,-2,0,0,0,0,65,65,81,70,100,-14.19,26,-25.0,18.0,-984.0,11:43:16.290634,192.168.0.114
1325,-1,-100,-100,-100,"0,0,0",-2,-2,0,0,0,0,65,65,82,70,100,-14.16,26,-45.0,15.0,-1024.0,11:43:16.392511,192.168.0.114
1330,-1,-100,-100,-100,"0,0,0",-1,-2,0,0,0,0,65,65,82,70,100,-14.11,26,-58.0,8.0,-974.0,11:43:16.494650,192.168.0.114
1333,-1,-100,-100,-100,"0,0,0",-1,-1,0,0,0,0,65,65,82,70,100,-14.0,26,-55.0,0.0,-1022.0,11:43:16.545515,192.168.0.114
1338,-1,-100,-100,-100,"0,0,0",-3,0,0,0,0,0,65,65,82,70,100,-13.98,26,-32.0,21.0,-934.0,11:43:16.647516,192.168.0.114
1343,-1,-100,-100,-100,"0,0,0",-3,0,0,0,0,0,65,65,82,70,100,-13.99,26,-24.0,36.0,-977.0,11:43:16.749576,192.168.0.114
1348,-1,-100,-100,-100,"0,0,0",-3,0,0,0,0,0,65,65,81,70,100,-14.19,26,-26.0,37.0,-1044.0,11:43:16.852071,192.168.0.114
1353,-1,-100,-100,-100,"0,0,0",-3,-3,0,0,0,0,65,65,81,70,100,-14.17,26,-32.0,-5.0,-1003.0,11:43:16.953086,192.168.0.114
1358,-1,-100,-100,-100,"0,0,0",-2,-3,0,0,0,0,64,66,81,70,100,-14.15,27,-40.0,3.0,-1031.0,11:43:17.055502,192.168.0.114
1363,-1,-100,-100,-100,"0,0,0",-3,-2,0,0,0,0,64,66,82,70,100,-14.27,27,-54.0,13.0,-984.0,11:43:17.157472,192.168.0.114
1369,-1,-100,-100,-100,"0,0,0",-3,0,0,0,0,0,64,66,81,70,100,-14.17,27,-34.0,0.0,-996.0,11:43:17.260921,192.168.0.114
1374,-1,-100,-100,-100,"0,0,0",-3,0,0,0,0,0,64,66,81,70,100,-14.24,27,-28.0,8.0,-989.0,11:43:17.361412,192.168.0.114
1379,-1,-100,-100,-100,"0,0,0",-3,0,0,0,0,0,64,66,81,70,100,-14.17,27,-16.0,20.0,-981.0,11:43:17.464803,192.168.0.114
1384,-1,-100,-100,-100,"0,0,0",-3,-1,0,0,0,0,64,66,81,70,100,-14.22,27,-24.0,28.0,-998.0,11:43:17.565357,192.168.0.114
1389,-1,-100,-100,-100,"0,0,0",-2,-1,0,0,0,0,64,66,81,70,100,-14.23,27,-33.0,15.0,-1020.0,11:43:17.667538,192.168.0.114
1394,-1,-100,-100,-100,"0,0,0",-2,-1,0,0,0,0,64,66,80,70,100,-14.24,27,-37.0,-3.0,-1016.0,11:43:17.769399,192.168.0.114
1399,-1,-100,-100,-100,"0,0,0",-2,-2,0,0,0,0,64,66,80,70,100,-14.18,27,-42.0,-7.0,-989.0,11:43:17.871341,192.168.0.114
1404,-1,-100,-100,-100,"0,0,0",-3,-1,0,0,0,0,64,66,80,70,100,-14.09,27,-48.0,9.0,-990.0,11:43:17.973151,192.168.0.114
1409,-1,-100,-100,-100,"0,0,0",-3,0,0,0,0,0,65,66,80,70,100,-14.11,28,-40.0,43.0,-966.0,11:43:18.075448,192.168.0.114
1414,-1,-100,-100,-100,"0,0,0",-2,0,0,0,0,0,65,66,80,70,100,-14.16,28,-25.0,64.0,-983.0,11:43:18.177207,192.168.0.114
1419,-1,-100,-100,-100,"0,0,0",-2,-1,0,0,0,0,65,66,79,70,100,-14.27,28,-33.0,39.0,-995.0,11:43:18.279276,192.168.0.114
1424,-1,-100,-100,-100,"0,0,0",-2,-3,0,0,0,0,65,66,79,70,100,-14.2,28,-39.0,49.0,-1058.0,11:43:18.381069,192.168.0.114
1429,-1,-100,-100,-100,"0,0,0",-2,-3,0,0,0,0,65,66,79,70,100,-14.14,28,-31.0,17.0,-1005.0,11:43:18.483378,192.168.0.114
1434,-1,-100,-100,-100,"0,0,0",-2,-4,0,0,0,0,65,66,80,70,100,-14.19,28,-50.0,22.0,-985.0,11:43:18.586591,192.168.0.114
1439,-1,-100,-100,-100,"0,0,0",-3,-2,0,0,0,0,65,66,80,70,100,-14.22,28,-35.0,11.0,-990.0,11:43:18.687498,192.168.0.114
1444,-1,-100,-100,-100,"0,0,0",-2,-2,0,0,0,0,65,66,80,70,100,-14.32,28,-33.0,0.0,-993.0,11:43:18.789272,192.168.0.114
1449,-1,-100,-100,-100,"0,0,0",-2,-1,0,0,0,0,65,66,80,70,100,-14.15,28,-45.0,-14.0,-949.0,11:43:18.891610,192.168.0.114
1454,-1,-100,-100,-100,"0,0,0",-2,0,0,0,0,0,65,66,81,70,100,-14.26,28,-32.0,-10.0,-995.0,11:43:18.993700,192.168.0.114
1459,-1,-100,-100,-100,"0,0,0",-3,0,0,0,0,0,65,66,81,70,100,-14.23,29,-40.0,17.0,-962.0,11:43:19.095067,192.168.0.114
1464,-1,-100,-100,-100,"0,0,0",-3,0,0,0,0,0,65,66,81,70,100,-14.31,29,-46.0,9.0,-965.0,11:43:19.197076,192.168.0.114
1469,-1,-100,-100,-100,"0,0,0",-2,0,0,0,0,0,65,66,81,70,100,-14.23,29,-13.0,2.0,-989.0,11:43:19.299161,192.168.0.114
1474,-1,-100,-100,-100,"0,0,0",-2,0,0,0,0,0,65,66,82,70,100,-14.26,29,-49.0,13.0,-1005.0,11:43:19.400904,192.168.0.114
1479,-1,-100,-100,-100,"0,0,0",-3,-1,0,0,0,0,65,66,81,70,100,-14.29,29,-22.0,5.0,-1015.0,11:43:19.503301,192.168.0.114
1484,-1,-100,-100,-100,"0,0,0",-3,-1,0,0,0,0,65,66,81,70,100,-14.3,29,-58.0,20.0,-974.0,11:43:19.605170,192.168.0.114
1490,-1,-100,-100,-100,"0,0,0",-3,-1,0,0,0,0,65,66,81,70,100,-14.41,29,-66.0,40.0,-946.0,11:43:19.707314,192.168.0.114
1495,-1,-100,-100,-100,"0,0,0",-3,-2,0,0,0,0,65,66,81,70,100,-14.38,29,-67.0,33.0,-989.0,11:43:19.809163,192.168.0.114
1498,-1,-100,-100,-100,"0,0,0",-4,-2,0,0,0,0,65,66,81,70,100,-14.18,29,-49.0,4.0,-1013.0,11:43:19.860406,192.168.0.114
1503,-1,-100,-100,-100,"0,0,0",-3,-1,0,0,0,0,65,66,82,70,100,-14.29,29,-49.0,4.0,-1007.0,11:43:19.962032,192.168.0.114
1510,-1,-100,-100,-100,"0,0,0",-3,-1,0,0,0,0,65,66,81,70,100,-14.26,30,-24.0,22.0,-1018.0,11:43:20.124064,192.168.0.114
1513,-1,-100,-100,-100,"0,0,0",-3,-1,0,0,0,0,65,66,81,70,100,-14.44,30,-67.0,35.0,-1049.0,11:43:20.166476,192.168.0.114
1518,-1,-100,-100,-100,"0,0,0",-3,-2,0,0,0,0,65,66,80,70,100,-14.42,30,-42.0,37.0,-977.0,11:43:20.268128,192.168.0.114
1523,-1,-100,-100,-100,"0,0,0",-3,0,0,0,0,0,65,66,80,70,100,-14.37,30,-54.0,1.0,-1001.0,11:43:20.370162,192.168.0.114
1528,-1,-100,-100,-100,"0,0,0",-3,-1,0,0,0,0,65,66,81,70,100,-14.39,30,-25.0,18.0,-974.0,11:43:20.472281,192.168.0.114
1533,-1,-100,-100,-100,"0,0,0",-3,-1,0,0,0,0,65,66,80,70,100,-14.46,30,-44.0,18.0,-1005.0,11:43:20.573844,192.168.0.114
1538,-1,-100,-100,-100,"0,0,0",-3,-2,0,0,0,0,65,66,81,70,100,-14.36,30,-49.0,42.0,-997.0,11:43:20.676095,192.168.0.114
1543,-1,-100,-100,-100,"0,0,0",-2,-1,0,0,0,0,65,66,80,70,100,-14.4,30,-50.0,23.0,-1010.0,11:43:20.778035,192.168.0.114
1549,-1,-100,-100,-100,"0,0,0",-2,-2,0,0,0,0,65,66,80,70,100,-14.43,30,-49.0,25.0,-1010.0,11:43:20.880294,192.168.0.114
1554,-1,-100,-100,-100,"0,0,0",-3,-2,0,0,0,0,65,66,80,70,100,-14.42,30,-50.0,25.0,-1038.0,11:43:20.981416,192.168.0.114
1559,-1,-100,-100,-100,"0,0,0",-3,-2,0,0,0,0,65,66,81,70,100,-14.48,31,-54.0,-28.0,-1014.0,11:43:21.085292,192.168.0.114
1564,-1,-100,-100,-100,"0,0,0",-3,0,0,0,0,0,65,66,81,70,100,-14.25,31,-35.0,8.0,-947.0,11:43:21.186717,192.168.0.114
1569,-1,-100,-100,-100,"0,0,0",-3,0,0,0,0,0,65,66,82,70,100,-14.31,31,-20.0,48.0,-987.0,11:43:21.287928,192.168.0.114
1574,-1,-100,-100,-100,"0,0,0",-2,-2,0,0,0,0,65,66,81,70,100,-14.28,31,-5.0,21.0,-1011.0,11:43:21.390040,192.168.0.114
1579,-1,-100,-100,-100,"0,0,0",-2,-2,0,0,0,0,65,66,81,70,100,-14.28,31,-18.0,19.0,-1020.0,11:43:21.491287,192.168.0.114
1584,-1,-100,-100,-100,"0,0,0",-2,-2,0,0,0,0,65,66,81,70,100,-14.25,31,-10.0,17.0,-979.0,11:43:21.593255,192.168.0.114
1589,-1,-100,-100,-100,"0,0,0",-1,-2,0,-1,0,0,65,66,81,70,100,-14.21,31,10.0,35.0,-1022.0,11:43:21.695895,192.168.0.114
1594,-1,-100,-100,-100,"0,0,0",0,-2,0,-1,0,0,65,66,80,70,100,-14.21,31,-13.0,36.0,-1044.0,11:43:21.798136,192.168.0.114
1599,-1,-100,-100,-100,"0,0,0",0,-3,0,-1,0,0,65,66,81,70,100,-14.31,31,-39.0,8.0,-1039.0,11:43:21.900209,192.168.0.114
1604,-1,-100,-100,-100,"0,0,0",0,-3,0,0,0,0,65,66,81,70,100,-14.3,32,-58.0,-7.0,-1019.0,11:43:22.002123,192.168.0.114
1609,-1,-100,-100,-100,"0,0,0",-1,-1,0,0,0,0,65,67,81,70,100,-14.42,32,-57.0,-10.0,-961.0,11:43:22.103958,192.168.0.114
1614,-1,-100,-100,-100,"0,0,0",-2,-1,0,0,0,0,65,67,82,70,100,-14.36,32,-48.0,3.0,-995.0,11:43:22.205944,192.168.0.114
1619,-1,-100,-100,-100,"0,0,0",-2,0,0,0,1,0,65,67,83,70,100,-14.37,32,-19.0,-15.0,-982.0,11:43:22.308234,192.168.0.114
1624,-1,-100,-100,-100,"0,0,0",-2,0,0,0,1,0,65,67,82,70,100,-14.37,32,-41.0,-4.0,-980.0,11:43:22.410907,192.168.0.114
1629,-1,-100,-100,-100,"0,0,0",-3,0,0,0,1,0,65,67,82,70,100,-14.17,32,-17.0,-8.0,-990.0,11:43:22.512777,192.168.0.114
1634,-1,-100,-100,-100,"0,0,0",-2,2,0,0,1,0,65,67,82,70,100,-14.12,32,-38.0,40.0,-1006.0,11:43:22.613817,192.168.0.114
1639,-1,-100,-100,-100,"0,0,0",-2,1,0,0,0,0,65,67,83,70,100,-14.15,32,-15.0,4.0,-996.0,11:43:22.715802,192.168.0.114
1644,-1,-100,-100,-100,"0,0,0",-2,-1,0,0,0,0,65,67,83,70,100,-14.26,32,-32.0,5.0,-1000.0,11:43:22.818183,192.168.0.114
1649,-1,-100,-100,-100,"0,0,0",-2,-1,0,0,0,0,65,67,82,70,100,-14.04,32,-34.0,-14.0,-992.0,11:43:22.920048,192.168.0.114
1655,-1,-100,-100,-100,"0,0,0",-2,-1,0,0,0,0,65,67,82,70,100,-14.19,33,-64.0,22.0,-996.0,11:43:23.021710,192.168.0.114
1660,-1,-100,-100,-100,"0,0,0",-2,0,0,0,0,0,65,67,82,70,100,-14.16,33,0.0,-10.0,-981.0,11:43:23.124659,192.168.0.114
1665,-1,-100,-100,-100,"0,0,0",-1,0,0,0,0,0,65,67,82,70,100,-14.09,33,-20.0,-8.0,-999.0,11:43:23.226057,192.168.0.114
1670,-1,-100,-100,-100,"0,0,0",0,0,0,0,0,0,65,67,82,70,100,-14.08,33,-11.0,-8.0,-998.0,11:43:23.327641,192.168.0.114
1675,-1,-100,-100,-100,"0,0,0",-1,0,0,0,0,0,65,67,82,70,100,-14.2,33,-20.0,-9.0,-1013.0,11:43:23.429663,192.168.0.114
1680,-1,-100,-100,-100,"0,0,0",-1,0,0,0,0,0,65,67,82,70,100,-14.28,33,-12.0,-1.0,-1044.0,11:43:23.531679,192.168.0.114
1683,-1,-100,-100,-100,"0,0,0",-1,0,0,0,0,0,65,67,82,70,100,-14.19,33,-34.0,-10.0,-1017.0,11:43:23.582706,192.168.0.114
1688,-1,-100,-100,-100,"0,0,0",-1,0,0,0,0,0,65,67,82,70,100,-14.14,33,-43.0,-34.0,-1052.0,11:43:23.684530,192.168.0.114
1693,-1,-100,-100,-100,"0,0,0",-2,0,0,0,0,0,65,67,82,70,100,-14.16,33,-29.0,-8.0,-986.0,11:43:23.786645,192.168.0.114
1698,-1,-100,-100,-100,"0,0,0",-2,0,0,0,0,0,65,67,82,70,100,-14.21,33,-44.0,0.0,-1003.0,11:43:23.888393,192.168.0.114
1703,-1,-100,-100,-100,"0,0,0",-2,0,0,0,0,0,65,67,82,70,100,-14.21,34,-30.0,1.0,-1017.0,11:43:23.990681,192.168.0.114
1708,-1,-100,-100,-100,"0,0,0",-2,0,0,0,0,0,66,68,83,70,100,-14.09,34,-42.0,3.0,-966.0,11:43:24.092381,192.168.0.114
1713,-1,-100,-100,-100,"0,0,0",-3,0,0,0,0,0,66,68,82,70,100,-14.09,34,-12.0,1.0,-1023.0,11:43:24.194525,192.168.0.114
1718,-1,-100,-100,-100,"0,0,0",-2,0,0,0,0,0,66,68,82,70,100,-14.22,34,-20.0,6.0,-1009.0,11:43:24.296453,192.168.0.114
1724,-1,-100,-100,-100,"0,0,0",-2,0,0,0,0,0,66,68,82,70,100,-14.14,34,-50.0,-18.0,-1021.0,11:43:24.398485,192.168.0.114
1729,-1,-100,-100,-100,"0,0,0",-2,-1,0,0,0,0,66,68,82,70,100,-14.16,34,-47.0,-4.0,-1010.0,11:43:24.500456,192.168.0.114
1734,-1,-100,-100,-100,"0,0,0",-3,0,0,0,0,0,66,68,82,70,100,-14.12,34,-27.0,16.0,-995.0,11:43:24.602472,192.168.0.114
1739,-1,-100,-100,-100,"0,0,0",-2,0,0,0,0,0,66,68,82,70,100,-14.14,34,-54.0,15.0,-983.0,11:43:24.704402,192.168.0.114
1744,-1,-100,-100,-100,"0,0,0",-2,-1,0,0,0,0,66,68,82,70,100,-14.12,34,-18.0,-4.0,-991.0,11:43:24.806521,192.168.0.114
1749,-1,-100,-100,-100,"0,0,0",-2,-1,0,0,0,0,66,68,82,70,100,-14.08,34,-27.0,-5.0,-1002.0,11:43:24.912255,192.168.0.114
1754,-1,-100,-100,-100,"0,0,0",-2,-1,0,0,0,0,66,68,82,70,100,-14.11,35,-14.0,16.0,-998.0,11:43:25.010269,192.168.0.114
1759,-1,-100,-100,-100,"0,0,0",-2,0,0,0,0,0,66,67,81,70,100,-14.07,35,4.0,9.0,-975.0,11:43:25.112477,192.168.0.114
1764,-1,-100,-100,-100,"0,0,0",-2,0,0,0,0,0,66,67,81,70,100,-14.04,35,5.0,41.0,-974.0,11:43:25.214410,192.168.0.114
1769,-1,-100,-100,-100,"0,0,0",-1,-1,0,0,0,0,66,67,80,70,100,-14.05,35,-14.0,42.0,-994.0,11:43:25.316224,192.168.0.114
1774,-1,-100,-100,-100,"0,0,0",-1,-3,0,0,0,0,66,67,79,70,100,-14.14,35,-7.0,21.0,-1046.0,11:43:25.418141,192.168.0.114
1779,-1,-100,-100,-100,"0,0,0",-1,-4,0,0,0,0,66,67,79,70,100,-14.18,35,-27.0,19.0,-1045.0,11:43:25.520363,192.168.0.114
1784,-1,-100,-100,-100,"0,0,0",-1,-3,0,0,0,0,66,67,79,70,100,-14.26,35,-39.0,-6.0,-1023.0,11:43:25.622546,192.168.0.114
1789,-1,-100,-100,-100,"0,0,0",-1,-2,0,0,0,0,66,67,79,70,100,-14.26,35,-24.0,-24.0,-1020.0,11:43:25.724328,192.168.0.114
1794,-1,-100,-100,-100,"0,0,0",-2,0,0,0,0,0,66,67,80,70,100,-14.19,35,-23.0,-2.0,-976.0,11:43:25.826483,192.168.0.114
1799,-1,-100,-100,-100,"0,0,0",-2,0,0,0,1,0,66,67,79,70,100,-14.13,35,-52.0,-17.0,-1008.0,11:43:25.928499,192.168.0.114
1804,-1,-100,-100,-100,"0,0,0",-2,0,0,0,1,0,66,67,80,70,100,-14.15,36,-49.0,1.0,-1033.0,11:43:26.030151,192.168.0.114
1809,-1,-100,-100,-100,"0,0,0",-1,1,0,0,0,0,65,67,80,70,100,-14.05,36,-49.0,-16.0,-975.0,11:43:26.133747,192.168.0.114
1815,-1,-100,-100,-100,"0,0,0",-1,1,0,0,0,0,65,67,80,70,100,-14.16,36,-55.0,20.0,-1003.0,11:43:26.234238,192.168.0.114
1819,-1,-100,-100,-100,"0,0,0",-2,0,0,0,0,0,65,67,80,70,100,-14.13,36,-61.0,9.0,-1001.0,11:43:26.336319,192.168.0.114
1824,-1,-100,-100,-100,"0,0,0",-2,0,0,0,0,0,65,67,80,70,100,-14.05,36,-34.0,12.0,-985.0,11:43:26.438086,192.168.0.114
1829,-1,-100,-100,-100,"0,0,0",-2,0,0,0,0,0,65,67,79,70,100,-13.92,36,0.0,23.0,-1019.0,11:43:26.541773,192.168.0.114
1835,-1,-100,-100,-100,"0,0,0",-2,0,0,0,0,0,65,67,80,70,100,-14.07,36,-12.0,19.0,-981.0,11:43:26.642318,192.168.0.114
1840,-1,-100,-100,-100,"0,0,0",-1,-1,0,0,0,0,65,67,80,70,100,-14.08,36,-2.0,16.0,-1012.0,11:43:26.744146,192.168.0.114
1845,-1,-100,-100,-100,"0,0,0",-1,-2,0,0,0,0,65,67,79,70,100,-14.09,36,-14.0,14.0,-1003.0,11:43:26.846227,192.168.0.114
1848,-1,-100,-100,-100,"0,0,0",-1,-2,0,0,0,0,65,67,80,70,100,-14.07,36,-22.0,37.0,-992.0,11:43:26.897352,192.168.0.114
1853,-1,-100,-100,-100,"0,0,0",0,-2,0,0,0,0,65,67,80,70,100,-14.06,37,-31.0,36.0,-1019.0,11:43:26.999407,192.168.0.114
1858,-1,-100,-100,-100,"0,0,0",0,-2,0,0,0,0,66,67,80,70,100,-14.11,37,4.0,15.0,-1009.0,11:43:27.101264,192.168.0.114
1863,-1,-100,-100,-100,"0,0,0",0,-3,0,0,0,0,66,67,81,70,100,-14.08,37,3.0,42.0,-1004.0,11:43:27.203078,192.168.0.114
1868,-1,-100,-100,-100,"0,0,0",0,-3,0,0,0,0,66,67,82,70,100,-14.03,37,-7.0,43.0,-1012.0,11:43:27.305147,192.168.0.114
1873,-1,-100,-100,-100,"0,0,0",0,-3,0,0,0,0,66,67,82,70,100,-14.12,37,-31.0,29.0,-984.0,11:43:27.407190,192.168.0.114
1879,-1,-100,-100,-100,"0,0,0",0,-2,0,0,0,0,66,67,82,70,100,-14.04,37,4.0,7.0,-970.0,11:43:27.514891,192.168.0.114
1884,-1,-100,-100,-100,"0,0,0",0,-1,0,0,0,0,66,67,82,70,100,-14.06,37,-11.0,20.0,-972.0,11:43:27.611220,192.168.0.114
1889,-1,-100,-100,-100,"0,0,0",0,-2,0,0,0,0,66,67,82,70,100,-14.07,37,-25.0,14.0,-986.0,11:43:27.713247,192.168.0.114
1894,-1,-100,-100,-100,"0,0,0",0,-2,0,0,0,0,66,67,82,70,100,-14.13,37,-5.0,13.0,-1043.0,11:43:27.815093,192.168.0.114
1899,-1,-100,-100,-100,"0,0,0",-1,-2,0,0,0,0,66,67,82,70,100,-14.21,37,-21.0,-2.0,-1023.0,11:43:27.917136,192.168.0.114
1904,-1,-100,-100,-100,"0,0,0",-1,-1,0,0,1,0,66,67,82,70,100,-14.16,38,-38.0,1.0,-1010.0,11:43:28.019352,192.168.0.114
1909,-1,-100,-100,-100,"0,0,0",-1,0,0,0,0,0,65,67,83,70,100,-14.33,38,-40.0,1.0,-1014.0,11:43:28.121052,192.168.0.114
1914,-1,-100,-100,-100,"0,0,0",-2,0,0,0,0,0,65,67,82,70,100,-14.13,38,-31.0,-21.0,-1005.0,11:43:28.223214,192.168.0.114
1919,-1,-100,-100,-100,"0,0,0",-3,0,0,0,0,0,65,67,83,70,100,-14.06,38,-21.0,5.0,-985.0,11:43:28.324942,192.168.0.114
1924,-1,-100,-100,-100,"0,0,0",-2,0,0,0,0,0,65,67,83,70,100,-14.0,38,-15.0,18.0,-969.0,11:43:28.427034,192.168.0.114
1929,-1,-100,-100,-100,"0,0,0",-2,0,0,0,0,0,65,67,82,70,100,-14.09,38,-9.0,18.0,-973.0,11:43:28.529140,192.168.0.114
1934,-1,-100,-100,-100,"0,0,0",-1,-1,0,0,0,0,65,67,81,70,100,-14.12,38,-7.0,12.0,-1015.0,11:43:28.631287,192.168.0.114
1939,-1,-100,-100,-100,"0,0,0",-1,-2,0,0,0,0,65,67,81,70,100,-14.07,38,-21.0,27.0,-993.0,11:43:28.733013,192.168.0.114
1944,-1,-100,-100,-100,"0,0,0",-1,-2,0,0,0,0,65,67,81,70,100,-14.12,38,-44.0,-7.0,-1005.0,11:43:28.835075,192.168.0.114
1949,-1,-100,-100,-100,"0,0,0",-2,-2,0,0,0,0,65,67,82,70,100,-14.13,38,-22.0,11.0,-995.0,11:43:28.936840,192.168.0.114
1954,-1,-100,-100,-100,"0,0,0",-2,-1,0,0,0,0,65,67,81,70,100,-14.06,39,-48.0,33.0,-981.0,11:43:29.039132,192.168.0.114
1959,-1,-100,-100,-100,"0,0,0",-2,-2,0,0,0,0,66,68,81,70,100,-14.03,39,-15.0,14.0,-969.0,11:43:29.140918,192.168.0.114
1964,-1,-100,-100,-100,"0,0,0",-2,-2,0,0,0,0,66,68,80,70,100,-14.17,39,-21.0,42.0,-1012.0,11:43:29.242856,192.168.0.114
1969,-1,-100,-100,-100,"0,0,0",-2,-3,0,0,0,0,66,68,80,70,100,-14.2,39,-29.0,38.0,-993.0,11:43:29.344592,192.168.0.114
1974,-1,-100,-100,-100,"0,0,0",-2,-3,0,0,0,0,66,68,80,70,100,-14.27,39,-25.0,30.0,-1049.0,11:43:29.446757,192.168.0.114
1979,-1,-100,-100,-100,"0,0,0",-3,-2,0,0,0,0,66,68,80,70,100,-14.21,39,-44.0,-27.0,-1011.0,11:43:29.548871,192.168.0.114
1984,-1,-100,-100,-100,"0,0,0",-3,-1,0,0,0,0,66,68,80,70,100,-14.28,39,-45.0,-4.0,-978.0,11:43:29.651083,192.168.0.114
1989,-1,-100,-100,-100,"0,0,0",-4,-1,0,0,0,0,66,68,80,70,100,-14.13,39,-61.0,10.0,-979.0,11:43:29.753583,192.168.0.114
1994,-1,-100,-100,-100,"0,0,0",-3,-1,0,0,0,0,66,68,80,70,100,-14.1,39,-54.0,20.0,-1014.0,11:43:29.854840,192.168.0.114
1999,-1,-100,-100,-100,"0,0,0",-3,-2,0,0,0,0,66,68,79,70,100,-14.08,39,0.0,23.0,-971.0,11:43:29.956626,192.168.0.114
2005,-1,-100,-100,-100,"0,0,0",-2,-2,0,0,0,0,66,68,79,70,100,-14.12,40,-34.0,40.0,-1018.0,11:43:30.059509,192.168.0.114
2010,-1,-100,-100,-100,"0,0,0",-2,-2,0,0,0,0,66,68,78,70,100,-14.19,40,-34.0,4.0,-1013.0,11:43:30.162883,192.168.0.114
2015,-1,-100,-100,-100,"0,0,0",-2,-2,0,0,0,0,66,68,79,70,100,-14.29,40,-22.0,-14.0,-1033.0,11:43:30.262721,192.168.0.114
2020,-1,-100,-100,-100,"0,0,0",-2,-1,0,0,0,0,66,68,79,70,100,-14.06,40,-16.0,14.0,-992.0,11:43:30.364937,192.168.0.114
2025,-1,-100,-100,-100,"0,0,0",-2,0,0,0,1,0,66,68,79,70,100,-14.09,40,3.0,18.0,-962.0,11:43:30.466805,192.168.0.114
2028,-1,-100,-100,-100,"0,0,0",-2,0,1,0,0,0,66,68,79,70,100,-13.97,40,-4.0,15.0,-957.0,11:43:30.517538,192.168.0.114
2033,-1,-100,-100,-100,"0,0,0",-1,0,0,0,0,0,66,68,78,70,100,-13.88,40,-29.0,57.0,-977.0,11:43:30.619890,192.168.0.114
2039,-1,-100,-100,-100,"0,0,0",0,-2,0,0,0,0,66,68,78,70,100,-14.04,40,-10.0,24.0,-1000.0,11:43:30.721620,192.168.0.114
2043,-1,-100,-100,-100,"0,0,0",-1,-2,0,0,0,0,66,68,78,70,100,-14.18,40,-33.0,24.0,-1006.0,11:43:30.824246,192.168.0.114
2048,-1,-100,-100,-100,"0,0,0",-1,-3,0,0,0,0,66,68,78,70,100,-14.29,40,-30.0,23.0,-1045.0,11:43:30.926499,192.168.0.114
2053,-1,-100,-100,-100,"0,0,0",-1,-2,0,0,0,0,66,68,78,70,100,-14.16,41,-5.0,18.0,-1015.0,11:43:31.028937,192.168.0.114
2058,-1,-100,-100,-100,"0,0,0",-1,-1,0,0,0,0,66,69,78,70,100,-14.13,41,-2.0,28.0,-994.0,11:43:31.131858,192.168.0.114
2064,-1,-100,-100,-100,"0,0,0",0,-1,0,0,0,0,66,69,79,70,100,-14.2,41,-14.0,34.0,-980.0,11:43:31.233717,192.168.0.114
2069,-1,-100,-100,-100,"0,0,0",0,-1,0,0,0,0,66,69,80,70,100,-14.1,41,-6.0,25.0,-1003.0,11:43:31.336342,192.168.0.114
2074,-1,-100,-100,-100,"0,0,0",0,-2,0,0,0,0,66,69,80,70,100,-14.19,41,-16.0,29.0,-1028.0,11:43:31.435149,192.168.0.114
2079,-1,-100,-100,-100,"0,0,0",-1,-2,0,0,0,0,66,69,80,70,100,-14.1,41,-35.0,27.0,-990.0,11:43:31.537884,192.168.0.114
2084,-1,-100,-100,-100,"0,0,0",-1,-2,0,0,0,0,66,69,80,70,100,-14.05,41,-6.0,6.0,-984.0,11:43:31.639315,192.168.0.114
2089,-1,-100,-100,-100,"0,0,0",-1,0,0,0,0,0,66,69,81,70,100,-14.06,41,10.0,17.0,-965.0,11:43:31.741855,192.168.0.114
2094,-1,-100,-100,-100,"0,0,0",-1,-1,0,0,0,0,66,69,81,70,100,-14.07,41,-34.0,22.0,-994.0,11:43:31.843639,192.168.0.114
2099,-1,-100,-100,-100,"0,0,0",0,-1,0,0,0,0,66,69,81,70,100,-14.15,41,-25.0,37.0,-1006.0,11:43:31.945551,192.168.0.114
2104,-1,-100,-100,-100,"0,0,0",-1,-2,0,0,0,0,66,69,82,70,100,-14.15,42,-39.0,26.0,-984.0,11:43:32.048055,192.168.0.114
2109,-1,-100,-100,-100,"0,0,0",-1,-3,0,0,0,0,66,68,82,70,100,-14.23,42,-40.0,-16.0,-1044.0,11:43:32.149496,192.168.0.114
2114,-1,-100,-100,-100,"0,0,0",-2,-3,0,0,0,0,66,68,82,70,100,-14.04,42,-42.0,12.0,-1001.0,11:43:32.252026,192.168.0.114
2119,-1,-100,-100,-100,"0,0,0",-3,-1,0,0,1,0,66,68,83,70,100,-14.0,42,-48.0,5.0,-971.0,11:43:32.353562,192.168.0.114
2124,-1,-100,-100,-100,"0,0,0",-3,0,0,0,0,0,66,68,83,70,100,-14.08,42,-8.0,30.0,-996.0,11:43:32.457482,192.168.0.114
2129,-1,-100,-100,-100,"0,0,0",-4,0,0,0,0,0,66,68,82,70,100,-14.08,42,-52.0,40.0,-993.0,11:43:32.569988,192.168.0.114
2134,-1,-100,-100,-100,"0,0,0",-3,-2,0,0,0,0,66,68,82,70,100,-14.26,42,-45.0,-15.0,-986.0,11:43:32.659843,192.168.0.114
2139,-1,-100,-100,-100,"0,0,0",-3,-2,0,0,0,0,66,68,83,70,100,-14.06,42,-32.0,1.0,-995.0,11:43:32.761356,192.168.0.114
2144,-1,-100,-100,-100,"0,0,0",-4,-1,0,0,0,0,66,68,83,70,100,-14.06,42,-57.0,0.0,-1039.0,11:43:32.863466,192.168.0.114
2149,-1,-100,-100,-100,"0,0,0",-4,0,0,0,0,0,66,68,82,70,100,-14.26,42,-77.0,-18.0,-1015.0,11:43:32.965238,192.168.0.114
2155,-1,-100,-100,-100,"0,0,0",-4,0,0,0,1,0,66,68,82,70,100,-13.99,43,-43.0,7.0,-968.0,11:43:33.067380,192.168.0.114
2160,-1,-100,-100,-100,"0,0,0",-4,0,0,0,0,0,67,68,82,70,100,-14.08,43,-25.0,6.0,-994.0,11:43:33.169525,192.168.0.114
2165,-1,-100,-100,-100,"0,0,0",-3,0,0,0,0,0,67,68,82,70,100,-14.02,43,-47.0,54.0,-988.0,11:43:33.271348,192.168.0.114
2170,-1,-100,-100,-100,"0,0,0",-2,0,0,0,0,0,67,68,82,70,100,-14.2,43,-27.0,41.0,-1013.0,11:43:33.373434,192.168.0.114
2175,-1,-100,-100,-100,"0,0,0",-2,-2,0,0,0,0,67,68,81,70,100,-14.34,43,-67.0,-9.0,-1059.0,11:43:33.475546,192.168.0.114
2180,-1,-100,-100,-100,"0,0,0",-2,-2,0,0,0,0,67,68,82,70,100,-14.27,43,-68.0,0.0,-1010.0,11:43:33.577986,192.168.0.114
2185,-1,-100,-100,-100,"0,0,0",-3,-1,0,0,0,0,67,68,82,70,100,-14.16,43,-75.0,-13.0,-1005.0,11:43:33.679299,192.168.0.114
2190,-1,-100,-100,-100,"0,0,0",-4,0,0,0,0,0,67,68,82,70,100,-14.12,43,-59.0,21.0,-950.0,11:43:33.781148,192.168.0.114
2195,-1,-100,-100,-100,"0,0,0",-4,0,0,0,0,0,67,68,82,70,100,-14.0,43,-6.0,35.0,-1004.0,11:43:33.883032,192.168.0.114
2198,-1,-100,-100,-100,"0,0,0",-4,0,0,0,0,0,67,68,82,70,100,-13.85,43,-20.0,24.0,-1026.0,11:43:33.934296,192.168.0.114
2203,-1,-100,-100,-100,"0,0,0",-3,-2,0,0,0,0,67,68,81,70,100,-13.99,44,-24.0,17.0,-995.0,11:43:34.038804,192.168.0.114
2208,-1,-100,-100,-100,"0,0,0",-2,-3,0,0,0,0,67,68,81,70,100,-14.02,44,-31.0,7.0,-1017.0,11:43:34.138361,192.168.0.114
2213,-1,-100,-100,-100,"0,0,0",-2,-2,0,0,0,0,67,68,81,70,100,-14.16,44,-57.0,4.0,-982.0,11:43:34.240163,192.168.0.114
2219,-1,-100,-100,-100,"0,0,0",-1,-1,0,0,0,0,67,68,82,70,100,-14.1,44,-57.0,8.0,-966.0,11:43:34.342229,192.168.0.114
2224,-1,-100,-100,-100,"0,0,0",-2,-1,0,0,0,0,67,68,82,70,100,-13.79,44,-80.0,35.0,-1031.0,11:43:34.447553,192.168.0.114
2229,-1,-100,-100,-100,"0,0,0",-3,-2,0,0,0,0,67,68,82,70,100,-13.69,44,-45.0,-16.0,-953.0,11:43:34.546230,192.168.0.114
2234,-1,-100,-100,-100,"0,0,0",-3,-1,0,0,0,0,67,68,82,70,100,-13.95,44,-25.0,-18.0,-1005.0,11:43:34.650797,192.168.0.114
2239,-1,-100,-100,-100,"0,0,0",-4,0,0,0,0,0,67,68,81,70,100,-13.8,44,-25.0,6.0,-1009.0,11:43:34.750201,192.168.0.114
2244,-1,-100,-100,-100,"0,0,0",-2,0,0,0,0,0,67,68,81,70,100,-13.8,44,-41.0,6.0,-1018.0,11:43:34.856501,192.168.0.114
2249,-1,-100,-100,-100,"0,0,0",-2,0,0,0,0,0,67,68,81,70,100,-13.91,44,-31.0,25.0,-995.0,11:43:34.954084,192.168.0.114
2254,-1,-100,-100,-100,"0,0,0",-2,0,0,0,0,0,67,68,80,70,100,-13.91,45,-7.0,-11.0,-1002.0,11:43:35.056189,192.168.0.114
2259,-1,-100,-100,-100,"0,0,0",-2,-1,0,0,0,0,67,69,81,70,100,-13.96,45,9.0,-36.0,-1012.0,11:43:35.158122,192.168.0.114
2264,-1,-100,-100,-100,"0,0,0",-1,0,0,-1,0,0,67,69,81,70,100,-13.94,45,-14.0,-7.0,-991.0,11:43:35.260186,192.168.0.114
2269,-1,-100,-100,-100,"0,0,0",-1,0,0,0,0,0,67,69,82,70,100,-13.9,45,-10.0,-9.0,-998.0,11:43:35.362142,192.168.0.114
2274,-1,-100,-100,-100,"0,0,0",-1,0,0,0,0,0,67,69,82,70,100,-13.88,45,11.0,-7.0,-993.0,11:43:35.463677,192.168.0.114
2279,-1,-100,-100,-100,"0,0,0",-1,0,0,-1,0,0,67,69,82,70,100,-13.87,45,13.0,1.0,-998.0,11:43:35.566047,192.168.0.114
2284,-1,-100,-100,-100,"0,0,0",0,0,0,-1,0,0,67,69,82,70,100,-13.81,45,26.0,-5.0,-996.0,11:43:35.668152,192.168.0.114
2289,-1,-100,-100,-100,"0,0,0",0,0,0,-1,0,0,67,69,82,70,100,-13.84,45,15.0,-29.0,-988.0,11:43:35.770124,192.168.0.114
2294,-1,-100,-100,-100,"0,0,0",0,0,0,-1,0,0,67,69,81,70,100,-13.86,45,15.0,6.0,-997.0,11:43:35.872101,192.168.0.114
2299,-1,-100,-100,-100,"0,0,0",0,0,0,-1,0,0,67,69,83,70,100,-13.88,45,17.0,-15.0,-979.0,11:43:35.973620,192.168.0.114
2304,-1,-100,-100,-100,"0,0,0",0,0,0,-1,0,0,67,69,82,70,100,-13.76,46,33.0,-11.0,-993.0,11:43:36.076752,192.168.0.114
2309,-1,-100,-100,-100,"0,0,0",1,0,0,-1,0,0,67,69,82,70,100,-13.78,46,53.0,0.0,-1001.0,11:43:36.179155,192.168.0.114
2314,-1,-100,-100,-100,"0,0,0",1,0,0,-1,0,0,67,69,81,70,100,-13.75,46,25.0,-13.0,-1012.0,11:43:36.281010,192.168.0.114
2319,-1,-100,-100,-100,"0,0,0",2,0,0,-1,0,0,67,69,81,70,100,-13.64,46,61.0,-35.0,-990.0,11:43:36.382833,192.168.0.114
2324,-1,-100,-100,-100,"0,0,0",2,0,0,-1,0,0,67,69,81,70,100,-13.66,46,40.0,-2.0,-993.0,11:43:36.484915,192.168.0.114
2329,-1,-100,-100,-100,"0,0,0",2,0,0,-1,0,0,67,69,81,70,100,-13.69,46,38.0,-16.0,-1009.0,11:43:36.586943,192.168.0.114
2334,-1,-100,-100,-100,"0,0,0",2,0,0,-1,0,0,67,69,80,70,100,-13.78,46,28.0,-15.0,-1001.0,11:43:36.688917,192.168.0.114
2340,-1,-100,-100,-100,"0,0,0",2,0,0,0,0,0,67,69,80,70,100,-13.67,46,30.0,-26.0,-979.0,11:43:36.790720,192.168.0.114
2345,-1,-100,-100,-100,"0,0,0",2,0,0,0,0,0,67,69,80,70,100,-13.68,46,18.0,-21.0,-1029.0,11:43:36.893018,192.168.0.114
2348,-1,-100,-100,-100,"0,0,0",1,1,0,0,0,0,67,69,80,70,100,-13.59,46,40.0,-40.0,-1009.0,11:43:36.943917,192.168.0.114
2353,-1,-100,-100,-100,"0,0,0",1,1,0,0,0,0,67,69,80,70,100,-13.78,47,21.0,-5.0,-1044.0,11:43:37.045711,192.168.0.114
2360,-1,-100,-100,-100,"0,0,0",1,1,0,0,0,0,66,69,80,70,100,-13.74,47,17.0,-30.0,-1000.0,11:43:37.198779,192.168.0.114
2363,-1,-100,-100,-100,"0,0,0",1,1,0,0,0,0,66,69,79,70,100,-13.75,47,19.0,-25.0,-995.0,11:43:37.249692,192.168.0.114
2368,-1,-100,-100,-100,"0,0,0",0,0,0,0,0,0,66,69,80,70,100,-13.66,47,50.0,-26.0,-1026.0,11:43:37.351923,192.168.0.114
2373,-1,-100,-100,-100,"0,0,0",0,1,0,0,0,0,66,69,80,70,100,-13.75,47,28.0,-9.0,-989.0,11:43:37.454029,192.168.0.114
2378,-1,-100,-100,-100,"0,0,0",0,1,0,0,0,0,66,69,79,70,100,-13.82,47,27.0,-15.0,-1011.0,11:43:37.555844,192.168.0.114
2384,-1,-100,-100,-100,"0,0,0",0,0,0,0,0,0,66,69,80,70,100,-13.86,47,0.0,4.0,-1033.0,11:43:37.658160,192.168.0.114
2389,-1,-100,-100,-100,"0,0,0",0,0,0,0,0,0,66,69,80,70,100,-13.93,47,-34.0,9.0,-999.0,11:43:37.759852,192.168.0.114
2394,-1,-100,-100,-100,"0,0,0",0,0,0,0,0,0,66,69,79,70,100,-13.69,47,8.0,2.0,-1000.0,11:43:37.861753,192.168.0.114
2399,-1,-100,-100,-100,"0,0,0",-2,-1,0,0,0,0,66,69,80,70,100,-13.67,47,0.0,17.0,-963.0,11:43:37.963897,192.168.0.114
2404,-1,-100,-100,-100,"0,0,0",-1,-1,0,0,0,0,66,69,80,70,100,-13.63,48,-11.0,17.0,-986.0,11:43:38.065750,192.168.0.114
2409,-1,-100,-100,-100,"0,0,0",-1,-1,0,0,0,0,66,69,80,70,100,-13.75,48,-18.0,10.0,-1039.0,11:43:38.167167,192.168.0.114
2414,-1,-100,-100,-100,"0,0,0",-1,-2,0,0,0,0,66,69,80,70,100,-13.7,48,-53.0,15.0,-975.0,11:43:38.269529,192.168.0.114
2419,-1,-100,-100,-100,"0,0,0",-3,-2,0,1,0,0,66,69,80,70,100,-13.73,48,-29.0,36.0,-977.0,11:43:38.371654,192.168.0.114
2424,-1,-100,-100,-100,"0,0,0",-3,-2,0,0,0,0,66,69,80,70,100,-13.62,48,-37.0,38.0,-990.0,11:43:38.475981,192.168.0.114
2429,-1,-100,-100,-100,"0,0,0",-3,-2,0,0,0,0,66,69,79,70,100,-13.58,48,-11.0,35.0,-1000.0,11:43:38.575671,192.168.0.114
2434,-1,-100,-100,-100,"0,0,0",-3,-3,0,0,0,0,66,69,79,70,100,-13.59,48,11.0,26.0,-993.0,11:43:38.677884,192.168.0.114
2439,-1,-100,-100,-100,"0,0,0",-2,-3,0,0,0,0,66,69,79,70,100,-13.58,48,-5.0,14.0,-984.0,11:43:38.779548,192.168.0.114
2444,-1,-100,-100,-100,"0,0,0",-2,-4,0,0,0,0,66,69,79,70,100,-13.39,48,-9.0,-10.0,-1078.0,11:43:38.881440,192.168.0.114
2449,-1,-100,-100,-100,"0,0,0",-2,-4,0,0,0,0,66,69,80,70,100,-13.53,48,26.0,-27.0,-883.0,11:43:38.983644,192.168.0.114
2454,-1,-100,-100,-100,"0,0,0",-1,-1,0,0,1,0,66,69,79,70,100,-13.56,49,-14.0,-29.0,-981.0,11:43:39.085668,192.168.0.114
2459,-1,-100,-100,-100,"0,0,0",-1,0,0,0,1,0,67,69,78,70,100,-13.55,49,6.0,-18.0,-991.0,11:43:39.187694,192.168.0.114
2464,-1,-100,-100,-100,"0,0,0",-1,0,0,0,1,0,67,69,77,70,100,-13.57,49,-21.0,-25.0,-972.0,11:43:39.289227,192.168.0.114
2469,-1,-100,-100,-100,"0,0,0",0,0,0,0,1,0,67,69,77,70,100,-13.76,49,5.0,-7.0,-1080.0,11:43:39.391126,192.168.0.114
2474,-1,-100,-100,-100,"0,0,0",0,1,0,0,2,0,67,69,78,70,100,-13.62,49,-2.0,-71.0,-1013.0,11:43:39.493059,192.168.0.114
2479,-1,-100,-100,-100,"0,0,0",0,2,0,0,1,0,67,69,78,70,100,-13.94,49,-3.0,-44.0,-936.0,11:43:39.598849,192.168.0.114
2484,-1,-100,-100,-100,"0,0,0",0,2,0,0,1,0,67,69,78,70,100,-13.67,49,-16.0,-66.0,-974.0,11:43:39.697599,192.168.0.114
2489,-1,-100,-100,-100,"0,0,0",0,3,0,0,1,0,67,69,78,70,100,-13.66,49,15.0,-71.0,-1043.0,11:43:39.799431,192.168.0.114
2494,-1,-100,-100,-100,"0,0,0",-1,4,1,0,1,0,67,69,79,70,100,-13.71,49,-28.0,-50.0,-1083.0,11:43:39.901337,192.168.0.114
2499,-1,-100,-100,-100,"0,0,0",-1,4,1,0,1,1,67,69,81,70,100,-13.72,49,-25.0,-52.0,-1031.0,11:43:40.003735,192.168.0.114
2505,-1,-100,-100,-100,"0,0,0",-1,2,2,0,0,1,67,69,82,70,100,-13.91,50,-60.0,-16.0,-992.0,11:43:40.105474,192.168.0.114
2510,-1,-100,-100,-100,"0,0,0",-2,2,2,0,0,1,67,70,83,70,100,-13.79,50,-63.0,-3.0,-1001.0,11:43:40.208524,192.168.0.114
2515,-1,-100,-100,-100,"0,0,0",-4,1,1,0,0,0,67,70,83,70,100,-13.83,50,-109.0,36.0,-968.0,11:43:40.309440,192.168.0.114
2518,-1,-100,-100,-100,"0,0,0",-4,2,1,0,0,0,67,70,83,70,100,-13.9,50,-27.0,-13.0,-922.0,11:43:40.360450,192.168.0.114
2523,-1,-100,-100,-100,"0,0,0",-3,0,1,0,0,0,67,70,83,70,100,-13.77,50,-72.0,32.0,-977.0,11:43:40.462431,192.168.0.114
2528,-1,-100,-100,-100,"0,0,0",-3,-1,0,0,-1,0,67,70,83,70,100,-13.81,50,-45.0,21.0,-994.0,11:43:40.564286,192.168.0.114
2533,-1,-100,-100,-100,"0,0,0",-4,-2,0,0,-1,0,67,70,82,70,100,-13.74,50,-29.0,12.0,-995.0,11:43:40.666445,192.168.0.114
2538,-1,-100,-100,-100,"0,0,0",-4,-2,0,0,-1,0,67,70,82,70,100,-13.67,50,-50.0,20.0,-1029.0,11:43:40.770416,192.168.0.114
