,mid,x,y,z,mpry,pitch,roll,yaw,vgx,vgy,vgz,templ,temph,tof,h,bat,baro,time,agx,agy,agz,timestamp,address
1,-1,-100,-100,-100,"0,0,0",0,0,0,0,0,0,55,58,10,0,100,-14.28,0,0.0,-2.0,-999.0,11:42:49.828664,192.168.0.112
6,-1,-100,-100,-100,"0,0,0",0,0,0,0,0,0,55,58,10,0,100,-14.23,0,0.0,-3.0,-999.0,11:42:49.930677,192.168.0.112
11,-1,-100,-100,-100,"0,0,0",0,0,0,0,0,0,55,58,10,0,100,-14.25,0,-1.0,-3.0,-1001.0,11:42:50.032818,192.168.0.112
16,-1,-100,-100,-100,"0,0,0",0,0,0,0,0,0,55,58,10,0,100,-14.25,0,-7.0,-5.0,-999.0,11:42:50.134863,192.168.0.112
21,-1,-100,-100,-100,"0,0,0",0,0,0,0,0,0,55,58,10,0,100,-14.25,0,5.0,-8.0,-1001.0,11:42:50.236860,192.168.0.112
26,-1,-100,-100,-100,"0,0,0",0,0,0,0,0,0,55,58,10,0,100,-14.25,0,0.0,30.0,-989.0,11:42:50.338901,192.168.0.112
31,-1,-100,-100,-100,"0,0,0",0,0,0,0,0,0,55,58,10,0,100,-14.25,0,-28.0,-13.0,-1088.0,11:42:50.440357,192.168.0.112
37,-1,-100,-100,-100,"0,0,0",0,0,0,0,0,1,55,58,10,0,100,-14.25,0,-42.0,2.0,-1234.0,11:42:50.543021,192.168.0.112
43,-1,-100,-100,-100,"0,0,0",0,1,0,0,0,4,55,59,10,0,100,-14.25,0,-92.0,13.0,-1313.0,11:42:50.644933,192.168.0.112
48,-1,-100,-100,-100,"0,0,0",-2,0,0,1,0,7,55,59,16,0,100,-14.19,0,-76.0,-1.0,-1142.0,11:42:50.746722,192.168.0.112
53,-1,-100,-100,-100,"0,0,0",-3,0,0,1,0,7,55,59,22,10,100,-14.04,0,-58.0,9.0,-1018.0,11:42:50.848711,192.168.0.112
58,-1,-100,-100,-100,"0,0,0",-4,0,0,1,0,7,55,59,29,20,100,-13.86,0,-60.0,-27.0,-991.0,11:42:50.950822,192.168.0.112
63,-1,-100,-100,-100,"0,0,0",-4,0,0,1,0,7,55,59,39,20,100,-13.84,1,-50.0,-14.0,-968.0,11:42:51.052695,192.168.0.112
68,-1,-100,-100,-100,"0,0,0",-4,0,0,1,0,6,55,59,47,30,100,-13.78,1,-75.0,0.0,-922.0,11:42:51.154748,192.168.0.112
73,-1,-100,-100,-100,"0,0,0",-4,0,0,1,0,5,55,59,54,40,100,-13.8,1,-71.0,-3.0,-901.0,11:42:51.256796,192.168.0.112
78,-1,-100,-100,-100,"0,0,0",-6,0,0,1,0,4,55,59,60,40,100,-13.7,1,-38.0,-10.0,-878.0,11:42:51.361216,192.168.0.112
84,-1,-100,-100,-100,"0,0,0",-6,0,0,1,0,3,55,59,65,40,100,-13.66,1,-68.0,0.0,-893.0,11:42:51.462934,192.168.0.112
89,-1,-100,-100,-100,"0,0,0",-6,0,0,1,0,2,55,59,69,50,100,-13.59,1,-51.0,1.0,-882.0,11:42:51.562731,192.168.0.112
94,-1,-100,-100,-100,"0,0,0",-6,0,0,0,0,1,56,59,71,50,100,-13.7,1,-54.0,3.0,-937.0,11:42:51.664649,192.168.0.112
95,-1,-100,-100,-100,"0,0,0",-5,0,0,0,0,1,56,59,73,50,100,-13.54,1,-38.0,-16.0,-962.0,11:42:51.715888,192.168.0.112
100,-1,-100,-100,-100,"0,0,0",-5,0,0,0,0,0,56,59,76,50,100,-13.54,1,-40.0,-16.0,-963.0,11:42:51.818247,192.168.0.112
105,-1,-100,-100,-100,"0,0,0",-4,0,0,0,0,0,56,59,76,50,100,-13.39,1,-27.0,-16.0,-998.0,11:42:51.920171,192.168.0.112
110,-1,-100,-100,-100,"0,0,0",-4,1,0,0,0,0,56,59,79,60,100,-13.44,2,-23.0,-6.0,-979.0,11:42:52.022024,192.168.0.112
115,-1,-100,-100,-100,"0,0,0",-3,1,0,0,0,0,56,59,81,60,100,-13.48,2,-24.0,-14.0,-1014.0,11:42:52.123722,192.168.0.112
121,-1,-100,-100,-100,"0,0,0",-2,1,0,0,0,0,56,59,82,60,100,-13.37,2,-31.0,7.0,-984.0,11:42:52.252529,192.168.0.112
125,-1,-100,-100,-100,"0,0,0",-1,1,0,0,0,0,56,59,83,60,100,-13.5,2,-54.0,39.0,-998.0,11:42:52.327892,192.168.0.112
131,-1,-100,-100,-100,"0,0,0",-2,0,0,0,0,0,56,59,85,60,100,-13.43,2,-16.0,12.0,-968.0,11:42:52.430937,192.168.0.112
136,-1,-100,-100,-100,"0,0,0",-2,0,0,0,0,0,56,59,85,60,100,-13.43,2,-37.0,11.0,-995.0,11:42:52.531314,192.168.0.112
141,-1,-100,-100,-100,"0,0,0",-2,-1,0,0,0,0,56,59,86,60,100,-13.35,2,-28.0,4.0,-981.0,11:42:52.633903,192.168.0.112
146,-1,-100,-100,-100,"0,0,0",-2,0,0,0,0,0,56,59,87,60,100,-13.33,2,-40.0,33.0,-949.0,11:42:52.735789,192.168.0.112
151,-1,-100,-100,-100,"0,0,0",-2,0,0,0,0,0,56,59,88,60,100,-13.3,2,-24.0,2.0,-969.0,11:42:52.837496,192.168.0.112
156,-1,-100,-100,-100,"0,0,0",-2,-1,0,0,0,0,56,59,88,70,100,-13.24,2,-36.0,-1.0,-999.0,11:42:52.939912,192.168.0.112
161,-1,-100,-100,-100,"0,0,0",-2,-1,0,0,0,0,56,59,88,70,100,-13.24,3,-27.0,-1.0,-983.0,11:42:53.041808,192.168.0.112
168,-1,-100,-100,-100,"0,0,0",-2,-1,0,0,0,0,56,59,88,70,100,-13.36,3,-31.0,-11.0,-940.0,11:42:53.144091,192.168.0.112
173,-1,-100,-100,-100,"0,0,0",-2,-1,0,0,0,0,56,59,88,70,100,-13.32,3,-21.0,-8.0,-946.0,11:42:53.246530,192.168.0.112
178,-1,-100,-100,-100,"0,0,0",-1,0,0,0,0,0,56,59,88,70,100,-13.24,3,-38.0,-8.0,-990.0,11:42:53.348928,192.168.0.112
183,-1,-100,-100,-100,"0,0,0",-2,0,0,0,0,0,56,59,86,70,100,-13.33,3,-27.0,-7.0,-1028.0,11:42:53.451335,192.168.0.112
188,-1,-100,-100,-100,"0,0,0",-2,0,0,0,0,0,56,59,86,70,100,-13.35,3,-33.0,-25.0,-1007.0,11:42:53.553804,192.168.0.112
193,-1,-100,-100,-100,"0,0,0",-2,1,0,0,0,0,56,58,85,70,100,-13.41,3,-22.0,-18.0,-1019.0,11:42:53.656140,192.168.0.112
198,-1,-100,-100,-100,"0,0,0",-2,0,0,0,0,0,56,58,85,60,100,-13.45,3,-21.0,-2.0,-1026.0,11:42:53.755678,192.168.0.112
203,-1,-100,-100,-100,"0,0,0",-1,0,0,0,0,0,56,58,85,60,100,-13.39,3,-14.0,-1.0,-1029.0,11:42:53.857584,192.168.0.112
209,-1,-100,-100,-100,"0,0,0",-1,0,0,0,0,0,56,58,84,60,100,-13.49,3,11.0,-2.0,-1042.0,11:42:53.960057,192.168.0.112
214,-1,-100,-100,-100,"0,0,0",-1,0,0,-1,0,0,56,58,84,60,100,-13.41,4,7.0,-5.0,-1002.0,11:42:54.061370,192.168.0.112
219,-1,-100,-100,-100,"0,0,0",0,0,0,-1,0,0,56,58,84,60,100,-13.51,4,-10.0,10.0,-1006.0,11:42:54.163825,192.168.0.112
224,-1,-100,-100,-100,"0,0,0",0,0,0,0,0,0,56,58,85,60,100,-13.45,4,-7.0,17.0,-964.0,11:42:54.265258,192.168.0.112
225,-1,-100,-100,-100,"0,0,0",0,0,0,0,0,0,56,58,84,60,100,-13.5,4,-2.0,23.0,-994.0,11:42:54.316221,192.168.0.112
230,-1,-100,-100,-100,"0,0,0",0,0,0,0,0,0,56,58,84,60,100,-13.39,4,-3.0,22.0,-991.0,11:42:54.418137,192.168.0.112
235,-1,-100,-100,-100,"0,0,0",0,-1,0,0,0,0,56,58,83,60,100,-13.39,4,4.0,24.0,-992.0,11:42:54.520480,192.168.0.112
240,-1,-100,-100,-100,"0,0,0",0,-1,0,0,0,0,56,59,83,60,100,-13.43,4,-1.0,21.0,-1001.0,11:42:54.622427,192.168.0.112
245,-1,-100,-100,-100,"0,0,0",0,-2,0,0,0,0,56,59,83,60,100,-13.37,4,5.0,20.0,-1006.0,11:42:54.727451,192.168.0.112
250,-1,-100,-100,-100,"0,0,0",0,-2,0,0,0,0,56,59,82,60,100,-13.51,4,-14.0,17.0,-1020.0,11:42:54.826376,192.168.0.112
255,-1,-100,-100,-100,"0,0,0",-1,-2,0,0,0,0,56,59,82,60,100,-13.48,4,-10.0,9.0,-986.0,11:42:54.929568,192.168.0.112
260,-1,-100,-100,-100,"0,0,0",-1,-2,0,0,0,0,56,59,82,60,100,-13.38,5,2.0,21.0,-1025.0,11:42:55.029790,192.168.0.112
265,-1,-100,-100,-100,"0,0,0",0,-2,0,0,0,0,56,59,81,60,100,-13.43,5,-2.0,23.0,-1055.0,11:42:55.132192,192.168.0.112
270,-1,-100,-100,-100,"0,0,0",0,-1,0,0,0,0,56,59,81,60,100,-13.45,5,-16.0,31.0,-998.0,11:42:55.234522,192.168.0.112
275,-1,-100,-100,-100,"0,0,0",-1,-1,0,0,0,0,56,59,81,60,100,-13.45,5,2.0,18.0,-985.0,11:42:55.339716,192.168.0.112
280,-1,-100,-100,-100,"0,0,0",-1,-1,0,0,0,0,56,59,82,60,100,-13.45,5,5.0,27.0,-1022.0,11:42:55.437697,192.168.0.112
285,-1,-100,-100,-100,"0,0,0",-1,-1,0,0,0,0,56,59,81,60,100,-13.52,5,-2.0,32.0,-992.0,11:42:55.540357,192.168.0.112
291,-1,-100,-100,-100,"0,0,0",-1,-1,0,0,0,0,56,59,81,60,100,-13.5,5,5.0,38.0,-1008.0,11:42:55.642125,192.168.0.112
297,-1,-100,-100,-100,"0,0,0",0,-2,0,0,0,0,56,59,81,60,100,-13.42,5,12.0,19.0,-1012.0,11:42:55.743945,192.168.0.112
303,-1,-100,-100,-100,"0,0,0",0,-1,0,0,0,0,56,59,82,60,100,-13.42,5,5.0,27.0,-993.0,11:42:55.848636,192.168.0.112
307,-1,-100,-100,-100,"0,0,0",0,-2,0,0,0,0,56,59,82,60,100,-13.44,5,0.0,27.0,-997.0,11:42:55.948170,192.168.0.112
313,-1,-100,-100,-100,"0,0,0",0,-2,0,0,0,0,56,59,82,60,100,-13.47,6,19.0,22.0,-999.0,11:42:56.050016,192.168.0.112
318,-1,-100,-100,-100,"0,0,0",0,-1,0,0,0,0,56,59,82,60,100,-13.51,6,3.0,36.0,-1001.0,11:42:56.152030,192.168.0.112
323,-1,-100,-100,-100,"0,0,0",0,-2,0,0,0,0,56,59,82,60,100,-13.43,6,-1.0,22.0,-998.0,11:42:56.254397,192.168.0.112
328,-1,-100,-100,-100,"0,0,0",0,-1,0,0,0,0,56,59,82,60,100,-13.39,6,-16.0,42.0,-1004.0,11:42:56.355854,192.168.0.112
333,-1,-100,-100,-100,"0,0,0",0,-1,0,0,0,0,56,59,83,60,100,-13.39,6,-4.0,17.0,-993.0,11:42:56.458138,192.168.0.112
339,-1,-100,-100,-100,"0,0,0",-1,-1,0,0,0,0,56,59,83,60,100,-13.53,6,1.0,2.0,-1006.0,11:42:56.560181,192.168.0.112
344,-1,-100,-100,-100,"0,0,0",-1,-1,0,0,0,0,57,60,83,60,100,-13.46,6,-11.0,1.0,-1000.0,11:42:56.661728,192.168.0.112
349,-1,-100,-100,-100,"0,0,0",0,0,0,0,0,0,57,60,82,60,100,-13.54,6,-20.0,2.0,-1005.0,11:42:56.763962,192.168.0.112
350,-1,-100,-100,-100,"0,0,0",-1,0,0,0,0,0,57,60,83,60,100,-13.55,6,-26.0,-10.0,-1009.0,11:42:56.815169,192.168.0.112
355,-1,-100,-100,-100,"0,0,0",-1,0,0,0,0,0,57,60,83,60,100,-13.52,6,-39.0,12.0,-987.0,11:42:56.916765,192.168.0.112
360,-1,-100,-100,-100,"0,0,0",-2,0,0,0,0,0,57,60,82,60,100,-13.59,7,-12.0,-12.0,-999.0,11:42:57.018880,192.168.0.112
365,-1,-100,-100,-100,"0,0,0",-2,0,0,0,0,0,57,60,83,60,100,-13.61,7,3.0,-19.0,-1005.0,11:42:57.121651,192.168.0.112
370,-1,-100,-100,-100,"0,0,0",-2,0,0,0,0,0,57,60,83,60,100,-13.53,7,-17.0,-28.0,-1010.0,11:42:57.225000,192.168.0.112
375,-1,-100,-100,-100,"0,0,0",-2,1,0,0,1,0,57,60,83,60,100,-13.45,7,-12.0,-26.0,-990.0,11:42:57.324948,192.168.0.112
380,-1,-100,-100,-100,"0,0,0",-1,2,0,0,0,0,57,60,83,60,100,-13.43,7,-3.0,-13.0,-998.0,11:42:57.431555,192.168.0.112
385,-1,-100,-100,-100,"0,0,0",-1,1,0,0,0,0,57,60,83,60,100,-13.38,7,-1.0,-10.0,-980.0,11:42:57.528966,192.168.0.112
391,-1,-100,-100,-100,"0,0,0",-1,1,0,0,0,0,57,59,83,60,100,-13.45,7,-6.0,-17.0,-995.0,11:42:57.639958,192.168.0.112
395,-1,-100,-100,-100,"0,0,0",-1,2,0,0,0,0,57,59,83,60,100,-13.3,7,-25.0,3.0,-987.0,11:42:57.732868,192.168.0.112
400,-1,-100,-100,-100,"0,0,0",0,2,1,0,0,0,57,59,82,60,100,-13.36,7,4.0,-8.0,-999.0,11:42:57.835097,192.168.0.112
405,-1,-100,-100,-100,"0,0,0",0,1,1,0,0,0,57,59,82,60,100,-13.24,7,13.0,-5.0,-982.0,11:42:57.936762,192.168.0.112
410,-1,-100,-100,-100,"0,0,0",0,1,1,0,0,0,57,59,82,60,100,-13.28,8,0.0,14.0,-971.0,11:42:58.038842,192.168.0.112
415,-1,-100,-100,-100,"0,0,0",0,0,1,0,0,0,57,59,82,60,100,-13.33,8,11.0,11.0,-1002.0,11:42:58.140673,192.168.0.112
421,-1,-100,-100,-100,"0,0,0",0,0,1,0,0,0,57,59,81,60,100,-13.31,8,-2.0,15.0,-1005.0,11:42:58.244566,192.168.0.112
426,-1,-100,-100,-100,"0,0,0",0,0,0,0,0,0,57,59,80,60,100,-13.14,8,12.0,16.0,-982.0,11:42:58.348737,192.168.0.112
432,-1,-100,-100,-100,"0,0,0",0,-1,0,0,0,0,57,59,80,60,100,-13.15,8,5.0,20.0,-1006.0,11:42:58.446726,192.168.0.112
437,-1,-100,-100,-100,"0,0,0",0,-1,0,0,-1,0,57,59,80,60,100,-13.42,8,17.0,22.0,-1022.0,11:42:58.549961,192.168.0.112
442,-1,-100,-100,-100,"0,0,0",-1,-2,0,0,0,0,57,59,80,60,100,-13.34,8,37.0,23.0,-1045.0,11:42:58.651040,192.168.0.112
447,-1,-100,-100,-100,"0,0,0",0,-2,0,-1,0,0,57,59,80,60,100,-13.38,8,40.0,21.0,-1024.0,11:42:58.752612,192.168.0.112
452,-1,-100,-100,-100,"0,0,0",0,-2,0,-1,0,0,57,59,82,60,100,-13.33,8,16.0,44.0,-1000.0,11:42:58.854962,192.168.0.112
457,-1,-100,-100,-100,"0,0,0",1,-2,0,-1,0,0,57,59,82,60,100,-13.37,8,34.0,26.0,-986.0,11:42:58.956592,192.168.0.112
462,-1,-100,-100,-100,"0,0,0",1,-2,0,-1,0,0,57,59,82,60,100,-13.41,9,36.0,29.0,-998.0,11:42:59.058675,192.168.0.112
468,-1,-100,-100,-100,"0,0,0",1,-2,0,-1,0,0,57,59,83,60,100,-13.42,9,33.0,34.0,-985.0,11:42:59.160601,192.168.0.112
474,-1,-100,-100,-100,"0,0,0",1,-2,0,-1,0,0,57,59,83,60,100,-13.37,9,29.0,24.0,-980.0,11:42:59.262547,192.168.0.112
479,-1,-100,-100,-100,"0,0,0",1,-2,0,0,0,0,57,59,84,60,100,-13.37,9,20.0,30.0,-997.0,11:42:59.364563,192.168.0.112
484,-1,-100,-100,-100,"0,0,0",1,-1,0,0,0,0,57,59,84,60,100,-13.33,9,19.0,42.0,-985.0,11:42:59.466559,192.168.0.112
485,-1,-100,-100,-100,"0,0,0",1,-2,0,0,0,0,57,59,84,60,100,-13.3,9,29.0,32.0,-982.0,11:42:59.518169,192.168.0.112
494,-1,-100,-100,-100,"0,0,0",0,-2,0,0,0,0,57,60,84,60,100,-13.3,9,28.0,34.0,-992.0,11:42:59.670601,192.168.0.112
495,-1,-100,-100,-100,"0,0,0",0,-2,0,0,0,0,57,60,84,60,100,-13.27,9,13.0,38.0,-1003.0,11:42:59.721556,192.168.0.112
500,-1,-100,-100,-100,"0,0,0",0,-2,0,0,0,0,57,60,84,60,100,-13.3,9,34.0,29.0,-997.0,11:42:59.823600,192.168.0.112
505,-1,-100,-100,-100,"0,0,0",0,-2,0,0,0,0,57,60,83,60,100,-13.26,9,49.0,24.0,-1018.0,11:42:59.925459,192.168.0.112
510,-1,-100,-100,-100,"0,0,0",0,-2,0,0,0,0,57,60,84,60,100,-13.27,10,19.0,27.0,-992.0,11:43:00.027366,192.168.0.112
515,-1,-100,-100,-100,"0,0,0",0,-1,0,0,0,0,57,60,83,60,100,-13.28,10,22.0,32.0,-996.0,11:43:00.129314,192.168.0.112
520,-1,-100,-100,-100,"0,0,0",0,-1,0,0,0,0,57,60,83,60,100,-13.3,10,42.0,21.0,-995.0,11:43:00.231441,192.168.0.112
525,-1,-100,-100,-100,"0,0,0",0,-1,0,0,0,0,57,60,83,60,100,-13.21,10,19.0,26.0,-996.0,11:43:00.333216,192.168.0.112
530,-1,-100,-100,-100,"0,0,0",0,-1,0,0,0,0,57,60,83,60,100,-13.21,10,30.0,32.0,-1004.0,11:43:00.434868,192.168.0.112
535,-1,-100,-100,-100,"0,0,0",0,-1,0,0,0,0,57,60,83,60,100,-13.22,10,5.0,28.0,-1011.0,11:43:00.544516,192.168.0.112
540,-1,-100,-100,-100,"0,0,0",0,-1,0,0,0,0,57,59,83,60,100,-13.22,10,19.0,0.0,-986.0,11:43:00.639620,192.168.0.112
546,-1,-100,-100,-100,"0,0,0",0,0,0,0,0,0,57,59,84,60,100,-13.19,10,33.0,-11.0,-994.0,11:43:00.740685,192.168.0.112
551,-1,-100,-100,-100,"0,0,0",0,0,0,0,0,0,57,59,83,60,100,-13.21,10,4.0,2.0,-1015.0,11:43:00.842681,192.168.0.112
556,-1,-100,-100,-100,"0,0,0",0,0,0,0,0,0,57,59,83,60,100,-13.2,10,15.0,4.0,-998.0,11:43:00.944674,192.168.0.112
562,-1,-100,-100,-100,"0,0,0",0,0,0,0,0,0,57,59,83,60,100,-13.24,11,24.0,10.0,-975.0,11:43:01.046936,192.168.0.112
567,-1,-100,-100,-100,"0,0,0",0,0,0,0,0,0,57,59,83,60,100,-13.26,11,12.0,14.0,-988.0,11:43:01.150303,192.168.0.112
572,-1,-100,-100,-100,"0,0,0",0,0,0,0,0,0,57,59,83,60,100,-13.2,11,20.0,24.0,-1005.0,11:43:01.251305,192.168.0.112
577,-1,-100,-100,-100,"0,0,0",-1,0,0,0,0,0,57,59,82,60,100,-13.32,11,21.0,5.0,-999.0,11:43:01.353630,192.168.0.112
582,-1,-100,-100,-100,"0,0,0",0,0,0,0,0,0,57,59,83,60,100,-13.19,11,24.0,9.0,-986.0,11:43:01.456707,192.168.0.112
587,-1,-100,-100,-100,"0,0,0",0,0,0,0,0,0,57,59,82,60,100,-13.3,11,40.0,4.0,-997.0,11:43:01.557212,192.168.0.112
592,-1,-100,-100,-100,"0,0,0",0,0,0,0,0,0,57,61,82,60,100,-13.27,11,23.0,16.0,-1001.0,11:43:01.659171,192.168.0.112
597,-1,-100,-100,-100,"0,0,0",0,-1,0,0,0,0,57,61,83,60,100,-13.26,11,43.0,-1.0,-1012.0,11:43:01.761357,192.168.0.112
602,-1,-100,-100,-100,"0,0,0",0,-1,0,0,0,0,57,61,82,60,100,-13.26,11,31.0,17.0,-1005.0,11:43:01.863241,192.168.0.112
607,-1,-100,-100,-100,"0,0,0",0,0,0,0,0,0,57,61,82,60,100,-13.28,11,33.0,14.0,-996.0,11:43:01.965243,192.168.0.112
612,-1,-100,-100,-100,"0,0,0",0,-1,0,0,0,0,57,61,82,60,100,-13.22,12,24.0,12.0,-996.0,11:43:02.068484,192.168.0.112
617,-1,-100,-100,-100,"0,0,0",0,-1,0,0,0,0,57,61,82,60,100,-13.25,12,27.0,6.0,-997.0,11:43:02.169185,192.168.0.112
622,-1,-100,-100,-100,"0,0,0",0,0,0,0,0,0,57,61,82,60,100,-13.22,12,13.0,21.0,-1002.0,11:43:02.271145,192.168.0.112
628,-1,-100,-100,-100,"0,0,0",0,0,0,0,0,0,57,61,82,60,100,-13.2,12,27.0,20.0,-996.0,11:43:02.373413,192.168.0.112
633,-1,-100,-100,-100,"0,0,0",0,0,0,0,0,0,57,61,82,60,100,-13.18,12,21.0,18.0,-996.0,11:43:02.475312,192.168.0.112
639,-1,-100,-100,-100,"0,0,0",0,0,0,0,0,0,57,61,82,60,100,-13.16,12,31.0,5.0,-1001.0,11:43:02.577499,192.168.0.112
644,-1,-100,-100,-100,"0,0,0",0,0,0,0,0,0,58,60,82,60,100,-13.24,12,38.0,4.0,-1002.0,11:43:02.680154,192.168.0.112
649,-1,-100,-100,-100,"0,0,0",0,0,0,0,0,0,58,60,82,60,100,-13.18,12,16.0,14.0,-1008.0,11:43:02.781639,192.168.0.112
654,-1,-100,-100,-100,"0,0,0",0,-1,0,0,0,0,58,60,82,60,100,-13.17,12,41.0,-6.0,-997.0,11:43:02.883052,192.168.0.112
659,-1,-100,-100,-100,"0,0,0",0,0,0,0,0,0,58,60,82,60,100,-13.13,12,21.0,5.0,-996.0,11:43:02.985185,192.168.0.112
664,-1,-100,-100,-100,"0,0,0",0,0,0,0,0,0,58,60,82,60,100,-13.19,13,32.0,-4.0,-987.0,11:43:03.087115,192.168.0.112
669,-1,-100,-100,-100,"0,0,0",0,0,0,0,0,0,58,60,82,60,100,-13.14,13,22.0,-15.0,-995.0,11:43:03.189036,192.168.0.112
670,-1,-100,-100,-100,"0,0,0",0,0,0,0,0,0,58,60,82,60,100,-13.13,13,27.0,-4.0,-1003.0,11:43:03.240145,192.168.0.112
676,-1,-100,-100,-100,"0,0,0",0,0,0,0,0,0,58,60,83,60,100,-13.12,13,10.0,4.0,-1015.0,11:43:03.342066,192.168.0.112
681,-1,-100,-100,-100,"0,0,0",0,0,0,0,0,0,58,60,83,60,100,-13.1,13,8.0,3.0,-1011.0,11:43:03.444080,192.168.0.112
686,-1,-100,-100,-100,"0,0,0",0,0,0,0,0,0,58,60,83,60,100,-13.18,13,29.0,-9.0,-1007.0,11:43:03.546033,192.168.0.112
694,-1,-100,-100,-100,"0,0,0",0,0,0,0,0,0,58,61,82,60,100,-13.23,13,7.0,7.0,-986.0,11:43:03.698933,192.168.0.112
696,-1,-100,-100,-100,"0,0,0",0,0,0,0,0,0,58,61,83,60,100,-13.18,13,6.0,1.0,-993.0,11:43:03.752170,192.168.0.112
701,-1,-100,-100,-100,"0,0,0",0,0,0,0,0,0,58,61,83,60,100,-13.22,13,8.0,-2.0,-1005.0,11:43:03.852132,192.168.0.112
706,-1,-100,-100,-100,"0,0,0",0,0,0,0,0,0,58,61,82,60,100,-13.13,13,6.0,0.0,-988.0,11:43:03.957879,192.168.0.112
711,-1,-100,-100,-100,"0,0,0",0,0,0,0,0,0,58,61,83,60,100,-13.15,14,0.0,9.0,-986.0,11:43:04.055950,192.168.0.112
716,-1,-100,-100,-100,"0,0,0",-1,0,0,0,0,0,58,61,83,60,100,-13.15,14,38.0,-12.0,-990.0,11:43:04.157811,192.168.0.112
721,-1,-100,-100,-100,"0,0,0",0,0,0,0,0,0,58,61,83,60,100,-13.15,14,23.0,3.0,-998.0,11:43:04.260471,192.168.0.112
727,-1,-100,-100,-100,"0,0,0",0,0,0,0,0,0,58,61,82,60,100,-13.19,14,25.0,2.0,-1002.0,11:43:04.361933,192.168.0.112
732,-1,-100,-100,-100,"0,0,0",0,0,0,0,0,0,58,61,82,60,100,-13.18,14,23.0,-9.0,-1002.0,11:43:04.463953,192.168.0.112
737,-1,-100,-100,-100,"0,0,0",0,0,0,0,0,0,58,61,82,60,100,-13.13,14,14.0,-6.0,-986.0,11:43:04.565853,192.168.0.112
742,-1,-100,-100,-100,"0,0,0",0,0,0,0,0,0,58,60,82,60,100,-13.09,14,27.0,-15.0,-1010.0,11:43:04.669480,192.168.0.112
747,-1,-100,-100,-100,"0,0,0",0,0,0,0,0,0,58,60,82,60,100,-13.04,14,14.0,-8.0,-988.0,11:43:04.769773,192.168.0.112
752,-1,-100,-100,-100,"0,0,0",0,0,0,0,0,0,58,60,82,60,100,-13.06,14,24.0,-8.0,-995.0,11:43:04.871872,192.168.0.112
757,-1,-100,-100,-100,"0,0,0",0,0,0,0,0,0,58,60,82,60,100,-13.14,14,11.0,-10.0,-990.0,11:43:04.974263,192.168.0.112
762,-1,-100,-100,-100,"0,0,0",0,0,0,0,0,0,58,60,81,60,100,-13.07,15,0.0,-13.0,-983.0,11:43:05.075623,192.168.0.112
767,-1,-100,-100,-100,"0,0,0",0,0,0,0,0,0,58,60,81,60,100,-13.11,15,-8.0,-4.0,-1012.0,11:43:05.178211,192.168.0.112
772,-1,-100,-100,-100,"0,0,0",-1,0,0,0,0,0,58,60,82,60,100,-13.07,15,18.0,-16.0,-982.0,11:43:05.279811,192.168.0.112
777,-1,-100,-100,-100,"0,0,0",-1,0,0,0,0,0,58,60,81,60,100,-12.98,15,9.0,-15.0,-1008.0,11:43:05.381260,192.168.0.112
782,-1,-100,-100,-100,"0,0,0",-1,0,0,0,0,0,58,60,81,60,100,-13.02,15,0.0,4.0,-999.0,11:43:05.483684,192.168.0.112
787,-1,-100,-100,-100,"0,0,0",-1,0,0,0,0,0,58,60,81,60,100,-13.12,15,-1.0,3.0,-978.0,11:43:05.585810,192.168.0.112
792,-1,-100,-100,-100,"0,0,0",-1,0,0,0,0,0,58,60,80,60,100,-13.07,15,-17.0,2.0,-1004.0,11:43:05.689046,192.168.0.112
798,-1,-100,-100,-100,"0,0,0",-1,0,0,0,0,0,58,60,81,60,100,-13.22,15,-8.0,-6.0,-999.0,11:43:05.789654,192.168.0.112
804,-1,-100,-100,-100,"0,0,0",-2,0,0,0,0,0,58,60,81,60,100,-13.05,15,1.0,-3.0,-1002.0,11:43:05.891899,192.168.0.112
808,-1,-100,-100,-100,"0,0,0",-2,0,0,0,0,0,58,60,80,60,100,-13.0,15,-19.0,4.0,-1025.0,11:43:05.993946,192.168.0.112
813,-1,-100,-100,-100,"0,0,0",-2,0,0,0,0,0,58,60,80,60,100,-13.06,16,7.0,-17.0,-993.0,11:43:06.095613,192.168.0.112
818,-1,-100,-100,-100,"0,0,0",-2,0,0,0,0,0,58,60,80,60,100,-13.05,16,0.0,-14.0,-1015.0,11:43:06.197918,192.168.0.112
824,-1,-100,-100,-100,"0,0,0",-1,0,0,0,0,0,58,60,81,60,100,-13.08,16,-4.0,-4.0,-1002.0,11:43:06.299919,192.168.0.112
829,-1,-100,-100,-100,"0,0,0",-1,0,0,0,0,0,58,60,81,60,100,-13.1,16,0.0,-5.0,-976.0,11:43:06.401308,192.168.0.112
834,-1,-100,-100,-100,"0,0,0",-2,0,0,0,0,0,58,60,80,60,100,-13.12,16,0.0,-13.0,-1018.0,11:43:06.503533,192.168.0.112
839,-1,-100,-100,-100,"0,0,0",-2,0,0,0,0,0,58,60,81,60,100,-13.14,16,-13.0,7.0,-987.0,11:43:06.605572,192.168.0.112
844,-1,-100,-100,-100,"0,0,0",-1,0,0,0,0,0,57,61,80,60,100,-13.21,16,-22.0,-8.0,-953.0,11:43:06.707809,192.168.0.112
849,-1,-100,-100,-100,"0,0,0",-1,0,0,0,0,0,57,61,80,60,100,-13.13,16,-19.0,5.0,-1012.0,11:43:06.810296,192.168.0.112
854,-1,-100,-100,-100,"0,0,0",-1,0,0,0,0,0,57,61,80,60,100,-13.15,16,-10.0,16.0,-998.0,11:43:06.911506,192.168.0.112
859,-1,-100,-100,-100,"0,0,0",-2,0,0,0,0,0,57,61,79,60,100,-13.02,16,7.0,-4.0,-989.0,11:43:07.014561,192.168.0.112
864,-1,-100,-100,-100,"0,0,0",-2,0,0,0,0,0,57,61,79,60,100,-13.05,17,-11.0,15.0,-1006.0,11:43:07.116067,192.168.0.112
866,-1,-100,-100,-100,"0,0,0",-2,0,0,0,0,0,57,61,79,60,100,-13.22,17,-6.0,24.0,-1039.0,11:43:07.166548,192.168.0.112
871,-1,-100,-100,-100,"0,0,0",-1,0,0,0,0,0,57,61,79,60,100,-13.19,17,0.0,27.0,-1039.0,11:43:07.268556,192.168.0.112
876,-1,-100,-100,-100,"0,0,0",-1,0,0,0,0,0,57,61,78,60,100,-13.19,17,-4.0,11.0,-1006.0,11:43:07.370500,192.168.0.112
881,-1,-100,-100,-100,"0,0,0",-1,-1,0,0,0,0,57,61,79,60,100,-13.24,17,-35.0,12.0,-1050.0,11:43:07.472523,192.168.0.112
886,-1,-100,-100,-100,"0,0,0",-1,-2,0,0,0,0,57,61,80,60,100,-13.27,17,-18.0,7.0,-1010.0,11:43:07.576145,192.168.0.112
891,-1,-100,-100,-100,"0,0,0",-2,-2,0,0,0,0,58,61,80,60,100,-13.2,17,-39.0,8.0,-982.0,11:43:07.676386,192.168.0.112
896,-1,-100,-100,-100,"0,0,0",-2,-2,0,0,0,0,58,61,80,60,100,-13.34,17,-7.0,-16.0,-1008.0,11:43:07.778440,192.168.0.112
902,-1,-100,-100,-100,"0,0,0",-2,-1,0,0,0,0,58,61,80,60,100,-13.47,17,-27.0,-9.0,-1034.0,11:43:07.880608,192.168.0.112
907,-1,-100,-100,-100,"0,0,0",-3,0,0,0,0,0,58,61,80,60,100,-13.12,17,-27.0,-18.0,-1004.0,11:43:07.982493,192.168.0.112
912,-1,-100,-100,-100,"0,0,0",-3,0,0,0,0,0,58,61,80,60,100,-13.15,18,-25.0,-18.0,-994.0,11:43:08.084512,192.168.0.112
917,-1,-100,-100,-100,"0,0,0",-3,0,0,0,0,0,58,61,81,60,100,-13.2,18,-31.0,-2.0,-995.0,11:43:08.186319,192.168.0.112
922,-1,-100,-100,-100,"0,0,0",-3,0,0,0,0,0,58,61,81,60,100,-13.15,18,-38.0,2.0,-979.0,11:43:08.288246,192.168.0.112
927,-1,-100,-100,-100,"0,0,0",-3,0,0,0,0,0,58,61,80,60,100,-13.21,18,-30.0,3.0,-976.0,11:43:08.390378,192.168.0.112
932,-1,-100,-100,-100,"0,0,0",-3,0,0,0,0,0,58,61,80,60,100,-13.26,18,-18.0,-2.0,-1011.0,11:43:08.492468,192.168.0.112
937,-1,-100,-100,-100,"0,0,0",-2,0,0,0,0,0,58,61,80,60,100,-13.17,18,-17.0,-8.0,-1014.0,11:43:08.594312,192.168.0.112
942,3,25,-5,78,"0,-4,-175",-2,0,0,0,0,0,58,61,80,60,100,-13.21,18,-21.0,10.0,-993.0,11:43:08.696567,192.168.0.112
948,3,25,-5,78,"0,-4,-175",-2,1,0,-1,0,0,58,61,80,60,100,-13.14,18,-10.0,10.0,-1010.0,11:43:08.798129,192.168.0.112
953,3,25,-5,78,"0,-4,-175",-2,0,0,-1,0,0,58,61,80,60,100,-13.2,18,-19.0,5.0,-1001.0,11:43:08.900348,192.168.0.112
958,3,26,-5,78,"0,-5,-174",-1,0,0,-1,0,0,58,61,80,60,100,-13.15,18,-30.0,8.0,-1000.0,11:43:09.002214,192.168.0.112
963,3,26,-5,78,"0,-5,-174",-1,0,0,0,0,0,58,61,80,60,100,-13.21,19,-15.0,-2.0,-1006.0,11:43:09.103921,192.168.0.112
968,3,26,-5,78,"0,-5,-174",-2,0,0,0,0,0,58,61,80,60,100,-13.32,19,-22.0,12.0,-1008.0,11:43:09.206244,192.168.0.112
974,3,26,-5,78,"0,-5,-174",-1,0,0,0,0,0,58,61,80,60,100,-13.33,19,-23.0,14.0,-1021.0,11:43:09.308262,192.168.0.112
979,3,26,-5,78,"0,-5,-174",-1,0,0,0,0,0,58,61,81,60,100,-13.22,19,-7.0,9.0,-991.0,11:43:09.410376,192.168.0.112
984,3,26,-5,78,"0,-5,-174",-2,0,0,0,0,0,58,61,81,60,100,-13.12,19,-15.0,0.0,-978.0,11:43:09.512129,192.168.0.112
989,3,26,-5,78,"0,-5,-174",-2,0,0,0,0,0,58,61,81,60,100,-13.3,19,-27.0,8.0,-1002.0,11:43:09.614165,192.168.0.112
994,3,26,-5,78,"0,-5,-174",-1,0,0,0,0,0,59,61,81,60,100,-13.54,19,-11.0,9.0,-993.0,11:43:09.716528,192.168.0.112
999,3,26,-5,78,"0,-5,-174",-1,0,0,0,0,0,59,61,81,60,100,-13.48,19,-23.0,-2.0,-1029.0,11:43:09.818197,192.168.0.112
1004,3,26,-5,78,"0,-5,-174",-2,0,0,0,0,0,59,61,82,60,100,-13.53,19,-19.0,0.0,-1010.0,11:43:09.919663,192.168.0.112
1009,3,26,-5,78,"0,-5,-174",-3,0,0,0,0,0,59,61,81,60,100,-13.43,19,-40.0,4.0,-978.0,11:43:10.022104,192.168.0.112
1011,3,26,-5,78,"0,-5,-174",-3,0,0,0,0,0,59,61,81,60,100,-13.48,20,-35.0,1.0,-960.0,11:43:10.073382,192.168.0.112
1016,3,26,-5,78,"0,-5,-174",-3,0,0,0,0,0,59,61,81,60,100,-13.47,20,-41.0,3.0,-983.0,11:43:10.175130,192.168.0.112
1021,3,26,-5,78,"0,-5,-174",-3,0,0,0,0,0,59,61,81,60,100,-13.46,20,-28.0,10.0,-1030.0,11:43:10.277072,192.168.0.112
1026,3,26,-5,78,"0,-5,-174",-3,0,0,0,0,0,59,61,81,60,100,-13.32,20,-22.0,-31.0,-1008.0,11:43:10.378905,192.168.0.112
1031,3,10,-5,85,"-11,-5,-174",-3,1,0,0,0,0,59,61,82,60,100,-13.26,20,-34.0,-26.0,-981.0,11:43:10.480593,192.168.0.112
1036,3,10,-5,85,"-11,-5,-174",-3,1,0,0,0,0,59,61,81,60,100,-13.07,20,-10.0,-15.0,-994.0,11:43:10.582851,192.168.0.112
1041,3,10,-5,85,"-11,-5,-174",-3,1,0,0,0,0,59,61,81,60,100,-12.77,20,-8.0,-16.0,-987.0,11:43:10.684886,192.168.0.112
1046,3,10,-5,85,"-11,-5,-174",-3,1,0,0,0,0,59,61,81,60,100,-12.87,20,-19.0,-36.0,-1011.0,11:43:10.787002,192.168.0.112
1051,3,22,-3,80,"-1,-5,-173",-3,1,0,0,0,0,59,61,82,60,100,-12.91,20,-21.0,-19.0,-1009.0,11:43:10.889025,192.168.0.112
1056,3,22,-3,80,"-1,-5,-173",-2,1,0,0,0,0,59,61,82,60,100,-13.0,20,-50.0,-7.0,-1030.0,11:43:10.990980,192.168.0.112
1061,3,22,-3,80,"-1,-5,-173",-2,2,0,0,0,0,59,61,82,60,100,-12.96,21,-46.0,-27.0,-989.0,11:43:11.093093,192.168.0.112
1066,3,22,3,81,"-2,-4,-176",-2,1,0,0,0,0,59,61,82,60,100,-13.23,21,-33.0,-29.0,-999.0,11:43:11.194979,192.168.0.112
1072,3,22,3,81,"-2,-4,-176",-3,1,0,0,0,0,59,61,82,60,100,-13.22,21,-7.0,-41.0,-993.0,11:43:11.297373,192.168.0.112
1077,3,22,3,81,"-2,-4,-176",-3,2,0,0,0,0,59,61,82,60,100,-13.33,21,-25.0,-12.0,-979.0,11:43:11.398682,192.168.0.112
1082,3,22,3,81,"-2,-4,-176",-3,1,0,0,0,0,59,61,82,60,100,-13.64,21,-30.0,-16.0,-1007.0,11:43:11.501542,192.168.0.112
1087,3,22,3,81,"-2,-4,-176",-3,0,0,0,0,0,59,61,82,60,100,-13.59,21,-22.0,-11.0,-987.0,11:43:11.602891,192.168.0.112
1092,3,22,3,81,"-2,-4,-176",-2,0,0,-1,0,0,58,62,82,60,100,-13.68,21,-33.0,-6.0,-1014.0,11:43:11.770096,192.168.0.112
1097,3,22,3,81,"-2,-4,-176",-2,0,0,0,0,0,58,62,81,60,100,-13.87,21,-20.0,-17.0,-999.0,11:43:11.806864,192.168.0.112
1102,3,9,0,85,"-10,-5,-173",-2,0,0,-1,0,0,58,62,82,60,100,-13.88,21,-22.0,-2.0,-995.0,11:43:11.976578,192.168.0.112
1107,3,9,0,85,"-10,-5,-173",-2,0,0,0,0,0,58,62,82,60,100,-13.76,22,-34.0,7.0,-1001.0,11:43:12.010655,192.168.0.112
1112,3,9,0,85,"-10,-5,-173",-2,0,0,0,0,0,58,62,82,60,100,-13.84,22,-39.0,-20.0,-1001.0,11:43:12.182684,192.168.0.112
1118,3,9,0,85,"-10,-5,-173",-2,0,0,0,0,0,58,62,82,60,100,-13.94,22,-48.0,0.0,-1026.0,11:43:12.214795,192.168.0.112
1123,3,18,-3,83,"-6,-6,-172",-3,0,0,0,0,0,58,62,82,60,100,-13.89,22,-38.0,-18.0,-983.0,11:43:12.316719,192.168.0.112
1128,3,18,-3,83,"-6,-6,-172",-4,0,0,0,0,0,58,62,83,60,100,-13.68,22,-31.0,-12.0,-955.0,11:43:12.418685,192.168.0.112
1133,3,18,-3,83,"-6,-6,-172",-4,0,0,0,0,0,58,62,83,60,100,-13.84,22,-35.0,-13.0,-1020.0,11:43:12.589250,192.168.0.112
1138,3,18,-3,83,"-6,-6,-172",-3,0,0,0,0,0,58,62,82,60,100,-14.02,22,-43.0,13.0,-1002.0,11:43:12.622744,192.168.0.112
1143,3,6,-6,86,"-13,-7,-171",-3,0,0,0,0,0,59,61,82,60,100,-13.77,22,-38.0,-9.0,-1035.0,11:43:12.794708,192.168.0.112
1148,3,6,-6,86,"-13,-7,-171",-4,-1,0,0,0,0,59,61,82,60,100,-13.76,22,-61.0,14.0,-1008.0,11:43:12.826830,192.168.0.112
1153,3,6,-6,86,"-13,-7,-171",-4,-1,0,0,0,0,59,61,82,60,100,-13.85,22,-58.0,-7.0,-1018.0,11:43:13.000510,192.168.0.112
1158,3,6,-6,86,"-13,-7,-171",-4,-1,0,0,0,0,59,61,82,60,100,-13.81,23,-55.0,-17.0,-958.0,11:43:13.030718,192.168.0.112
1163,3,23,-7,80,"0,-6,-173",-4,-1,0,0,0,0,59,61,83,60,100,-13.94,23,-35.0,-26.0,-1013.0,11:43:13.206279,192.168.0.112
1168,3,23,-7,80,"0,-6,-173",-4,0,0,0,0,0,59,61,82,60,100,-13.97,23,-60.0,-6.0,-1022.0,11:43:13.234712,192.168.0.112
1173,3,23,-7,80,"0,-6,-173",-4,0,0,0,0,0,59,61,83,60,100,-13.81,23,-56.0,-4.0,-1017.0,11:43:13.413476,192.168.0.112
1178,3,23,-7,79,"1,-5,-175",-4,0,0,0,0,0,59,61,83,60,100,-13.7,23,-63.0,-1.0,-960.0,11:43:13.438634,192.168.0.112
1184,3,23,-7,79,"1,-5,-175",-4,0,0,0,0,0,59,61,83,60,100,-13.79,23,-37.0,-7.0,-990.0,11:43:13.623301,192.168.0.112
1189,3,23,-7,79,"1,-5,-175",-4,0,0,0,0,0,59,61,83,60,100,-13.81,23,-36.0,-28.0,-1028.0,11:43:13.642898,192.168.0.112
1194,3,23,-7,79,"1,-5,-175",-4,1,0,0,0,0,59,61,82,60,100,-13.7,23,-54.0,-18.0,-972.0,11:43:13.829115,192.168.0.112
1199,3,20,-1,81,"0,-4,-177",-4,1,0,0,0,0,59,61,83,60,100,-13.77,23,-34.0,-25.0,-996.0,11:43:13.846605,192.168.0.112
1201,3,20,-1,81,"0,-4,-177",-4,1,0,0,0,0,59,61,83,60,100,-13.75,23,-47.0,-21.0,-1015.0,11:43:13.897022,192.168.0.112
1206,3,20,-1,81,"0,-4,-177",-4,0,0,0,0,0,59,61,83,60,100,-13.81,24,-34.0,-43.0,-1003.0,11:43:13.999666,192.168.0.112
1211,3,20,-1,81,"0,-4,-177",-4,0,0,0,0,0,59,61,83,60,100,-13.88,24,-31.0,-51.0,-1003.0,11:43:14.101598,192.168.0.112
1216,3,21,-4,81,"0,-5,-173",-3,1,0,0,0,0,59,61,83,60,100,-13.71,24,-69.0,-56.0,-1024.0,11:43:14.203547,192.168.0.112
1221,3,21,-4,81,"0,-5,-173",-4,2,0,0,0,0,59,61,83,60,100,-13.98,24,-80.0,-37.0,-1010.0,11:43:14.305614,192.168.0.112
1226,3,21,-4,81,"0,-5,-173",-5,2,0,0,0,0,59,61,84,60,100,-13.84,24,-85.0,-31.0,-983.0,11:43:14.407558,192.168.0.112
1232,3,22,0,81,"0,-4,-176",-5,1,0,0,0,0,59,61,84,60,100,-13.98,24,-74.0,-14.0,-1002.0,11:43:14.509388,192.168.0.112
1237,3,22,0,81,"0,-4,-176",-5,2,0,0,0,0,59,61,83,60,100,-14.13,24,-72.0,0.0,-972.0,11:43:14.611585,192.168.0.112
1242,3,22,0,81,"0,-4,-176",-6,1,0,0,0,0,59,62,83,60,100,-13.94,24,-72.0,11.0,-1017.0,11:43:14.713522,192.168.0.112
1247,3,22,0,81,"0,-4,-176",-6,0,0,0,0,0,59,62,83,60,100,-13.5,24,-45.0,-5.0,-1028.0,11:43:14.815489,192.168.0.112
1252,3,19,0,82,"1,-5,-173",-4,0,0,0,0,0,59,62,83,60,100,-13.92,24,-64.0,-5.0,-970.0,11:43:14.917904,192.168.0.112
1257,3,19,0,82,"1,-5,-173",-4,0,0,0,0,0,59,62,82,60,100,-13.55,25,-66.0,-16.0,-1005.0,11:43:15.019151,192.168.0.112
1262,3,19,0,82,"1,-5,-173",-4,0,0,0,0,0,59,62,82,60,100,-13.6,25,-67.0,-1.0,-992.0,11:43:15.121411,192.168.0.112
1267,3,19,0,82,"1,-5,-173",-4,0,0,0,0,0,59,62,82,60,100,-13.38,25,-51.0,-24.0,-1001.0,11:43:15.223435,192.168.0.112
1272,3,17,0,81,"1,-4,-175",-4,0,0,0,0,0,59,62,82,60,100,-13.67,25,-36.0,-30.0,-1033.0,11:43:15.325659,192.168.0.112
1277,3,17,0,81,"1,-4,-175",-5,0,0,-1,0,0,59,62,82,60,100,-13.61,25,-61.0,-27.0,-997.0,11:43:15.426904,192.168.0.112
1282,3,17,0,81,"1,-4,-175",-4,2,0,-1,0,0,59,62,82,60,100,-13.41,25,-77.0,18.0,-962.0,11:43:15.529405,192.168.0.112
1288,3,14,-4,81,"-2,-5,-173",-4,1,0,-1,0,0,59,62,82,60,100,-13.48,25,-32.0,-28.0,-967.0,11:43:15.631645,192.168.0.112
1293,3,14,-4,81,"-2,-5,-173",-4,0,0,-1,0,0,59,61,82,60,100,-13.5,25,-28.0,-13.0,-1008.0,11:43:15.733402,192.168.0.112
1298,3,14,-4,81,"-2,-5,-173",-3,0,0,-1,0,0,59,61,81,60,100,-13.66,25,-61.0,-21.0,-966.0,11:43:15.835675,192.168.0.112
1303,3,14,-4,81,"-2,-5,-173",-3,0,0,-1,0,0,59,61,81,60,100,-13.67,25,-63.0,-14.0,-1024.0,11:43:15.937250,192.168.0.112
1308,3,19,-1,80,"0,-4,-173",-3,1,0,-1,0,0,59,61,81,60,100,-13.55,26,-37.0,-1.0,-1000.0,11:43:16.039353,192.168.0.112
1313,3,19,-1,80,"0,-4,-173",-3,1,0,-1,0,0,59,61,82,60,100,-13.65,26,-40.0,-12.0,-1008.0,11:43:16.141338,192.168.0.112
1318,3,19,-1,80,"0,-4,-173",-3,0,0,-1,0,0,59,61,82,60,100,-13.59,26,-43.0,-18.0,-989.0,11:43:16.243339,192.168.0.112
1323,3,19,-1,80,"0,-4,-173",-3,0,0,0,0,0,59,61,82,60,100,-13.63,26,-50.0,0.0,-990.0,11:43:16.345164,192.168.0.112
1328,3,24,-2,78,"1,-5,-174",-3,0,0,0,0,0,59,61,83,60,100,-13.63,26,-48.0,-10.0,-1012.0,11:43:16.447046,192.168.0.112
1334,3,24,-2,78,"1,-5,-174",-3,0,0,0,0,0,59,61,83,60,100,-13.53,26,-48.0,2.0,-990.0,11:43:16.549212,192.168.0.112
1339,3,24,-2,78,"1,-5,-174",-3,0,0,0,0,0,59,61,82,60,100,-13.49,26,-24.0,3.0,-979.0,11:43:16.651134,192.168.0.112
1344,3,24,1,80,"0,-4,-177",-3,0,0,-1,0,0,59,62,82,60,100,-13.61,26,-34.0,7.0,-997.0,11:43:16.753213,192.168.0.112
1349,3,24,1,80,"0,-4,-177",-3,0,0,-1,0,0,59,62,83,60,100,-13.64,26,-24.0,1.0,-997.0,11:43:16.855148,192.168.0.112
1354,3,24,1,80,"0,-4,-177",-2,0,0,-1,0,0,59,62,83,60,100,-13.76,26,-28.0,0.0,-997.0,11:43:16.956730,192.168.0.112
1359,3,24,1,80,"0,-4,-177",-2,0,0,-1,0,0,59,62,82,60,100,-13.58,27,-44.0,8.0,-1002.0,11:43:17.059183,192.168.0.112
1364,3,25,-1,81,"0,-5,-176",-2,0,0,-1,0,0,59,62,82,60,100,-13.59,27,-37.0,12.0,-1008.0,11:43:17.160814,192.168.0.112
1366,3,25,-1,81,"0,-5,-176",-2,0,0,-1,0,0,59,62,83,60,100,-13.54,27,-16.0,-10.0,-1000.0,11:43:17.212030,192.168.0.112
1371,3,25,-1,81,"0,-5,-176",-2,0,0,-1,0,0,59,62,82,60,100,-13.62,27,-5.0,-8.0,-994.0,11:43:17.314101,192.168.0.112
1376,3,25,-1,81,"0,-5,-176",-1,0,0,-1,0,0,59,62,82,60,100,-13.66,27,-24.0,-12.0,-1005.0,11:43:17.416201,192.168.0.112
1381,3,29,-5,80,"0,-6,-175",-1,0,0,-1,0,0,59,62,82,60,100,-13.58,27,-29.0,12.0,-982.0,11:43:17.518474,192.168.0.112
1387,3,29,-5,80,"0,-6,-175",-2,0,0,0,0,0,59,62,82,60,100,-13.55,27,-19.0,-11.0,-993.0,11:43:17.623552,192.168.0.112
1391,3,29,-5,80,"0,-6,-175",-1,0,0,0,0,0,59,61,82,60,100,-13.53,27,-8.0,-15.0,-1010.0,11:43:17.722148,192.168.0.112
1396,3,29,-5,80,"0,-6,-175",-2,0,0,0,0,0,59,61,82,60,100,-13.64,27,-12.0,-1.0,-1003.0,11:43:17.824087,192.168.0.112
1402,3,30,-8,80,"-1,-7,-174",-2,0,0,0,0,0,59,61,82,60,100,-13.46,27,-5.0,-7.0,-998.0,11:43:17.925996,192.168.0.112
1407,3,30,-8,80,"-1,-7,-174",-1,0,0,0,0,0,59,61,81,60,100,-13.57,28,-12.0,-23.0,-1010.0,11:43:18.028868,192.168.0.112
1412,3,30,-8,80,"-1,-7,-174",-1,0,0,0,0,0,59,61,81,60,100,-13.59,28,-14.0,-33.0,-1017.0,11:43:18.129997,192.168.0.112
1417,3,24,-10,82,"-5,-8,-171",-2,0,0,-1,0,0,59,61,81,60,100,-13.57,28,-25.0,-24.0,-1001.0,11:43:18.231605,192.168.0.112
1422,3,24,-10,82,"-5,-8,-171",-1,1,0,0,0,0,59,61,82,60,100,-13.68,28,-11.0,-46.0,-998.0,11:43:18.333888,192.168.0.112
1427,3,24,-10,82,"-5,-8,-171",-1,2,0,0,0,0,59,61,82,60,100,-13.68,28,-29.0,-14.0,-994.0,11:43:18.436001,192.168.0.112
1432,3,24,-10,82,"-5,-8,-171",-2,3,0,0,0,0,59,61,82,60,100,-13.66,28,-14.0,1.0,-993.0,11:43:18.538083,192.168.0.112
1437,3,24,-10,82,"-5,-8,-171",-2,2,0,0,0,0,59,61,82,60,100,-13.35,28,-22.0,19.0,-983.0,11:43:18.639945,192.168.0.112
1442,3,24,-10,82,"-5,-8,-171",-2,1,0,0,0,0,60,62,82,60,100,-13.41,28,-20.0,32.0,-994.0,11:43:18.741868,192.168.0.112
1447,3,24,-10,82,"-5,-8,-171",-1,0,0,0,-1,0,60,62,82,60,100,-13.62,28,-19.0,26.0,-992.0,11:43:18.844306,192.168.0.112
1452,3,24,-10,82,"-5,-8,-171",-1,-1,0,0,-1,0,60,62,82,60,100,-13.47,28,-34.0,16.0,-1001.0,11:43:18.946752,192.168.0.112
1457,3,24,-10,82,"-5,-8,-171",-2,-2,0,0,0,0,60,62,82,60,100,-13.59,29,-12.0,6.0,-1007.0,11:43:19.049381,192.168.0.112
1463,3,24,-10,82,"-5,-8,-171",-2,-2,0,0,0,0,60,62,82,60,100,-13.58,29,-14.0,4.0,-977.0,11:43:19.151298,192.168.0.112
1468,3,24,-10,82,"-5,-8,-171",-2,-2,0,0,0,0,60,62,82,60,100,-13.5,29,-14.0,7.0,-1011.0,11:43:19.254193,192.168.0.112
1473,3,24,-10,82,"-5,-8,-171",-2,-1,0,0,0,0,60,62,82,60,100,-13.56,29,-7.0,6.0,-1007.0,11:43:19.356054,192.168.0.112
1478,3,24,-10,82,"-5,-8,-171",-2,0,0,0,0,0,60,62,82,60,100,-13.45,29,-2.0,5.0,-991.0,11:43:19.455687,192.168.0.112
1483,3,24,-10,82,"-5,-8,-171",-1,0,0,0,0,0,60,62,82,60,100,-13.53,29,-19.0,11.0,-1000.0,11:43:19.561064,192.168.0.112
1488,3,24,-10,82,"-5,-8,-171",-1,0,0,0,0,0,60,62,82,60,100,-13.59,29,-13.0,-7.0,-1007.0,11:43:19.660396,192.168.0.112
1493,3,32,-10,79,"0,-7,-176",-1,0,0,0,0,0,60,62,83,60,100,-13.55,29,-28.0,3.0,-1008.0,11:43:19.761754,192.168.0.112
1499,3,32,-10,79,"0,-7,-176",-2,0,0,0,0,0,60,62,82,60,100,-13.5,29,-43.0,19.0,-992.0,11:43:19.863734,192.168.0.112
1504,3,32,-10,79,"0,-7,-176",-3,0,0,0,0,0,60,62,82,60,100,-13.49,29,-13.0,5.0,-990.0,11:43:19.966178,192.168.0.112
1508,3,32,-10,79,"0,-7,-176",-3,0,0,0,0,0,60,62,82,60,100,-13.58,30,-16.0,15.0,-1008.0,11:43:20.067979,192.168.0.112
1514,3,29,-13,79,"-1,-8,-172",-2,0,0,0,0,0,60,62,82,60,100,-13.58,30,-33.0,11.0,-990.0,11:43:20.172667,192.168.0.112
1519,3,29,-13,79,"-1,-8,-172",-2,0,0,0,0,0,60,62,82,60,100,-13.59,30,-51.0,6.0,-996.0,11:43:20.271868,192.168.0.112
1524,3,29,-13,79,"-1,-8,-172",-2,-1,0,0,0,0,60,62,81,60,100,-13.59,30,-40.0,-10.0,-1009.0,11:43:20.373792,192.168.0.112
1529,3,29,-5,80,"0,-5,-176",-3,0,0,0,0,0,60,62,82,60,100,-13.69,30,-58.0,-6.0,-988.0,11:43:20.475601,192.168.0.112
1534,3,29,-5,80,"0,-5,-176",-3,0,0,0,0,0,60,62,81,60,100,-13.64,30,-58.0,6.0,-1025.0,11:43:20.577532,192.168.0.112
1539,3,29,-5,80,"0,-5,-176",-4,0,0,0,0,0,60,62,82,60,100,-13.59,30,-72.0,3.0,-991.0,11:43:20.680504,192.168.0.112
1544,3,29,-5,80,"0,-5,-176",-4,0,0,0,0,0,60,62,82,60,100,-13.66,30,-42.0,-5.0,-984.0,11:43:20.781563,192.168.0.112
1546,3,29,-6,78,"0,-6,-176",-4,0,0,0,0,0,60,62,81,60,100,-13.5,30,-27.0,0.0,-999.0,11:43:20.832659,192.168.0.112
1551,3,29,-6,78,"0,-6,-176",-4,0,0,0,0,0,60,62,82,60,100,-13.47,30,-21.0,-19.0,-994.0,11:43:20.934596,192.168.0.112
1556,3,29,-6,78,"0,-6,-176",-4,0,0,0,0,0,60,62,82,60,100,-13.44,31,-11.0,-3.0,-1021.0,11:43:21.036036,192.168.0.112
1561,3,29,-6,78,"0,-6,-176",-3,0,0,0,0,0,60,62,81,60,100,-13.54,31,-26.0,-12.0,-984.0,11:43:21.138408,192.168.0.112
1566,3,25,-1,79,"1,-5,-176",-2,0,0,0,0,0,60,62,82,60,100,-13.55,31,-12.0,13.0,-1000.0,11:43:21.240563,192.168.0.112
1572,3,25,-1,79,"1,-5,-176",-2,0,0,0,0,0,60,62,81,60,100,-13.53,31,-30.0,4.0,-1030.0,11:43:21.342702,192.168.0.112
1577,3,25,-1,79,"1,-5,-176",-2,0,0,-1,0,0,60,62,81,60,100,-13.58,31,-20.0,7.0,-1007.0,11:43:21.444417,192.168.0.112
1582,3,25,-1,79,"1,-5,-176",-2,0,0,-1,0,0,60,62,81,60,100,-13.58,31,-27.0,16.0,-976.0,11:43:21.546014,192.168.0.112
1587,3,3,-8,84,"-14,-7,-170",-2,0,0,-1,0,0,60,62,81,60,100,-13.64,31,4.0,11.0,-992.0,11:43:21.648240,192.168.0.112
1592,3,3,-8,84,"-14,-7,-170",-1,0,0,-1,0,0,60,63,81,60,100,-13.6,31,-7.0,24.0,-1009.0,11:43:21.750490,192.168.0.112
1597,3,3,-8,84,"-14,-7,-170",-1,0,0,-1,0,0,60,63,81,60,100,-13.62,31,-27.0,34.0,-1006.0,11:43:21.852546,192.168.0.112
1602,3,28,-3,78,"0,-6,-174",-1,-1,0,0,0,0,60,63,81,60,100,-13.64,31,-10.0,32.0,-1003.0,11:43:21.954410,192.168.0.112
1607,3,28,-3,78,"0,-6,-174",-1,-1,0,0,0,0,60,63,81,60,100,-13.59,32,-20.0,38.0,-991.0,11:43:22.056125,192.168.0.112
1612,3,28,-3,78,"0,-6,-174",-1,-1,0,0,0,0,60,63,81,60,100,-13.55,32,4.0,2.0,-1004.0,11:43:22.158667,192.168.0.112
1617,3,28,-3,78,"0,-6,-174",-1,-2,0,0,0,0,60,63,81,60,100,-13.55,32,-21.0,17.0,-992.0,11:43:22.260425,192.168.0.112
1622,3,30,-9,77,"0,-8,-174",-1,-2,0,0,0,0,60,63,81,60,100,-13.62,32,-44.0,18.0,-988.0,11:43:22.362465,192.168.0.112
1627,3,30,-9,77,"0,-8,-174",-2,-1,0,0,0,0,60,63,80,60,100,-13.74,32,-4.0,6.0,-996.0,11:43:22.472766,192.168.0.112
1632,3,30,-9,77,"0,-8,-174",-2,0,0,0,0,0,60,63,80,60,100,-13.64,32,-20.0,6.0,-1004.0,11:43:22.566442,192.168.0.112
1637,3,30,-9,77,"0,-8,-174",-3,0,0,0,0,0,60,63,80,60,100,-13.68,32,-38.0,11.0,-1011.0,11:43:22.667980,192.168.0.112
1643,3,31,-11,76,"0,-8,-175",-2,0,0,0,0,0,60,63,80,60,100,-13.63,32,-38.0,-9.0,-990.0,11:43:22.770477,192.168.0.112
1648,3,31,-11,76,"0,-8,-175",-3,0,0,0,0,0,60,63,81,60,100,-13.52,32,-15.0,-5.0,-1006.0,11:43:22.872472,192.168.0.112
1653,3,31,-11,76,"0,-8,-175",-3,0,0,0,0,0,60,63,80,60,100,-13.41,32,-24.0,19.0,-946.0,11:43:22.974458,192.168.0.112
1658,3,29,-6,77,"0,-6,-177",-3,0,0,0,0,0,60,63,80,60,100,-13.52,33,-16.0,6.0,-1013.0,11:43:23.076478,192.168.0.112
1663,3,29,-6,77,"0,-6,-177",-3,0,0,0,0,0,60,63,81,60,100,-13.57,33,-19.0,12.0,-1023.0,11:43:23.178552,192.168.0.112
1668,3,29,-6,77,"0,-6,-177",-2,0,0,0,0,0,60,63,80,60,100,-13.49,33,8.0,14.0,-979.0,11:43:23.280685,192.168.0.112
1673,3,29,-6,77,"0,-6,-177",-2,0,0,0,0,0,60,63,81,60,100,-13.36,33,-10.0,44.0,-1003.0,11:43:23.382308,192.168.0.112
1678,3,28,-4,77,"1,-7,-175",-1,0,0,0,0,0,60,63,80,60,100,-13.6,33,-7.0,18.0,-1043.0,11:43:23.484371,192.168.0.112
1684,3,28,-4,77,"1,-7,-175",-1,-1,0,0,0,0,60,63,80,60,100,-13.47,33,-37.0,3.0,-996.0,11:43:23.586345,192.168.0.112
1689,3,28,-4,77,"1,-7,-175",-1,-1,0,0,0,0,60,63,81,60,100,-13.5,33,-22.0,-5.0,-980.0,11:43:23.688236,192.168.0.112
1694,3,28,-4,77,"1,-7,-175",-2,0,0,0,0,0,60,62,82,60,100,-13.41,33,-36.0,-1.0,-972.0,11:43:23.790561,192.168.0.112
1699,3,29,-1,77,"0,-6,-177",-2,0,0,0,0,0,60,62,82,60,100,-13.38,33,-63.0,8.0,-1011.0,11:43:23.892287,192.168.0.112
1704,3,29,-1,77,"0,-6,-177",-3,0,0,0,0,0,60,62,81,60,100,-13.29,33,-50.0,16.0,-1003.0,11:43:23.994276,192.168.0.112
1709,3,29,-1,77,"0,-6,-177",-3,0,0,0,0,0,60,62,81,60,100,-13.4,34,-38.0,14.0,-985.0,11:43:24.096234,192.168.0.112
1714,3,29,-1,77,"0,-6,-177",-4,0,0,0,0,0,60,62,81,60,100,-13.31,34,-20.0,17.0,-984.0,11:43:24.198099,192.168.0.112
1719,3,29,-4,78,"0,-6,-176",-3,-1,0,0,0,0,60,62,80,60,100,-13.36,34,-21.0,-11.0,-983.0,11:43:24.300147,192.168.0.112
1721,3,29,-4,78,"0,-6,-176",-3,0,0,0,0,0,60,62,81,60,100,-13.46,34,-33.0,10.0,-990.0,11:43:24.351199,192.168.0.112
1726,3,29,-4,78,"0,-6,-176",-2,0,0,0,0,0,60,62,80,60,100,-13.38,34,-23.0,-5.0,-1012.0,11:43:24.453157,192.168.0.112
1731,3,24,-7,78,"1,-7,-173",-2,0,0,0,0,0,60,62,81,60,100,-13.46,34,-4.0,-8.0,-1008.0,11:43:24.556393,192.168.0.112
1737,3,24,-7,78,"1,-7,-173",-2,0,0,0,0,0,60,62,80,60,100,-13.48,34,-9.0,-9.0,-1008.0,11:43:24.657166,192.168.0.112
1741,3,24,-7,78,"1,-7,-173",-1,0,0,0,0,0,60,63,80,60,100,-13.36,34,-23.0,-4.0,-1015.0,11:43:24.759166,192.168.0.112
1747,3,24,-7,78,"1,-7,-173",-1,0,0,0,0,0,60,63,81,60,100,-13.4,34,-23.0,13.0,-1013.0,11:43:24.860908,192.168.0.112
1752,3,25,-5,78,"0,-7,-173",-2,1,0,0,0,0,60,63,81,60,100,-13.48,34,-14.0,0.0,-994.0,11:43:24.962971,192.168.0.112
1757,3,25,-5,78,"0,-7,-173",-2,0,0,0,0,0,60,63,81,60,100,-13.39,35,-12.0,3.0,-983.0,11:43:25.065128,192.168.0.112
1762,3,25,-5,78,"0,-7,-173",-2,0,0,0,0,0,60,63,80,60,100,-13.55,35,-10.0,21.0,-1013.0,11:43:25.167026,192.168.0.112
1767,3,25,-5,78,"0,-7,-173",-2,0,0,0,0,0,60,63,81,60,100,-13.45,35,-4.0,24.0,-992.0,11:43:25.269066,192.168.0.112
1772,3,26,2,78,"-1,-5,-177",-1,0,0,0,0,0,60,63,81,60,100,-13.44,35,8.0,22.0,-978.0,11:43:25.371125,192.168.0.112
1777,3,26,2,78,"-1,-5,-177",-1,0,0,0,0,0,60,63,81,60,100,-13.36,35,0.0,19.0,-1000.0,11:43:25.472884,192.168.0.112
1782,3,26,2,78,"-1,-5,-177",-1,-1,0,0,0,0,60,63,81,60,100,-13.45,35,-10.0,20.0,-1002.0,11:43:25.576833,192.168.0.112
1787,3,27,0,78,"0,-6,-178",0,-1,0,0,0,0,60,63,82,60,100,-13.5,35,-16.0,12.0,-1005.0,11:43:25.676975,192.168.0.112
1792,3,27,0,78,"0,-6,-178",-1,0,0,0,0,0,60,63,82,60,100,-13.51,35,1.0,1.0,-1012.0,11:43:25.779075,192.168.0.112
1797,3,27,0,78,"0,-6,-178",-1,0,0,0,0,0,60,63,81,60,100,-13.45,35,-1.0,3.0,-971.0,11:43:25.882540,192.168.0.112
1802,3,27,0,78,"0,-6,-178",-2,0,0,0,0,0,60,63,81,60,100,-13.39,35,4.0,2.0,-995.0,11:43:25.982606,192.168.0.112
1808,3,28,-7,79,"-1,-8,-175",-1,0,0,0,0,0,60,63,82,60,100,-13.44,36,-4.0,14.0,-1009.0,11:43:26.084934,192.168.0.112
1813,3,28,-7,79,"-1,-8,-175",-1,0,0,0,0,0,60,63,82,60,100,-13.4,36,-2.0,0.0,-990.0,11:43:26.186992,192.168.0.112
1818,3,28,-7,79,"-1,-8,-175",-1,-1,0,0,0,0,60,63,82,60,100,-13.39,36,-3.0,6.0,-995.0,11:43:26.288937,192.168.0.112
1823,3,28,-7,79,"-1,-8,-175",-1,0,0,0,0,0,60,63,81,60,100,-13.36,36,-17.0,16.0,-1001.0,11:43:26.391026,192.168.0.112
1828,3,28,0,79,"0,-6,180",-1,0,0,0,0,0,60,63,81,60,100,-13.41,36,-5.0,5.0,-1006.0,11:43:26.492785,192.168.0.112
1833,3,28,0,79,"0,-6,180",-2,0,0,0,0,0,60,63,81,60,100,-13.41,36,0.0,8.0,-1015.0,11:43:26.594937,192.168.0.112
1838,3,28,0,79,"0,-6,180",-2,0,0,0,0,0,60,63,81,60,100,-13.42,36,-18.0,23.0,-991.0,11:43:26.697014,192.168.0.112
1843,3,28,0,79,"0,-6,180",-1,0,0,0,0,0,61,63,80,60,100,-13.42,36,-10.0,2.0,-1013.0,11:43:26.798773,192.168.0.112
1849,3,29,-4,78,"0,-8,-176",-1,0,0,0,0,0,61,63,81,60,100,-13.35,36,-17.0,12.0,-996.0,11:43:26.901152,192.168.0.112
1854,3,29,-4,78,"0,-8,-176",-1,0,0,0,0,0,61,63,81,60,100,-13.43,36,0.0,14.0,-1017.0,11:43:27.002909,192.168.0.112
1859,3,29,-4,78,"0,-8,-176",-1,0,0,0,0,0,61,63,81,60,100,-13.41,37,-14.0,4.0,-1002.0,11:43:27.104778,192.168.0.112
1864,3,28,-4,78,"0,-7,-176",-1,0,0,0,0,0,61,63,81,60,100,-13.45,37,-21.0,25.0,-1011.0,11:43:27.206609,192.168.0.112
1869,3,28,-4,78,"0,-7,-176",-1,0,0,0,0,0,61,63,81,60,100,-13.41,37,0.0,-1.0,-1008.0,11:43:27.308759,192.168.0.112
1874,3,28,-4,78,"0,-7,-176",-1,0,0,0,0,0,61,63,81,60,100,-13.39,37,-3.0,20.0,-993.0,11:43:27.410860,192.168.0.112
1878,3,28,-4,78,"0,-7,-176",-1,0,0,0,0,0,61,63,81,60,100,-13.38,37,-17.0,31.0,-996.0,11:43:27.514594,192.168.0.112
1881,3,28,-6,78,"0,-7,-175",-1,0,0,0,0,0,61,63,81,60,100,-13.42,37,7.0,4.0,-993.0,11:43:27.563918,192.168.0.112
1886,3,28,-6,78,"0,-7,-175",-1,0,0,0,0,0,61,63,82,60,100,-13.45,37,-7.0,11.0,-1000.0,11:43:27.666221,192.168.0.112
1891,3,28,-6,78,"0,-7,-175",-1,0,0,0,0,0,60,63,81,60,100,-13.41,37,8.0,-3.0,-982.0,11:43:27.767814,192.168.0.112
1896,3,28,-6,78,"0,-7,-175",-1,0,0,0,0,0,60,63,81,60,100,-13.42,37,0.0,-1.0,-989.0,11:43:27.870144,192.168.0.112
1901,3,27,-7,79,"-1,-8,-174",-1,0,0,0,0,0,60,63,81,60,100,-13.43,37,-7.0,11.0,-988.0,11:43:27.971806,192.168.0.112
1906,3,27,-7,79,"-1,-8,-174",-1,0,0,0,0,0,60,63,81,60,100,-13.38,38,-1.0,23.0,-1010.0,11:43:28.073720,192.168.0.112
1911,3,27,-7,79,"-1,-8,-174",-1,0,0,0,0,0,60,63,80,60,100,-13.44,38,5.0,15.0,-1023.0,11:43:28.175783,192.168.0.112
1917,3,29,-6,78,"0,-8,-174",0,0,0,0,0,0,60,63,81,60,100,-13.43,38,11.0,17.0,-999.0,11:43:28.277663,192.168.0.112
1922,3,29,-6,78,"0,-8,-174",0,0,0,0,0,0,60,63,80,60,100,-13.38,38,11.0,4.0,-1013.0,11:43:28.379499,192.168.0.112
1927,3,29,-6,78,"0,-8,-174",0,0,0,0,0,0,60,63,80,60,100,-13.43,38,13.0,9.0,-1013.0,11:43:28.481938,192.168.0.112
1932,3,29,-6,78,"0,-8,-174",0,0,0,0,0,0,60,63,81,60,100,-13.44,38,9.0,10.0,-1000.0,11:43:28.583538,192.168.0.112
1937,3,28,-4,78,"-1,-7,-176",0,0,0,0,0,0,60,63,81,60,100,-13.36,38,9.0,-2.0,-997.0,11:43:28.685617,192.168.0.112
1942,3,28,-4,78,"-1,-7,-176",0,0,0,0,0,0,61,63,81,60,100,-13.41,38,20.0,1.0,-996.0,11:43:28.787662,192.168.0.112
1947,3,28,-4,78,"-1,-7,-176",0,0,0,0,0,0,61,63,81,60,100,-13.37,38,14.0,1.0,-981.0,11:43:28.889536,192.168.0.112
1952,3,28,-4,78,"-1,-7,-176",0,0,0,0,0,0,61,63,81,60,100,-13.36,38,13.0,-5.0,-994.0,11:43:28.991566,192.168.0.112
1957,3,27,-8,79,"-3,-8,-173",0,0,0,0,0,0,61,63,81,60,100,-13.4,39,17.0,-18.0,-988.0,11:43:29.093576,192.168.0.112
1962,3,27,-8,79,"-3,-8,-173",0,0,0,0,0,0,61,63,81,60,100,-13.39,39,0.0,13.0,-1001.0,11:43:29.195555,192.168.0.112
1967,3,27,-8,79,"-3,-8,-173",0,0,0,0,0,0,61,63,81,60,100,-13.36,39,5.0,29.0,-994.0,11:43:29.297007,192.168.0.112
1972,3,27,-8,79,"-3,-8,-173",0,0,0,0,0,0,61,63,81,60,100,-13.36,39,0.0,20.0,-1017.0,11:43:29.399445,192.168.0.112
1977,3,31,-6,78,"-1,-8,-175",0,0,0,0,0,0,61,63,81,60,100,-13.32,39,17.0,11.0,-1012.0,11:43:29.501573,192.168.0.112
1982,3,31,-6,78,"-1,-8,-175",0,0,0,0,0,0,61,63,81,60,100,-13.18,39,-10.0,23.0,-1016.0,11:43:29.603544,192.168.0.112
1987,3,31,-6,78,"-1,-8,-175",0,0,0,0,0,0,61,63,81,60,100,-13.35,39,3.0,0.0,-1017.0,11:43:29.705556,192.168.0.112
1993,3,31,-6,78,"-1,-8,-175",-1,0,0,0,0,0,61,63,81,60,100,-13.34,39,2.0,-15.0,-1010.0,11:43:29.808079,192.168.0.112
1998,3,31,-6,78,"-1,-8,-175",-2,0,0,0,0,0,61,63,80,60,100,-13.19,39,-23.0,-12.0,-1008.0,11:43:29.909508,192.168.0.112
2003,3,31,-6,78,"-1,-8,-175",-2,1,0,0,0,0,61,63,80,60,100,-13.2,39,-2.0,-10.0,-974.0,11:43:30.011368,192.168.0.112
2008,3,31,-6,78,"-1,-8,-175",-1,2,1,0,0,0,61,63,80,60,100,-13.47,40,-7.0,4.0,-1004.0,11:43:30.113374,192.168.0.112
2013,3,27,-1,79,"-1,-8,-176",-1,2,0,0,0,0,61,63,79,60,100,-13.58,40,-9.0,11.0,-1038.0,11:43:30.215483,192.168.0.112
2018,3,27,-1,79,"-1,-8,-176",-1,1,0,0,0,0,61,63,80,60,100,-13.46,40,0.0,15.0,-1024.0,11:43:30.317517,192.168.0.112
2023,3,27,-1,79,"-1,-8,-176",0,2,0,0,0,0,61,63,80,60,100,-13.52,40,-4.0,10.0,-1058.0,11:43:30.418919,192.168.0.112
2029,3,27,-1,79,"-1,-8,-176",1,4,0,0,-1,0,61,63,81,60,100,-13.41,40,21.0,-49.0,-964.0,11:43:30.523061,192.168.0.112
2034,3,17,0,80,"-6,-8,-173",1,4,0,0,-1,0,61,63,81,60,100,-13.6,40,-30.0,34.0,-964.0,11:43:30.624452,192.168.0.112
2036,3,17,0,80,"-6,-8,-173",-1,0,0,0,-1,0,61,63,80,60,100,-13.47,40,-32.0,56.0,-976.0,11:43:30.675392,192.168.0.112
2044,3,17,0,80,"-6,-8,-173",-5,-7,0,0,0,0,61,64,80,60,100,-13.54,40,-53.0,13.0,-1090.0,11:43:30.828356,192.168.0.112
2049,3,17,0,80,"-6,-8,-173",-6,-4,0,0,0,0,61,64,80,60,100,-13.46,40,-38.0,19.0,-1018.0,11:43:30.930391,192.168.0.112
2054,3,17,0,80,"-6,-8,-173",-4,-2,0,0,0,0,61,64,79,60,100,-13.51,41,-34.0,11.0,-1013.0,11:43:31.032311,192.168.0.112
2059,3,17,0,80,"-6,-8,-173",-3,-1,0,0,0,0,61,64,80,60,100,-13.5,41,-57.0,6.0,-991.0,11:43:31.135161,192.168.0.112
2061,3,17,0,80,"-6,-8,-173",-3,0,0,0,1,0,61,64,80,60,100,-13.44,41,-50.0,3.0,-964.0,11:43:31.185280,192.168.0.112
2066,3,13,-3,77,"0,-6,175",-3,0,0,0,1,0,61,64,80,60,100,-13.41,41,-37.0,5.0,-980.0,11:43:31.287439,192.168.0.112
2071,3,13,-3,77,"0,-6,175",-3,1,0,0,0,0,61,64,81,60,100,-13.35,41,-41.0,-1.0,-984.0,11:43:31.389256,192.168.0.112
2076,3,13,-3,77,"0,-6,175",-3,1,0,0,0,0,61,64,81,60,100,-13.53,41,-24.0,14.0,-1011.0,11:43:31.491236,192.168.0.112
2081,3,13,-3,77,"0,-6,175",-2,0,0,0,0,0,61,64,81,60,100,-13.5,41,-24.0,17.0,-1022.0,11:43:31.593152,192.168.0.112
2087,3,10,-2,79,"-3,-6,-176",-3,0,0,0,0,0,61,64,81,60,100,-13.48,41,-40.0,7.0,-1001.0,11:43:31.695234,192.168.0.112
2091,3,10,-2,79,"-3,-6,-176",-3,0,0,0,0,0,61,64,81,60,100,-13.52,41,-49.0,17.0,-979.0,11:43:31.797277,192.168.0.112
2096,3,10,-2,79,"-3,-6,-176",-3,0,0,0,0,0,61,64,81,60,100,-13.6,41,-28.0,6.0,-1005.0,11:43:31.899219,192.168.0.112
2102,3,12,3,79,"-2,-6,-177",-3,0,0,0,0,0,61,64,82,60,100,-13.51,42,-41.0,2.0,-990.0,11:43:32.001197,192.168.0.112
2107,3,12,3,79,"-2,-6,-177",-3,0,0,0,0,0,61,64,82,60,100,-13.53,42,-36.0,-1.0,-969.0,11:43:32.103205,192.168.0.112
2112,3,12,3,79,"-2,-6,-177",-4,0,0,0,0,0,61,64,81,60,100,-13.6,42,-34.0,-2.0,-981.0,11:43:32.205125,192.168.0.112
2117,3,12,3,79,"-2,-6,-177",-4,0,0,0,0,0,61,64,82,60,100,-13.6,42,-41.0,22.0,-995.0,11:43:32.307170,192.168.0.112
2122,3,9,-3,80,"-2,-7,-174",-3,0,0,0,0,0,61,64,82,60,100,-13.54,42,-39.0,18.0,-987.0,11:43:32.409204,192.168.0.112
2127,3,9,-3,80,"-2,-7,-174",-3,-1,0,0,0,0,61,64,81,60,100,-13.43,42,-39.0,-5.0,-995.0,11:43:32.515698,192.168.0.112
2132,3,9,-3,80,"-2,-7,-174",-3,0,0,0,0,0,61,64,81,60,100,-13.45,42,-41.0,-2.0,-1000.0,11:43:32.613195,192.168.0.112
2137,3,9,-3,80,"-2,-7,-174",-4,0,0,0,0,0,61,64,81,60,100,-13.43,42,-44.0,16.0,-1016.0,11:43:32.715093,192.168.0.112
2142,3,9,-2,80,"-2,-7,-176",-4,0,0,0,0,0,61,63,81,60,100,-13.44,42,-43.0,9.0,-997.0,11:43:32.816969,192.168.0.112
2147,3,9,-2,80,"-2,-7,-176",-3,-1,0,0,0,0,61,63,81,60,100,-13.43,42,-30.0,12.0,-988.0,11:43:32.919150,192.168.0.112
2152,3,9,-2,80,"-2,-7,-176",-3,-1,0,0,0,0,61,63,80,60,100,-13.31,43,-39.0,16.0,-987.0,11:43:33.021001,192.168.0.112
2158,3,9,-4,79,"-1,-7,-175",-3,-1,0,0,0,0,61,63,80,60,100,-13.39,43,-38.0,0.0,-961.0,11:43:33.122972,192.168.0.112
2163,3,9,-4,79,"-1,-7,-175",-3,0,0,0,0,0,61,63,80,60,100,-13.44,43,-26.0,14.0,-1018.0,11:43:33.225086,192.168.0.112
2168,3,9,-4,79,"-1,-7,-175",-3,0,0,-1,0,0,61,63,80,60,100,-13.43,43,-26.0,2.0,-1010.0,11:43:33.327050,192.168.0.112
2173,3,9,-4,79,"-1,-7,-175",-2,0,0,-1,0,0,61,63,80,60,100,-13.42,43,-24.0,0.0,-1010.0,11:43:33.429017,192.168.0.112
2178,3,9,-4,78,"-2,-7,-176",-2,0,0,0,0,0,61,63,79,60,100,-13.44,43,-29.0,11.0,-1003.0,11:43:33.530993,192.168.0.112
2183,3,9,-4,78,"-2,-7,-176",-3,0,0,0,0,0,61,63,79,60,100,-13.36,43,-41.0,25.0,-1016.0,11:43:33.633083,192.168.0.112
2188,3,9,-4,78,"-2,-7,-176",-3,0,0,0,0,0,61,63,79,60,100,-13.32,43,-19.0,16.0,-994.0,11:43:33.734430,192.168.0.112
2193,3,9,-4,78,"-2,-7,-176",-3,0,0,0,0,0,62,64,80,60,100,-13.27,43,-25.0,33.0,-1016.0,11:43:33.836729,192.168.0.112
2199,3,11,-4,77,"-2,-7,-176",-3,0,0,-1,0,0,62,64,80,60,100,-13.34,43,-21.0,6.0,-979.0,11:43:33.938910,192.168.0.112
2204,3,11,-4,77,"-2,-7,-176",-3,-1,0,-1,0,0,62,64,79,60,100,-13.25,44,-36.0,25.0,-1005.0,11:43:34.041023,192.168.0.112
2209,3,11,-4,77,"-2,-7,-176",-2,-1,0,-1,0,0,62,64,79,60,100,-13.27,44,-13.0,23.0,-993.0,11:43:34.142917,192.168.0.112
2214,3,11,-4,77,"-2,-7,-176",-2,-1,0,-1,0,0,62,64,80,60,100,-13.26,44,-1.0,25.0,-1011.0,11:43:34.244807,192.168.0.112
2216,3,11,-4,77,"-2,-7,-176",-1,-1,0,-1,0,0,62,64,80,60,100,-13.19,44,23.0,6.0,-1004.0,11:43:34.295924,192.168.0.112
2221,3,11,-4,77,"-2,-7,-176",-1,-1,0,-1,0,0,62,64,80,60,100,-13.19,44,12.0,18.0,-984.0,11:43:34.397798,192.168.0.112
2226,3,11,-4,77,"-2,-7,-176",0,-1,0,-1,0,0,62,64,81,60,100,-13.19,44,30.0,4.0,-994.0,11:43:34.499963,192.168.0.112
2231,3,12,-6,77,"-2,-8,-176",0,-1,0,-1,0,0,62,64,81,60,100,-13.17,44,16.0,9.0,-994.0,11:43:34.601831,192.168.0.112
2236,3,12,-6,77,"-2,-8,-176",0,-1,0,-1,0,0,62,64,82,60,100,-13.19,44,10.0,26.0,-1000.0,11:43:34.703883,192.168.0.112
2241,3,12,-6,77,"-2,-8,-176",0,-1,0,-1,0,0,62,65,82,60,100,-13.18,44,5.0,27.0,-997.0,11:43:34.805780,192.168.0.112
2246,3,12,-6,77,"-2,-8,-176",0,0,0,-1,0,0,62,65,82,60,100,-13.15,44,0.0,26.0,-999.0,11:43:34.907910,192.168.0.112
2251,3,19,-4,78,"-2,-8,-178",0,0,0,-1,0,0,62,65,82,60,100,-13.08,45,12.0,32.0,-1000.0,11:43:35.010211,192.168.0.112
2257,3,19,-4,78,"-2,-8,-178",0,-1,0,-1,0,0,62,65,82,60,100,-13.11,45,33.0,12.0,-988.0,11:43:35.111899,192.168.0.112
2262,3,19,-4,78,"-2,-8,-178",0,-1,0,-1,0,0,62,65,82,60,100,-13.16,45,18.0,12.0,-999.0,11:43:35.213799,192.168.0.112
2267,3,24,-12,77,"-1,-10,-173",0,-1,0,-1,0,0,62,65,83,60,100,-13.15,45,17.0,20.0,-996.0,11:43:35.319997,192.168.0.112
2272,3,24,-12,77,"-1,-10,-173",0,-1,0,-1,0,0,62,65,82,60,100,-13.17,45,9.0,26.0,-1005.0,11:43:35.417334,192.168.0.112
2277,3,24,-12,77,"-1,-10,-173",0,-1,0,-1,0,0,62,65,83,60,100,-13.15,45,23.0,22.0,-994.0,11:43:35.519725,192.168.0.112
2282,3,24,-12,77,"-1,-10,-173",0,-1,0,0,0,0,62,65,83,60,100,-13.13,45,31.0,15.0,-1004.0,11:43:35.621829,192.168.0.112
2287,3,25,-7,79,"-2,-9,-177",0,-1,0,-1,0,0,62,65,83,60,100,-13.14,45,27.0,5.0,-1004.0,11:43:35.723706,192.168.0.112
2292,3,25,-7,79,"-2,-9,-177",0,-1,0,0,0,0,62,64,83,60,100,-13.21,45,23.0,18.0,-989.0,11:43:35.825665,192.168.0.112
2297,3,25,-7,79,"-2,-9,-177",0,0,0,0,0,0,62,64,83,60,100,-13.16,45,43.0,14.0,-999.0,11:43:35.927868,192.168.0.112
2302,3,25,-7,79,"-2,-9,-177",0,0,0,0,0,0,62,64,83,60,100,-13.1,46,27.0,6.0,-990.0,11:43:36.029904,192.168.0.112
2307,3,29,-10,77,"0,-9,-175",0,0,0,0,0,0,62,64,83,60,100,-13.09,46,30.0,14.0,-1002.0,11:43:36.131852,192.168.0.112
2313,3,29,-10,77,"0,-9,-175",0,0,0,0,0,0,62,64,83,60,100,-13.11,46,25.0,6.0,-992.0,11:43:36.233579,192.168.0.112
2318,3,29,-10,77,"0,-9,-175",0,0,0,0,0,0,62,64,84,60,100,-13.2,46,8.0,26.0,-1013.0,11:43:36.335638,192.168.0.112
2323,3,29,-10,77,"0,-9,-175",0,0,0,0,0,0,62,64,83,60,100,-13.17,46,20.0,18.0,-1001.0,11:43:36.437586,192.168.0.112
2328,3,28,-8,80,"-2,-9,-175",0,0,0,0,0,0,62,64,83,60,100,-13.14,46,16.0,26.0,-993.0,11:43:36.539972,192.168.0.112
2332,3,28,-8,80,"-2,-9,-175",0,-1,0,0,0,0,62,64,83,60,100,-13.11,46,28.0,8.0,-987.0,11:43:36.641552,192.168.0.112
2338,3,28,-8,80,"-2,-9,-175",0,-1,0,0,0,0,62,64,83,60,100,-13.11,46,17.0,18.0,-998.0,11:43:36.744977,192.168.0.112
2343,3,28,-9,80,"-1,-10,-174",0,-1,0,0,0,0,62,64,82,60,100,-13.1,46,36.0,22.0,-1008.0,11:43:36.845709,192.168.0.112
2349,3,28,-9,80,"-1,-10,-174",0,-1,0,0,0,0,62,64,83,60,100,-13.12,46,29.0,19.0,-1001.0,11:43:36.947564,192.168.0.112
2354,3,28,-9,80,"-1,-10,-174",0,-1,0,0,0,0,62,64,82,60,100,-13.15,47,22.0,11.0,-1004.0,11:43:37.049541,192.168.0.112
2358,3,28,-9,80,"-1,-10,-174",0,-1,0,0,0,0,62,64,82,60,100,-13.09,47,4.0,36.0,-1003.0,11:43:37.152828,192.168.0.112
2364,3,28,-10,79,"-1,-10,-175",0,0,0,0,0,0,62,64,82,60,100,-13.1,47,24.0,19.0,-1004.0,11:43:37.253322,192.168.0.112
2369,3,28,-10,79,"-1,-10,-175",0,-1,0,0,0,0,62,64,83,60,100,-13.05,47,19.0,11.0,-1012.0,11:43:37.356089,192.168.0.112
2374,3,28,-10,79,"-1,-10,-175",0,0,0,0,0,0,62,64,82,60,100,-13.01,47,24.0,15.0,-994.0,11:43:37.457495,192.168.0.112
2379,3,28,-10,79,"-1,-10,-175",0,0,0,0,0,0,62,64,83,60,100,-13.1,47,29.0,36.0,-1007.0,11:43:37.559417,192.168.0.112
2381,3,26,-9,79,"-1,-10,-174",0,0,0,0,0,0,62,64,83,60,100,-13.07,47,35.0,20.0,-988.0,11:43:37.610450,192.168.0.112
2386,3,26,-9,79,"-1,-10,-174",0,0,0,0,0,0,62,64,83,60,100,-12.99,47,26.0,24.0,-999.0,11:43:37.712517,192.168.0.112
2391,3,26,-9,79,"-1,-10,-174",0,0,0,0,0,0,61,65,82,60,100,-13.1,47,30.0,33.0,-1002.0,11:43:37.814382,192.168.0.112
2396,3,26,-3,79,"-1,-9,-177",0,-1,0,0,0,0,61,65,82,60,100,-12.99,47,39.0,40.0,-997.0,11:43:37.916443,192.168.0.112
2401,3,26,-3,79,"-1,-9,-177",0,-1,0,0,0,0,61,65,82,60,100,-13.08,48,29.0,47.0,-1005.0,11:43:38.018651,192.168.0.112
2406,3,26,-3,79,"-1,-9,-177",0,-1,0,0,0,0,61,65,82,60,100,-13.05,48,45.0,17.0,-1008.0,11:43:38.121186,192.168.0.112
2411,3,26,-3,79,"-1,-9,-177",1,-2,0,0,0,0,61,65,82,60,100,-13.07,48,29.0,31.0,-999.0,11:43:38.222389,192.168.0.112
2416,3,27,-7,79,"-2,-9,-176",1,-2,0,0,0,0,61,65,82,60,100,-13.07,48,31.0,18.0,-996.0,11:43:38.324096,192.168.0.112
2421,3,27,-7,79,"-2,-9,-176",1,-1,0,0,0,0,61,65,81,60,100,-13.03,48,52.0,14.0,-996.0,11:43:38.426360,192.168.0.112
2427,3,27,-7,79,"-2,-9,-176",0,-1,0,0,0,0,61,65,81,60,100,-12.97,48,48.0,32.0,-997.0,11:43:38.528388,192.168.0.112
2432,3,27,-7,79,"-2,-9,-176",1,-1,0,0,0,0,61,65,82,60,100,-13.02,48,48.0,31.0,-1004.0,11:43:38.630453,192.168.0.112
2437,3,30,-8,77,"-1,-10,-177",1,-2,0,0,0,0,61,65,81,60,100,-13.07,48,52.0,20.0,-990.0,11:43:38.732398,192.168.0.112
2442,3,30,-8,77,"-1,-10,-177",1,-1,0,0,0,0,62,64,81,60,100,-13.07,48,42.0,38.0,-995.0,11:43:38.834328,192.168.0.112
2447,3,30,-8,77,"-1,-10,-177",2,-1,0,0,0,0,62,64,81,60,100,-12.99,48,60.0,19.0,-994.0,11:43:38.936324,192.168.0.112
2452,3,30,-8,77,"-1,-10,-177",2,-1,0,0,0,0,62,64,81,60,100,-13.07,49,44.0,29.0,-988.0,11:43:39.038235,192.168.0.112
2457,3,30,-8,77,"-1,-10,-177",2,-2,0,0,0,0,62,64,81,60,100,-13.09,49,42.0,33.0,-1007.0,11:43:39.140353,192.168.0.112
2462,3,30,-8,77,"-1,-10,-177",1,-2,0,0,0,0,62,64,81,60,100,-13.06,49,37.0,30.0,-999.0,11:43:39.242294,192.168.0.112
2467,3,30,-8,77,"-1,-10,-177",1,-2,0,0,0,0,62,64,81,60,100,-13.11,49,42.0,26.0,-996.0,11:43:39.343812,192.168.0.112
2472,3,30,-8,77,"-1,-10,-177",1,-1,0,0,0,0,62,64,81,60,100,-13.06,49,18.0,24.0,-1016.0,11:43:39.445692,192.168.0.112
2477,3,30,-8,77,"-1,-10,-177",0,0,0,0,0,0,62,64,82,60,100,-13.07,49,21.0,19.0,-1001.0,11:43:39.547804,192.168.0.112
2482,3,30,-8,77,"-1,-10,-177",0,0,0,0,0,0,62,64,81,60,100,-12.95,49,39.0,5.0,-989.0,11:43:39.650055,192.168.0.112
2487,3,30,-8,77,"-1,-10,-177",0,0,0,0,0,0,62,64,81,60,100,-13.05,49,33.0,22.0,-987.0,11:43:39.753820,192.168.0.112
2493,3,30,-8,77,"-1,-10,-177",0,0,0,0,0,0,62,65,81,60,100,-13.03,49,45.0,13.0,-1006.0,11:43:39.854180,192.168.0.112
2498,3,30,-8,77,"-1,-10,-177",0,0,0,0,0,0,62,65,80,60,100,-13.05,49,30.0,25.0,-1000.0,11:43:39.955759,192.168.0.112
2503,3,30,-8,77,"-1,-10,-177",0,0,0,0,0,0,62,65,81,60,100,-13.01,50,36.0,16.0,-999.0,11:43:40.058177,192.168.0.112
2508,3,28,-11,77,"-1,-11,-173",1,0,0,0,0,0,62,65,80,60,100,-12.97,50,57.0,6.0,-1010.0,11:43:40.160137,192.168.0.112
2513,3,28,-11,77,"-1,-11,-173",1,0,0,0,0,0,62,65,81,60,100,-13.04,50,56.0,21.0,-985.0,11:43:40.262006,192.168.0.112
2519,3,28,-11,77,"-1,-11,-173",1,0,0,0,0,0,62,65,81,60,100,-12.94,50,44.0,27.0,-1011.0,11:43:40.364167,192.168.0.112
2524,3,28,-11,77,"-1,-11,-173",1,0,0,0,0,0,62,65,81,60,100,-12.98,50,51.0,18.0,-1004.0,11:43:40.466004,192.168.0.112
2529,3,28,-5,78,"-2,-10,-176",2,-1,0,0,0,0,62,65,80,60,100,-12.96,50,37.0,29.0,-991.0,11:43:40.568090,192.168.0.112
2534,3,28,-5,78,"-2,-10,-176",2,-1,0,0,0,0,62,65,80,60,100,-12.92,50,58.0,30.0,-982.0,11:43:40.670152,192.168.0.112
2539,3,28,-5,78,"-2,-10,-176",1,-1,0,0,0,0,62,65,81,60,100,-12.98,50,40.0,42.0,-991.0,11:43:40.772648,192.168.0.112
2544,3,28,-5,78,"-2,-10,-176",1,-1,0,0,0,0,62,64,80,60,100,-12.95,50,35.0,37.0,-1015.0,11:43:40.874191,192.168.0.112
2549,3,28,-5,78,"-2,-10,-176",1,-2,0,0,0,0,62,64,80,60,100,-12.9,50,52.0,35.0,-998.0,11:43:40.975916,192.168.0.112
2554,3,28,-5,78,"-2,-10,-176",0,-2,0,0,0,0,62,64,80,60,100,-12.94,51,47.0,32.0,-1007.0,11:43:41.078069,192.168.0.112
2559,3,28,-5,78,"-2,-10,-176",1,-2,0,0,0,0,62,64,80,60,100,-12.9,51,47.0,38.0,-1014.0,11:43:41.182187,192.168.0.112
2564,3,30,-6,76,"-1,-10,-178",0,-2,0,0,0,0,62,64,80,60,100,-12.98,51,53.0,29.0,-982.0,11:43:41.282004,192.168.0.112
2569,3,30,-6,76,"-1,-10,-178",0,-3,0,0,0,0,62,64,81,60,100,-12.95,51,66.0,19.0,-974.0,11:43:41.384042,192.168.0.112
2571,3,30,-6,76,"-1,-10,-178",1,-2,0,0,0,0,62,64,80,60,100,-12.97,51,24.0,51.0,-958.0,11:43:41.434821,192.168.0.112
2576,3,30,-6,76,"-1,-10,-178",2,-2,0,0,0,0,62,64,80,60,100,-12.94,51,54.0,28.0,-1017.0,11:43:41.536711,192.168.0.112
2581,3,27,-14,76,"-1,-11,-174",1,-2,0,0,0,0,62,64,79,60,100,-12.97,51,10.0,35.0,-1019.0,11:43:41.638778,192.168.0.112
2587,3,27,-14,76,"-1,-11,-174",1,-2,0,0,0,0,62,64,79,60,100,-13.03,51,27.0,39.0,-1017.0,11:43:41.741282,192.168.0.112
