,mid,x,y,z,mpry,pitch,roll,yaw,vgx,vgy,vgz,templ,temph,tof,h,bat,baro,time,agx,agy,agz,timestamp,address
2,-1,-100,-100,-100,"0,0,0",0,0,0,0,0,0,57,59,10,0,100,-14.44,0,-3.0,-1.0,-998.0,11:42:49.835703,192.168.0.115
7,-1,-100,-100,-100,"0,0,0",0,0,0,0,0,0,57,59,10,0,100,-14.44,0,-5.0,-1.0,-1000.0,11:42:49.939162,192.168.0.115
12,-1,-100,-100,-100,"0,0,0",0,0,0,0,0,0,57,59,10,0,100,-14.46,0,0.0,0.0,-1000.0,11:42:50.039958,192.168.0.115
17,-1,-100,-100,-100,"0,0,0",0,0,0,0,0,0,57,59,10,0,100,-14.46,0,-7.0,4.0,-1001.0,11:42:50.142139,192.168.0.115
22,-1,-100,-100,-100,"0,0,0",0,0,0,0,0,0,57,59,10,0,100,-14.46,0,19.0,-11.0,-1002.0,11:42:50.243852,192.168.0.115
27,-1,-100,-100,-100,"0,0,0",0,0,0,0,0,0,57,59,10,0,100,-14.46,0,-16.0,-3.0,-955.0,11:42:50.346456,192.168.0.115
32,-1,-100,-100,-100,"0,0,0",0,0,0,0,0,0,57,59,10,0,100,-14.46,0,0.0,-14.0,-1068.0,11:42:50.447791,192.168.0.115
38,-1,-100,-100,-100,"0,0,0",0,0,0,0,0,0,57,59,10,0,100,-14.46,0,-34.0,-20.0,-1258.0,11:42:50.549713,192.168.0.115
44,-1,-100,-100,-100,"0,0,0",0,0,0,0,0,3,57,59,10,0,100,-14.46,0,-25.0,-66.0,-1360.0,11:42:50.651984,192.168.0.115
49,-1,-100,-100,-100,"0,0,0",0,1,0,0,0,6,57,59,11,0,100,-14.46,0,-53.0,2.0,-1127.0,11:42:50.753888,192.168.0.115
54,-1,-100,-100,-100,"0,0,0",0,2,0,0,0,8,57,59,19,10,100,-14.19,0,-60.0,3.0,-1039.0,11:42:50.855905,192.168.0.115
59,-1,-100,-100,-100,"0,0,0",-2,2,0,1,0,8,57,59,25,20,100,-14.0,0,-101.0,3.0,-981.0,11:42:50.957792,192.168.0.115
64,-1,-100,-100,-100,"0,0,0",-3,0,0,1,0,8,57,59,34,20,100,-14.08,1,-94.0,-19.0,-952.0,11:42:51.059790,192.168.0.115
69,-1,-100,-100,-100,"0,0,0",-4,0,0,1,0,7,57,59,44,30,100,-14.15,1,-89.0,-34.0,-917.0,11:42:51.161772,192.168.0.115
74,-1,-100,-100,-100,"0,0,0",-6,1,0,1,0,6,57,59,52,40,100,-13.84,1,-110.0,-8.0,-812.0,11:42:51.263903,192.168.0.115
79,-1,-100,-100,-100,"0,0,0",-6,2,0,1,0,5,57,59,59,40,100,-13.78,1,-90.0,19.0,-878.0,11:42:51.365830,192.168.0.115
80,-1,-100,-100,-100,"0,0,0",-7,0,0,1,0,4,57,59,65,50,100,-13.97,1,-67.0,27.0,-908.0,11:42:51.416890,192.168.0.115
85,-1,-100,-100,-100,"0,0,0",-7,0,0,1,0,3,57,59,69,50,100,-13.84,1,-78.0,48.0,-933.0,11:42:51.518913,192.168.0.115
90,-1,-100,-100,-100,"0,0,0",-6,-1,0,0,-1,2,57,59,73,50,100,-13.78,1,-84.0,48.0,-904.0,11:42:51.621342,192.168.0.115
96,-1,-100,-100,-100,"0,0,0",-5,-2,0,0,-1,1,57,59,75,60,100,-13.76,1,-64.0,42.0,-949.0,11:42:51.724244,192.168.0.115
101,-1,-100,-100,-100,"0,0,0",-5,-1,0,0,-1,1,57,59,77,60,100,-13.83,1,-71.0,17.0,-910.0,11:42:51.824875,192.168.0.115
106,-1,-100,-100,-100,"0,0,0",-5,-1,0,0,-1,0,57,59,78,60,100,-13.95,1,-105.0,46.0,-975.0,11:42:51.926873,192.168.0.115
111,-1,-100,-100,-100,"0,0,0",-5,-2,0,0,-1,0,57,59,79,60,100,-13.83,2,-100.0,28.0,-991.0,11:42:52.028707,192.168.0.115
116,-1,-100,-100,-100,"0,0,0",-5,-3,0,0,0,0,57,59,80,60,100,-13.89,2,-122.0,45.0,-1017.0,11:42:52.132751,192.168.0.115
120,-1,-100,-100,-100,"0,0,0",-5,-2,0,0,0,0,57,59,82,60,100,-13.71,2,-121.0,25.0,-986.0,11:42:52.252251,192.168.0.115
126,-1,-100,-100,-100,"0,0,0",-6,-2,0,0,0,0,57,59,82,60,100,-13.78,2,-124.0,-11.0,-933.0,11:42:52.334855,192.168.0.115
132,-1,-100,-100,-100,"0,0,0",-7,-2,0,0,0,0,58,60,83,60,100,-13.85,2,-103.0,59.0,-974.0,11:42:52.436793,192.168.0.115
137,-1,-100,-100,-100,"0,0,0",-6,0,0,0,0,0,58,60,84,60,100,-13.58,2,-96.0,40.0,-928.0,11:42:52.538820,192.168.0.115
142,-1,-100,-100,-100,"0,0,0",-7,-1,0,0,0,0,58,60,84,60,100,-13.66,2,-77.0,11.0,-974.0,11:42:52.640925,192.168.0.115
147,-1,-100,-100,-100,"0,0,0",-8,-2,0,0,0,0,58,60,84,70,100,-13.73,2,-92.0,4.0,-1081.0,11:42:52.742776,192.168.0.115
152,-1,-100,-100,-100,"0,0,0",-5,-2,0,0,0,0,58,60,84,70,100,-13.93,2,-95.0,41.0,-1027.0,11:42:52.844736,192.168.0.115
157,-1,-100,-100,-100,"0,0,0",-5,0,0,0,0,0,58,60,84,70,100,-13.79,2,-96.0,47.0,-1015.0,11:42:52.946595,192.168.0.115
162,-1,-100,-100,-100,"0,0,0",-5,0,0,0,0,0,58,60,85,70,100,-13.77,3,-110.0,49.0,-960.0,11:42:53.048660,192.168.0.115
169,-1,-100,-100,-100,"0,0,0",-5,-1,0,0,0,0,58,60,85,70,100,-13.76,3,-103.0,25.0,-1001.0,11:42:53.150757,192.168.0.115
174,-1,-100,-100,-100,"0,0,0",-6,-2,0,0,0,0,58,60,85,70,100,-13.77,3,-115.0,40.0,-979.0,11:42:53.252732,192.168.0.115
179,-1,-100,-100,-100,"0,0,0",-5,-1,0,0,0,0,58,60,85,70,100,-13.72,3,-91.0,38.0,-964.0,11:42:53.354651,192.168.0.115
184,-1,-100,-100,-100,"0,0,0",-5,-3,0,0,0,0,58,60,85,70,100,-13.8,3,-107.0,31.0,-959.0,11:42:53.456474,192.168.0.115
189,-1,-100,-100,-100,"0,0,0",-6,-3,0,0,0,0,58,60,85,70,100,-13.96,3,-71.0,16.0,-1027.0,11:42:53.558624,192.168.0.115
194,-1,-100,-100,-100,"0,0,0",-6,-1,0,0,0,0,58,60,85,70,100,-13.85,3,-113.0,7.0,-973.0,11:42:53.660929,192.168.0.115
199,-1,-100,-100,-100,"0,0,0",-5,0,0,0,0,0,58,60,85,70,100,-14.02,3,-113.0,-19.0,-972.0,11:42:53.762592,192.168.0.115
204,-1,-100,-100,-100,"0,0,0",-5,0,0,0,0,0,58,60,86,70,100,-13.89,3,-90.0,24.0,-921.0,11:42:53.864589,192.168.0.115
205,-1,-100,-100,-100,"0,0,0",-5,-1,0,0,0,0,58,60,85,70,100,-13.79,3,-136.0,73.0,-994.0,11:42:53.915420,192.168.0.115
210,-1,-100,-100,-100,"0,0,0",-6,-1,0,0,0,0,58,60,84,70,100,-13.94,4,-127.0,40.0,-1045.0,11:42:54.017445,192.168.0.115
215,-1,-100,-100,-100,"0,0,0",-6,-1,0,0,0,0,58,60,84,70,100,-13.75,4,-73.0,44.0,-922.0,11:42:54.119397,192.168.0.115
220,-1,-100,-100,-100,"0,0,0",-5,-1,0,0,0,0,58,60,84,70,100,-13.94,4,-88.0,14.0,-985.0,11:42:54.221504,192.168.0.115
226,-1,-100,-100,-100,"0,0,0",-6,-2,0,0,0,0,58,60,83,70,100,-14.22,4,-130.0,-3.0,-1039.0,11:42:54.323073,192.168.0.115
231,-1,-100,-100,-100,"0,0,0",-5,-2,0,0,0,0,57,59,83,70,100,-14.03,4,-60.0,28.0,-974.0,11:42:54.425078,192.168.0.115
236,-1,-100,-100,-100,"0,0,0",-5,0,0,0,0,0,57,59,83,70,100,-13.91,4,-65.0,61.0,-958.0,11:42:54.527269,192.168.0.115
241,-1,-100,-100,-100,"0,0,0",-4,0,0,0,0,0,57,59,82,60,100,-13.73,4,-103.0,59.0,-1027.0,11:42:54.629450,192.168.0.115
246,-1,-100,-100,-100,"0,0,0",-3,-2,0,0,0,0,57,59,82,60,100,-13.95,4,-107.0,25.0,-1000.0,11:42:54.731257,192.168.0.115
251,-1,-100,-100,-100,"0,0,0",-5,-2,0,0,0,0,57,59,82,70,100,-14.07,4,-87.0,-15.0,-978.0,11:42:54.833464,192.168.0.115
256,-1,-100,-100,-100,"0,0,0",-7,-2,0,0,0,0,57,59,82,60,100,-14.1,4,-103.0,29.0,-973.0,11:42:54.935233,192.168.0.115
261,-1,-100,-100,-100,"0,0,0",-6,0,0,0,0,0,57,59,82,70,100,-14.06,5,-123.0,40.0,-993.0,11:42:55.036696,192.168.0.115
266,-1,-100,-100,-100,"0,0,0",-5,0,0,0,0,0,57,59,82,60,100,-14.04,5,-135.0,23.0,-1000.0,11:42:55.139248,192.168.0.115
271,-1,-100,-100,-100,"0,0,0",-6,0,0,0,0,0,57,59,83,60,100,-13.93,5,-119.0,22.0,-952.0,11:42:55.241080,192.168.0.115
276,-1,-100,-100,-100,"0,0,0",-6,-1,0,0,0,0,57,59,82,70,100,-14.21,5,-102.0,15.0,-1006.0,11:42:55.343288,192.168.0.115
281,-1,-100,-100,-100,"0,0,0",-6,-1,0,0,0,0,58,60,81,60,100,-14.19,5,-112.0,-15.0,-968.0,11:42:55.444881,192.168.0.115
286,-1,-100,-100,-100,"0,0,0",-7,-2,0,0,0,0,58,60,82,60,100,-14.48,5,-124.0,18.0,-1001.0,11:42:55.547164,192.168.0.115
292,-1,-100,-100,-100,"0,0,0",-6,0,0,0,0,0,58,60,82,60,100,-14.42,5,-126.0,45.0,-1052.0,11:42:55.649161,192.168.0.115
298,-1,-100,-100,-100,"0,0,0",-7,0,0,0,0,0,58,60,82,60,100,-14.04,5,-144.0,-11.0,-1012.0,11:42:55.750857,192.168.0.115
304,-1,-100,-100,-100,"0,0,0",-7,-2,0,0,0,0,58,60,82,60,100,-14.09,5,-118.0,49.0,-1004.0,11:42:55.853102,192.168.0.115
308,-1,-100,-100,-100,"0,0,0",-8,0,0,0,0,0,58,60,82,60,100,-14.12,5,-83.0,9.0,-955.0,11:42:55.955065,192.168.0.115
314,-1,-100,-100,-100,"0,0,0",-7,0,0,0,0,0,58,60,82,60,100,-14.0,6,-59.0,15.0,-976.0,11:42:56.057051,192.168.0.115
319,-1,-100,-100,-100,"0,0,0",-5,0,0,0,0,0,58,60,82,60,100,-14.16,6,-69.0,20.0,-1069.0,11:42:56.159077,192.168.0.115
324,-1,-100,-100,-100,"0,0,0",-5,0,0,0,0,0,58,60,82,60,100,-14.15,6,-60.0,53.0,-974.0,11:42:56.261665,192.168.0.115
329,-1,-100,-100,-100,"0,0,0",-4,-1,0,-1,0,0,58,60,82,60,100,-14.27,6,-95.0,44.0,-976.0,11:42:56.362868,192.168.0.115
334,-1,-100,-100,-100,"0,0,0",-3,-1,0,-1,0,0,58,60,82,70,100,-14.29,6,-118.0,45.0,-1065.0,11:42:56.464886,192.168.0.115
335,-1,-100,-100,-100,"0,0,0",-3,-1,0,0,0,0,58,60,82,70,100,-14.05,6,-128.0,4.0,-886.0,11:42:56.523323,192.168.0.115
340,-1,-100,-100,-100,"0,0,0",-5,-2,0,0,0,0,58,60,82,70,100,-13.98,6,-106.0,5.0,-926.0,11:42:56.618194,192.168.0.115
345,-1,-100,-100,-100,"0,0,0",-5,-1,0,0,0,0,58,60,82,70,100,-14.31,6,-126.0,15.0,-1035.0,11:42:56.720225,192.168.0.115
351,-1,-100,-100,-100,"0,0,0",-5,-1,0,0,0,0,58,60,82,60,100,-14.07,6,-58.0,40.0,-993.0,11:42:56.822221,192.168.0.115
356,-1,-100,-100,-100,"0,0,0",-5,0,0,0,0,0,58,60,81,60,100,-14.3,6,-155.0,-14.0,-1064.0,11:42:56.924161,192.168.0.115
361,-1,-100,-100,-100,"0,0,0",-6,0,0,0,0,0,58,60,83,60,100,-13.98,7,-149.0,21.0,-906.0,11:42:57.026091,192.168.0.115
366,-1,-100,-100,-100,"0,0,0",-7,0,0,0,0,0,58,60,83,60,100,-13.92,7,-112.0,38.0,-884.0,11:42:57.127981,192.168.0.115
371,-1,-100,-100,-100,"0,0,0",-7,-2,-1,0,0,0,58,60,82,60,100,-14.15,7,-97.0,-19.0,-1014.0,11:42:57.230266,192.168.0.115
376,-1,-100,-100,-100,"0,0,0",-8,-1,-1,0,0,0,58,60,81,60,100,-14.24,7,-156.0,30.0,-1181.0,11:42:57.334886,192.168.0.115
381,-1,-100,-100,-100,"0,0,0",-5,0,-1,0,0,0,59,60,80,60,100,-14.46,7,-122.0,12.0,-1077.0,11:42:57.435812,192.168.0.115
386,-1,-100,-100,-100,"0,0,0",-6,0,0,0,0,0,59,60,82,60,100,-14.16,7,-123.0,10.0,-1004.0,11:42:57.536181,192.168.0.115
390,-1,-100,-100,-100,"0,0,0",-6,1,0,0,0,0,59,60,82,60,100,-14.29,7,-133.0,32.0,-924.0,11:42:57.639586,192.168.0.115
396,-1,-100,-100,-100,"0,0,0",-6,0,0,0,0,0,59,60,83,60,100,-14.13,7,-128.0,27.0,-905.0,11:42:57.740126,192.168.0.115
401,-1,-100,-100,-100,"0,0,0",-8,-2,0,0,0,0,59,60,84,70,100,-14.43,7,-108.0,11.0,-940.0,11:42:57.842173,192.168.0.115
406,-1,-100,-100,-100,"0,0,0",-7,-1,0,0,0,0,59,60,84,70,100,-14.16,7,-150.0,21.0,-1088.0,11:42:57.944098,192.168.0.115
411,-1,-100,-100,-100,"0,0,0",-6,0,0,0,0,0,59,60,84,70,100,-14.15,8,-157.0,64.0,-899.0,11:42:58.045834,192.168.0.115
416,-1,-100,-100,-100,"0,0,0",-8,0,0,0,0,0,59,60,84,70,100,-14.15,8,-103.0,6.0,-937.0,11:42:58.150720,192.168.0.115
422,-1,-100,-100,-100,"0,0,0",-8,-2,0,0,0,0,59,60,85,70,100,-14.19,8,-115.0,11.0,-1037.0,11:42:58.250028,192.168.0.115
427,-1,-100,-100,-100,"0,0,0",-7,-2,0,0,0,0,59,60,84,70,100,-14.39,8,-169.0,0.0,-1048.0,11:42:58.352134,192.168.0.115
433,-1,-100,-100,-100,"0,0,0",-6,0,0,0,0,0,58,61,84,70,100,-14.31,8,-146.0,36.0,-999.0,11:42:58.453977,192.168.0.115
438,-1,-100,-100,-100,"0,0,0",-7,0,0,0,0,0,58,61,85,70,100,-14.05,8,-136.0,29.0,-971.0,11:42:58.555981,192.168.0.115
443,-1,-100,-100,-100,"0,0,0",-9,-1,-1,0,0,0,58,61,85,70,100,-13.92,8,-110.0,-36.0,-927.0,11:42:58.658207,192.168.0.115
448,-1,-100,-100,-100,"0,0,0",-8,-1,-1,0,0,0,58,61,84,70,100,-14.07,8,-113.0,33.0,-1000.0,11:42:58.759957,192.168.0.115
453,-1,-100,-100,-100,"0,0,0",-7,0,-1,0,0,0,58,61,84,70,100,-14.01,8,-116.0,19.0,-1008.0,11:42:58.862218,192.168.0.115
458,-1,-100,-100,-100,"0,0,0",-6,0,0,0,0,0,58,61,83,60,100,-13.99,8,-141.0,40.0,-1096.0,11:42:58.963913,192.168.0.115
463,-1,-100,-100,-100,"0,0,0",-6,0,0,0,0,0,58,61,83,60,100,-14.5,9,-147.0,-3.0,-1033.0,11:42:59.065620,192.168.0.115
465,-1,-100,-100,-100,"0,0,0",-7,0,0,0,0,0,58,61,84,60,100,-14.18,9,-95.0,76.0,-951.0,11:42:59.116733,192.168.0.115
470,-1,-100,-100,-100,"0,0,0",-7,-1,0,0,0,0,58,61,84,70,100,-14.08,9,-107.0,28.0,-987.0,11:42:59.218432,192.168.0.115
475,-1,-100,-100,-100,"0,0,0",-6,-2,0,0,0,0,58,61,84,70,100,-14.01,9,-127.0,53.0,-1015.0,11:42:59.320463,192.168.0.115
480,-1,-100,-100,-100,"0,0,0",-4,-2,0,0,0,0,58,61,84,70,100,-14.33,9,-148.0,21.0,-990.0,11:42:59.422499,192.168.0.115
486,-1,-100,-100,-100,"0,0,0",-5,-2,0,0,0,0,58,61,85,70,100,-14.22,9,-109.0,49.0,-942.0,11:42:59.524625,192.168.0.115
490,-1,-100,-100,-100,"0,0,0",-6,0,0,0,0,0,58,61,85,70,100,-14.06,9,-48.0,36.0,-995.0,11:42:59.627053,192.168.0.115
496,-1,-100,-100,-100,"0,0,0",-6,-1,0,0,0,0,58,61,85,70,100,-14.14,9,-133.0,46.0,-1044.0,11:42:59.728585,192.168.0.115
501,-1,-100,-100,-100,"0,0,0",-5,-2,0,0,0,0,58,61,84,70,100,-14.04,9,-130.0,14.0,-981.0,11:42:59.830735,192.168.0.115
506,-1,-100,-100,-100,"0,0,0",-5,-3,0,0,0,0,58,61,84,70,100,-14.14,9,-112.0,5.0,-1004.0,11:42:59.932559,192.168.0.115
511,-1,-100,-100,-100,"0,0,0",-7,-2,0,0,0,0,58,61,84,70,100,-14.03,10,-77.0,33.0,-945.0,11:43:00.034365,192.168.0.115
516,-1,-100,-100,-100,"0,0,0",-6,-1,0,0,0,0,58,61,83,70,100,-14.05,10,-111.0,51.0,-1019.0,11:43:00.136469,192.168.0.115
521,-1,-100,-100,-100,"0,0,0",-5,-1,0,0,0,0,58,61,82,70,100,-14.1,10,-120.0,12.0,-1053.0,11:43:00.238375,192.168.0.115
526,-1,-100,-100,-100,"0,0,0",-6,-1,0,0,0,0,58,61,83,70,100,-14.03,10,-106.0,41.0,-1068.0,11:43:00.340575,192.168.0.115
531,-1,-100,-100,-100,"0,0,0",-6,-1,0,0,0,0,58,61,83,70,100,-14.04,10,-88.0,57.0,-883.0,11:43:00.441807,192.168.0.115
536,-1,-100,-100,-100,"0,0,0",-6,-2,0,0,0,0,58,61,83,70,100,-13.98,10,-64.0,27.0,-979.0,11:43:00.545356,192.168.0.115
541,-1,-100,-100,-100,"0,0,0",-4,-3,0,0,0,0,58,61,82,70,100,-14.27,10,-84.0,-1.0,-1066.0,11:43:00.645727,192.168.0.115
547,-1,-100,-100,-100,"0,0,0",-3,-2,0,0,0,0,58,61,83,70,100,-14.2,10,-53.0,30.0,-977.0,11:43:00.747680,192.168.0.115
552,-1,-100,-100,-100,"0,0,0",-4,0,0,0,0,0,58,61,83,70,100,-14.07,10,-59.0,42.0,-989.0,11:43:00.849675,192.168.0.115
557,-1,-100,-100,-100,"0,0,0",-5,-1,0,0,0,0,58,61,83,70,100,-13.95,10,-74.0,80.0,-973.0,11:43:00.951646,192.168.0.115
563,-1,-100,-100,-100,"0,0,0",-3,-3,0,0,0,0,58,61,83,70,100,-14.16,11,-149.0,38.0,-1042.0,11:43:01.053917,192.168.0.115
568,-1,-100,-100,-100,"0,0,0",-5,-4,0,0,0,0,58,61,84,70,100,-14.1,11,-98.0,-22.0,-1012.0,11:43:01.156464,192.168.0.115
573,-1,-100,-100,-100,"0,0,0",-5,-2,0,0,0,0,58,61,83,70,100,-14.28,11,-99.0,31.0,-1089.0,11:43:01.258359,192.168.0.115
578,-1,-100,-100,-100,"0,0,0",-4,0,0,0,0,0,58,61,82,70,100,-13.9,11,-136.0,47.0,-982.0,11:43:01.361233,192.168.0.115
583,-1,-100,-100,-100,"0,0,0",-4,-1,0,0,0,0,59,61,82,70,100,-14.07,11,-107.0,27.0,-1009.0,11:43:01.466127,192.168.0.115
588,-1,-100,-100,-100,"0,0,0",-5,-1,0,0,0,0,59,61,82,70,100,-14.04,11,-104.0,47.0,-1015.0,11:43:01.564280,192.168.0.115
593,-1,-100,-100,-100,"0,0,0",-5,-2,0,0,0,0,59,61,82,70,100,-14.11,11,-81.0,87.0,-904.0,11:43:01.666295,192.168.0.115
598,-1,-100,-100,-100,"0,0,0",-5,-2,0,0,0,0,59,61,82,70,100,-14.12,11,-69.0,13.0,-1109.0,11:43:01.768266,192.168.0.115
603,-1,-100,-100,-100,"0,0,0",-4,-2,0,0,0,0,59,61,83,70,100,-13.9,11,-126.0,68.0,-860.0,11:43:01.870246,192.168.0.115
608,-1,-100,-100,-100,"0,0,0",-4,-3,0,0,0,0,59,61,82,70,100,-13.88,11,-149.0,48.0,-977.0,11:43:01.972254,192.168.0.115
613,-1,-100,-100,-100,"0,0,0",-5,-2,0,0,0,0,59,61,82,60,100,-14.14,12,-115.0,33.0,-1026.0,11:43:02.074382,192.168.0.115
618,-1,-100,-100,-100,"0,0,0",-6,-1,0,0,0,0,59,61,82,60,100,-14.18,12,-120.0,33.0,-990.0,11:43:02.176321,192.168.0.115
623,-1,-100,-100,-100,"0,0,0",-7,-1,0,0,0,0,59,61,82,60,100,-14.02,12,-116.0,50.0,-987.0,11:43:02.278140,192.168.0.115
625,-1,-100,-100,-100,"0,0,0",-6,-1,0,0,0,0,59,61,82,60,100,-14.2,12,-186.0,17.0,-1084.0,11:43:02.329324,192.168.0.115
634,-1,-100,-100,-100,"0,0,0",-7,-2,0,0,0,0,59,61,83,70,100,-13.99,12,-138.0,72.0,-1027.0,11:43:02.482222,192.168.0.115
635,-1,-100,-100,-100,"0,0,0",-7,-2,0,0,0,0,59,61,83,70,100,-14.08,12,-93.0,61.0,-979.0,11:43:02.532993,192.168.0.115
640,-1,-100,-100,-100,"0,0,0",-7,-2,0,0,0,0,59,61,84,70,100,-13.62,12,-89.0,92.0,-941.0,11:43:02.639804,192.168.0.115
645,-1,-100,-100,-100,"0,0,0",-6,-3,0,0,0,0,59,61,84,70,100,-14.35,12,-101.0,0.0,-1030.0,11:43:02.737333,192.168.0.115
650,-1,-100,-100,-100,"0,0,0",-6,-3,0,0,0,0,59,61,83,70,100,-14.04,12,-37.0,59.0,-938.0,11:43:02.839336,192.168.0.115
655,-1,-100,-100,-100,"0,0,0",-6,-2,0,0,0,0,59,61,84,70,100,-13.89,12,-120.0,60.0,-985.0,11:43:02.941245,192.168.0.115
660,-1,-100,-100,-100,"0,0,0",-4,-3,0,0,0,0,59,61,83,70,100,-14.19,13,-132.0,43.0,-1017.0,11:43:03.043283,192.168.0.115
665,-1,-100,-100,-100,"0,0,0",-5,-3,0,0,0,0,59,61,84,70,100,-14.17,13,-119.0,75.0,-976.0,11:43:03.145183,192.168.0.115
671,-1,-100,-100,-100,"0,0,0",-6,-3,0,0,0,0,59,61,84,70,100,-13.73,13,-74.0,81.0,-989.0,11:43:03.247257,192.168.0.115
677,-1,-100,-100,-100,"0,0,0",-6,-4,0,0,0,0,59,61,85,70,100,-13.91,13,-175.0,61.0,-1062.0,11:43:03.349223,192.168.0.115
682,-1,-100,-100,-100,"0,0,0",-6,-5,0,0,0,0,59,61,84,70,100,-14.07,13,-111.0,29.0,-958.0,11:43:03.451236,192.168.0.115
687,-1,-100,-100,-100,"0,0,0",-5,-4,0,0,0,0,59,61,84,70,100,-13.77,13,-125.0,15.0,-883.0,11:43:03.553099,192.168.0.115
691,-1,-100,-100,-100,"0,0,0",-6,-3,0,0,0,0,59,61,84,70,100,-14.03,13,-163.0,52.0,-1022.0,11:43:03.655037,192.168.0.115
697,-1,-100,-100,-100,"0,0,0",-6,-1,0,0,0,0,59,61,84,70,100,-14.02,13,-168.0,85.0,-1030.0,11:43:03.757412,192.168.0.115
702,-1,-100,-100,-100,"0,0,0",-7,-3,0,0,0,0,59,61,85,70,100,-13.97,13,-137.0,59.0,-916.0,11:43:03.859202,192.168.0.115
707,-1,-100,-100,-100,"0,0,0",-8,-3,0,0,0,0,59,61,84,70,100,-13.99,13,-157.0,62.0,-988.0,11:43:03.961068,192.168.0.115
712,-1,-100,-100,-100,"0,0,0",-8,-3,0,0,0,0,59,61,84,70,100,-14.01,14,-162.0,17.0,-1055.0,11:43:04.062900,192.168.0.115
717,-1,-100,-100,-100,"0,0,0",-8,-2,0,0,0,0,59,61,83,60,100,-13.7,14,-110.0,47.0,-982.0,11:43:04.165193,192.168.0.115
722,-1,-100,-100,-100,"0,0,0",-7,-2,0,0,0,0,59,61,82,60,100,-13.89,14,-57.0,49.0,-1019.0,11:43:04.267069,192.168.0.115
728,-1,-100,-100,-100,"0,0,0",-6,-2,0,0,0,0,59,61,80,60,100,-13.87,14,-57.0,55.0,-1035.0,11:43:04.368966,192.168.0.115
733,-1,-100,-100,-100,"0,0,0",-5,-1,0,-1,0,0,60,62,80,60,100,-13.71,14,-72.0,68.0,-1019.0,11:43:04.471118,192.168.0.115
738,-1,-100,-100,-100,"0,0,0",-4,-3,0,-1,0,0,60,62,79,60,100,-13.96,14,-81.0,85.0,-988.0,11:43:04.573025,192.168.0.115
743,-1,-100,-100,-100,"0,0,0",-3,-4,0,-1,0,0,60,62,80,60,100,-13.83,14,-150.0,50.0,-1104.0,11:43:04.677378,192.168.0.115
748,-1,-100,-100,-100,"0,0,0",-2,-1,0,0,0,0,60,62,80,60,100,-14.05,14,-124.0,37.0,-1017.0,11:43:04.777050,192.168.0.115
753,-1,-100,-100,-100,"0,0,0",-3,-2,0,0,0,0,60,62,81,60,100,-14.02,14,-115.0,35.0,-978.0,11:43:04.879582,192.168.0.115
758,-1,-100,-100,-100,"0,0,0",-5,-3,0,0,0,0,60,62,82,60,100,-14.08,14,-88.0,26.0,-981.0,11:43:04.981083,192.168.0.115
763,-1,-100,-100,-100,"0,0,0",-5,-3,0,0,0,0,60,62,82,60,100,-13.57,15,-95.0,50.0,-964.0,11:43:05.082881,192.168.0.115
768,-1,-100,-100,-100,"0,0,0",-5,-3,0,0,0,0,60,62,82,60,100,-13.85,15,-130.0,35.0,-987.0,11:43:05.184874,192.168.0.115
773,-1,-100,-100,-100,"0,0,0",-5,-1,0,0,0,0,60,62,83,70,100,-13.94,15,-109.0,42.0,-948.0,11:43:05.287286,192.168.0.115
778,-1,-100,-100,-100,"0,0,0",-5,-2,0,0,0,0,60,62,83,70,100,-13.86,15,-113.0,31.0,-1004.0,11:43:05.388571,192.168.0.115
783,-1,-100,-100,-100,"0,0,0",-6,-2,0,0,0,0,60,62,83,70,100,-13.7,15,-71.0,38.0,-942.0,11:43:05.490937,192.168.0.115
788,-1,-100,-100,-100,"0,0,0",-5,-2,0,0,0,0,60,62,83,70,100,-13.71,15,-89.0,52.0,-996.0,11:43:05.592912,192.168.0.115
793,-1,-100,-100,-100,"0,0,0",-5,-1,0,0,0,0,60,62,83,70,100,-13.82,15,-60.0,49.0,-978.0,11:43:05.694995,192.168.0.115
795,-1,-100,-100,-100,"0,0,0",-4,-1,0,0,0,0,60,62,83,70,100,-13.81,15,-99.0,36.0,-983.0,11:43:05.747503,192.168.0.115
801,-1,-100,-100,-100,"0,0,0",-4,-2,0,0,0,0,60,62,82,70,100,-13.8,15,-133.0,62.0,-959.0,11:43:05.848621,192.168.0.115
806,-1,-100,-100,-100,"0,0,0",-5,-2,-1,0,0,0,60,62,82,70,100,-13.87,15,-128.0,6.0,-1010.0,11:43:05.950883,192.168.0.115
811,-1,-100,-100,-100,"0,0,0",-6,-1,0,0,0,0,60,62,82,70,100,-13.68,16,-119.0,42.0,-1036.0,11:43:06.052982,192.168.0.115
816,-1,-100,-100,-100,"0,0,0",-7,-1,0,0,0,0,60,62,82,60,100,-13.74,16,-51.0,58.0,-986.0,11:43:06.154781,192.168.0.115
821,-1,-100,-100,-100,"0,0,0",-5,0,0,0,0,0,60,62,81,60,100,-13.86,16,-49.0,54.0,-1006.0,11:43:06.256878,192.168.0.115
826,-1,-100,-100,-100,"0,0,0",-4,-1,0,0,0,0,60,62,81,60,100,-13.87,16,-42.0,44.0,-986.0,11:43:06.358840,192.168.0.115
831,-1,-100,-100,-100,"0,0,0",-3,-1,0,0,0,0,60,62,80,60,100,-13.93,16,-59.0,41.0,-995.0,11:43:06.460622,192.168.0.115
836,-1,-100,-100,-100,"0,0,0",-2,-2,-1,0,0,0,60,62,81,60,100,-13.96,16,-44.0,44.0,-998.0,11:43:06.562786,192.168.0.115
841,-1,-100,-100,-100,"0,0,0",-2,-3,-1,0,0,0,60,62,81,60,100,-14.02,16,-79.0,10.0,-991.0,11:43:06.664786,192.168.0.115
846,-1,-100,-100,-100,"0,0,0",-1,-2,0,0,0,0,60,62,80,60,100,-13.62,16,-63.0,4.0,-987.0,11:43:06.766793,192.168.0.115
851,-1,-100,-100,-100,"0,0,0",-4,-1,0,0,0,0,60,62,80,60,100,-13.74,16,-157.0,20.0,-1068.0,11:43:06.868820,192.168.0.115
856,-1,-100,-100,-100,"0,0,0",-5,0,0,0,0,0,60,62,80,60,100,-13.61,16,-89.0,19.0,-955.0,11:43:06.970502,192.168.0.115
861,-1,-100,-100,-100,"0,0,0",-7,0,-1,0,0,0,60,62,80,60,100,-13.75,17,-73.0,44.0,-1013.0,11:43:07.072596,192.168.0.115
867,-1,-100,-100,-100,"0,0,0",-4,-2,-1,0,0,0,60,62,80,60,100,-13.53,17,-56.0,59.0,-1010.0,11:43:07.174719,192.168.0.115
872,-1,-100,-100,-100,"0,0,0",-3,-1,0,0,0,0,60,62,80,60,100,-13.77,17,-89.0,3.0,-985.0,11:43:07.276680,192.168.0.115
877,-1,-100,-100,-100,"0,0,0",-4,-1,0,0,0,0,60,62,81,60,100,-13.69,17,-88.0,66.0,-980.0,11:43:07.378706,192.168.0.115
882,-1,-100,-100,-100,"0,0,0",-5,-2,0,0,0,0,60,62,83,60,100,-13.69,17,-100.0,12.0,-980.0,11:43:07.481584,192.168.0.115
887,-1,-100,-100,-100,"0,0,0",-5,-2,0,0,0,0,60,62,83,70,100,-13.89,17,-102.0,39.0,-960.0,11:43:07.583644,192.168.0.115
892,-1,-100,-100,-100,"0,0,0",-5,-1,0,0,0,0,60,62,83,70,100,-13.99,17,-100.0,-8.0,-1045.0,11:43:07.684460,192.168.0.115
897,-1,-100,-100,-100,"0,0,0",-4,-1,0,0,0,0,60,62,84,70,100,-14.04,17,-87.0,17.0,-1000.0,11:43:07.788199,192.168.0.115
903,-1,-100,-100,-100,"0,0,0",-4,-1,0,0,0,0,60,62,84,70,100,-13.83,17,-55.0,30.0,-960.0,11:43:07.889006,192.168.0.115
908,-1,-100,-100,-100,"0,0,0",-5,-2,0,0,0,0,60,62,84,70,100,-13.8,17,-124.0,22.0,-948.0,11:43:07.990675,192.168.0.115
913,-1,-100,-100,-100,"0,0,0",-5,-1,0,0,0,0,60,62,84,70,100,-13.81,18,-78.0,15.0,-976.0,11:43:08.093307,192.168.0.115
918,-1,-100,-100,-100,"0,0,0",-5,0,0,0,0,0,60,62,83,70,100,-13.81,18,-111.0,60.0,-959.0,11:43:08.195735,192.168.0.115
923,-1,-100,-100,-100,"0,0,0",-5,-1,0,0,0,0,60,62,83,70,100,-14.12,18,-102.0,11.0,-1123.0,11:43:08.298063,192.168.0.115
928,-1,-100,-100,-100,"0,0,0",-5,-1,0,0,0,0,60,62,83,70,100,-13.79,18,-112.0,36.0,-937.0,11:43:08.400441,192.168.0.115
933,-1,-100,-100,-100,"0,0,0",-6,-1,0,0,0,0,60,62,82,70,100,-13.66,18,-84.0,38.0,-1049.0,11:43:08.502807,192.168.0.115
938,-1,-100,-100,-100,"0,0,0",-4,-3,0,0,0,0,60,62,82,60,100,-13.92,18,-86.0,36.0,-1082.0,11:43:08.602467,192.168.0.115
943,-1,-100,-100,-100,"0,0,0",-4,-1,0,0,0,0,60,62,81,60,100,-13.93,18,-54.0,47.0,-1020.0,11:43:08.704520,192.168.0.115
945,-1,-100,-100,-100,"0,0,0",-4,-1,0,0,0,0,60,62,82,60,100,-14.03,18,-100.0,37.0,-972.0,11:43:08.757197,192.168.0.115
950,-1,-100,-100,-100,"0,0,0",-3,-3,0,0,0,0,60,62,82,60,100,-13.85,18,-127.0,40.0,-974.0,11:43:08.857221,192.168.0.115
956,-1,-100,-100,-100,"0,0,0",-4,-2,0,0,0,0,60,62,81,60,100,-13.77,18,-141.0,26.0,-934.0,11:43:08.959379,192.168.0.115
961,-1,-100,-100,-100,"0,0,0",-5,-3,0,0,0,0,60,62,82,60,100,-13.97,19,-123.0,71.0,-1030.0,11:43:09.061314,192.168.0.115
966,-1,-100,-100,-100,"0,0,0",-5,-1,-1,0,0,0,60,62,82,60,100,-13.94,19,-121.0,-8.0,-946.0,11:43:09.163583,192.168.0.115
971,-1,-100,-100,-100,"0,0,0",-6,-2,0,0,0,0,60,62,81,60,100,-13.81,19,-123.0,28.0,-951.0,11:43:09.265195,192.168.0.115
976,-1,-100,-100,-100,"0,0,0",-6,-1,0,0,0,0,60,62,80,60,100,-13.93,19,-55.0,-11.0,-1007.0,11:43:09.367358,192.168.0.115
981,-1,-100,-100,-100,"0,0,0",-6,0,0,0,0,0,60,62,80,60,100,-14.03,19,-121.0,22.0,-1034.0,11:43:09.469220,192.168.0.115
986,-1,-100,-100,-100,"0,0,0",-5,0,0,0,0,0,60,62,80,60,100,-13.68,19,-87.0,24.0,-1034.0,11:43:09.571142,192.168.0.115
991,-1,-100,-100,-100,"0,0,0",-4,0,0,0,0,0,60,62,81,60,100,-13.92,19,-69.0,25.0,-996.0,11:43:09.673218,192.168.0.115
996,-1,-100,-100,-100,"0,0,0",-4,-1,0,0,0,0,60,62,81,60,100,-13.98,19,-76.0,23.0,-1004.0,11:43:09.775186,192.168.0.115
1001,-1,-100,-100,-100,"0,0,0",-4,-2,0,0,0,0,60,62,81,60,100,-13.92,19,-118.0,30.0,-985.0,11:43:09.877235,192.168.0.115
1006,-1,-100,-100,-100,"0,0,0",-4,-1,0,0,0,0,60,62,81,60,100,-14.12,20,-93.0,28.0,-978.0,11:43:09.979101,192.168.0.115
1012,-1,-100,-100,-100,"0,0,0",-4,-1,0,0,0,0,60,62,82,60,100,-13.98,20,-60.0,-1.0,-970.0,11:43:10.081800,192.168.0.115
1017,-1,-100,-100,-100,"0,0,0",-3,-1,0,0,0,0,60,62,81,60,100,-14.04,20,-40.0,-18.0,-968.0,11:43:10.183467,192.168.0.115
1022,-1,-100,-100,-100,"0,0,0",-3,-1,0,0,0,0,60,62,82,60,100,-14.04,20,-67.0,18.0,-998.0,11:43:10.285150,192.168.0.115
1027,-1,-100,-100,-100,"0,0,0",-2,-1,0,0,0,0,60,62,82,60,100,-13.65,20,-58.0,39.0,-1012.0,11:43:10.386745,192.168.0.115
1032,-1,-100,-100,-100,"0,0,0",-2,0,0,0,0,0,60,63,82,60,100,-13.69,20,-84.0,51.0,-1012.0,11:43:10.488705,192.168.0.115
1037,-1,-100,-100,-100,"0,0,0",-2,0,0,0,0,0,60,63,82,60,100,-13.53,20,-26.0,45.0,-973.0,11:43:10.590962,192.168.0.115
1042,-1,-100,-100,-100,"0,0,0",-2,-1,0,0,0,0,60,63,82,60,100,-13.45,20,-75.0,52.0,-1018.0,11:43:10.693020,192.168.0.115
1047,-1,-100,-100,-100,"0,0,0",-2,-2,0,0,0,0,60,63,82,60,100,-13.45,20,-42.0,60.0,-965.0,11:43:10.795006,192.168.0.115
1052,-1,-100,-100,-100,"0,0,0",-2,-3,0,0,0,0,60,63,82,60,100,-13.44,20,-69.0,49.0,-967.0,11:43:10.896968,192.168.0.115
1057,-1,-100,-100,-100,"0,0,0",-1,-4,0,0,0,0,60,63,83,60,100,-13.33,21,-84.0,46.0,-1029.0,11:43:10.999011,192.168.0.115
1062,-1,-100,-100,-100,"0,0,0",-2,-2,0,0,0,0,60,63,83,60,100,-13.49,21,-21.0,53.0,-1040.0,11:43:11.100940,192.168.0.115
1067,-1,-100,-100,-100,"0,0,0",-3,-2,0,0,0,0,60,63,83,70,100,-13.58,21,-52.0,22.0,-967.0,11:43:11.203351,192.168.0.115
1073,-1,-100,-100,-100,"0,0,0",-2,-2,0,0,0,0,60,63,84,70,100,-13.88,21,-71.0,57.0,-972.0,11:43:11.305591,192.168.0.115
1078,-1,-100,-100,-100,"0,0,0",-2,-4,0,0,0,0,60,63,83,70,100,-14.07,21,-26.0,28.0,-992.0,11:43:11.408097,192.168.0.115
1083,-1,-100,-100,-100,"0,0,0",-2,-4,0,0,0,0,61,63,84,70,100,-14.32,21,-50.0,5.0,-1037.0,11:43:11.510119,192.168.0.115
1088,-1,-100,-100,-100,"0,0,0",-2,-2,0,0,0,0,61,63,84,70,100,-13.97,21,0.0,3.0,-990.0,11:43:11.769105,192.168.0.115
1093,-1,-100,-100,-100,"0,0,0",-1,0,0,0,0,0,61,63,84,70,100,-14.28,21,-46.0,31.0,-975.0,11:43:11.770293,192.168.0.115
1098,-1,-100,-100,-100,"0,0,0",-1,0,0,0,0,0,61,63,84,70,100,-14.17,21,-56.0,67.0,-955.0,11:43:11.975668,192.168.0.115
1103,-1,-100,-100,-100,"0,0,0",0,-1,0,0,0,0,61,63,83,70,100,-14.43,21,-75.0,82.0,-1019.0,11:43:11.976779,192.168.0.115
1108,-1,-100,-100,-100,"0,0,0",-1,-2,0,0,0,0,61,63,83,70,100,-14.2,22,-33.0,44.0,-992.0,11:43:12.019970,192.168.0.115
1113,-1,-100,-100,-100,"0,0,0",-2,-3,0,0,0,0,61,63,83,70,100,-14.28,22,-69.0,45.0,-972.0,11:43:12.182883,192.168.0.115
1115,-1,-100,-100,-100,"0,0,0",-3,-3,0,0,0,0,61,63,82,70,100,-14.32,22,-39.0,-2.0,-971.0,11:43:12.183308,192.168.0.115
1120,-1,-100,-100,-100,"0,0,0",-3,-2,0,0,0,0,61,63,82,70,100,-13.99,22,-89.0,50.0,-924.0,11:43:12.274639,192.168.0.115
1125,-1,-100,-100,-100,"0,0,0",-4,0,0,0,0,0,61,63,82,70,100,-13.92,22,-77.0,54.0,-1034.0,11:43:12.376801,192.168.0.115
1131,-1,-100,-100,-100,"0,0,0",-5,0,0,0,0,0,61,63,83,70,100,-13.96,22,-73.0,55.0,-960.0,11:43:12.588877,192.168.0.115
1136,-1,-100,-100,-100,"0,0,0",-3,-2,0,0,0,0,61,63,83,70,100,-14.06,22,-71.0,70.0,-999.0,11:43:12.590105,192.168.0.115
1141,-1,-100,-100,-100,"0,0,0",-2,-3,0,0,0,0,61,63,82,60,100,-14.1,22,-87.0,33.0,-1070.0,11:43:12.794255,192.168.0.115
1146,-1,-100,-100,-100,"0,0,0",-4,-4,0,0,0,0,61,63,82,60,100,-14.06,22,-45.0,25.0,-1040.0,11:43:12.795345,192.168.0.115
1151,-1,-100,-100,-100,"0,0,0",-4,-2,0,0,0,0,61,63,82,60,100,-14.14,22,-74.0,62.0,-980.0,11:43:13.000099,192.168.0.115
1156,-1,-100,-100,-100,"0,0,0",-5,-2,0,0,0,0,61,63,82,60,100,-14.11,23,-79.0,17.0,-979.0,11:43:13.001029,192.168.0.115
1161,-1,-100,-100,-100,"0,0,0",-4,-2,0,0,0,0,61,63,81,60,100,-13.96,23,-23.0,80.0,-965.0,11:43:13.205913,192.168.0.115
1166,-1,-100,-100,-100,"0,0,0",-3,-3,0,0,0,0,61,63,82,60,100,-14.28,23,-62.0,22.0,-1086.0,11:43:13.206850,192.168.0.115
1171,-1,-100,-100,-100,"0,0,0",-2,-2,0,0,0,0,61,63,82,60,100,-14.25,23,-74.0,11.0,-977.0,11:43:13.413117,192.168.0.115
1176,-1,-100,-100,-100,"0,0,0",-3,-1,0,0,0,0,61,63,82,60,100,-14.12,23,-36.0,58.0,-948.0,11:43:13.414015,192.168.0.115
1181,-1,-100,-100,-100,"0,0,0",-3,0,0,0,0,0,61,63,81,60,100,-14.15,23,-14.0,55.0,-986.0,11:43:13.622677,192.168.0.115
1186,-1,-100,-100,-100,"0,0,0",-2,-1,0,0,0,0,61,63,81,60,100,-14.06,23,-35.0,79.0,-993.0,11:43:13.623697,192.168.0.115
1191,-1,-100,-100,-100,"0,0,0",0,-2,0,0,0,0,61,63,80,60,100,-14.0,23,3.0,57.0,-1045.0,11:43:13.828510,192.168.0.115
1196,-1,-100,-100,-100,"0,0,0",0,-3,0,0,0,0,61,63,80,60,100,-13.96,23,-12.0,42.0,-1001.0,11:43:13.829488,192.168.0.115
1202,-1,-100,-100,-100,"0,0,0",0,-2,0,0,0,0,61,63,80,60,100,-13.92,23,-27.0,68.0,-1010.0,11:43:13.905949,192.168.0.115
1207,-1,-100,-100,-100,"0,0,0",-1,-4,0,0,0,0,61,63,80,60,100,-14.02,24,-13.0,18.0,-1051.0,11:43:14.008504,192.168.0.115
1212,-1,-100,-100,-100,"0,0,0",1,-3,0,0,0,0,61,63,80,60,100,-14.26,24,-78.0,45.0,-1074.0,11:43:14.110614,192.168.0.115
1217,-1,-100,-100,-100,"0,0,0",-1,-2,0,0,0,0,61,63,82,60,100,-14.31,24,-82.0,47.0,-968.0,11:43:14.212501,192.168.0.115
1222,-1,-100,-100,-100,"0,0,0",-2,-2,0,0,0,0,61,63,82,60,100,-14.32,24,-93.0,12.0,-1043.0,11:43:14.314520,192.168.0.115
1227,-1,-100,-100,-100,"0,0,0",-3,-2,0,1,0,0,61,63,83,70,100,-14.22,24,-93.0,41.0,-941.0,11:43:14.416557,192.168.0.115
1233,-1,-100,-100,-100,"0,0,0",-4,-2,0,1,0,0,61,62,84,70,100,-14.41,24,-51.0,63.0,-1020.0,11:43:14.518682,192.168.0.115
1238,-1,-100,-100,-100,"0,0,0",-4,-3,0,0,0,0,61,62,85,70,100,-14.53,24,-95.0,31.0,-1067.0,11:43:14.620514,192.168.0.115
1243,-1,-100,-100,-100,"0,0,0",-4,-2,0,1,0,0,61,62,85,70,100,-14.44,24,-87.0,37.0,-913.0,11:43:14.722610,192.168.0.115
1248,-1,-100,-100,-100,"0,0,0",-5,-3,0,1,0,0,61,62,85,70,100,-13.88,24,-100.0,-16.0,-944.0,11:43:14.824415,192.168.0.115
1253,-1,-100,-100,-100,"0,0,0",-6,-1,0,1,1,0,61,62,84,70,100,-14.04,24,-148.0,21.0,-1037.0,11:43:14.926405,192.168.0.115
1258,-1,-100,-100,-100,"0,0,0",-7,0,-1,1,0,0,61,62,85,70,100,-14.06,25,-131.0,51.0,-1030.0,11:43:15.028250,192.168.0.115
1263,-1,-100,-100,-100,"0,0,0",-6,0,-1,1,0,0,61,62,84,70,100,-13.87,25,-124.0,49.0,-975.0,11:43:15.130446,192.168.0.115
1268,-1,-100,-100,-100,"0,0,0",-7,-1,-1,1,0,0,61,62,84,70,100,-13.85,25,-112.0,-27.0,-933.0,11:43:15.232520,192.168.0.115
1273,-1,-100,-100,-100,"0,0,0",-6,-2,-1,1,0,0,61,62,84,70,100,-13.75,25,-130.0,15.0,-1039.0,11:43:15.334378,192.168.0.115
1278,-1,-100,-100,-100,"0,0,0",-7,0,-1,1,0,-1,61,62,83,60,100,-13.66,25,-130.0,106.0,-1055.0,11:43:15.436207,192.168.0.115
1283,-1,-100,-100,-100,"0,0,0",-8,0,-1,0,0,0,61,63,82,60,100,-13.54,25,-111.0,30.0,-1034.0,11:43:15.538506,192.168.0.115
1285,-1,-100,-100,-100,"0,0,0",-5,0,-1,0,0,0,61,63,80,60,100,-13.84,25,-72.0,30.0,-1129.0,11:43:15.589585,192.168.0.115
1290,-1,-100,-100,-100,"0,0,0",-5,0,-1,0,0,0,61,63,80,60,100,-13.73,25,-119.0,17.0,-1014.0,11:43:15.691489,192.168.0.115
1295,-1,-100,-100,-100,"0,0,0",-4,0,0,0,0,0,61,63,80,60,100,-13.65,25,-101.0,68.0,-1018.0,11:43:15.793588,192.168.0.115
1301,-1,-100,-100,-100,"0,0,0",-5,-1,0,0,0,0,61,63,81,60,100,-13.9,25,-109.0,38.0,-1041.0,11:43:15.895483,192.168.0.115
1306,-1,-100,-100,-100,"0,0,0",-6,-1,0,0,0,0,61,63,82,60,100,-13.81,26,-87.0,35.0,-922.0,11:43:15.997120,192.168.0.115
1311,-1,-100,-100,-100,"0,0,0",-5,-1,0,0,0,0,61,63,81,60,100,-14.03,26,-65.0,37.0,-1018.0,11:43:16.099546,192.168.0.115
1316,-1,-100,-100,-100,"0,0,0",-4,-1,0,0,0,0,61,63,81,60,100,-14.0,26,-121.0,0.0,-976.0,11:43:16.201416,192.168.0.115
1321,-1,-100,-100,-100,"0,0,0",-5,-1,0,0,0,0,61,63,82,60,100,-13.75,26,-123.0,18.0,-926.0,11:43:16.303422,192.168.0.115
1326,-1,-100,-100,-100,"0,0,0",-5,-2,0,0,0,0,61,63,82,60,100,-13.99,26,-77.0,2.0,-1029.0,11:43:16.406813,192.168.0.115
1331,-1,-100,-100,-100,"0,0,0",-6,-2,0,0,0,0,61,64,83,60,100,-13.86,26,-60.0,29.0,-971.0,11:43:16.507393,192.168.0.115
1336,-1,-100,-100,-100,"0,0,0",-5,-2,0,0,0,0,61,64,83,60,100,-13.89,26,-69.0,23.0,-979.0,11:43:16.609307,192.168.0.115
1341,-1,-100,-100,-100,"0,0,0",-3,-1,0,0,0,0,61,64,82,60,100,-14.06,26,-97.0,28.0,-1063.0,11:43:16.712866,192.168.0.115
1346,-1,-100,-100,-100,"0,0,0",-4,-1,0,0,0,0,61,64,82,60,100,-14.16,26,-74.0,45.0,-1000.0,11:43:16.813223,192.168.0.115
1351,-1,-100,-100,-100,"0,0,0",-4,0,0,0,0,0,61,64,82,70,100,-14.08,26,-93.0,73.0,-955.0,11:43:16.915095,192.168.0.115
1356,-1,-100,-100,-100,"0,0,0",-5,-2,0,0,0,0,61,64,83,70,100,-13.97,27,-53.0,41.0,-1012.0,11:43:17.017005,192.168.0.115
1361,-1,-100,-100,-100,"0,0,0",-5,-3,0,0,0,0,61,64,83,70,100,-13.91,27,-77.0,37.0,-964.0,11:43:17.118647,192.168.0.115
1367,-1,-100,-100,-100,"0,0,0",-2,-3,0,0,0,0,61,64,82,60,100,-13.91,27,-95.0,20.0,-1100.0,11:43:17.220868,192.168.0.115
1372,-1,-100,-100,-100,"0,0,0",-2,-2,0,0,0,0,61,64,84,70,100,-13.99,27,-114.0,42.0,-952.0,11:43:17.323220,192.168.0.115
1377,-1,-100,-100,-100,"0,0,0",-4,-2,0,0,0,0,61,64,83,70,100,-13.89,27,-144.0,37.0,-1014.0,11:43:17.425358,192.168.0.115
1382,-1,-100,-100,-100,"0,0,0",-7,-2,0,0,0,0,61,63,84,70,100,-14.01,27,-128.0,99.0,-907.0,11:43:17.527283,192.168.0.115
1388,-1,-100,-100,-100,"0,0,0",-5,-3,0,0,0,0,61,63,83,70,100,-13.93,27,-97.0,25.0,-947.0,11:43:17.629466,192.168.0.115
1392,-1,-100,-100,-100,"0,0,0",-4,-1,0,0,0,0,61,63,83,70,100,-14.02,27,-79.0,-5.0,-977.0,11:43:17.731412,192.168.0.115
1397,-1,-100,-100,-100,"0,0,0",-4,0,0,0,0,0,61,63,83,70,100,-14.27,27,-61.0,24.0,-1034.0,11:43:17.833127,192.168.0.115
1403,-1,-100,-100,-100,"0,0,0",-6,-2,0,0,0,0,61,63,83,70,100,-14.06,27,-98.0,13.0,-1080.0,11:43:17.935348,192.168.0.115
1408,-1,-100,-100,-100,"0,0,0",-5,-1,0,0,0,0,61,63,84,70,100,-14.05,28,-113.0,17.0,-952.0,11:43:18.036879,192.168.0.115
1413,-1,-100,-100,-100,"0,0,0",-5,-1,0,0,0,0,61,63,84,70,100,-14.07,28,-96.0,9.0,-1000.0,11:43:18.139063,192.168.0.115
1418,-1,-100,-100,-100,"0,0,0",-6,0,0,0,0,0,61,63,84,70,100,-13.97,28,-104.0,30.0,-920.0,11:43:18.240627,192.168.0.115
1423,-1,-100,-100,-100,"0,0,0",-7,0,0,0,0,0,61,63,84,70,100,-13.93,28,-108.0,17.0,-1002.0,11:43:18.343019,192.168.0.115
1428,-1,-100,-100,-100,"0,0,0",-5,-1,0,0,0,0,61,63,84,70,100,-14.11,28,-64.0,46.0,-896.0,11:43:18.445177,192.168.0.115
1433,-1,-100,-100,-100,"0,0,0",-3,-2,0,0,0,0,61,63,83,70,100,-14.15,28,-107.0,29.0,-970.0,11:43:18.547004,192.168.0.115
1438,-1,-100,-100,-100,"0,0,0",-4,-2,-1,0,0,0,61,63,83,70,100,-13.95,28,-123.0,38.0,-1010.0,11:43:18.649204,192.168.0.115
1443,-1,-100,-100,-100,"0,0,0",-6,-2,0,0,0,0,61,63,83,70,100,-14.15,28,-72.0,16.0,-967.0,11:43:18.751127,192.168.0.115
1448,-1,-100,-100,-100,"0,0,0",-6,-1,0,0,0,0,61,63,83,70,100,-14.25,28,-119.0,-6.0,-1065.0,11:43:18.852739,192.168.0.115
1453,-1,-100,-100,-100,"0,0,0",-4,-1,0,0,0,0,61,63,83,70,100,-14.05,28,-123.0,34.0,-963.0,11:43:18.958222,192.168.0.115
1458,-1,-100,-100,-100,"0,0,0",-4,-1,0,0,0,0,61,63,83,70,100,-13.95,29,-95.0,18.0,-968.0,11:43:19.056687,192.168.0.115
1460,-1,-100,-100,-100,"0,0,0",-6,-2,0,0,0,0,61,63,84,70,100,-14.06,29,-80.0,40.0,-1007.0,11:43:19.107778,192.168.0.115
1465,-1,-100,-100,-100,"0,0,0",-7,-1,0,0,0,0,61,63,84,70,100,-13.99,29,-24.0,41.0,-946.0,11:43:19.209808,192.168.0.115
1470,-1,-100,-100,-100,"0,0,0",-4,-2,0,0,0,0,61,63,83,70,100,-13.97,29,-94.0,17.0,-1023.0,11:43:19.311924,192.168.0.115
1475,-1,-100,-100,-100,"0,0,0",-4,-2,0,0,0,0,61,63,83,70,100,-14.22,29,-79.0,-7.0,-1044.0,11:43:19.413810,192.168.0.115
1480,-1,-100,-100,-100,"0,0,0",-4,-2,0,0,0,0,62,64,84,70,100,-14.13,29,-98.0,9.0,-950.0,11:43:19.515662,192.168.0.115
1485,-1,-100,-100,-100,"0,0,0",-6,-1,0,0,0,0,62,64,84,70,100,-14.06,29,-60.0,17.0,-949.0,11:43:19.618417,192.168.0.115
1491,-1,-100,-100,-100,"0,0,0",-6,0,0,0,0,0,62,64,84,70,100,-14.17,29,-59.0,13.0,-1024.0,11:43:19.719618,192.168.0.115
1496,-1,-100,-100,-100,"0,0,0",-4,0,0,0,0,0,62,64,83,70,100,-14.11,29,-59.0,52.0,-1045.0,11:43:19.821653,192.168.0.115
1501,-1,-100,-100,-100,"0,0,0",-2,-1,0,0,0,0,62,64,82,70,100,-14.37,29,-84.0,15.0,-1014.0,11:43:19.923857,192.168.0.115
1506,-1,-100,-100,-100,"0,0,0",-2,-1,0,0,0,0,62,64,83,70,100,-14.11,30,-104.0,16.0,-882.0,11:43:20.025769,192.168.0.115
1511,-1,-100,-100,-100,"0,0,0",-4,-3,0,0,0,0,62,64,83,70,100,-14.21,30,-90.0,19.0,-984.0,11:43:20.127852,192.168.0.115
1516,-1,-100,-100,-100,"0,0,0",-5,0,0,0,0,0,62,64,82,70,100,-14.26,30,-70.0,29.0,-1027.0,11:43:20.229883,192.168.0.115
1521,-1,-100,-100,-100,"0,0,0",-5,-1,0,0,0,0,62,64,83,70,100,-14.03,30,-116.0,39.0,-985.0,11:43:20.331857,192.168.0.115
1526,-1,-100,-100,-100,"0,0,0",-4,-1,0,0,0,0,62,64,82,70,100,-14.1,30,-118.0,61.0,-995.0,11:43:20.433115,192.168.0.115
1531,-1,-100,-100,-100,"0,0,0",-4,-1,0,0,0,0,62,64,83,70,100,-14.42,30,-114.0,49.0,-1038.0,11:43:20.535133,192.168.0.115
1536,-1,-100,-100,-100,"0,0,0",-6,0,0,0,0,0,62,64,83,70,100,-14.08,30,-93.0,50.0,-986.0,11:43:20.637602,192.168.0.115
1541,-1,-100,-100,-100,"0,0,0",-6,-2,0,0,0,0,62,64,83,60,100,-14.02,30,-115.0,33.0,-970.0,11:43:20.739648,192.168.0.115
1547,-1,-100,-100,-100,"0,0,0",-5,-3,0,0,0,0,62,64,81,60,100,-14.0,30,-130.0,15.0,-1055.0,11:43:20.841619,192.168.0.115
1552,-1,-100,-100,-100,"0,0,0",-5,-1,0,0,0,0,62,64,81,60,100,-14.0,30,-105.0,66.0,-1025.0,11:43:20.943964,192.168.0.115
1557,-1,-100,-100,-100,"0,0,0",-5,0,0,0,0,0,62,64,82,60,100,-14.14,31,-117.0,67.0,-971.0,11:43:21.045083,192.168.0.115
1562,-1,-100,-100,-100,"0,0,0",-6,-2,0,0,0,0,62,64,81,60,100,-14.09,31,-91.0,13.0,-977.0,11:43:21.147086,192.168.0.115
1567,-1,-100,-100,-100,"0,0,0",-5,-2,0,0,0,0,62,64,81,60,100,-14.15,31,-69.0,29.0,-883.0,11:43:21.249603,192.168.0.115
1573,-1,-100,-100,-100,"0,0,0",-6,-3,0,0,0,0,62,64,81,60,100,-14.3,31,-135.0,16.0,-1002.0,11:43:21.351550,192.168.0.115
1578,-1,-100,-100,-100,"0,0,0",-6,-2,0,0,0,0,62,64,81,60,100,-14.15,31,-108.0,-27.0,-968.0,11:43:21.453186,192.168.0.115
1583,-1,-100,-100,-100,"0,0,0",-7,-1,0,0,0,0,62,63,81,60,100,-14.06,31,-150.0,66.0,-986.0,11:43:21.555799,192.168.0.115
1588,-1,-100,-100,-100,"0,0,0",-7,0,0,0,0,0,62,63,82,60,100,-14.09,31,-75.0,53.0,-872.0,11:43:21.657594,192.168.0.115
1593,-1,-100,-100,-100,"0,0,0",-7,-1,0,0,0,0,62,63,82,60,100,-14.14,31,-73.0,22.0,-906.0,11:43:21.759308,192.168.0.115
1598,-1,-100,-100,-100,"0,0,0",-6,-3,0,0,0,0,62,63,82,60,100,-14.12,31,-139.0,6.0,-1081.0,11:43:21.861413,192.168.0.115
1603,-1,-100,-100,-100,"0,0,0",-7,-2,0,0,0,0,62,63,82,60,100,-14.11,31,-168.0,57.0,-957.0,11:43:21.963258,192.168.0.115
1608,-1,-100,-100,-100,"0,0,0",-7,-1,0,0,0,0,62,63,82,60,100,-14.39,32,-116.0,-7.0,-983.0,11:43:22.065160,192.168.0.115
1613,-1,-100,-100,-100,"0,0,0",-6,-2,0,0,0,0,62,63,82,60,100,-14.02,32,-90.0,33.0,-971.0,11:43:22.167619,192.168.0.115
1618,-1,-100,-100,-100,"0,0,0",-8,-1,0,0,0,0,62,63,82,60,100,-14.26,32,-127.0,18.0,-967.0,11:43:22.269458,192.168.0.115
1623,-1,-100,-100,-100,"0,0,0",-7,-2,0,0,0,0,62,63,81,60,100,-14.13,32,-150.0,1.0,-1048.0,11:43:22.371368,192.168.0.115
1628,-1,-100,-100,-100,"0,0,0",-5,-2,-1,0,0,0,62,63,81,60,100,-14.26,32,-153.0,57.0,-960.0,11:43:22.473005,192.168.0.115
1633,-1,-100,-100,-100,"0,0,0",-8,-1,-1,0,0,0,62,64,83,60,100,-14.44,32,-146.0,34.0,-1028.0,11:43:22.575413,192.168.0.115
1638,-1,-100,-100,-100,"0,0,0",-9,-2,-1,0,0,0,62,64,83,60,100,-14.49,32,-128.0,-46.0,-927.0,11:43:22.677274,192.168.0.115
1640,-1,-100,-100,-100,"0,0,0",-8,-2,0,0,0,0,62,64,82,60,100,-14.25,32,-128.0,-6.0,-1001.0,11:43:22.728490,192.168.0.115
1645,-1,-100,-100,-100,"0,0,0",-8,-1,0,0,0,0,62,64,82,60,100,-14.13,32,-197.0,73.0,-1096.0,11:43:22.831244,192.168.0.115
1650,-1,-100,-100,-100,"0,0,0",-9,1,0,0,0,0,62,64,82,60,100,-14.27,32,-138.0,51.0,-1099.0,11:43:22.932542,192.168.0.115
1656,-1,-100,-100,-100,"0,0,0",-8,-1,0,0,0,0,62,64,82,60,100,-13.88,33,-135.0,-37.0,-1026.0,11:43:23.034438,192.168.0.115
1661,-1,-100,-100,-100,"0,0,0",-7,-2,0,0,0,0,62,64,82,60,100,-14.16,33,-164.0,58.0,-1058.0,11:43:23.136266,192.168.0.115
1666,-1,-100,-100,-100,"0,0,0",-9,0,0,0,0,0,62,64,83,60,100,-14.18,33,-137.0,27.0,-1030.0,11:43:23.238336,192.168.0.115
1671,-1,-100,-100,-100,"0,0,0",-8,-1,0,0,0,0,62,64,83,60,100,-14.03,33,-145.0,48.0,-975.0,11:43:23.340326,192.168.0.115
1676,-1,-100,-100,-100,"0,0,0",-8,-2,0,0,0,0,62,64,83,60,100,-14.16,33,-182.0,53.0,-1056.0,11:43:23.442293,192.168.0.115
1681,-1,-100,-100,-100,"0,0,0",-8,-2,0,0,0,0,63,64,83,60,100,-13.88,33,-135.0,-13.0,-916.0,11:43:23.544310,192.168.0.115
1686,-1,-100,-100,-100,"0,0,0",-7,-3,0,0,0,0,63,64,83,70,100,-14.14,33,-93.0,2.0,-981.0,11:43:23.646258,192.168.0.115
1691,-1,-100,-100,-100,"0,0,0",-6,-1,0,0,0,0,63,64,81,60,100,-14.24,33,-90.0,53.0,-1012.0,11:43:23.748692,192.168.0.115
1696,-1,-100,-100,-100,"0,0,0",-6,1,0,0,0,0,63,64,81,60,100,-14.1,33,-154.0,56.0,-1045.0,11:43:23.850029,192.168.0.115
1701,-1,-100,-100,-100,"0,0,0",-6,-1,-1,0,0,0,63,64,81,60,100,-14.36,33,-87.0,-29.0,-1091.0,11:43:23.952480,192.168.0.115
1706,-1,-100,-100,-100,"0,0,0",-5,-4,0,0,0,0,63,64,80,60,100,-14.21,34,-177.0,33.0,-1058.0,11:43:24.054257,192.168.0.115
1711,-1,-100,-100,-100,"0,0,0",-4,-1,0,0,0,0,63,64,81,60,100,-14.17,34,-116.0,20.0,-969.0,11:43:24.156203,192.168.0.115
1716,-1,-100,-100,-100,"0,0,0",-7,0,0,0,0,0,63,64,81,60,100,-14.08,34,-84.0,-11.0,-963.0,11:43:24.258147,192.168.0.115
1722,-1,-100,-100,-100,"0,0,0",-7,-2,0,0,0,0,63,64,80,60,100,-14.22,34,-43.0,-19.0,-1014.0,11:43:24.360261,192.168.0.115
1727,-1,-100,-100,-100,"0,0,0",-4,-1,0,0,0,0,63,64,80,60,100,-14.16,34,-59.0,-44.0,-988.0,11:43:24.462154,192.168.0.115
1732,-1,-100,-100,-100,"0,0,0",-5,-1,0,0,1,0,62,64,79,60,100,-14.19,34,-134.0,23.0,-1040.0,11:43:24.564155,192.168.0.115
1738,-1,-100,-100,-100,"0,0,0",-3,2,0,0,0,0,62,64,79,60,100,-14.04,34,-68.0,18.0,-903.0,11:43:24.666178,192.168.0.115
1742,-1,-100,-100,-100,"0,0,0",-6,0,0,0,0,0,62,64,81,60,100,-14.26,34,-79.0,-9.0,-985.0,11:43:24.768396,192.168.0.115
1748,-1,-100,-100,-100,"0,0,0",-4,0,0,0,0,0,62,64,80,60,100,-14.13,34,-118.0,46.0,-972.0,11:43:24.869504,192.168.0.115
1753,-1,-100,-100,-100,"0,0,0",-4,0,0,0,0,0,62,64,80,60,100,-14.51,34,-129.0,-20.0,-1063.0,11:43:24.972360,192.168.0.115
1758,-1,-100,-100,-100,"0,0,0",-4,0,0,0,0,0,62,64,80,60,100,-14.24,35,-138.0,9.0,-986.0,11:43:25.073984,192.168.0.115
1763,-1,-100,-100,-100,"0,0,0",-6,0,0,0,0,0,62,64,81,60,100,-14.22,35,-135.0,-15.0,-1017.0,11:43:25.176024,192.168.0.115
1768,-1,-100,-100,-100,"0,0,0",-7,0,0,0,0,0,62,64,81,60,100,-14.23,35,-184.0,43.0,-1028.0,11:43:25.278017,192.168.0.115
1773,-1,-100,-100,-100,"0,0,0",-6,2,0,0,0,0,62,64,82,60,100,-14.09,35,-120.0,10.0,-950.0,11:43:25.379431,192.168.0.115
1778,-1,-100,-100,-100,"0,0,0",-8,0,0,0,0,0,62,64,83,60,100,-14.07,35,-81.0,21.0,-958.0,11:43:25.481839,192.168.0.115
1783,-1,-100,-100,-100,"0,0,0",-9,-2,-1,0,0,0,62,65,83,60,100,-14.12,35,-109.0,-41.0,-972.0,11:43:25.583884,192.168.0.115
1788,-1,-100,-100,-100,"0,0,0",-6,-2,0,0,0,0,62,65,82,60,100,-14.31,35,-126.0,20.0,-1010.0,11:43:25.686116,192.168.0.115
1793,-1,-100,-100,-100,"0,0,0",-6,0,0,0,0,0,62,65,83,70,100,-14.25,35,-87.0,-18.0,-979.0,11:43:25.788069,192.168.0.115
1798,-1,-100,-100,-100,"0,0,0",-7,-1,-1,0,0,0,62,65,82,70,100,-14.07,35,-58.0,-15.0,-967.0,11:43:25.890087,192.168.0.115
1803,-1,-100,-100,-100,"0,0,0",-7,0,0,0,0,0,62,65,81,60,100,-14.29,35,-124.0,4.0,-1066.0,11:43:25.991886,192.168.0.115
1805,-1,-100,-100,-100,"0,0,0",-3,2,0,0,0,0,62,65,81,60,100,-14.42,36,-159.0,14.0,-1037.0,11:43:26.042878,192.168.0.115
1810,-1,-100,-100,-100,"0,0,0",-4,1,0,0,0,0,62,65,82,60,100,-13.88,36,-124.0,8.0,-862.0,11:43:26.144898,192.168.0.115
1816,-1,-100,-100,-100,"0,0,0",-7,-1,0,0,0,0,62,65,81,60,100,-14.25,36,-78.0,-38.0,-1035.0,11:43:26.246955,192.168.0.115
1820,-1,-100,-100,-100,"0,0,0",-6,0,0,0,0,0,62,65,81,60,100,-14.51,36,-140.0,59.0,-1060.0,11:43:26.348939,192.168.0.115
1825,-1,-100,-100,-100,"0,0,0",-5,1,0,0,0,0,62,65,82,60,100,-14.06,36,-167.0,18.0,-922.0,11:43:26.450808,192.168.0.115
1830,-1,-100,-100,-100,"0,0,0",-8,0,0,0,0,0,63,65,82,70,100,-14.31,36,-168.0,66.0,-1004.0,11:43:26.552776,192.168.0.115
1836,-1,-100,-100,-100,"0,0,0",-6,-3,0,0,0,0,63,65,82,60,100,-14.19,36,-100.0,39.0,-851.0,11:43:26.654844,192.168.0.115
1841,-1,-100,-100,-100,"0,0,0",-5,-1,0,0,0,0,63,65,81,60,100,-14.12,36,-102.0,-7.0,-1033.0,11:43:26.756883,192.168.0.115
1846,-1,-100,-100,-100,"0,0,0",-6,0,0,0,0,0,63,65,81,60,100,-14.2,36,-107.0,-6.0,-1146.0,11:43:26.858839,192.168.0.115
1851,-1,-100,-100,-100,"0,0,0",-5,0,0,0,0,0,63,65,81,60,100,-14.01,36,-106.0,1.0,-944.0,11:43:26.960926,192.168.0.115
1856,-1,-100,-100,-100,"0,0,0",-5,-1,0,0,0,0,63,65,81,60,100,-14.14,37,-118.0,40.0,-1004.0,11:43:27.062665,192.168.0.115
1861,-1,-100,-100,-100,"0,0,0",-5,-2,0,0,0,0,63,65,80,60,100,-14.26,37,-57.0,48.0,-934.0,11:43:27.164747,192.168.0.115
1866,-1,-100,-100,-100,"0,0,0",-4,-2,0,0,0,0,63,65,81,60,100,-14.29,37,-128.0,49.0,-1012.0,11:43:27.266719,192.168.0.115
1871,-1,-100,-100,-100,"0,0,0",-6,-2,0,0,0,0,63,65,82,60,100,-14.28,37,-120.0,-13.0,-1055.0,11:43:27.368655,192.168.0.115
1876,-1,-100,-100,-100,"0,0,0",-7,0,0,0,0,0,63,65,82,60,100,-14.14,37,-143.0,-35.0,-1039.0,11:43:27.470784,192.168.0.115
1882,-1,-100,-100,-100,"0,0,0",-8,-2,0,0,0,0,62,65,82,60,100,-14.29,37,-101.0,-3.0,-1007.0,11:43:27.572673,192.168.0.115
1887,-1,-100,-100,-100,"0,0,0",-7,-2,0,0,0,0,62,65,81,60,100,-14.41,37,-109.0,91.0,-1062.0,11:43:27.674802,192.168.0.115
1892,-1,-100,-100,-100,"0,0,0",-4,1,0,0,0,0,62,65,80,60,100,-14.27,37,-150.0,15.0,-1013.0,11:43:27.776883,192.168.0.115
1897,-1,-100,-100,-100,"0,0,0",-6,0,0,0,0,0,62,65,81,60,100,-14.2,37,-108.0,-39.0,-965.0,11:43:27.878966,192.168.0.115
1902,-1,-100,-100,-100,"0,0,0",-8,-1,0,0,0,0,62,65,81,60,100,-14.1,37,-95.0,-6.0,-985.0,11:43:27.980685,192.168.0.115
1907,-1,-100,-100,-100,"0,0,0",-5,1,0,0,0,0,62,65,81,60,100,-14.13,38,-124.0,12.0,-906.0,11:43:28.082673,192.168.0.115
1912,-1,-100,-100,-100,"0,0,0",-6,0,0,0,0,0,62,65,82,60,100,-13.9,38,-105.0,0.0,-912.0,11:43:28.184357,192.168.0.115
1918,-1,-100,-100,-100,"0,0,0",-7,0,-1,0,0,0,62,65,81,60,100,-14.32,38,-151.0,26.0,-1048.0,11:43:28.286414,192.168.0.115
1923,-1,-100,-100,-100,"0,0,0",-7,0,0,0,0,0,62,65,81,60,100,-14.09,38,-121.0,-6.0,-1034.0,11:43:28.388578,192.168.0.115
1928,-1,-100,-100,-100,"0,0,0",-8,-1,-1,0,0,0,62,65,81,60,100,-13.91,38,-101.0,49.0,-953.0,11:43:28.490588,192.168.0.115
1933,-1,-100,-100,-100,"0,0,0",-7,0,0,0,0,0,63,65,82,60,100,-14.01,38,-118.0,57.0,-1009.0,11:43:28.594322,192.168.0.115
1938,-1,-100,-100,-100,"0,0,0",-7,0,0,0,0,0,63,65,82,60,100,-14.42,38,-168.0,69.0,-1003.0,11:43:28.694566,192.168.0.115
1943,-1,-100,-100,-100,"0,0,0",-8,-1,0,0,0,0,63,65,82,60,100,-13.95,38,-120.0,46.0,-884.0,11:43:28.796584,192.168.0.115
1948,-1,-100,-100,-100,"0,0,0",-7,-2,0,0,0,0,63,65,82,60,100,-14.52,38,-183.0,32.0,-1072.0,11:43:28.898552,192.168.0.115
1953,-1,-100,-100,-100,"0,0,0",-7,-2,0,0,0,0,63,65,81,60,100,-14.18,39,-90.0,15.0,-1035.0,11:43:29.000639,192.168.0.115
1958,-1,-100,-100,-100,"0,0,0",-7,-1,0,0,0,0,63,65,80,60,100,-14.26,39,-93.0,44.0,-1043.0,11:43:29.102559,192.168.0.115
1963,-1,-100,-100,-100,"0,0,0",-6,0,0,0,0,0,63,65,79,60,100,-14.45,39,-124.0,72.0,-1029.0,11:43:29.204471,192.168.0.115
1968,-1,-100,-100,-100,"0,0,0",-6,-2,0,0,0,0,63,65,79,60,100,-14.15,39,-151.0,44.0,-899.0,11:43:29.306434,192.168.0.115
1973,-1,-100,-100,-100,"0,0,0",-7,-3,0,0,0,0,63,65,79,60,100,-14.07,39,-105.0,27.0,-989.0,11:43:29.408250,192.168.0.115
1978,-1,-100,-100,-100,"0,0,0",-5,-2,0,0,0,0,63,65,79,60,100,-14.22,39,-182.0,48.0,-1051.0,11:43:29.510535,192.168.0.115
1983,-1,-100,-100,-100,"0,0,0",-7,0,0,0,0,0,63,66,79,60,100,-14.05,39,-109.0,68.0,-913.0,11:43:29.612445,192.168.0.115
1988,-1,-100,-100,-100,"0,0,0",-7,-4,0,0,0,0,63,66,79,60,100,-14.24,39,-123.0,-27.0,-1103.0,11:43:29.715537,192.168.0.115
1990,-1,-100,-100,-100,"0,0,0",-5,-1,0,0,0,0,63,66,78,60,100,-14.29,39,-94.0,9.0,-1045.0,11:43:29.766990,192.168.0.115
1995,-1,-100,-100,-100,"0,0,0",-6,0,0,0,0,0,63,66,78,60,100,-14.19,39,-143.0,61.0,-989.0,11:43:29.867918,192.168.0.115
2000,-1,-100,-100,-100,"0,0,0",-7,-2,0,0,0,0,63,66,79,60,100,-14.02,40,-68.0,-20.0,-995.0,11:43:29.969253,192.168.0.115
2006,-1,-100,-100,-100,"0,0,0",-6,0,0,0,0,0,63,66,79,60,100,-14.07,40,-81.0,56.0,-933.0,11:43:30.071310,192.168.0.115
2011,-1,-100,-100,-100,"0,0,0",-6,0,0,0,0,0,63,66,79,60,100,-14.21,40,-98.0,62.0,-1018.0,11:43:30.173298,192.168.0.115
2016,-1,-100,-100,-100,"0,0,0",-5,-3,0,0,0,0,63,66,80,60,100,-14.1,40,-97.0,19.0,-1017.0,11:43:30.275362,192.168.0.115
2021,-1,-100,-100,-100,"0,0,0",-4,-1,0,0,0,0,63,66,80,60,100,-14.25,40,-136.0,36.0,-1010.0,11:43:30.377322,192.168.0.115
2026,-1,-100,-100,-100,"0,0,0",-6,0,0,0,0,0,63,66,80,60,100,-14.17,40,-76.0,33.0,-954.0,11:43:30.479513,192.168.0.115
2031,-1,-100,-100,-100,"0,0,0",-6,-1,0,0,0,0,64,65,81,60,100,-14.11,40,-83.0,30.0,-946.0,11:43:30.581282,192.168.0.115
2037,-1,-100,-100,-100,"0,0,0",-5,-2,0,0,0,0,64,65,81,60,100,-14.28,40,-106.0,9.0,-1012.0,11:43:30.683350,192.168.0.115
2041,-1,-100,-100,-100,"0,0,0",-5,0,0,0,0,0,64,65,81,60,100,-14.15,40,-71.0,17.0,-992.0,11:43:30.785199,192.168.0.115
2046,-1,-100,-100,-100,"0,0,0",-3,0,0,0,0,0,64,65,81,60,100,-14.01,40,-67.0,39.0,-988.0,11:43:30.889938,192.168.0.115
2051,-1,-100,-100,-100,"0,0,0",-4,-1,0,0,0,0,64,65,80,60,100,-13.95,41,-93.0,47.0,-1005.0,11:43:30.989231,192.168.0.115
2056,-1,-100,-100,-100,"0,0,0",-5,-2,0,0,0,0,64,65,81,60,100,-14.13,41,-106.0,26.0,-1022.0,11:43:31.091180,192.168.0.115
2062,-1,-100,-100,-100,"0,0,0",-5,-1,0,0,0,0,64,65,81,60,100,-14.22,41,-58.0,11.0,-1018.0,11:43:31.193284,192.168.0.115
2067,-1,-100,-100,-100,"0,0,0",-5,0,0,0,0,0,64,65,80,60,100,-14.13,41,-104.0,34.0,-967.0,11:43:31.295149,192.168.0.115
2072,-1,-100,-100,-100,"0,0,0",-5,0,0,0,0,0,64,65,80,60,100,-14.18,41,-69.0,59.0,-959.0,11:43:31.397246,192.168.0.115
2077,-1,-100,-100,-100,"0,0,0",-4,-2,0,0,0,0,64,65,81,60,100,-14.37,41,-131.0,38.0,-1113.0,11:43:31.499386,192.168.0.115
2082,-1,-100,-100,-100,"0,0,0",-4,-4,0,0,0,0,64,65,81,60,100,-14.09,41,-145.0,21.0,-1007.0,11:43:31.601001,192.168.0.115
2088,-1,-100,-100,-100,"0,0,0",-5,-2,0,0,0,0,64,65,81,60,100,-14.17,41,-22.0,25.0,-967.0,11:43:31.702997,192.168.0.115
2092,-1,-100,-100,-100,"0,0,0",-6,-1,0,0,0,0,64,65,80,60,100,-14.14,41,-136.0,35.0,-938.0,11:43:31.805086,192.168.0.115
2097,-1,-100,-100,-100,"0,0,0",-7,-1,0,0,0,0,64,65,81,60,100,-14.15,41,-109.0,50.0,-933.0,11:43:31.907444,192.168.0.115
2103,-1,-100,-100,-100,"0,0,0",-6,-2,0,0,0,0,64,65,81,60,100,-13.98,42,-54.0,51.0,-991.0,11:43:32.009083,192.168.0.115
2108,-1,-100,-100,-100,"0,0,0",-4,-2,0,0,0,0,64,65,81,60,100,-14.12,42,-35.0,53.0,-987.0,11:43:32.111139,192.168.0.115
2113,-1,-100,-100,-100,"0,0,0",-2,-2,0,0,0,0,64,65,80,60,100,-14.06,42,-51.0,54.0,-1013.0,11:43:32.213055,192.168.0.115
2118,-1,-100,-100,-100,"0,0,0",-4,-4,0,0,0,0,64,65,80,60,100,-14.11,42,-106.0,39.0,-979.0,11:43:32.315214,192.168.0.115
2123,-1,-100,-100,-100,"0,0,0",-4,-4,0,0,0,0,64,65,80,60,100,-14.23,42,-123.0,-4.0,-1083.0,11:43:32.417100,192.168.0.115
2128,-1,-100,-100,-100,"0,0,0",-5,0,0,0,0,0,64,65,80,60,100,-14.07,42,-66.0,48.0,-994.0,11:43:32.519094,192.168.0.115
2133,-1,-100,-100,-100,"0,0,0",-6,0,0,0,0,0,63,66,81,60,100,-13.97,42,-80.0,45.0,-955.0,11:43:32.620534,192.168.0.115
2138,-1,-100,-100,-100,"0,0,0",-4,-2,0,0,0,0,63,66,81,60,100,-14.14,42,-131.0,43.0,-976.0,11:43:32.725165,192.168.0.115
2143,-1,-100,-100,-100,"0,0,0",-6,-3,0,0,0,0,63,66,81,60,100,-14.05,42,-112.0,-5.0,-989.0,11:43:32.825118,192.168.0.115
2148,-1,-100,-100,-100,"0,0,0",-7,-1,0,0,0,0,63,66,82,60,100,-13.89,42,-68.0,56.0,-950.0,11:43:32.927311,192.168.0.115
2153,-1,-100,-100,-100,"0,0,0",-7,-1,0,0,0,0,63,66,82,60,100,-13.81,43,-70.0,46.0,-959.0,11:43:33.031415,192.168.0.115
2156,-1,-100,-100,-100,"0,0,0",-5,-4,0,0,0,0,63,66,81,60,100,-14.05,43,-82.0,10.0,-971.0,11:43:33.080010,192.168.0.115
2161,-1,-100,-100,-100,"0,0,0",-5,-1,0,0,0,0,63,66,80,60,100,-13.78,43,-16.0,18.0,-951.0,11:43:33.182057,192.168.0.115
2166,-1,-100,-100,-100,"0,0,0",-5,-1,0,0,0,0,63,66,80,60,100,-13.56,43,-44.0,44.0,-1038.0,11:43:33.283898,192.168.0.115
2171,-1,-100,-100,-100,"0,0,0",-3,0,0,0,0,0,63,66,80,60,100,-13.71,43,-17.0,73.0,-928.0,11:43:33.385946,192.168.0.115
2176,-1,-100,-100,-100,"0,0,0",-2,-3,0,0,0,0,63,66,80,60,100,-14.23,43,-96.0,-22.0,-1039.0,11:43:33.487939,192.168.0.115
2181,-1,-100,-100,-100,"0,0,0",-3,-3,0,0,0,0,64,66,80,60,100,-13.84,43,-86.0,37.0,-999.0,11:43:33.590037,192.168.0.115
2186,-1,-100,-100,-100,"0,0,0",-4,-1,0,0,0,0,64,66,79,60,100,-14.07,43,-48.0,19.0,-1014.0,11:43:33.691911,192.168.0.115
2191,-1,-100,-100,-100,"0,0,0",-4,0,0,0,0,0,64,66,80,60,100,-14.02,43,-65.0,32.0,-944.0,11:43:33.793822,192.168.0.115
2196,-1,-100,-100,-100,"0,0,0",-4,-2,0,0,0,0,64,66,80,60,100,-13.84,43,-110.0,41.0,-1024.0,11:43:33.895704,192.168.0.115
2201,-1,-100,-100,-100,"0,0,0",-3,-1,-1,0,0,0,64,66,81,60,100,-13.97,44,-99.0,55.0,-1122.0,11:43:33.998350,192.168.0.115
2206,-1,-100,-100,-100,"0,0,0",-5,-2,-1,0,0,0,64,66,81,60,100,-13.83,44,-133.0,41.0,-956.0,11:43:34.100637,192.168.0.115
2211,-1,-100,-100,-100,"0,0,0",-8,-3,-1,0,0,0,64,66,82,60,100,-13.73,44,-133.0,21.0,-898.0,11:43:34.202974,192.168.0.115
2217,-1,-100,-100,-100,"0,0,0",-8,-4,-1,0,0,0,64,66,83,70,100,-13.93,44,-131.0,8.0,-1005.0,11:43:34.305437,192.168.0.115
2222,-1,-100,-100,-100,"0,0,0",-7,-1,0,0,0,0,64,66,83,70,100,-13.9,44,-139.0,74.0,-993.0,11:43:34.407832,192.168.0.115
2227,-1,-100,-100,-100,"0,0,0",-8,-1,0,0,0,0,64,66,84,70,100,-14.09,44,-71.0,-20.0,-1005.0,11:43:34.510130,192.168.0.115
2232,-1,-100,-100,-100,"0,0,0",-7,-1,0,0,0,0,64,65,84,70,100,-13.88,44,-106.0,69.0,-974.0,11:43:34.609771,192.168.0.115
2237,-1,-100,-100,-100,"0,0,0",-7,-2,-1,0,0,0,64,65,84,70,100,-13.85,44,-95.0,-3.0,-1010.0,11:43:34.711817,192.168.0.115
2242,-1,-100,-100,-100,"0,0,0",-4,-3,-1,0,0,0,64,65,84,70,100,-13.84,44,-131.0,15.0,-1003.0,11:43:34.813783,192.168.0.115
2247,-1,-100,-100,-100,"0,0,0",-5,-2,-1,0,0,0,64,65,84,70,100,-13.94,44,-117.0,8.0,-975.0,11:43:34.915930,192.168.0.115
2252,-1,-100,-100,-100,"0,0,0",-7,-1,-1,0,1,0,64,65,84,70,100,-13.91,45,-88.0,-23.0,-963.0,11:43:35.018546,192.168.0.115
2258,-1,-100,-100,-100,"0,0,0",-5,1,0,0,1,0,64,65,83,70,100,-13.82,45,-133.0,26.0,-1009.0,11:43:35.119724,192.168.0.115
2263,-1,-100,-100,-100,"0,0,0",-6,1,0,0,0,0,64,65,83,70,100,-13.92,45,-167.0,55.0,-1063.0,11:43:35.221724,192.168.0.115
2268,-1,-100,-100,-100,"0,0,0",-8,0,0,0,0,0,64,65,84,70,100,-13.97,45,-91.0,42.0,-909.0,11:43:35.323710,192.168.0.115
2273,-1,-100,-100,-100,"0,0,0",-7,-2,0,0,0,0,64,65,83,70,100,-13.73,45,-91.0,30.0,-1024.0,11:43:35.425102,192.168.0.115
2278,-1,-100,-100,-100,"0,0,0",-6,-2,0,0,0,0,64,65,83,70,100,-13.91,45,-84.0,-19.0,-964.0,11:43:35.527653,192.168.0.115
2283,-1,-100,-100,-100,"0,0,0",-4,-1,0,0,0,0,63,65,82,60,100,-14.16,45,-134.0,5.0,-1097.0,11:43:35.629770,192.168.0.115
2288,-1,-100,-100,-100,"0,0,0",-5,0,0,0,0,0,63,65,82,60,100,-13.9,45,-121.0,33.0,-975.0,11:43:35.731678,192.168.0.115
2293,-1,-100,-100,-100,"0,0,0",-7,0,0,0,0,0,63,65,82,60,100,-13.88,45,-108.0,60.0,-990.0,11:43:35.833467,192.168.0.115
2298,-1,-100,-100,-100,"0,0,0",-7,-2,0,0,0,0,63,65,82,60,100,-13.92,45,-137.0,23.0,-1002.0,11:43:35.935670,192.168.0.115
2303,-1,-100,-100,-100,"0,0,0",-7,-2,0,0,0,0,63,65,83,70,100,-13.94,46,-165.0,44.0,-1030.0,11:43:36.037517,192.168.0.115
2308,-1,-100,-100,-100,"0,0,0",-9,-2,0,0,0,0,63,65,83,70,100,-13.85,46,-143.0,18.0,-982.0,11:43:36.139627,192.168.0.115
2310,-1,-100,-100,-100,"0,0,0",-8,-2,0,0,0,0,63,65,83,70,100,-13.92,46,-121.0,47.0,-1027.0,11:43:36.190556,192.168.0.115
2315,-1,-100,-100,-100,"0,0,0",-8,-1,0,0,0,0,63,65,83,70,100,-13.71,46,-89.0,89.0,-919.0,11:43:36.292438,192.168.0.115
2320,-1,-100,-100,-100,"0,0,0",-7,-1,0,0,0,0,63,65,83,70,100,-13.82,46,-152.0,47.0,-979.0,11:43:36.394558,192.168.0.115
2325,-1,-100,-100,-100,"0,0,0",-9,-4,0,0,0,0,63,65,84,70,100,-13.7,46,-117.0,42.0,-969.0,11:43:36.496349,192.168.0.115
2333,-1,-100,-100,-100,"0,0,0",-8,-3,0,0,0,0,63,66,83,70,100,-13.76,46,-120.0,-7.0,-999.0,11:43:36.649399,192.168.0.115
2335,-1,-100,-100,-100,"0,0,0",-6,-2,-1,0,0,0,63,66,82,70,100,-13.93,46,-96.0,62.0,-968.0,11:43:36.700518,192.168.0.115
2341,-1,-100,-100,-100,"0,0,0",-6,-1,0,0,0,0,63,66,81,60,100,-13.65,46,-122.0,20.0,-1026.0,11:43:36.802449,192.168.0.115
2346,-1,-100,-100,-100,"0,0,0",-5,-2,0,0,0,0,63,66,81,60,100,-13.83,46,-147.0,17.0,-1073.0,11:43:36.904802,192.168.0.115
2351,-1,-100,-100,-100,"0,0,0",-8,-2,0,0,0,0,63,66,81,60,100,-13.66,47,-160.0,65.0,-894.0,11:43:37.006696,192.168.0.115
2356,-1,-100,-100,-100,"0,0,0",-8,-3,-1,0,0,0,63,66,81,60,100,-13.87,47,-126.0,61.0,-1016.0,11:43:37.108301,192.168.0.115
2361,-1,-100,-100,-100,"0,0,0",-7,-3,-1,0,0,0,63,66,81,60,100,-14.02,47,-155.0,24.0,-1011.0,11:43:37.210355,192.168.0.115
2366,-1,-100,-100,-100,"0,0,0",-7,0,-1,0,1,0,63,66,80,60,100,-13.82,47,-124.0,36.0,-1032.0,11:43:37.313789,192.168.0.115
2371,-1,-100,-100,-100,"0,0,0",-7,0,-1,0,0,0,63,66,81,60,100,-13.8,47,-137.0,-56.0,-987.0,11:43:37.414450,192.168.0.115
2376,-1,-100,-100,-100,"0,0,0",-9,0,-1,0,0,0,63,66,82,60,100,-14.04,47,-154.0,59.0,-966.0,11:43:37.516417,192.168.0.115
2382,-1,-100,-100,-100,"0,0,0",-8,0,-1,0,0,0,63,65,81,60,100,-14.0,47,-173.0,99.0,-1100.0,11:43:37.618370,192.168.0.115
2387,-1,-100,-100,-100,"0,0,0",-7,-1,0,0,0,0,63,65,81,60,100,-13.83,47,-149.0,37.0,-898.0,11:43:37.724026,192.168.0.115
2392,-1,-100,-100,-100,"0,0,0",-7,-2,0,0,0,0,63,65,81,60,100,-13.83,47,-131.0,27.0,-963.0,11:43:37.824490,192.168.0.115
2397,-1,-100,-100,-100,"0,0,0",-8,-1,0,0,0,0,63,65,81,60,100,-13.86,47,-139.0,65.0,-1065.0,11:43:37.924310,192.168.0.115
2402,-1,-100,-100,-100,"0,0,0",-7,0,0,0,0,0,63,65,80,60,100,-13.8,48,-111.0,63.0,-1029.0,11:43:38.026540,192.168.0.115
2407,-1,-100,-100,-100,"0,0,0",-7,0,0,0,0,0,63,65,81,60,100,-14.07,48,-129.0,36.0,-1045.0,11:43:38.128339,192.168.0.115
2412,-1,-100,-100,-100,"0,0,0",-6,-1,0,0,0,0,63,65,80,60,100,-13.89,48,-96.0,59.0,-1024.0,11:43:38.230225,192.168.0.115
2417,-1,-100,-100,-100,"0,0,0",-6,-3,0,0,0,0,63,65,81,60,100,-13.76,48,-95.0,31.0,-987.0,11:43:38.331984,192.168.0.115
2422,-1,-100,-100,-100,"0,0,0",-7,-4,0,0,0,0,63,65,81,60,100,-14.08,48,-110.0,73.0,-926.0,11:43:38.434240,192.168.0.115
2428,-1,-100,-100,-100,"0,0,0",-5,-2,0,0,0,0,63,65,81,60,100,-14.04,48,-100.0,-30.0,-1005.0,11:43:38.536281,192.168.0.115
2433,-1,-100,-100,-100,"0,0,0",-5,-2,0,0,0,0,64,66,82,60,100,-13.87,48,-68.0,0.0,-887.0,11:43:38.638252,192.168.0.115
2438,-1,-100,-100,-100,"0,0,0",-5,-3,0,0,0,0,64,66,82,60,100,-13.92,48,-68.0,17.0,-984.0,11:43:38.740317,192.168.0.115
2443,-1,-100,-100,-100,"0,0,0",-6,0,0,-1,0,0,64,66,82,60,100,-14.18,48,-147.0,60.0,-1113.0,11:43:38.842561,192.168.0.115
2448,-1,-100,-100,-100,"0,0,0",-3,0,0,0,0,0,64,66,80,60,100,-13.84,48,-70.0,31.0,-907.0,11:43:38.944180,192.168.0.115
2453,-1,-100,-100,-100,"0,0,0",-2,0,0,0,0,0,64,66,81,60,100,-13.98,49,-120.0,58.0,-1064.0,11:43:39.046477,192.168.0.115
2458,-1,-100,-100,-100,"0,0,0",-5,-1,0,0,0,0,64,66,81,60,100,-13.82,49,-117.0,-15.0,-920.0,11:43:39.148219,192.168.0.115
2463,-1,-100,-100,-100,"0,0,0",-7,-4,0,0,0,0,64,66,81,60,100,-14.03,49,-125.0,-7.0,-1072.0,11:43:39.250206,192.168.0.115
2468,-1,-100,-100,-100,"0,0,0",-7,-1,0,0,0,0,64,66,81,60,100,-13.85,49,-192.0,92.0,-954.0,11:43:39.351597,192.168.0.115
2473,-1,-100,-100,-100,"0,0,0",-7,0,-1,0,0,0,64,66,80,60,100,-14.13,49,-101.0,-45.0,-1030.0,11:43:39.453711,192.168.0.115
2478,-1,-100,-100,-100,"0,0,0",-8,-2,0,0,0,0,64,66,81,60,100,-13.69,49,-138.0,44.0,-958.0,11:43:39.555547,192.168.0.115
2483,-1,-100,-100,-100,"0,0,0",-7,0,-1,0,0,0,64,67,81,60,100,-13.91,49,-80.0,1.0,-907.0,11:43:39.658088,192.168.0.115
2488,-1,-100,-100,-100,"0,0,0",-5,0,-1,0,0,0,64,67,80,60,100,-13.92,49,-102.0,-28.0,-978.0,11:43:39.760148,192.168.0.115
2490,-1,-100,-100,-100,"0,0,0",-5,-1,0,0,0,0,64,67,80,60,100,-13.99,49,-117.0,31.0,-1041.0,11:43:39.811056,192.168.0.115
2495,-1,-100,-100,-100,"0,0,0",-4,0,0,0,0,0,64,67,80,60,100,-14.01,49,-144.0,26.0,-1063.0,11:43:39.912796,192.168.0.115
2500,-1,-100,-100,-100,"0,0,0",-6,0,0,0,0,0,64,67,80,60,100,-13.53,50,-92.0,43.0,-927.0,11:43:40.015022,192.168.0.115
2506,-1,-100,-100,-100,"0,0,0",-6,0,0,0,0,0,64,67,79,60,100,-13.84,50,-206.0,62.0,-1059.0,11:43:40.118582,192.168.0.115
2511,-1,-100,-100,-100,"0,0,0",-7,-1,0,1,0,0,64,67,80,60,100,-13.7,50,-154.0,30.0,-969.0,11:43:40.219027,192.168.0.115
