,mid,x,y,z,mpry,pitch,roll,yaw,vgx,vgy,vgz,templ,temph,tof,h,bat,baro,time,agx,agy,agz,timestamp,address
4,-1,-100,-100,-100,"0,0,0",0,0,0,0,0,0,58,60,10,0,100,-5.67,0,5.0,-8.0,-1000.0,13:35:36.087064,192.168.0.111
5,-1,-100,-100,-100,"0,0,0",0,0,0,0,0,0,58,60,10,0,100,-5.61,0,6.0,-6.0,-998.0,13:35:36.137922,192.168.0.111
10,-1,-100,-100,-100,"0,0,0",0,0,0,0,0,0,58,60,10,0,100,-5.62,0,6.0,-10.0,-1000.0,13:35:36.240332,192.168.0.111
16,-1,-100,-100,-100,"0,0,0",0,0,0,0,0,0,58,60,10,0,100,-5.62,0,8.0,-6.0,-997.0,13:35:36.342080,192.168.0.111
21,-1,-100,-100,-100,"0,0,0",0,0,0,0,0,0,58,60,10,0,100,-5.62,0,5.0,-3.0,-1008.0,13:35:36.444169,192.168.0.111
26,-1,-100,-100,-100,"0,0,0",0,0,0,0,0,0,58,60,10,0,100,-5.62,0,9.0,-10.0,-1003.0,13:35:36.546123,192.168.0.111
31,-1,-100,-100,-100,"0,0,0",0,0,0,0,0,0,58,60,10,0,100,-5.62,0,2.0,7.0,-1146.0,13:35:36.647888,192.168.0.111
36,-1,-100,-100,-100,"0,0,0",0,0,0,0,0,2,58,60,10,0,100,-5.62,0,28.0,-5.0,-1393.0,13:35:36.750156,192.168.0.111
41,-1,-100,-100,-100,"0,0,0",0,0,0,0,0,6,58,60,10,0,100,-5.62,0,21.0,4.0,-1224.0,13:35:36.851845,192.168.0.111
46,-1,-100,-100,-100,"0,0,0",1,0,0,0,0,8,58,60,16,10,100,-5.42,0,16.0,5.0,-1093.0,13:35:36.953841,192.168.0.111
51,-1,-100,-100,-100,"0,0,0",1,0,0,0,0,8,58,60,24,20,100,-5.18,0,14.0,3.0,-999.0,13:35:37.055868,192.168.0.111
56,-1,-100,-100,-100,"0,0,0",1,0,0,0,0,8,58,60,32,20,100,-5.21,0,20.0,8.0,-1046.0,13:35:37.158198,192.168.0.111
61,-1,-100,-100,-100,"0,0,0",1,0,0,0,0,7,58,60,41,30,100,-5.06,1,17.0,0.0,-971.0,13:35:37.260005,192.168.0.111
66,-1,-100,-100,-100,"0,0,0",1,0,0,0,0,6,58,60,49,40,100,-5.02,1,14.0,2.0,-926.0,13:35:37.361989,192.168.0.111
71,-1,-100,-100,-100,"0,0,0",1,0,0,0,0,5,58,61,54,40,100,-4.93,1,17.0,-7.0,-897.0,13:35:37.463682,192.168.0.111
77,-1,-100,-100,-100,"0,0,0",1,0,0,0,0,4,58,61,59,50,100,-4.9,1,12.0,-9.0,-907.0,13:35:37.566126,192.168.0.111
82,-1,-100,-100,-100,"0,0,0",1,0,0,0,0,3,58,61,63,50,100,-4.88,1,11.0,-2.0,-936.0,13:35:37.667994,192.168.0.111
87,-1,-100,-100,-100,"0,0,0",1,0,0,0,0,2,58,61,66,50,100,-4.86,1,18.0,-5.0,-951.0,13:35:37.769924,192.168.0.111
92,3,2,-4,59,"-3,-3,-178",1,0,0,0,0,1,58,61,69,50,100,-4.85,1,19.0,-6.0,-961.0,13:35:37.871791,192.168.0.111
97,3,2,-4,59,"-3,-3,-178",1,0,0,0,0,1,58,61,72,60,100,-4.84,1,21.0,-10.0,-977.0,13:35:37.973874,192.168.0.111
102,3,2,-4,59,"-3,-3,-178",1,0,0,0,0,1,58,61,74,60,100,-4.78,1,18.0,-6.0,-988.0,13:35:38.075706,192.168.0.111
107,3,2,-4,59,"-3,-3,-178",1,0,0,0,0,1,58,61,75,60,100,-4.77,1,33.0,-10.0,-985.0,13:35:38.178647,192.168.0.111
113,3,3,-7,72,"-3,-3,-177",1,0,0,0,0,1,58,61,76,60,100,-4.71,2,19.0,-10.0,-985.0,13:35:38.281192,192.168.0.111
117,3,3,-7,72,"-3,-3,-177",1,0,0,0,0,0,58,61,78,60,100,-4.72,2,30.0,-11.0,-978.0,13:35:38.381990,192.168.0.111
123,3,3,-7,72,"-3,-3,-177",1,0,0,0,0,0,58,62,79,60,100,-4.76,2,22.0,-8.0,-982.0,13:35:38.483998,192.168.0.111
128,3,3,-7,72,"-3,-3,-177",2,0,0,0,0,0,58,62,80,60,100,-4.78,2,12.0,-3.0,-994.0,13:35:38.586272,192.168.0.111
133,3,4,-7,79,"-4,-3,-178",2,0,0,0,0,0,58,62,81,70,100,-4.72,2,26.0,-7.0,-981.0,13:35:38.690676,192.168.0.111
138,3,4,-7,79,"-4,-3,-178",2,0,0,0,0,0,58,62,82,70,100,-4.73,2,27.0,-14.0,-981.0,13:35:38.790153,192.168.0.111
143,3,4,-7,79,"-4,-3,-178",2,0,0,0,0,0,58,62,83,70,100,-4.74,2,28.0,-12.0,-981.0,13:35:38.892285,192.168.0.111
149,3,6,-12,83,"-4,-3,-175",2,0,0,0,0,0,58,62,83,70,100,-4.74,2,22.0,-14.0,-984.0,13:35:38.994201,192.168.0.111
151,3,6,-12,83,"-4,-3,-175",1,0,0,0,0,0,58,62,84,70,100,-4.64,2,25.0,-1.0,-983.0,13:35:39.045035,192.168.0.111
156,3,6,-12,83,"-4,-3,-175",1,0,0,0,0,0,58,62,84,70,100,-4.67,2,30.0,-2.0,-987.0,13:35:39.147197,192.168.0.111
161,3,6,-12,83,"-4,-3,-175",1,0,0,0,0,0,58,62,84,70,100,-4.69,3,20.0,-11.0,-983.0,13:35:39.249315,192.168.0.111
166,3,6,-11,85,"-4,-3,-175",1,0,0,0,0,0,58,62,84,70,100,-4.71,3,20.0,-10.0,-996.0,13:35:39.350990,192.168.0.111
171,3,6,-11,85,"-4,-3,-175",1,0,0,0,0,0,58,61,84,70,100,-4.63,3,28.0,-12.0,-987.0,13:35:39.452938,192.168.0.111
176,3,6,-11,85,"-4,-3,-175",1,0,0,0,0,0,58,61,84,70,100,-4.69,3,28.0,-3.0,-989.0,13:35:39.555073,192.168.0.111
181,3,6,-11,85,"-4,-3,-175",1,0,0,0,0,0,58,61,84,70,100,-4.66,3,21.0,-8.0,-997.0,13:35:39.656921,192.168.0.111
186,3,4,-8,87,"-5,-3,-177",1,0,0,0,0,0,58,61,84,70,100,-4.71,3,33.0,-7.0,-988.0,13:35:39.758987,192.168.0.111
191,3,4,-8,87,"-5,-3,-177",1,0,0,0,0,0,58,61,84,70,100,-4.62,3,37.0,-9.0,-991.0,13:35:39.861162,192.168.0.111
196,3,4,-8,87,"-5,-3,-177",1,0,0,0,0,0,58,61,83,70,100,-4.69,3,28.0,-6.0,-996.0,13:35:39.962992,192.168.0.111
202,3,5,-9,87,"-4,-3,-177",1,0,0,0,0,0,58,61,83,70,100,-4.63,3,22.0,-12.0,-998.0,13:35:40.065138,192.168.0.111
207,3,5,-9,87,"-4,-3,-177",1,0,0,0,0,0,58,61,83,70,100,-4.68,3,31.0,-7.0,-1002.0,13:35:40.167425,192.168.0.111
212,3,5,-9,87,"-4,-3,-177",1,0,0,0,0,0,58,61,83,70,100,-4.62,4,36.0,-9.0,-991.0,13:35:40.268968,192.168.0.111
217,3,5,-9,87,"-4,-3,-177",2,0,0,0,0,0,58,61,83,70,100,-4.68,4,32.0,-9.0,-1000.0,13:35:40.371305,192.168.0.111
222,3,4,-8,86,"-5,-3,-177",2,0,0,0,0,0,59,61,83,70,100,-4.64,4,28.0,-7.0,-1013.0,13:35:40.473411,192.168.0.111
227,3,4,-8,86,"-5,-3,-177",1,0,0,0,0,0,59,61,82,70,100,-4.66,4,28.0,-5.0,-997.0,13:35:40.574804,192.168.0.111
232,3,4,-8,86,"-5,-3,-177",1,0,0,0,0,0,59,61,82,70,100,-4.71,4,36.0,-9.0,-1001.0,13:35:40.677057,192.168.0.111
237,3,4,-8,86,"-5,-3,-177",1,0,0,0,0,0,59,61,82,70,100,-4.71,4,24.0,-10.0,-1004.0,13:35:40.781027,192.168.0.111
242,3,5,-9,85,"-4,-3,-176",2,0,0,0,0,0,59,61,82,70,100,-4.69,4,24.0,-6.0,-1005.0,13:35:40.880835,192.168.0.111
247,3,5,-9,85,"-4,-3,-176",1,0,0,0,0,0,59,61,83,70,100,-4.69,4,33.0,-10.0,-994.0,13:35:40.982980,192.168.0.111
252,3,5,-9,85,"-4,-3,-176",1,0,0,0,0,0,59,61,82,70,100,-4.64,4,31.0,-6.0,-998.0,13:35:41.084861,192.168.0.111
257,3,4,-8,85,"-5,-3,-178",1,0,0,0,0,0,59,61,83,70,100,-4.63,4,34.0,-8.0,-999.0,13:35:41.187547,192.168.0.111
262,3,4,-8,85,"-5,-3,-178",1,0,0,0,0,0,59,61,83,70,100,-4.62,5,31.0,-5.0,-1007.0,13:35:41.289196,192.168.0.111
267,3,4,-8,85,"-5,-3,-178",1,0,0,0,0,0,59,61,82,70,100,-4.63,5,30.0,-6.0,-999.0,13:35:41.391248,192.168.0.111
272,3,4,-8,85,"-5,-3,-178",1,0,0,0,0,0,58,61,83,70,100,-4.61,5,29.0,-11.0,-990.0,13:35:41.492963,192.168.0.111
278,3,4,-7,85,"-5,-3,-178",2,0,0,0,0,0,58,61,82,70,100,-4.62,5,28.0,-6.0,-995.0,13:35:41.594865,192.168.0.111
280,3,4,-7,85,"-5,-3,-178",2,0,0,0,0,0,58,61,83,70,100,-4.64,5,26.0,-6.0,-990.0,13:35:41.646179,192.168.0.111
285,3,4,-7,85,"-5,-3,-178",2,0,0,0,0,0,58,61,83,70,100,-4.7,5,26.0,-6.0,-994.0,13:35:41.748158,192.168.0.111
290,3,4,-7,85,"-5,-3,-178",2,0,0,0,0,0,58,61,83,70,100,-4.66,5,34.0,0.0,-995.0,13:35:41.849848,192.168.0.111
295,3,4,-7,86,"-4,-3,-178",1,0,0,0,0,0,58,61,83,70,100,-4.7,5,35.0,-14.0,-997.0,13:35:41.953037,192.168.0.111
300,3,4,-7,86,"-4,-3,-178",1,0,0,0,0,0,58,61,83,70,100,-4.71,5,35.0,-8.0,-1004.0,13:35:42.053991,192.168.0.111
305,3,4,-7,86,"-4,-3,-178",2,0,0,0,0,0,58,61,83,70,100,-4.76,5,35.0,0.0,-994.0,13:35:42.156702,192.168.0.111
310,3,4,-7,86,"-4,-3,-178",2,0,0,0,0,0,58,61,84,70,100,-4.77,6,32.0,-7.0,-996.0,13:35:42.258224,192.168.0.111
316,3,5,-8,85,"-4,-3,-178",2,0,0,0,0,0,58,61,84,70,100,-4.71,6,33.0,-10.0,-1004.0,13:35:42.360138,192.168.0.111
321,3,5,-8,85,"-4,-3,-178",2,0,0,0,0,0,58,62,83,70,100,-4.69,6,35.0,-3.0,-991.0,13:35:42.461975,192.168.0.111
326,3,5,-8,85,"-4,-3,-178",2,0,0,0,0,0,58,62,84,70,100,-4.7,6,37.0,-11.0,-998.0,13:35:42.564263,192.168.0.111
331,3,4,-11,85,"-4,-3,-176",2,0,0,0,0,0,58,62,84,70,100,-4.7,6,38.0,-5.0,-1003.0,13:35:42.666196,192.168.0.111
336,3,4,-11,85,"-4,-3,-176",2,0,0,0,0,0,58,62,83,70,100,-4.74,6,37.0,-6.0,-991.0,13:35:42.767894,192.168.0.111
341,3,4,-11,85,"-4,-3,-176",2,0,0,0,0,0,58,62,84,70,100,-4.71,6,31.0,-4.0,-994.0,13:35:42.870040,192.168.0.111
347,3,4,-11,85,"-4,-3,-176",2,0,0,0,0,0,58,62,84,70,100,-4.73,6,35.0,-11.0,-989.0,13:35:42.972222,192.168.0.111
352,3,4,-11,86,"-5,-3,-176",2,0,0,0,0,0,58,62,84,70,100,-4.69,6,30.0,-3.0,-1001.0,13:35:43.073863,192.168.0.111
357,3,4,-11,86,"-5,-3,-176",2,0,0,0,0,0,58,62,83,70,100,-4.8,6,37.0,0.0,-996.0,13:35:43.176332,192.168.0.111
362,3,4,-11,86,"-5,-3,-176",2,0,0,0,0,0,58,62,84,70,100,-4.65,7,33.0,-6.0,-994.0,13:35:43.278246,192.168.0.111
367,3,4,-11,86,"-5,-3,-176",2,0,0,0,0,0,58,62,83,70,100,-4.66,7,36.0,-7.0,-992.0,13:35:43.382745,192.168.0.111
372,3,4,-10,86,"-5,-3,-177",2,0,0,0,0,0,58,61,83,70,100,-4.66,7,32.0,-8.0,-997.0,13:35:43.481844,192.168.0.111
377,3,4,-10,86,"-5,-3,-177",1,0,0,0,0,0,58,61,83,70,100,-4.61,7,27.0,-15.0,-993.0,13:35:43.583755,192.168.0.111
382,3,4,-10,86,"-5,-3,-177",1,0,0,0,0,0,58,61,83,70,100,-4.74,7,31.0,-9.0,-998.0,13:35:43.686092,192.168.0.111
387,3,4,-8,86,"-5,-3,-178",1,0,0,0,0,0,58,61,83,70,100,-4.77,7,35.0,-15.0,-990.0,13:35:43.788118,192.168.0.111
392,3,4,-8,86,"-5,-3,-178",1,0,0,0,0,0,58,61,82,70,100,-4.72,7,28.0,-12.0,-991.0,13:35:43.890459,192.168.0.111
397,3,4,-8,86,"-5,-3,-178",2,0,0,0,0,0,58,61,83,70,100,-4.63,7,25.0,-11.0,-994.0,13:35:43.992257,192.168.0.111
402,3,4,-8,86,"-5,-3,-178",1,0,0,0,0,0,58,61,83,70,100,-4.66,7,21.0,-5.0,-987.0,13:35:44.094454,192.168.0.111
407,3,3,-8,85,"-5,-3,-177",1,0,0,0,0,0,58,61,83,70,100,-4.75,7,29.0,-12.0,-992.0,13:35:44.196428,192.168.0.111
410,3,3,-8,85,"-5,-3,-177",1,0,0,0,0,0,58,61,83,70,100,-4.69,8,26.0,-9.0,-998.0,13:35:44.247030,192.168.0.111
415,3,3,-8,85,"-5,-3,-177",1,0,0,0,0,0,58,61,82,70,100,-4.7,8,19.0,-16.0,-994.0,13:35:44.351096,192.168.0.111
420,3,3,-8,85,"-5,-3,-177",1,0,0,0,0,0,59,62,83,70,100,-4.7,8,32.0,-13.0,-993.0,13:35:44.451429,192.168.0.111
425,3,3,-10,84,"-4,-3,-176",1,0,0,0,0,0,59,62,83,70,100,-4.68,8,27.0,-14.0,-993.0,13:35:44.553449,192.168.0.111
430,3,3,-10,84,"-4,-3,-176",1,0,0,0,0,0,59,62,83,70,100,-4.75,8,22.0,-9.0,-986.0,13:35:44.655330,192.168.0.111
435,3,3,-10,84,"-4,-3,-176",1,0,0,0,0,0,59,62,83,70,100,-4.72,8,24.0,-9.0,-1000.0,13:35:44.757322,192.168.0.111
440,3,3,-10,84,"-4,-3,-176",1,0,0,0,0,0,59,62,84,70,100,-4.68,8,18.0,-10.0,-992.0,13:35:44.859623,192.168.0.111
445,3,0,-6,86,"-5,-3,-178",1,0,0,0,0,0,59,62,84,70,100,-4.68,8,24.0,-8.0,-990.0,13:35:44.961635,192.168.0.111
450,3,0,-6,86,"-5,-3,-178",1,0,0,0,0,0,59,62,84,70,100,-4.67,8,25.0,-1.0,-988.0,13:35:45.063245,192.168.0.111
455,3,0,-6,86,"-5,-3,-178",1,0,0,0,0,0,59,62,84,70,100,-4.73,8,21.0,-18.0,-984.0,13:35:45.165252,192.168.0.111
460,3,3,-9,86,"-3,-3,-176",1,0,0,0,0,0,59,62,83,70,100,-4.71,9,30.0,-5.0,-997.0,13:35:45.267415,192.168.0.111
465,3,3,-9,86,"-3,-3,-176",1,0,0,0,0,0,59,62,83,70,100,-4.7,9,30.0,-6.0,-988.0,13:35:45.369366,192.168.0.111
470,3,3,-9,86,"-3,-3,-176",1,0,0,0,0,0,59,62,84,70,100,-4.73,9,28.0,-15.0,-989.0,13:35:45.471535,192.168.0.111
475,3,3,-9,86,"-3,-3,-176",1,0,0,0,0,0,59,62,83,70,100,-4.71,9,21.0,-14.0,-989.0,13:35:45.575230,192.168.0.111
481,3,3,-9,86,"-3,-3,-176",1,0,0,0,0,0,59,62,84,70,100,-4.7,9,22.0,-15.0,-995.0,13:35:45.675381,192.168.0.111
485,3,3,-9,86,"-3,-3,-176",1,0,0,0,0,0,59,62,84,70,100,-4.73,9,24.0,-6.0,-995.0,13:35:45.777561,192.168.0.111
490,3,3,-9,86,"-3,-3,-176",1,0,0,0,0,0,59,62,84,70,100,-4.73,9,13.0,0.0,-998.0,13:35:45.879401,192.168.0.111
496,3,3,-9,86,"-3,-3,-176",1,0,0,0,0,0,59,62,84,70,100,-4.73,9,27.0,-6.0,-1005.0,13:35:45.982025,192.168.0.111
501,3,2,-10,86,"-3,-3,-176",1,0,0,0,0,0,59,62,84,70,100,-4.71,9,23.0,-6.0,-1010.0,13:35:46.084484,192.168.0.111
506,3,2,-10,86,"-3,-3,-176",1,0,0,0,0,0,59,62,84,70,100,-4.69,9,21.0,-17.0,-999.0,13:35:46.186389,192.168.0.111
510,3,2,-10,86,"-3,-3,-176",1,0,0,0,0,0,59,62,83,70,100,-4.75,10,25.0,-9.0,-1006.0,13:35:46.288668,192.168.0.111
516,3,1,-9,86,"-3,-3,-177",1,0,0,0,0,0,59,62,83,70,100,-4.75,10,29.0,-12.0,-995.0,13:35:46.390248,192.168.0.111
522,3,1,-9,86,"-3,-3,-177",1,0,0,0,0,0,59,62,83,70,100,-4.71,10,29.0,-10.0,-1003.0,13:35:46.492600,192.168.0.111
527,3,1,-9,86,"-3,-3,-177",1,0,0,0,0,0,59,62,83,70,100,-4.65,10,26.0,-8.0,-1003.0,13:35:46.594446,192.168.0.111
532,3,1,-9,86,"-3,-3,-177",1,0,0,0,0,0,59,62,84,70,100,-4.75,10,23.0,-9.0,-994.0,13:35:46.696320,192.168.0.111
535,3,1,-5,86,"-3,-3,179",1,0,0,0,0,0,59,62,83,70,100,-4.72,10,26.0,-23.0,-988.0,13:35:46.747649,192.168.0.111
540,3,1,-5,86,"-3,-3,179",1,0,0,0,0,0,59,62,83,70,100,-4.78,10,25.0,-19.0,-1002.0,13:35:46.849487,192.168.0.111
545,3,1,-5,86,"-3,-3,179",1,0,0,0,0,0,59,62,82,70,100,-4.71,10,22.0,-16.0,-999.0,13:35:46.951250,192.168.0.111
550,3,1,-5,86,"-3,-3,179",1,0,0,0,0,0,59,62,83,70,100,-4.72,10,27.0,-13.0,-1000.0,13:35:47.053791,192.168.0.111
555,3,2,-8,86,"-3,-2,-178",1,0,0,0,0,0,59,62,82,70,100,-4.77,10,29.0,-15.0,-1000.0,13:35:47.155428,192.168.0.111
560,3,2,-8,86,"-3,-2,-178",1,0,0,0,0,0,59,62,82,70,100,-4.78,11,29.0,-9.0,-1000.0,13:35:47.264652,192.168.0.111
565,3,2,-8,86,"-3,-2,-178",1,0,0,0,0,0,59,62,82,70,100,-4.78,11,30.0,-11.0,-1006.0,13:35:47.359375,192.168.0.111
570,3,2,-8,86,"-3,-2,-178",1,0,0,0,0,0,59,62,82,70,100,-4.87,11,21.0,-8.0,-1004.0,13:35:47.461459,192.168.0.111
575,3,1,-10,85,"-3,-3,-176",1,0,0,0,0,0,59,62,82,70,100,-4.8,11,29.0,-11.0,-1008.0,13:35:47.563521,192.168.0.111
580,3,1,-10,85,"-3,-3,-176",1,0,0,0,0,0,59,62,82,70,100,-4.84,11,23.0,-10.0,-1009.0,13:35:47.666098,192.168.0.111
585,3,1,-10,85,"-3,-3,-176",1,0,0,0,0,0,59,62,83,70,100,-4.78,11,26.0,-9.0,-998.0,13:35:47.768360,192.168.0.111
590,3,2,-9,85,"-3,-3,-177",1,0,0,0,0,0,59,62,83,70,100,-4.78,11,19.0,-14.0,-1001.0,13:35:47.870062,192.168.0.111
595,3,2,-9,85,"-3,-3,-177",1,0,0,0,0,0,59,62,83,70,100,-4.8,11,24.0,-10.0,-997.0,13:35:47.971229,192.168.0.111
600,3,2,-9,85,"-3,-3,-177",1,0,0,0,0,0,59,62,83,70,100,-4.75,11,18.0,-8.0,-1000.0,13:35:48.073678,192.168.0.111
605,3,2,-9,85,"-3,-3,-177",1,0,0,0,0,0,59,62,82,70,100,-4.78,11,20.0,-12.0,-994.0,13:35:48.175452,192.168.0.111
610,3,1,-6,86,"-3,-3,180",1,0,0,0,0,0,59,62,83,70,100,-4.78,12,22.0,-18.0,-997.0,13:35:48.277599,192.168.0.111
615,3,1,-6,86,"-3,-3,180",1,0,0,0,0,0,59,62,82,70,100,-4.78,12,27.0,-2.0,-1000.0,13:35:48.379483,192.168.0.111
620,3,1,-6,86,"-3,-3,180",1,0,0,0,0,0,59,63,82,70,100,-4.8,12,19.0,-17.0,-1003.0,13:35:48.481501,192.168.0.111
625,3,1,-6,86,"-3,-3,180",1,0,0,0,0,0,59,63,82,70,100,-4.75,12,20.0,-7.0,-1005.0,13:35:48.583248,192.168.0.111
631,3,3,-12,85,"-2,-3,-176",1,0,0,0,0,0,59,63,82,70,100,-4.67,12,16.0,-7.0,-1002.0,13:35:48.685457,192.168.0.111
635,3,3,-12,85,"-2,-3,-176",1,0,0,0,0,0,59,63,82,70,100,-4.77,12,23.0,-10.0,-1010.0,13:35:48.787638,192.168.0.111
640,3,3,-12,85,"-2,-3,-176",1,0,0,0,0,0,59,63,82,70,100,-4.72,12,21.0,-11.0,-1003.0,13:35:48.889471,192.168.0.111
645,3,2,-9,85,"-2,-3,-177",1,0,0,0,0,0,59,63,82,70,100,-4.7,12,13.0,-1.0,-1003.0,13:35:48.991663,192.168.0.111
651,3,2,-9,85,"-2,-3,-177",1,0,0,0,0,0,59,63,82,70,100,-4.69,12,23.0,-13.0,-1011.0,13:35:49.094688,192.168.0.111
655,3,2,-9,85,"-2,-3,-177",1,0,0,0,0,0,59,63,82,70,100,-4.75,12,19.0,-8.0,-998.0,13:35:49.195531,192.168.0.111
661,3,2,-9,85,"-2,-3,-177",1,0,0,0,0,0,59,63,82,70,100,-4.77,13,20.0,-8.0,-1002.0,13:35:49.297370,192.168.0.111
665,3,1,-9,85,"-3,-3,-177",1,0,0,0,0,0,59,63,82,70,100,-4.78,13,25.0,-12.0,-1002.0,13:35:49.348934,192.168.0.111
670,3,1,-9,85,"-3,-3,-177",1,0,0,0,0,0,59,62,82,70,100,-4.74,13,25.0,-8.0,-981.0,13:35:49.453497,192.168.0.111
675,3,1,-9,85,"-3,-3,-177",1,0,0,0,0,0,59,62,83,70,100,-4.88,13,12.0,-10.0,-996.0,13:35:49.552567,192.168.0.111
680,3,1,-9,85,"-3,-3,-177",1,0,0,0,0,0,59,62,82,70,100,-4.74,13,19.0,-7.0,-1004.0,13:35:49.655686,192.168.0.111
685,3,1,-8,85,"-3,-3,-178",1,0,0,0,0,0,59,62,82,70,100,-4.83,13,27.0,-17.0,-993.0,13:35:49.758966,192.168.0.111
690,3,1,-8,85,"-3,-3,-178",1,0,0,0,0,0,59,62,83,70,100,-4.76,13,34.0,-17.0,-989.0,13:35:49.858520,192.168.0.111
695,3,1,-8,85,"-3,-3,-178",1,0,0,0,0,0,59,62,83,70,100,-4.8,13,22.0,-7.0,-1007.0,13:35:49.960491,192.168.0.111
700,3,1,-8,85,"-3,-3,-178",1,0,0,0,0,0,59,62,83,70,100,-4.78,13,27.0,-18.0,-997.0,13:35:50.062480,192.168.0.111
705,3,1,-9,85,"-3,-2,-177",1,0,0,0,0,0,59,62,83,70,100,-4.79,13,29.0,-1.0,-1006.0,13:35:50.164544,192.168.0.111
710,3,1,-9,85,"-3,-2,-177",1,0,0,0,0,0,59,62,83,70,100,-4.78,14,21.0,-7.0,-1003.0,13:35:50.266536,192.168.0.111
715,3,1,-9,85,"-3,-2,-177",1,0,0,0,0,0,59,62,82,70,100,-4.72,14,28.0,-16.0,-998.0,13:35:50.369133,192.168.0.111
720,3,1,-9,86,"-3,-2,-176",1,0,0,0,0,0,59,61,83,70,100,-4.76,14,25.0,-19.0,-998.0,13:35:50.470591,192.168.0.111
725,3,1,-9,86,"-3,-2,-176",1,0,0,0,0,0,59,61,83,70,100,-4.75,14,18.0,-11.0,-994.0,13:35:50.572534,192.168.0.111
730,3,1,-9,86,"-3,-2,-176",1,0,0,0,0,0,59,61,83,70,100,-4.79,14,25.0,-23.0,-998.0,13:35:50.674662,192.168.0.111
735,3,1,-9,86,"-3,-2,-176",1,0,0,0,0,0,59,61,82,70,100,-4.76,14,26.0,-17.0,-1018.0,13:35:50.778239,192.168.0.111
740,3,0,-9,86,"-4,-2,-176",1,0,0,0,0,0,59,61,83,70,100,-4.79,14,23.0,-18.0,-1007.0,13:35:50.878597,192.168.0.111
745,3,0,-9,86,"-4,-2,-176",1,0,0,0,0,0,59,61,83,70,100,-4.77,14,17.0,-14.0,-1003.0,13:35:50.980609,192.168.0.111
750,3,0,-9,86,"-4,-2,-176",1,0,0,0,0,0,59,61,82,70,100,-4.79,14,26.0,-12.0,-1007.0,13:35:51.083643,192.168.0.111
755,3,0,-9,86,"-4,-2,-176",1,0,0,0,0,0,59,61,82,70,100,-4.75,14,31.0,-6.0,-998.0,13:35:51.184566,192.168.0.111
760,3,2,-10,86,"-3,-2,-176",1,0,0,0,0,0,59,61,83,70,100,-4.77,15,33.0,-10.0,-997.0,13:35:51.287403,192.168.0.111
765,3,2,-10,86,"-3,-2,-176",1,0,0,0,0,0,59,61,83,70,100,-4.76,15,23.0,6.0,-1004.0,13:35:51.390213,192.168.0.111
770,3,2,-10,86,"-3,-2,-176",1,0,0,0,0,0,59,62,83,70,100,-4.81,15,22.0,-7.0,-997.0,13:35:51.490615,192.168.0.111
775,3,0,-9,86,"-4,-2,-176",1,0,0,0,0,0,59,62,83,70,100,-4.79,15,28.0,-22.0,-995.0,13:35:51.594199,192.168.0.111
780,3,0,-9,86,"-4,-2,-176",1,0,0,0,0,0,59,62,82,70,100,-4.78,15,30.0,-12.0,-997.0,13:35:51.698444,192.168.0.111
785,3,0,-9,86,"-4,-2,-176",1,0,0,0,0,0,59,62,83,70,100,-4.79,15,34.0,-14.0,-999.0,13:35:51.797592,192.168.0.111
787,3,0,-9,86,"-4,-2,-176",1,0,0,0,0,0,59,62,83,70,100,-4.76,15,39.0,-11.0,-994.0,13:35:51.848642,192.168.0.111
793,3,3,-11,85,"-2,-2,-176",1,0,0,0,0,0,59,62,83,70,100,-4.81,15,37.0,-9.0,-1006.0,13:35:51.950605,192.168.0.111
799,3,3,-11,85,"-2,-2,-176",1,0,0,0,0,0,59,62,82,70,100,-4.77,15,11.0,-3.0,-1002.0,13:35:52.055825,192.168.0.111
804,3,3,-11,85,"-2,-2,-176",1,0,0,0,0,0,59,62,82,70,100,-4.78,15,45.0,-28.0,-1000.0,13:35:52.154226,192.168.0.111
809,3,3,-11,85,"-2,-2,-176",1,0,0,0,0,0,59,62,82,70,100,-4.82,16,39.0,-8.0,-983.0,13:35:52.256803,192.168.0.111
814,3,2,-9,85,"-2,-2,-178",1,0,0,0,0,0,59,62,82,70,100,-4.82,16,18.0,4.0,-1015.0,13:35:52.358934,192.168.0.111
819,3,2,-9,85,"-2,-2,-178",1,0,0,0,0,0,59,62,82,70,100,-4.78,16,11.0,-11.0,-1006.0,13:35:52.460642,192.168.0.111
825,3,2,-9,85,"-2,-2,-178",1,0,0,0,0,0,59,62,82,70,100,-4.76,16,43.0,-28.0,-990.0,13:35:52.562798,192.168.0.111
829,3,2,-9,85,"-2,-2,-178",1,0,0,0,0,0,59,62,81,70,100,-4.74,16,27.0,5.0,-995.0,13:35:52.664744,192.168.0.111
835,3,3,-10,85,"-2,-2,-177",1,0,0,0,0,0,59,62,82,70,100,-4.78,16,23.0,9.0,-1003.0,13:35:52.768083,192.168.0.111
840,3,3,-10,85,"-2,-2,-177",1,0,0,0,0,0,59,62,82,70,100,-4.74,16,32.0,-15.0,-999.0,13:35:52.869713,192.168.0.111
845,3,3,-10,85,"-2,-2,-177",1,0,0,0,0,0,59,62,82,70,100,-4.76,16,29.0,-9.0,-996.0,13:35:52.970618,192.168.0.111
850,3,3,-10,85,"-3,-2,-177",1,0,0,0,0,0,59,62,82,70,100,-4.73,16,41.0,-8.0,-1003.0,13:35:53.072637,192.168.0.111
855,3,3,-10,85,"-3,-2,-177",1,0,0,0,0,0,59,62,82,70,100,-4.8,16,38.0,-4.0,-1000.0,13:35:53.174620,192.168.0.111
860,3,3,-10,85,"-3,-2,-177",1,0,0,0,0,0,59,62,82,70,100,-4.78,17,35.0,-4.0,-995.0,13:35:53.276716,192.168.0.111
865,3,3,-10,85,"-3,-2,-177",1,0,0,0,0,0,59,62,82,70,100,-4.82,17,35.0,-16.0,-992.0,13:35:53.378970,192.168.0.111
870,3,3,-8,85,"-3,-2,-179",1,0,0,0,0,0,60,63,82,70,100,-4.81,17,20.0,2.0,-1007.0,13:35:53.480628,192.168.0.111
875,3,3,-8,85,"-3,-2,-179",1,0,0,0,0,0,60,63,82,70,100,-4.83,17,26.0,-1.0,-1005.0,13:35:53.582620,192.168.0.111
880,3,3,-8,85,"-3,-2,-179",1,0,0,0,0,0,60,63,82,70,100,-4.88,17,40.0,-19.0,-995.0,13:35:53.684512,192.168.0.111
885,3,3,-8,85,"-3,-2,-179",2,0,0,0,0,0,60,63,82,70,100,-4.84,17,44.0,-18.0,-982.0,13:35:53.786691,192.168.0.111
890,3,3,-8,85,"-3,-2,180",2,0,0,0,0,0,60,63,82,70,100,-4.86,17,37.0,-16.0,-998.0,13:35:53.888764,192.168.0.111
895,3,3,-8,85,"-3,-2,180",2,0,0,0,0,0,60,63,82,70,100,-4.78,17,38.0,-9.0,-1000.0,13:35:53.990656,192.168.0.111
900,3,3,-8,85,"-3,-2,180",1,0,0,0,0,0,60,63,82,70,100,-4.81,17,32.0,-14.0,-984.0,13:35:54.094583,192.168.0.111
905,3,3,-7,85,"-4,-2,180",1,0,0,0,0,0,60,63,81,70,100,-4.74,17,27.0,3.0,-1004.0,13:35:54.194728,192.168.0.111
910,3,3,-7,85,"-4,-2,180",1,0,0,0,0,0,60,63,81,70,100,-4.77,18,29.0,6.0,-1000.0,13:35:54.296591,192.168.0.111
915,3,3,-7,85,"-4,-2,180",1,0,0,0,0,0,60,63,81,70,100,-4.74,18,21.0,-3.0,-1005.0,13:35:54.398700,192.168.0.111
920,3,3,-7,85,"-4,-2,180",1,0,0,0,0,0,60,63,81,70,100,-4.75,18,20.0,-6.0,-1008.0,13:35:54.500822,192.168.0.111
925,3,3,-10,84,"-3,-3,-177",1,0,0,0,0,0,60,63,81,70,100,-4.8,18,18.0,-5.0,-1000.0,13:35:54.602911,192.168.0.111
928,3,3,-10,84,"-3,-3,-177",1,0,0,0,0,0,60,63,81,70,100,-4.78,18,33.0,-9.0,-992.0,13:35:54.653736,192.168.0.111
933,3,3,-10,84,"-3,-3,-177",1,0,0,0,0,0,60,63,81,70,100,-4.87,18,34.0,-11.0,-997.0,13:35:54.755517,192.168.0.111
938,3,3,-10,84,"-3,-3,-177",1,0,0,0,0,0,60,63,81,70,100,-4.86,18,26.0,0.0,-1003.0,13:35:54.857900,192.168.0.111
943,3,3,-9,84,"-3,-2,-177",1,0,0,0,0,0,60,63,81,70,100,-4.82,18,18.0,-5.0,-1003.0,13:35:54.959658,192.168.0.111
948,3,3,-9,84,"-3,-2,-177",1,0,0,0,0,0,60,63,81,70,100,-4.85,18,30.0,-14.0,-1007.0,13:35:55.061839,192.168.0.111
953,3,3,-9,84,"-3,-2,-177",1,0,0,0,0,0,60,63,81,70,100,-4.84,18,26.0,0.0,-1018.0,13:35:55.163569,192.168.0.111
959,3,2,-9,84,"-3,-2,-177",1,0,0,0,0,0,60,63,81,70,100,-4.81,19,34.0,-15.0,-1010.0,13:35:55.265846,192.168.0.111
964,3,2,-9,84,"-3,-2,-177",1,0,0,0,0,0,60,63,81,70,100,-4.83,19,31.0,0.0,-996.0,13:35:55.367976,192.168.0.111
969,3,2,-9,84,"-3,-2,-177",1,0,0,0,0,0,60,63,81,70,100,-4.86,19,22.0,0.0,-1010.0,13:35:55.469703,192.168.0.111
974,3,2,-9,84,"-3,-2,-177",1,0,0,0,0,0,60,63,82,70,100,-4.86,19,40.0,-22.0,-996.0,13:35:55.571933,192.168.0.111
979,3,3,-8,84,"-3,-2,-177",1,0,0,0,0,0,60,63,82,70,100,-4.78,19,47.0,-22.0,-993.0,13:35:55.673536,192.168.0.111
984,3,3,-8,84,"-3,-2,-177",1,0,0,0,0,0,60,63,81,70,100,-4.82,19,42.0,-13.0,-1003.0,13:35:55.775605,192.168.0.111
989,3,3,-8,84,"-3,-2,-177",2,0,0,0,0,0,60,63,81,70,100,-4.82,19,35.0,-7.0,-1003.0,13:35:55.878110,192.168.0.111
994,3,3,-8,84,"-3,-2,-177",2,0,0,0,0,0,60,63,82,70,100,-4.83,19,36.0,-15.0,-1000.0,13:35:55.979973,192.168.0.111
999,3,2,-9,84,"-3,-3,-177",2,0,0,0,0,0,60,63,82,70,100,-4.83,19,37.0,-10.0,-999.0,13:35:56.081835,192.168.0.111
1004,3,2,-9,84,"-3,-3,-177",2,0,0,0,0,0,60,63,83,70,100,-4.8,19,35.0,-17.0,-997.0,13:35:56.183836,192.168.0.111
1010,3,2,-9,84,"-3,-3,-177",2,0,0,0,0,0,60,63,83,70,100,-4.76,20,33.0,-11.0,-991.0,13:35:56.285819,192.168.0.111
1015,3,2,-9,85,"-4,-3,-176",2,0,0,0,0,0,60,63,83,70,100,-4.81,20,35.0,-14.0,-998.0,13:35:56.387984,192.168.0.111
1020,3,2,-9,85,"-4,-3,-176",2,0,0,0,0,0,60,63,82,70,100,-4.78,20,29.0,-3.0,-1002.0,13:35:56.489931,192.168.0.111
1025,3,2,-9,85,"-4,-3,-176",2,0,0,0,0,0,60,63,83,70,100,-4.78,20,37.0,-23.0,-993.0,13:35:56.591708,192.168.0.111
1030,3,2,-9,85,"-4,-3,-176",2,0,0,0,0,0,60,63,83,70,100,-4.85,20,27.0,-1.0,-999.0,13:35:56.693826,192.168.0.111
1035,3,3,-9,85,"-4,-3,-176",2,0,0,0,0,0,60,63,83,70,100,-4.8,20,33.0,-11.0,-1002.0,13:35:56.795827,192.168.0.111
1040,3,3,-9,85,"-4,-3,-176",2,0,0,0,0,0,60,63,83,70,100,-4.81,20,24.0,-5.0,-1004.0,13:35:56.897708,192.168.0.111
1045,3,3,-9,85,"-4,-3,-176",1,0,0,0,0,0,60,63,82,70,100,-4.77,20,29.0,-5.0,-991.0,13:35:57.002070,192.168.0.111
1050,3,3,-9,85,"-4,-3,-176",1,0,0,0,0,0,60,63,82,70,100,-4.82,20,40.0,-20.0,-993.0,13:35:57.102120,192.168.0.111
1055,3,1,-7,86,"-5,-2,-176",1,0,0,0,0,0,60,63,82,70,100,-4.76,20,15.0,10.0,-1008.0,13:35:57.211437,192.168.0.111
1060,3,1,-7,86,"-5,-2,-176",1,0,0,0,0,0,60,63,82,70,100,-4.79,21,42.0,-15.0,-1005.0,13:35:57.310899,192.168.0.111
1065,3,1,-7,86,"-5,-2,-176",1,0,0,0,0,0,60,63,82,70,100,-4.86,21,27.0,1.0,-1003.0,13:35:57.407967,192.168.0.111
1070,3,1,-7,86,"-5,-2,-176",1,0,0,0,0,0,60,63,82,70,100,-4.89,21,27.0,7.0,-997.0,13:35:57.511608,192.168.0.111
1075,3,1,-9,85,"-5,-2,-176",1,0,0,0,0,0,60,63,82,70,100,-4.84,21,17.0,5.0,-1015.0,13:35:57.611782,192.168.0.111
1080,3,1,-9,85,"-5,-2,-176",1,0,0,0,0,0,60,63,82,70,100,-4.89,21,28.0,-16.0,-1006.0,13:35:57.714156,192.168.0.111
1085,3,1,-9,85,"-5,-2,-176",1,0,0,0,0,0,60,63,82,70,100,-4.9,21,33.0,-17.0,-991.0,13:35:57.822391,192.168.0.111
1090,3,1,-8,85,"-4,-2,-176",1,0,0,0,0,0,60,63,82,70,100,-4.88,21,24.0,-6.0,-992.0,13:35:57.918033,192.168.0.111
1093,3,1,-8,85,"-4,-2,-176",1,0,0,0,0,0,60,63,82,70,100,-4.86,21,46.0,-20.0,-985.0,13:35:57.968758,192.168.0.111
1098,3,1,-8,85,"-4,-2,-176",1,0,0,0,0,0,60,63,82,70,100,-4.84,21,44.0,-17.0,-984.0,13:35:58.070834,192.168.0.111
1103,3,1,-8,85,"-4,-2,-176",1,0,0,0,0,0,60,63,82,70,100,-4.87,21,39.0,-15.0,-996.0,13:35:58.173141,192.168.0.111
1108,3,1,-8,85,"-4,-2,-177",1,0,0,0,0,0,60,63,81,70,100,-4.87,22,38.0,3.0,-996.0,13:35:58.274785,192.168.0.111
1113,3,1,-8,85,"-4,-2,-177",1,0,0,0,0,0,60,63,81,70,100,-4.86,22,27.0,0.0,-998.0,13:35:58.376686,192.168.0.111
1118,3,1,-8,85,"-4,-2,-177",1,0,0,0,0,0,60,63,81,70,100,-4.84,22,41.0,-11.0,-995.0,13:35:58.478767,192.168.0.111
1123,3,1,-8,85,"-4,-2,-177",1,0,0,0,0,0,60,63,82,70,100,-4.91,22,39.0,-2.0,-1003.0,13:35:58.580503,192.168.0.111
1129,3,1,-8,85,"-4,-2,-177",1,0,0,0,0,0,60,63,82,70,100,-4.84,22,23.0,2.0,-1015.0,13:35:58.683003,192.168.0.111
1133,3,1,-8,85,"-4,-2,-177",1,0,0,0,0,0,60,63,82,70,100,-4.91,22,40.0,3.0,-986.0,13:35:58.784881,192.168.0.111
1139,3,1,-8,85,"-4,-2,-177",1,0,0,0,0,0,60,63,82,70,100,-4.86,22,20.0,6.0,-1001.0,13:35:58.887194,192.168.0.111
1144,3,0,-8,85,"-4,-2,-177",2,0,0,0,0,0,60,63,82,70,100,-4.89,22,30.0,0.0,-996.0,13:35:58.988702,192.168.0.111
1149,3,0,-8,85,"-4,-2,-177",1,0,0,0,0,0,60,63,82,70,100,-4.84,22,17.0,12.0,-1007.0,13:35:59.090897,192.168.0.111
1154,3,0,-8,85,"-4,-2,-177",1,0,0,0,0,0,60,63,83,70,100,-4.9,22,39.0,-11.0,-986.0,13:35:59.192993,192.168.0.111
1159,3,0,-8,85,"-4,-2,-177",1,0,0,0,0,0,60,63,82,70,100,-4.85,23,7.0,15.0,-1008.0,13:35:59.295050,192.168.0.111
1164,3,2,-8,85,"-4,-2,-178",1,0,0,0,0,0,60,63,82,70,100,-4.86,23,16.0,7.0,-1000.0,13:35:59.396955,192.168.0.111
1169,3,2,-8,85,"-4,-2,-178",1,0,0,0,0,0,60,63,83,70,100,-4.91,23,24.0,4.0,-1006.0,13:35:59.499181,192.168.0.111
1174,3,2,-8,85,"-4,-2,-178",1,0,0,0,0,0,60,63,83,70,100,-4.88,23,21.0,4.0,-1007.0,13:35:59.601032,192.168.0.111
1179,3,2,-8,85,"-4,-2,-178",1,0,0,0,0,0,60,63,82,70,100,-4.84,23,17.0,5.0,-1021.0,13:35:59.703182,192.168.0.111
1184,3,2,-9,85,"-4,-2,-178",1,0,0,0,0,0,60,63,83,70,100,-4.93,23,27.0,13.0,-1008.0,13:35:59.805372,192.168.0.111
1190,3,2,-9,85,"-4,-2,-178",1,0,0,0,0,0,60,63,83,70,100,-4.9,23,25.0,13.0,-1005.0,13:35:59.907874,192.168.0.111
1195,3,2,-9,85,"-4,-2,-178",1,0,0,0,0,0,60,63,82,70,100,-4.88,23,22.0,2.0,-1002.0,13:36:00.009299,192.168.0.111
1200,3,2,-9,85,"-4,-2,-178",1,0,0,0,0,0,60,63,82,70,100,-4.86,23,30.0,4.0,-1000.0,13:36:00.111258,192.168.0.111
1205,3,3,-9,85,"-3,-2,-178",1,0,0,0,0,0,60,63,83,70,100,-4.87,23,24.0,8.0,-1005.0,13:36:00.213032,192.168.0.111
1210,3,3,-9,85,"-3,-2,-178",1,0,0,0,0,0,60,63,82,70,100,-4.85,24,18.0,-3.0,-998.0,13:36:00.315025,192.168.0.111
1215,3,3,-9,85,"-3,-2,-178",1,0,0,0,0,0,60,63,83,70,100,-4.88,24,25.0,0.0,-1002.0,13:36:00.417118,192.168.0.111
1220,3,2,-8,85,"-3,-2,-179",1,0,0,0,0,0,61,63,83,70,100,-4.78,24,35.0,-9.0,-994.0,13:36:00.518973,192.168.0.111
1225,3,2,-8,85,"-3,-2,-179",1,0,0,0,0,0,61,63,83,70,100,-4.85,24,20.0,0.0,-995.0,13:36:00.623958,192.168.0.111
1230,3,2,-8,85,"-3,-2,-179",1,0,0,0,0,0,61,63,83,70,100,-4.79,24,20.0,-8.0,-1003.0,13:36:00.723059,192.168.0.111
1235,3,2,-8,85,"-3,-2,-179",1,0,0,0,0,0,61,63,82,70,100,-4.75,24,33.0,-9.0,-1001.0,13:36:00.825368,192.168.0.111
1240,3,1,-6,86,"-3,-2,179",1,0,0,0,0,0,61,63,83,70,100,-4.8,24,27.0,-2.0,-988.0,13:36:00.927030,192.168.0.111
1245,3,1,-6,86,"-3,-2,179",1,0,0,0,0,0,61,63,82,70,100,-4.92,24,37.0,-5.0,-998.0,13:36:01.029012,192.168.0.111
1250,3,1,-6,86,"-3,-2,179",1,0,0,0,0,0,61,63,82,70,100,-4.89,24,34.0,-11.0,-991.0,13:36:01.131287,192.168.0.111
1255,3,1,-6,86,"-3,-2,179",1,0,0,0,0,0,61,63,82,70,100,-4.82,24,31.0,-15.0,-991.0,13:36:01.233217,192.168.0.111
1258,3,0,-8,85,"-4,-2,-177",1,0,0,0,0,0,61,63,82,70,100,-4.78,25,33.0,-15.0,-996.0,13:36:01.284041,192.168.0.111
1263,3,0,-8,85,"-4,-2,-177",1,0,0,0,0,0,61,63,82,70,100,-4.84,25,25.0,-14.0,-1000.0,13:36:01.386258,192.168.0.111
1268,3,0,-8,85,"-4,-2,-177",1,0,0,0,0,0,62,63,81,70,100,-4.85,25,34.0,-8.0,-1005.0,13:36:01.488471,192.168.0.111
1273,3,0,-7,85,"-4,-2,-177",1,0,0,0,0,0,62,63,82,70,100,-4.91,25,25.0,-8.0,-1007.0,13:36:01.589730,192.168.0.111
1278,3,0,-7,85,"-4,-2,-177",1,0,0,0,0,0,62,63,82,70,100,-4.88,25,29.0,0.0,-998.0,13:36:01.692284,192.168.0.111
1283,3,0,-7,85,"-4,-2,-177",1,0,0,0,0,0,62,63,82,70,100,-4.87,25,32.0,-13.0,-1002.0,13:36:01.793764,192.168.0.111
1288,3,0,-7,85,"-4,-2,-177",1,0,0,0,0,0,62,63,82,70,100,-4.9,25,30.0,6.0,-996.0,13:36:01.896316,192.168.0.111
1293,3,0,-7,85,"-4,-2,-176",1,0,0,0,0,0,62,63,82,70,100,-4.85,25,18.0,11.0,-1013.0,13:36:01.998481,192.168.0.111
1298,3,0,-7,85,"-4,-2,-176",1,0,0,0,0,0,62,63,82,70,100,-4.81,25,11.0,3.0,-1002.0,13:36:02.099687,192.168.0.111
1304,3,0,-7,85,"-4,-2,-176",1,0,0,0,0,0,62,63,82,70,100,-4.85,25,33.0,-16.0,-987.0,13:36:02.202276,192.168.0.111
1309,3,0,-7,85,"-4,-2,-176",1,0,0,0,0,0,62,63,83,70,100,-4.8,26,21.0,-3.0,-1014.0,13:36:02.304163,192.168.0.111
1314,3,1,-8,85,"-4,-2,-176",1,0,0,0,0,0,62,63,82,70,100,-4.81,26,50.0,-16.0,-978.0,13:36:02.405920,192.168.0.111
1318,3,1,-8,85,"-4,-2,-176",1,0,0,0,0,0,61,64,82,70,100,-4.88,26,32.0,-18.0,-1002.0,13:36:02.508685,192.168.0.111
1324,3,1,-8,85,"-4,-2,-176",1,0,0,0,0,0,61,64,82,70,100,-4.83,26,37.0,-4.0,-995.0,13:36:02.609902,192.168.0.111
1329,3,0,-7,85,"-4,-2,-176",1,0,0,0,0,0,61,64,82,70,100,-4.93,26,30.0,-11.0,-1002.0,13:36:02.711803,192.168.0.111
1334,3,0,-7,85,"-4,-2,-176",1,0,0,0,0,0,61,64,82,70,100,-4.85,26,39.0,-1.0,-980.0,13:36:02.814045,192.168.0.111
1339,3,0,-7,85,"-4,-2,-176",2,0,0,0,0,0,61,64,82,70,100,-4.81,26,31.0,6.0,-1006.0,13:36:02.916241,192.168.0.111
1344,3,0,-7,85,"-4,-2,-176",1,0,0,0,0,0,61,64,82,70,100,-4.89,26,45.0,-17.0,-996.0,13:36:03.018907,192.168.0.111
1349,3,0,-7,85,"-4,-2,-176",1,0,0,0,0,0,61,64,83,70,100,-4.84,26,41.0,0.0,-990.0,13:36:03.120109,192.168.0.111
1355,3,0,-7,85,"-4,-2,-176",1,0,0,0,0,0,61,64,83,70,100,-4.79,26,31.0,19.0,-994.0,13:36:03.222282,192.168.0.111
1360,3,0,-7,85,"-4,-2,-176",2,0,0,0,0,0,61,64,83,70,100,-4.75,27,23.0,8.0,-1002.0,13:36:03.324438,192.168.0.111
1365,3,0,-7,85,"-4,-2,-176",2,0,0,0,0,0,61,64,83,70,100,-4.78,27,28.0,-6.0,-1005.0,13:36:03.425943,192.168.0.111
1370,3,1,-8,85,"-4,-2,-176",2,0,0,0,0,0,61,63,83,70,100,-4.77,27,35.0,-4.0,-1003.0,13:36:03.529151,192.168.0.111
1375,3,1,-8,85,"-4,-2,-176",2,0,0,0,0,0,61,63,83,70,100,-4.8,27,33.0,5.0,-999.0,13:36:03.630088,192.168.0.111
1380,3,1,-8,85,"-4,-2,-176",2,0,0,0,0,0,61,63,84,70,100,-4.75,27,28.0,13.0,-1011.0,13:36:03.733402,192.168.0.111
1385,3,1,-8,85,"-4,-2,-176",2,0,0,0,0,0,61,63,83,70,100,-4.82,27,37.0,-5.0,-1006.0,13:36:03.836553,192.168.0.111
1390,3,1,-7,86,"-4,-2,-178",2,0,0,0,0,0,61,63,84,70,100,-4.93,27,39.0,-3.0,-1002.0,13:36:03.936092,192.168.0.111
1395,3,1,-7,86,"-4,-2,-178",2,0,0,0,0,0,61,63,84,70,100,-4.8,27,37.0,-2.0,-1001.0,13:36:04.037995,192.168.0.111
1400,3,1,-7,86,"-4,-2,-178",2,0,0,0,0,0,61,63,84,70,100,-4.8,27,30.0,7.0,-994.0,13:36:04.140282,192.168.0.111
1405,3,1,-8,86,"-4,-2,-177",2,0,0,0,0,0,61,63,84,70,100,-4.79,27,25.0,4.0,-1000.0,13:36:04.242198,192.168.0.111
1408,3,1,-8,86,"-4,-2,-177",2,0,0,0,0,0,61,63,84,70,100,-4.79,28,34.0,-2.0,-990.0,13:36:04.298416,192.168.0.111
1413,3,1,-8,86,"-4,-2,-177",2,0,0,0,0,0,61,63,84,70,100,-4.81,28,37.0,-4.0,-997.0,13:36:04.395282,192.168.0.111
1420,3,1,-8,86,"-4,-2,-177",2,0,0,0,0,0,60,64,84,70,100,-4.74,28,31.0,-2.0,-995.0,13:36:04.548316,192.168.0.111
1425,3,1,-7,86,"-5,-2,-178",2,0,0,0,0,0,60,64,84,70,100,-4.86,28,26.0,-12.0,-996.0,13:36:04.650173,192.168.0.111
1430,3,1,-7,86,"-5,-2,-178",2,0,0,0,0,0,60,64,84,70,100,-4.87,28,28.0,-13.0,-994.0,13:36:04.752471,192.168.0.111
1433,3,1,-7,86,"-5,-2,-178",1,0,0,0,0,0,60,64,84,70,100,-4.87,28,35.0,-18.0,-997.0,13:36:04.803446,192.168.0.111
1438,3,1,-7,86,"-5,-2,-178",1,0,0,0,0,0,60,64,84,70,100,-4.88,28,35.0,-9.0,-1001.0,13:36:04.905641,192.168.0.111
1443,3,2,-7,86,"-4,-2,-176",1,0,0,0,0,0,60,64,84,70,100,-4.9,28,27.0,-12.0,-1007.0,13:36:05.007048,192.168.0.111
1448,3,2,-7,86,"-4,-2,-176",1,0,0,0,0,0,60,64,83,70,100,-4.87,28,33.0,-4.0,-1009.0,13:36:05.109245,192.168.0.111
1453,3,2,-7,86,"-4,-2,-176",1,0,0,0,0,0,60,64,83,70,100,-4.78,29,29.0,-12.0,-997.0,13:36:05.211388,192.168.0.111
1458,3,0,-7,86,"-5,-2,-175",1,0,0,0,0,0,60,64,83,70,100,-4.85,29,26.0,-8.0,-994.0,13:36:05.313061,192.168.0.111
1463,3,0,-7,86,"-5,-2,-175",1,0,0,0,0,0,60,64,83,70,100,-4.89,29,32.0,-10.0,-994.0,13:36:05.415028,192.168.0.111
1468,3,0,-7,86,"-5,-2,-175",1,0,0,0,0,0,61,64,83,70,100,-4.81,29,31.0,-17.0,-993.0,13:36:05.516799,192.168.0.111
1473,3,0,-7,86,"-5,-2,-175",1,0,0,0,0,0,61,64,83,70,100,-4.83,29,33.0,-11.0,-1001.0,13:36:05.619231,192.168.0.111
1479,3,0,-6,86,"-5,-2,-176",1,0,0,0,0,0,61,64,83,70,100,-4.74,29,29.0,-6.0,-994.0,13:36:05.720846,192.168.0.111
1483,3,0,-6,86,"-5,-2,-176",1,0,0,0,0,0,61,64,82,70,100,-4.76,29,27.0,0.0,-989.0,13:36:05.823344,192.168.0.111
1488,3,0,-6,86,"-5,-2,-176",1,0,0,0,0,0,61,64,83,70,100,-4.81,29,26.0,-4.0,-997.0,13:36:05.925203,192.168.0.111
1494,3,0,-6,86,"-5,-2,-176",1,0,0,0,0,0,61,64,83,70,100,-4.72,29,25.0,-1.0,-1001.0,13:36:06.027205,192.168.0.111
1499,3,0,-4,86,"-5,-2,-176",1,0,0,0,0,0,61,64,82,70,100,-4.75,29,26.0,-14.0,-1001.0,13:36:06.129100,192.168.0.111
1504,3,0,-4,86,"-5,-2,-176",1,0,0,0,0,0,61,64,83,70,100,-4.77,30,36.0,-20.0,-990.0,13:36:06.231511,192.168.0.111
1509,3,0,-4,86,"-5,-2,-176",1,0,0,0,0,0,61,64,82,70,100,-4.73,30,15.0,4.0,-1003.0,13:36:06.332984,192.168.0.111
1514,3,1,-5,85,"-5,-2,-176",1,0,0,0,0,0,61,64,82,70,100,-4.84,30,33.0,-25.0,-997.0,13:36:06.436881,192.168.0.111
1519,3,1,-5,85,"-5,-2,-176",1,0,0,0,0,0,62,64,82,70,100,-4.83,30,35.0,-16.0,-1002.0,13:36:06.537097,192.168.0.111
1525,3,1,-5,85,"-5,-2,-176",1,0,0,0,0,0,62,64,81,70,100,-4.86,30,23.0,0.0,-1013.0,13:36:06.639486,192.168.0.111
1529,3,1,-5,85,"-5,-2,-176",1,0,0,0,0,0,62,64,82,70,100,-4.79,30,27.0,-6.0,-1001.0,13:36:06.741840,192.168.0.111
1535,3,1,-5,85,"-4,-2,-175",1,0,0,0,0,0,62,64,82,70,100,-4.86,30,44.0,-11.0,-998.0,13:36:06.844154,192.168.0.111
1539,3,1,-5,85,"-4,-2,-175",1,0,0,0,0,0,62,64,82,70,100,-4.78,30,35.0,-10.0,-1006.0,13:36:06.946134,192.168.0.111
1544,3,1,-5,85,"-4,-2,-175",1,0,0,0,0,0,62,64,82,70,100,-4.72,30,21.0,-5.0,-1003.0,13:36:07.049112,192.168.0.111
1550,3,1,-5,85,"-4,-2,-175",1,0,0,0,0,0,62,64,82,70,100,-4.78,30,41.0,-8.0,-986.0,13:36:07.151380,192.168.0.111
1555,3,1,-5,85,"-4,-2,-176",1,0,0,0,0,0,62,64,83,70,100,-4.76,31,29.0,-2.0,-1012.0,13:36:07.253716,192.168.0.111
1560,3,1,-5,85,"-4,-2,-176",1,0,0,0,0,0,62,64,83,70,100,-4.8,31,20.0,0.0,-1009.0,13:36:07.353292,192.168.0.111
1565,3,1,-5,85,"-4,-2,-176",1,0,0,0,0,0,62,64,83,70,100,-4.81,31,37.0,-22.0,-985.0,13:36:07.455242,192.168.0.111
1570,3,1,-5,85,"-4,-2,-176",1,0,0,0,0,0,61,64,82,70,100,-4.8,31,33.0,-21.0,-1003.0,13:36:07.556958,192.168.0.111
1575,3,0,-5,85,"-5,-2,-176",1,0,0,0,0,0,61,64,83,70,100,-4.76,31,29.0,-5.0,-1000.0,13:36:07.659277,192.168.0.111
1580,3,0,-5,85,"-5,-2,-176",1,0,0,0,0,0,61,64,83,70,100,-4.76,31,43.0,-19.0,-1002.0,13:36:07.761296,192.168.0.111
1585,3,0,-5,85,"-5,-2,-176",1,0,0,0,0,0,61,64,83,70,100,-4.83,31,24.0,0.0,-1005.0,13:36:07.864013,192.168.0.111
1588,3,0,-5,86,"-5,-2,-177",1,0,0,0,0,0,61,64,83,70,100,-4.76,31,30.0,-12.0,-995.0,13:36:07.914214,192.168.0.111
1593,3,0,-5,86,"-5,-2,-177",1,0,0,0,0,0,61,64,82,70,100,-4.85,31,32.0,-10.0,-1005.0,13:36:08.017867,192.168.0.111
1598,3,0,-5,86,"-5,-2,-177",1,0,0,0,0,0,61,64,82,70,100,-4.82,31,28.0,3.0,-996.0,13:36:08.118546,192.168.0.111
1603,3,0,-5,86,"-5,-2,-177",1,0,0,0,0,0,61,64,83,70,100,-4.85,32,20.0,1.0,-999.0,13:36:08.219971,192.168.0.111
1608,3,0,-5,86,"-5,-2,-176",1,0,0,0,0,0,61,64,83,70,100,-4.86,32,31.0,-8.0,-994.0,13:36:08.321905,192.168.0.111
1613,3,0,-5,86,"-5,-2,-176",1,0,0,0,0,0,61,64,82,70,100,-4.82,32,23.0,-15.0,-998.0,13:36:08.424080,192.168.0.111
1618,3,0,-5,86,"-5,-2,-176",1,0,0,0,0,0,61,64,83,70,100,-4.87,32,31.0,2.0,-1000.0,13:36:08.526552,192.168.0.111
1623,3,0,-5,86,"-5,-2,-176",1,0,0,0,0,0,61,64,83,70,100,-4.8,32,27.0,-10.0,-1010.0,13:36:08.628165,192.168.0.111
1628,3,0,-6,86,"-5,-2,-176",1,0,0,0,0,0,61,64,83,70,100,-4.81,32,24.0,-11.0,-998.0,13:36:08.731177,192.168.0.111
1633,3,0,-6,86,"-5,-2,-176",1,0,0,0,0,0,61,64,83,70,100,-4.78,32,29.0,-5.0,-991.0,13:36:08.833409,192.168.0.111
1638,3,0,-6,86,"-5,-2,-176",1,0,0,0,0,0,61,64,83,70,100,-4.8,32,26.0,-12.0,-1004.0,13:36:08.934043,192.168.0.111
1643,3,0,-6,86,"-4,-2,-176",1,0,0,0,0,0,61,64,82,70,100,-4.76,32,31.0,-8.0,-1008.0,13:36:09.036085,192.168.0.111
1647,3,0,-6,86,"-4,-2,-176",1,0,0,0,0,0,61,64,82,70,100,-4.78,32,24.0,-2.0,-998.0,13:36:09.138939,192.168.0.111
1653,3,0,-6,86,"-4,-2,-176",1,0,0,0,0,0,61,64,82,70,100,-4.78,33,22.0,-6.0,-1007.0,13:36:09.241743,192.168.0.111
1658,3,0,-6,86,"-4,-2,-176",1,0,0,0,0,0,61,64,82,70,100,-4.75,33,28.0,-13.0,-1004.0,13:36:09.342245,192.168.0.111
1664,3,0,-5,85,"-4,-2,-176",1,0,0,0,0,0,61,64,82,70,100,-4.74,33,28.0,-14.0,-1004.0,13:36:09.444257,192.168.0.111
1669,3,0,-5,85,"-4,-2,-176",1,0,0,0,0,0,61,63,82,70,100,-4.74,33,28.0,-14.0,-1002.0,13:36:09.546703,192.168.0.111
1674,3,0,-5,85,"-4,-2,-176",1,0,0,0,0,0,61,63,82,70,100,-4.79,33,26.0,0.0,-999.0,13:36:09.648230,192.168.0.111
1679,3,0,-5,85,"-4,-2,-176",1,0,0,0,0,0,61,63,82,70,100,-4.75,33,27.0,-10.0,-996.0,13:36:09.750297,192.168.0.111
1684,3,0,-5,85,"-4,-2,-176",1,0,0,0,0,0,61,63,81,70,100,-4.72,33,25.0,-4.0,-1003.0,13:36:09.852879,192.168.0.111
1689,3,0,-5,85,"-4,-2,-176",1,0,0,0,0,0,61,63,82,70,100,-4.76,33,23.0,-10.0,-1002.0,13:36:09.954386,192.168.0.111
1694,3,0,-5,85,"-4,-2,-176",1,0,0,0,0,0,61,63,82,70,100,-4.76,33,14.0,2.0,-995.0,13:36:10.056340,192.168.0.111
1699,3,-1,-4,85,"-5,-2,-176",1,0,0,0,0,0,61,63,82,70,100,-4.75,33,31.0,-8.0,-996.0,13:36:10.158425,192.168.0.111
1705,3,-1,-4,85,"-5,-2,-176",1,0,0,0,0,0,61,63,82,70,100,-4.75,34,25.0,-12.0,-1008.0,13:36:10.260349,192.168.0.111
1710,3,-1,-4,85,"-5,-2,-176",1,0,0,0,0,0,61,63,83,70,100,-4.74,34,34.0,-11.0,-988.0,13:36:10.362286,192.168.0.111
1715,3,-1,-4,85,"-5,-2,-176",1,0,0,0,0,0,61,63,82,70,100,-4.74,34,33.0,-17.0,-994.0,13:36:10.464304,192.168.0.111
1720,3,0,-4,85,"-4,-2,-176",1,0,0,0,0,0,61,64,82,70,100,-4.8,34,25.0,-11.0,-991.0,13:36:10.566721,192.168.0.111
1725,3,0,-4,85,"-4,-2,-176",1,0,0,0,0,0,61,64,82,70,100,-4.71,34,42.0,-19.0,-983.0,13:36:10.668544,192.168.0.111
1730,3,0,-4,85,"-4,-2,-176",1,0,0,0,0,0,61,64,82,70,100,-4.77,34,29.0,-6.0,-1007.0,13:36:10.770697,192.168.0.111
1735,3,0,-4,85,"-4,-2,-176",1,0,0,0,0,0,61,64,82,70,100,-4.69,34,29.0,-2.0,-996.0,13:36:10.872501,192.168.0.111
1740,3,0,-4,85,"-4,-2,-176",1,0,0,0,0,0,61,64,82,70,100,-4.62,34,31.0,-9.0,-993.0,13:36:10.974942,192.168.0.111
1745,3,0,-4,85,"-4,-2,-176",1,0,0,0,0,0,61,64,82,70,100,-4.7,34,24.0,4.0,-1002.0,13:36:11.076464,192.168.0.111
1750,3,0,-4,85,"-4,-2,-176",1,0,0,0,0,0,61,64,82,70,100,-4.71,34,41.0,-14.0,-993.0,13:36:11.178477,192.168.0.111
1753,3,0,-4,85,"-4,-2,-176",1,0,0,0,0,0,61,64,82,70,100,-4.7,35,27.0,2.0,-1003.0,13:36:11.229488,192.168.0.111
1758,3,0,-5,85,"-4,-2,-176",1,0,0,0,0,0,61,64,82,70,100,-4.68,35,31.0,-9.0,-996.0,13:36:11.331618,192.168.0.111
1762,3,0,-5,85,"-4,-2,-176",1,0,0,0,0,0,61,64,82,70,100,-4.76,35,40.0,-19.0,-1000.0,13:36:11.434194,192.168.0.111
1768,3,0,-5,85,"-4,-2,-176",1,0,0,0,0,0,62,64,82,70,100,-4.65,35,29.0,7.0,-1005.0,13:36:11.535295,192.168.0.111
1773,3,0,-5,85,"-5,-2,-176",1,0,0,0,0,0,62,64,82,70,100,-4.74,35,38.0,-12.0,-1008.0,13:36:11.637329,192.168.0.111
1778,3,0,-5,85,"-5,-2,-176",1,0,0,0,0,0,62,64,82,70,100,-4.74,35,26.0,-1.0,-1007.0,13:36:11.739844,192.168.0.111
1782,3,0,-5,85,"-5,-2,-176",1,0,0,0,0,0,62,64,82,70,100,-4.76,35,17.0,6.0,-1008.0,13:36:11.841517,192.168.0.111
1788,3,0,-5,85,"-5,-2,-176",1,0,0,0,0,0,62,64,81,70,100,-4.72,35,41.0,-13.0,-991.0,13:36:11.943291,192.168.0.111
1793,3,0,-4,84,"-4,-2,-177",1,0,0,0,0,0,62,64,82,70,100,-4.8,35,36.0,-6.0,-998.0,13:36:12.045137,192.168.0.111
1798,3,0,-4,84,"-4,-2,-177",1,0,0,0,0,0,62,64,82,70,100,-4.76,35,31.0,3.0,-1003.0,13:36:12.147628,192.168.0.111
1803,3,0,-4,84,"-4,-2,-177",1,0,0,0,0,0,62,64,82,70,100,-4.8,36,39.0,-2.0,-994.0,13:36:12.249231,192.168.0.111
1808,3,0,-4,84,"-4,-2,-177",1,0,0,0,0,0,62,64,82,70,100,-4.72,36,32.0,2.0,-994.0,13:36:12.351323,192.168.0.111
1813,3,0,-5,85,"-4,-2,-177",1,0,0,0,0,0,62,64,82,70,100,-4.74,36,36.0,4.0,-989.0,13:36:12.453364,192.168.0.111
1818,3,0,-5,85,"-4,-2,-177",1,0,0,0,0,0,62,64,82,70,100,-4.75,36,35.0,0.0,-999.0,13:36:12.555333,192.168.0.111
1824,3,0,-5,85,"-4,-2,-177",1,0,0,0,0,0,62,64,82,70,100,-4.75,36,36.0,-3.0,-991.0,13:36:12.657287,192.168.0.111
1829,3,0,-6,85,"-5,-2,-176",1,0,0,0,0,0,62,64,82,70,100,-4.69,36,26.0,6.0,-1007.0,13:36:12.759527,192.168.0.111
1834,3,0,-6,85,"-5,-2,-176",1,0,0,0,0,0,62,64,83,70,100,-4.76,36,29.0,3.0,-993.0,13:36:12.861509,192.168.0.111
1839,3,0,-6,85,"-5,-2,-176",1,0,0,0,0,0,62,64,83,70,100,-4.68,36,40.0,-4.0,-994.0,13:36:12.963445,192.168.0.111
1844,3,0,-6,85,"-5,-2,-176",1,0,0,0,0,0,62,64,83,70,100,-4.63,36,33.0,0.0,-1003.0,13:36:13.065311,192.168.0.111
1849,3,0,-4,85,"-4,-2,-177",1,0,0,0,0,0,62,64,82,70,100,-4.67,36,30.0,1.0,-992.0,13:36:13.167220,192.168.0.111
1854,3,0,-4,85,"-4,-2,-177",1,0,0,0,0,0,62,64,83,70,100,-4.65,37,25.0,5.0,-1003.0,13:36:13.269444,192.168.0.111
1859,3,0,-4,85,"-4,-2,-177",1,0,0,0,0,0,62,64,82,70,100,-4.69,37,24.0,-11.0,-998.0,13:36:13.371228,192.168.0.111
1864,3,0,-4,85,"-4,-2,-177",1,0,0,0,0,0,62,64,83,70,100,-4.67,37,28.0,-6.0,-994.0,13:36:13.473611,192.168.0.111
1870,3,-1,-5,85,"-4,-2,-177",1,0,0,0,0,0,62,64,83,70,100,-4.74,37,30.0,-12.0,-1000.0,13:36:13.575225,192.168.0.111
1875,3,-1,-5,85,"-4,-2,-177",1,0,0,0,0,0,62,64,83,70,100,-4.75,37,28.0,-13.0,-1002.0,13:36:13.678451,192.168.0.111
1879,3,-1,-5,85,"-4,-2,-177",1,0,0,0,0,0,62,64,83,70,100,-4.67,37,26.0,-10.0,-995.0,13:36:13.779687,192.168.0.111
1885,3,0,-5,85,"-3,-2,-177",1,0,0,0,0,0,62,64,83,70,100,-4.67,37,21.0,-8.0,-1009.0,13:36:13.881495,192.168.0.111
1890,3,0,-5,85,"-3,-2,-177",1,0,0,0,0,0,62,64,83,70,100,-4.64,37,25.0,-4.0,-1000.0,13:36:13.983899,192.168.0.111
1895,3,0,-5,85,"-3,-2,-177",1,0,0,0,0,0,62,64,83,70,100,-4.68,37,16.0,-8.0,-1003.0,13:36:14.085463,192.168.0.111
1900,3,0,-5,85,"-3,-2,-177",1,0,0,0,0,0,62,64,83,70,100,-4.61,37,22.0,-1.0,-1004.0,13:36:14.187583,192.168.0.111
1905,3,0,-4,86,"-2,-2,-177",1,0,0,0,0,0,62,64,83,70,100,-4.59,38,37.0,-8.0,-985.0,13:36:14.289577,192.168.0.111
1910,3,0,-4,86,"-2,-2,-177",1,0,0,0,0,0,62,64,83,70,100,-4.47,38,18.0,-15.0,-1001.0,13:36:14.391656,192.168.0.111
1915,3,0,-4,86,"-2,-2,-177",1,0,0,0,0,0,62,64,83,70,100,-4.48,38,15.0,0.0,-1008.0,13:36:14.493348,192.168.0.111
1920,3,0,-4,86,"-2,-2,-177",1,0,0,0,0,0,62,64,83,70,100,-4.58,38,20.0,-5.0,-1002.0,13:36:14.597038,192.168.0.111
1925,3,-2,-4,86,"-3,-2,-177",1,0,0,0,0,0,62,64,83,70,100,-4.56,38,23.0,-13.0,-995.0,13:36:14.697676,192.168.0.111
1930,3,-2,-4,86,"-3,-2,-177",1,0,0,0,0,0,62,64,84,70,100,-4.62,38,19.0,-3.0,-993.0,13:36:14.799528,192.168.0.111
1933,3,-2,-4,86,"-3,-2,-177",1,0,0,0,0,0,62,64,83,70,100,-4.63,38,19.0,-5.0,-995.0,13:36:14.850723,192.168.0.111
1938,3,-2,-4,86,"-3,-2,-177",1,0,0,0,0,0,62,64,83,70,100,-4.74,38,16.0,-3.0,-1001.0,13:36:14.952550,192.168.0.111
1943,3,-1,-3,86,"-3,-2,-177",1,0,0,0,0,0,62,64,83,70,100,-4.7,38,26.0,-11.0,-998.0,13:36:15.054831,192.168.0.111
1948,3,-1,-3,86,"-3,-2,-177",1,0,0,0,0,0,62,64,82,70,100,-4.82,38,22.0,-8.0,-1004.0,13:36:15.156817,192.168.0.111
1952,3,-1,-3,86,"-3,-2,-177",1,0,0,0,0,0,62,64,83,70,100,-4.79,39,26.0,-17.0,-1001.0,13:36:15.258983,192.168.0.111
1958,3,-1,-4,86,"-3,-2,-176",1,0,0,0,0,0,62,64,82,70,100,-4.84,39,19.0,-12.0,-993.0,13:36:15.361097,192.168.0.111
1963,3,-1,-4,86,"-3,-2,-176",1,0,0,0,0,0,62,64,82,70,100,-4.89,39,25.0,-13.0,-1000.0,13:36:15.465146,192.168.0.111
1967,3,-1,-4,86,"-3,-2,-176",1,0,0,0,0,0,62,65,82,70,100,-4.83,39,15.0,-12.0,-993.0,13:36:15.564826,192.168.0.111
1972,3,-1,-4,86,"-3,-2,-176",1,0,0,0,0,0,62,65,83,70,100,-4.85,39,24.0,-10.0,-1007.0,13:36:15.668216,192.168.0.111
1978,3,-1,-5,86,"-3,-2,-175",1,0,0,0,0,0,62,65,83,70,100,-4.83,39,11.0,-10.0,-1012.0,13:36:15.768547,192.168.0.111
1983,3,-1,-5,86,"-3,-2,-175",1,0,0,0,0,0,62,65,83,70,100,-4.77,39,23.0,-14.0,-988.0,13:36:15.871280,192.168.0.111
1988,3,-1,-5,86,"-3,-2,-175",1,0,0,0,0,0,62,65,83,70,100,-4.76,39,18.0,-13.0,-1005.0,13:36:15.972655,192.168.0.111
1993,3,-1,-5,86,"-3,-2,-175",1,1,0,0,0,0,62,65,83,70,100,-4.82,39,26.0,-15.0,-1003.0,13:36:16.074980,192.168.0.111
1999,3,-1,-3,86,"-3,-2,-176",1,1,0,0,0,0,62,65,83,70,100,-4.78,39,23.0,-18.0,-1000.0,13:36:16.178159,192.168.0.111
2004,3,-1,-3,86,"-3,-2,-176",1,1,0,0,0,0,62,65,83,70,100,-4.78,40,22.0,-10.0,-995.0,13:36:16.278869,192.168.0.111
2009,3,-1,-3,86,"-3,-2,-176",1,1,0,0,0,0,62,65,83,70,100,-4.82,40,20.0,-15.0,-1000.0,13:36:16.380892,192.168.0.111
2014,3,-2,-5,86,"-3,-2,-175",1,1,0,0,0,0,62,65,82,70,100,-4.79,40,24.0,-15.0,-997.0,13:36:16.482907,192.168.0.111
2019,3,-2,-5,86,"-3,-2,-175",1,1,0,0,0,0,62,65,83,70,100,-4.81,40,21.0,-15.0,-1001.0,13:36:16.585020,192.168.0.111
2024,3,-2,-5,86,"-3,-2,-175",1,1,0,0,0,0,62,65,83,70,100,-4.77,40,27.0,-11.0,-998.0,13:36:16.686935,192.168.0.111
2029,3,-2,-5,86,"-3,-2,-175",1,1,0,0,0,0,62,65,83,70,100,-4.8,40,24.0,-11.0,-994.0,13:36:16.788938,192.168.0.111
2034,3,-2,-4,86,"-4,-2,-175",1,1,0,0,0,0,62,65,83,70,100,-4.85,40,27.0,-17.0,-1005.0,13:36:16.891248,192.168.0.111
2039,3,-2,-4,86,"-4,-2,-175",1,0,0,0,0,0,62,65,83,70,100,-4.81,40,27.0,-14.0,-1000.0,13:36:16.992329,192.168.0.111
2044,3,-2,-4,86,"-4,-2,-175",1,0,0,0,0,0,62,65,83,70,100,-4.86,40,28.0,-10.0,-997.0,13:36:17.096594,192.168.0.111
2049,3,-2,-4,86,"-4,-2,-175",1,0,0,0,0,0,62,65,83,70,100,-4.87,40,29.0,-12.0,-999.0,13:36:17.196824,192.168.0.111
2055,3,-1,-5,86,"-4,-2,-174",1,0,0,0,0,0,62,65,83,70,100,-4.82,41,24.0,-16.0,-1000.0,13:36:17.298816,192.168.0.111
2060,3,-1,-5,86,"-4,-2,-174",1,0,0,0,0,0,62,65,83,70,100,-4.78,41,24.0,-6.0,-997.0,13:36:17.401096,192.168.0.111
2065,3,-1,-5,86,"-4,-2,-174",1,0,0,0,0,0,62,65,83,70,100,-4.83,41,20.0,-10.0,-1005.0,13:36:17.503053,192.168.0.111
2070,3,-1,-4,86,"-4,-2,-175",1,0,0,0,0,0,61,64,83,70,100,-4.79,41,28.0,-17.0,-993.0,13:36:17.604920,192.168.0.111
2075,3,-1,-4,86,"-4,-2,-175",1,0,0,0,0,0,61,64,83,70,100,-4.87,41,26.0,1.0,-999.0,13:36:17.707052,192.168.0.111
2080,3,-1,-4,86,"-4,-2,-175",1,0,0,0,0,0,61,64,83,70,100,-4.79,41,29.0,-18.0,-1001.0,13:36:17.809032,192.168.0.111
2085,3,-1,-4,86,"-4,-2,-175",1,0,0,0,0,0,61,64,83,70,100,-4.92,41,22.0,-9.0,-987.0,13:36:17.911027,192.168.0.111
2090,3,0,-4,86,"-3,-2,-176",1,0,0,0,0,0,61,64,83,70,100,-4.85,41,28.0,-18.0,-990.0,13:36:18.012993,192.168.0.111
2095,3,0,-4,86,"-3,-2,-176",1,0,0,0,0,0,61,64,82,70,100,-4.88,41,23.0,-12.0,-1004.0,13:36:18.114840,192.168.0.111
2100,3,0,-4,86,"-3,-2,-176",1,0,0,0,0,0,61,64,83,70,100,-4.83,41,29.0,-9.0,-1004.0,13:36:18.217740,192.168.0.111
2103,3,0,-4,86,"-3,-2,-176",1,0,0,0,0,0,61,64,83,70,100,-4.86,42,24.0,-12.0,-995.0,13:36:18.267601,192.168.0.111
2108,3,-1,-4,86,"-4,-2,-176",1,0,0,0,0,0,61,64,83,70,100,-4.77,42,30.0,-10.0,-991.0,13:36:18.369618,192.168.0.111
2113,3,-1,-4,86,"-4,-2,-176",1,0,0,0,0,0,61,64,83,70,100,-4.79,42,20.0,0.0,-1002.0,13:36:18.471877,192.168.0.111
2118,3,-1,-4,86,"-4,-2,-176",1,0,0,0,0,0,62,65,83,70,100,-4.83,42,32.0,-12.0,-993.0,13:36:18.576256,192.168.0.111
2122,3,-1,-4,86,"-4,-2,-176",1,0,0,0,0,0,62,65,83,70,100,-4.82,42,39.0,-7.0,-1001.0,13:36:18.675988,192.168.0.111
2128,3,-1,-6,86,"-4,-2,-175",1,0,0,0,0,0,62,65,83,70,100,-4.8,42,38.0,-7.0,-996.0,13:36:18.778205,192.168.0.111
2133,3,-1,-6,86,"-4,-2,-175",1,0,0,0,0,0,62,65,83,70,100,-4.84,42,19.0,-4.0,-1010.0,13:36:18.879652,192.168.0.111
2138,3,-1,-6,86,"-4,-2,-175",1,0,0,0,0,0,62,65,83,70,100,-4.89,42,25.0,0.0,-1002.0,13:36:18.981743,192.168.0.111
2143,3,0,-5,86,"-3,-2,-176",1,0,0,0,0,0,62,65,83,70,100,-4.9,42,26.0,-18.0,-994.0,13:36:19.083487,192.168.0.111
2148,3,0,-5,86,"-3,-2,-176",1,0,0,0,0,0,62,65,83,70,100,-4.94,42,16.0,-1.0,-1012.0,13:36:19.186048,192.168.0.111
2152,3,0,-5,86,"-3,-2,-176",1,0,0,0,0,0,62,65,83,70,100,-4.92,43,25.0,-6.0,-1005.0,13:36:19.287479,192.168.0.111
2157,3,0,-5,86,"-3,-2,-176",1,0,0,0,0,0,62,65,82,70,100,-4.98,43,25.0,-17.0,-1004.0,13:36:19.390126,192.168.0.111
2163,3,0,-2,86,"-4,-2,-178",1,0,0,0,0,0,62,65,82,70,100,-4.9,43,31.0,2.0,-998.0,13:36:19.491817,192.168.0.111
2168,3,0,-2,86,"-4,-2,-178",1,0,0,0,0,0,61,64,82,70,100,-4.89,43,30.0,-5.0,-1015.0,13:36:19.593784,192.168.0.111
2174,3,0,-2,86,"-4,-2,-178",1,0,0,0,0,0,61,64,82,70,100,-4.91,43,20.0,0.0,-1002.0,13:36:19.695693,192.168.0.111
2179,3,0,-2,86,"-4,-2,-178",1,0,0,0,0,0,61,64,82,70,100,-4.83,43,25.0,-2.0,-1003.0,13:36:19.798230,192.168.0.111
2184,3,0,-5,85,"-4,-2,-176",1,0,0,0,0,0,61,64,82,70,100,-4.86,43,28.0,-14.0,-1002.0,13:36:19.899833,192.168.0.111
2189,3,0,-5,85,"-4,-2,-176",1,0,0,0,0,0,61,64,83,70,100,-4.81,43,30.0,-19.0,-991.0,13:36:20.001985,192.168.0.111
2194,3,0,-5,85,"-4,-2,-176",1,0,0,0,0,0,61,64,83,70,100,-4.85,43,33.0,-21.0,-994.0,13:36:20.104654,192.168.0.111
2199,3,-1,-5,85,"-5,-2,-176",1,0,0,0,0,0,61,64,83,70,100,-4.77,43,37.0,-19.0,-992.0,13:36:20.206090,192.168.0.111
2204,3,-1,-5,85,"-5,-2,-176",1,0,0,0,0,0,61,64,83,70,100,-4.73,44,32.0,-20.0,-998.0,13:36:20.311464,192.168.0.111
2209,3,-1,-5,85,"-5,-2,-176",1,0,0,0,0,0,61,64,83,70,100,-4.72,44,28.0,-14.0,-984.0,13:36:20.409881,192.168.0.111
2215,3,-1,-5,85,"-5,-2,-176",1,0,0,0,0,0,61,64,82,70,100,-4.78,44,18.0,-3.0,-1006.0,13:36:20.511895,192.168.0.111
2220,3,0,-5,85,"-4,-2,-175",1,0,0,0,0,0,62,65,83,70,100,-4.73,44,27.0,-13.0,-1004.0,13:36:20.613916,192.168.0.111
2225,3,0,-5,85,"-4,-2,-175",1,0,0,0,0,0,62,65,82,70,100,-4.69,44,38.0,-14.0,-983.0,13:36:20.715811,192.168.0.111
2230,3,0,-5,85,"-4,-2,-175",1,0,0,0,0,0,62,65,83,70,100,-4.66,44,34.0,-12.0,-1001.0,13:36:20.818202,192.168.0.111
2235,3,0,-5,85,"-4,-2,-175",1,0,0,0,0,0,62,65,82,70,100,-4.79,44,28.0,1.0,-1002.0,13:36:20.919867,192.168.0.111
2240,3,-1,-5,85,"-5,-2,-176",1,0,0,0,0,0,62,65,82,70,100,-4.68,44,39.0,-14.0,-988.0,13:36:21.021572,192.168.0.111
2245,3,-1,-5,85,"-5,-2,-176",1,0,0,0,0,0,62,65,82,70,100,-4.6,44,35.0,-11.0,-985.0,13:36:21.124110,192.168.0.111
2250,3,-1,-5,85,"-5,-2,-176",1,0,0,0,0,0,62,65,83,70,100,-4.77,44,43.0,-11.0,-1007.0,13:36:21.225536,192.168.0.111
2255,3,-1,-5,85,"-5,-2,-176",1,0,0,0,0,0,62,65,83,70,100,-4.67,45,35.0,-23.0,-995.0,13:36:21.329408,192.168.0.111
2260,3,-1,-4,85,"-5,-2,-176",1,0,0,0,0,0,62,65,83,70,100,-4.78,45,35.0,-6.0,-1001.0,13:36:21.430014,192.168.0.111
2262,3,-1,-4,85,"-5,-2,-176",1,0,0,0,0,0,62,65,82,70,100,-4.72,45,32.0,-7.0,-1007.0,13:36:21.481051,192.168.0.111
2270,3,-1,-4,85,"-5,-2,-176",1,0,0,0,0,0,62,65,83,70,100,-4.76,45,24.0,-7.0,-1011.0,13:36:21.634140,192.168.0.111
2272,3,-1,-3,85,"-4,-2,-177",1,0,0,0,0,0,62,65,83,70,100,-4.76,45,34.0,-20.0,-1000.0,13:36:21.684984,192.168.0.111
2277,3,-1,-3,85,"-4,-2,-177",1,0,0,0,0,0,62,65,83,70,100,-4.86,45,31.0,-8.0,-1000.0,13:36:21.786833,192.168.0.111
2282,3,-1,-3,85,"-4,-2,-177",1,0,0,0,0,0,62,65,83,70,100,-4.8,45,27.0,-15.0,-997.0,13:36:21.888881,192.168.0.111
2287,3,-1,-3,85,"-4,-2,-177",1,0,0,0,0,0,62,65,83,70,100,-4.78,45,29.0,-13.0,-992.0,13:36:21.990852,192.168.0.111
2292,3,-1,-4,85,"-4,-2,-176",1,0,0,0,0,0,62,65,83,70,100,-4.76,45,27.0,-11.0,-1003.0,13:36:22.092900,192.168.0.111
2297,3,-1,-4,85,"-4,-2,-176",1,0,0,0,0,0,62,65,83,70,100,-4.8,45,31.0,-16.0,-989.0,13:36:22.197277,192.168.0.111
2302,3,-1,-4,85,"-4,-2,-176",1,0,0,0,0,0,62,65,83,70,100,-4.78,46,32.0,-15.0,-997.0,13:36:22.296975,192.168.0.111
2307,3,-1,-4,85,"-4,-2,-176",1,0,0,0,0,0,62,65,83,70,100,-4.83,46,24.0,-5.0,-1004.0,13:36:22.398836,192.168.0.111
2312,3,0,-5,85,"-4,-2,-176",1,0,0,0,0,0,62,65,83,70,100,-4.7,46,21.0,-6.0,-991.0,13:36:22.501117,192.168.0.111
2317,3,0,-5,85,"-4,-2,-176",1,0,0,0,0,0,62,65,83,70,100,-4.78,46,35.0,-13.0,-1001.0,13:36:22.603530,192.168.0.111
2322,3,0,-5,85,"-4,-2,-176",1,0,0,0,0,0,62,65,84,70,100,-4.81,46,37.0,-4.0,-1000.0,13:36:22.705119,192.168.0.111
2329,3,-1,-5,86,"-4,-2,-175",1,0,0,0,0,0,62,65,83,70,100,-4.71,46,31.0,-8.0,-999.0,13:36:22.807211,192.168.0.111
2333,3,-1,-5,86,"-4,-2,-175",1,0,0,0,0,0,62,65,82,70,100,-4.74,46,30.0,-10.0,-1000.0,13:36:22.908725,192.168.0.111
2337,3,-1,-5,86,"-4,-2,-175",1,0,0,0,0,0,62,65,83,70,100,-4.79,46,24.0,-16.0,-1002.0,13:36:23.010936,192.168.0.111
2343,3,-1,-5,86,"-4,-2,-175",1,0,0,0,0,0,62,65,84,70,100,-4.86,46,40.0,-5.0,-994.0,13:36:23.112824,192.168.0.111
2349,3,-2,-5,86,"-5,-2,-175",1,0,0,0,0,0,62,65,83,70,100,-4.86,46,33.0,-17.0,-997.0,13:36:23.215023,192.168.0.111
2354,3,-2,-5,86,"-5,-2,-175",1,0,0,0,0,0,62,65,82,70,100,-4.81,47,35.0,-15.0,-996.0,13:36:23.316935,192.168.0.111
2359,3,-2,-5,86,"-5,-2,-175",1,0,0,0,0,0,62,65,83,70,100,-4.67,47,29.0,-3.0,-1002.0,13:36:23.418945,192.168.0.111
2364,3,-2,-5,86,"-5,-2,-175",1,0,0,0,0,0,62,65,83,70,100,-4.74,47,35.0,-10.0,-997.0,13:36:23.521078,192.168.0.111
2369,3,-1,-4,86,"-4,-2,-176",1,0,0,0,0,0,63,65,82,70,100,-4.7,47,35.0,-12.0,-1006.0,13:36:23.627965,192.168.0.111
2374,3,-1,-4,86,"-4,-2,-176",1,0,0,0,0,0,63,65,82,70,100,-4.7,47,29.0,-3.0,-1006.0,13:36:23.724946,192.168.0.111
2379,3,-1,-4,86,"-4,-2,-176",1,0,0,0,0,0,63,65,83,70,100,-4.74,47,31.0,-4.0,-1003.0,13:36:23.827082,192.168.0.111
2384,3,0,-4,85,"-4,-2,-176",1,0,0,0,0,0,63,65,82,70,100,-4.7,47,37.0,-12.0,-991.0,13:36:23.929226,192.168.0.111
2389,3,0,-4,85,"-4,-2,-176",1,0,0,0,0,0,63,65,83,70,100,-4.75,47,24.0,-2.0,-1003.0,13:36:24.031482,192.168.0.111
2394,3,0,-4,85,"-4,-2,-176",1,0,0,0,0,0,63,65,82,70,100,-4.81,47,39.0,-9.0,-992.0,13:36:24.132892,192.168.0.111
2399,3,0,-4,85,"-4,-2,-176",1,0,0,0,0,0,63,65,83,70,100,-4.75,47,30.0,0.0,-1003.0,13:36:24.234929,192.168.0.111
2405,3,-1,-5,85,"-5,-2,-176",1,0,0,0,0,0,63,65,83,70,100,-4.8,48,23.0,7.0,-998.0,13:36:24.337586,192.168.0.111
2410,3,-1,-5,85,"-5,-2,-176",1,0,0,0,0,0,63,65,83,70,100,-4.79,48,36.0,-11.0,-1001.0,13:36:24.439216,192.168.0.111
2415,3,-1,-5,85,"-5,-2,-176",1,0,0,0,0,0,63,65,82,70,100,-4.75,48,23.0,-4.0,-1011.0,13:36:24.540936,192.168.0.111
2420,3,-1,-5,85,"-5,-2,-176",1,0,0,0,0,0,62,65,82,70,100,-4.81,48,26.0,-12.0,-1004.0,13:36:24.642944,192.168.0.111
2425,3,-2,-5,85,"-5,-2,-177",1,0,0,0,0,0,62,65,82,70,100,-4.79,48,34.0,-7.0,-1000.0,13:36:24.744926,192.168.0.111
2430,3,-2,-5,85,"-5,-2,-177",1,0,0,0,0,0,62,65,82,70,100,-4.75,48,32.0,-7.0,-998.0,13:36:24.847656,192.168.0.111
2435,3,-2,-5,85,"-5,-2,-177",1,0,0,0,0,0,62,65,82,70,100,-4.79,48,26.0,-1.0,-1004.0,13:36:24.949015,192.168.0.111
2437,3,-2,-5,85,"-5,-2,-177",1,0,0,0,0,0,62,65,82,70,100,-4.81,48,35.0,-8.0,-995.0,13:36:24.999997,192.168.0.111
2442,3,0,-4,85,"-4,-2,-177",1,0,0,0,0,0,62,65,82,70,100,-4.75,48,29.0,-13.0,-1003.0,13:36:25.102091,192.168.0.111
2447,3,0,-4,85,"-4,-2,-177",1,0,0,0,0,0,62,65,82,70,100,-4.71,49,38.0,-11.0,-1000.0,13:36:25.204211,192.168.0.111
2452,3,0,-4,85,"-4,-2,-177",1,0,0,0,0,0,62,65,82,70,100,-4.81,49,38.0,-10.0,-997.0,13:36:25.306199,192.168.0.111
2457,3,0,-5,84,"-4,-2,-177",1,0,0,0,0,0,62,65,82,70,100,-4.79,49,34.0,-8.0,-999.0,13:36:25.407845,192.168.0.111
2462,3,0,-5,84,"-4,-2,-177",1,0,0,0,0,0,62,65,82,70,100,-4.8,49,29.0,-8.0,-1003.0,13:36:25.512305,192.168.0.111
2467,3,0,-5,84,"-4,-2,-177",1,0,0,0,0,0,62,65,82,70,100,-4.79,49,23.0,-11.0,-1007.0,13:36:25.612183,192.168.0.111
2472,3,0,-5,84,"-4,-2,-177",1,0,0,0,0,0,62,65,82,70,100,-4.84,49,24.0,2.0,-1000.0,13:36:25.713715,192.168.0.111
2478,3,-1,-5,84,"-4,-2,-176",1,0,0,0,0,0,62,65,82,70,100,-4.75,49,32.0,-8.0,-996.0,13:36:25.817219,192.168.0.111
2483,3,-1,-5,84,"-4,-2,-176",1,0,0,0,0,0,62,65,82,70,100,-4.7,49,28.0,-4.0,-1003.0,13:36:25.918055,192.168.0.111
2487,3,-1,-5,84,"-4,-2,-176",1,0,0,0,0,0,62,65,82,70,100,-4.75,49,38.0,-4.0,-998.0,13:36:26.020316,192.168.0.111
2492,3,-1,-5,84,"-4,-2,-176",1,0,0,0,0,0,62,65,82,70,100,-4.78,49,36.0,-3.0,-1002.0,13:36:26.121863,192.168.0.111
2497,3,-1,-4,84,"-4,-2,-177",1,0,0,0,0,0,62,65,82,70,100,-4.79,50,22.0,10.0,-1008.0,13:36:26.224182,192.168.0.111
2504,3,-1,-4,84,"-4,-2,-177",1,0,0,0,0,0,62,65,82,70,100,-4.79,50,22.0,-9.0,-1007.0,13:36:26.326294,192.168.0.111
2509,3,-1,-4,84,"-4,-2,-177",1,0,0,0,0,0,62,65,81,70,100,-4.82,50,31.0,-9.0,-1002.0,13:36:26.428439,192.168.0.111
2514,3,-1,-4,84,"-4,-2,-177",1,0,0,0,0,0,62,65,82,70,100,-4.77,50,25.0,-11.0,-1004.0,13:36:26.530054,192.168.0.111
2519,3,-1,-4,84,"-4,-2,-177",1,0,0,0,0,0,63,65,81,70,100,-4.78,50,32.0,-8.0,-995.0,13:36:26.632047,192.168.0.111
2524,3,-1,-4,84,"-4,-2,-177",1,0,0,0,0,0,63,65,81,70,100,-4.77,50,32.0,-14.0,-990.0,13:36:26.737299,192.168.0.111
2529,3,-1,-4,84,"-4,-2,-177",1,0,0,0,0,0,63,65,82,70,100,-4.78,50,30.0,-9.0,-1006.0,13:36:26.836189,192.168.0.111
2534,3,-1,-4,84,"-4,-2,-176",1,0,0,0,0,0,63,65,82,70,100,-4.76,50,18.0,0.0,-1005.0,13:36:26.938541,192.168.0.111
2539,3,-1,-4,84,"-4,-2,-176",1,0,0,0,0,0,63,65,82,70,100,-4.77,50,30.0,-7.0,-1004.0,13:36:27.040141,192.168.0.111
2544,3,-1,-4,84,"-4,-2,-176",1,0,0,0,0,0,63,65,82,70,100,-4.79,50,28.0,-3.0,-1004.0,13:36:27.142252,192.168.0.111
2549,3,-1,-4,84,"-4,-2,-176",1,0,0,0,0,0,63,65,81,70,100,-4.77,51,31.0,-8.0,-1003.0,13:36:27.244260,192.168.0.111
2554,3,-1,-4,84,"-4,-2,-177",1,0,0,0,0,0,63,65,82,70,100,-4.81,51,27.0,-3.0,-990.0,13:36:27.345964,192.168.0.111
2559,3,-1,-4,84,"-4,-2,-177",1,0,0,0,0,0,63,65,82,70,100,-4.85,51,20.0,-13.0,-987.0,13:36:27.447956,192.168.0.111
2565,3,-1,-4,84,"-4,-2,-177",1,0,0,0,0,0,63,65,82,70,100,-4.8,51,23.0,0.0,-1002.0,13:36:27.550227,192.168.0.111
2570,3,0,-5,84,"-3,-2,-176",1,0,0,0,0,0,62,65,82,70,100,-4.74,51,29.0,-4.0,-989.0,13:36:27.652150,192.168.0.111
2575,3,0,-5,84,"-3,-2,-176",1,0,0,0,0,0,62,65,82,70,100,-4.76,51,23.0,-3.0,-998.0,13:36:27.754412,192.168.0.111
2579,3,0,-5,84,"-3,-2,-176",1,0,0,0,0,0,62,65,82,70,100,-4.82,51,25.0,-10.0,-1001.0,13:36:27.856090,192.168.0.111
2585,3,0,-5,84,"-3,-2,-176",1,0,0,0,0,0,62,65,82,70,100,-4.83,51,29.0,-8.0,-1009.0,13:36:27.958074,192.168.0.111
2590,3,-1,-5,85,"-4,-2,-176",1,0,0,0,0,0,62,65,83,70,100,-4.85,51,28.0,-5.0,-994.0,13:36:28.060754,192.168.0.111
2595,3,-1,-5,85,"-4,-2,-176",1,0,0,0,0,0,62,65,82,70,100,-4.83,51,36.0,-7.0,-995.0,13:36:28.162176,192.168.0.111
2600,3,-1,-5,85,"-4,-2,-176",1,0,0,0,0,0,62,65,82,70,100,-4.76,52,37.0,-9.0,-991.0,13:36:28.263933,192.168.0.111
2602,3,-1,-5,85,"-4,-2,-176",1,0,0,0,0,0,62,65,83,70,100,-4.88,52,33.0,-8.0,-997.0,13:36:28.314942,192.168.0.111
2607,3,0,-4,85,"-4,-2,-177",1,0,0,0,0,0,62,65,82,70,100,-4.91,52,30.0,-8.0,-991.0,13:36:28.417090,192.168.0.111
2612,3,0,-4,85,"-4,-2,-177",1,0,0,0,0,0,62,65,83,70,100,-4.89,52,30.0,-5.0,-1000.0,13:36:28.518954,192.168.0.111
2620,3,0,-4,85,"-4,-2,-177",1,0,0,0,0,0,63,66,82,70,100,-4.82,52,21.0,-13.0,-995.0,13:36:28.672196,192.168.0.111
2623,3,-1,-6,85,"-4,-2,-176",1,0,0,0,0,0,63,66,82,70,100,-4.75,52,29.0,0.0,-1021.0,13:36:28.724258,192.168.0.111
2627,3,-1,-6,85,"-4,-2,-176",1,0,0,0,0,0,63,66,81,70,100,-4.8,52,26.0,-1.0,-996.0,13:36:28.825148,192.168.0.111
2632,3,-1,-6,85,"-4,-2,-176",1,0,0,0,0,0,63,66,81,70,100,-4.82,52,26.0,-10.0,-1000.0,13:36:28.927896,192.168.0.111
2637,3,-1,-6,85,"-4,-2,-176",1,0,0,0,0,0,63,66,81,70,100,-4.78,52,21.0,-9.0,-994.0,13:36:29.029600,192.168.0.111
2643,3,-1,-6,84,"-4,-2,-176",1,0,0,0,0,0,63,66,81,70,100,-4.83,52,28.0,-17.0,-1004.0,13:36:29.132075,192.168.0.111
2647,3,-1,-6,84,"-4,-2,-176",1,0,0,0,0,0,63,66,81,70,100,-4.83,53,31.0,-9.0,-999.0,13:36:29.233117,192.168.0.111
2653,3,-1,-6,84,"-4,-2,-176",1,0,0,0,0,0,63,66,81,70,100,-4.84,53,23.0,-10.0,-1009.0,13:36:29.335164,192.168.0.111
