,mid,x,y,z,mpry,pitch,roll,yaw,vgx,vgy,vgz,templ,temph,tof,h,bat,baro,time,agx,agy,agz,timestamp,address
3,-1,-100,-100,-100,"0,0,0",0,0,0,0,0,0,56,59,10,0,100,-5.51,0,-2.0,-2.0,-1000.0,13:35:36.084684,192.168.0.112
9,-1,-100,-100,-100,"0,0,0",0,0,0,0,0,0,56,59,10,0,100,-5.46,0,0.0,-3.0,-1000.0,13:35:36.187099,192.168.0.112
14,-1,-100,-100,-100,"0,0,0",0,0,0,0,0,0,56,59,10,0,100,-5.48,0,0.0,0.0,-1008.0,13:35:36.288982,192.168.0.112
15,-1,-100,-100,-100,"0,0,0",0,0,0,0,0,0,56,59,10,0,100,-5.48,0,1.0,-4.0,-996.0,13:35:36.340084,192.168.0.112
20,-1,-100,-100,-100,"0,0,0",0,0,0,0,0,0,56,59,10,0,100,-5.48,0,16.0,-6.0,-1003.0,13:35:36.443839,192.168.0.112
25,-1,-100,-100,-100,"0,0,0",0,0,1,0,0,0,56,59,10,0,100,-5.48,0,10.0,17.0,-1000.0,13:35:36.543997,192.168.0.112
30,-1,-100,-100,-100,"0,0,0",0,0,1,0,0,0,56,59,10,0,100,-5.48,0,15.0,-18.0,-1173.0,13:35:36.645753,192.168.0.112
35,-1,-100,-100,-100,"0,0,0",0,0,1,0,0,2,56,60,10,0,100,-5.48,0,16.0,-22.0,-1332.0,13:35:36.747925,192.168.0.112
40,-1,-100,-100,-100,"0,0,0",1,0,2,-1,0,5,56,60,11,0,100,-5.48,0,29.0,-12.0,-1192.0,13:35:36.849685,192.168.0.112
45,-1,-100,-100,-100,"0,0,0",1,0,1,0,0,7,56,60,18,10,100,-5.16,0,35.0,-4.0,-1050.0,13:35:36.951632,192.168.0.112
50,-1,-100,-100,-100,"0,0,0",2,0,1,0,0,8,56,60,23,10,100,-5.06,0,28.0,17.0,-982.0,13:35:37.055100,192.168.0.112
55,-1,-100,-100,-100,"0,0,0",2,0,2,0,0,7,56,60,32,20,100,-4.89,0,48.0,17.0,-922.0,13:35:37.155975,192.168.0.112
60,-1,-100,-100,-100,"0,0,0",2,0,2,0,0,7,56,60,41,30,100,-4.7,1,12.0,57.0,-925.0,13:35:37.257857,192.168.0.112
65,-1,-100,-100,-100,"0,0,0",2,-1,2,0,0,6,56,60,49,30,100,-4.88,1,16.0,31.0,-883.0,13:35:37.359733,192.168.0.112
70,-1,-100,-100,-100,"0,0,0",1,-1,2,0,0,4,56,60,55,40,100,-4.76,1,37.0,18.0,-947.0,13:35:37.461457,192.168.0.112
76,-1,-100,-100,-100,"0,0,0",0,-2,2,0,0,4,56,60,60,40,100,-4.65,1,19.0,49.0,-899.0,13:35:37.563731,192.168.0.112
81,-1,-100,-100,-100,"0,0,0",0,-2,2,0,-1,3,56,60,64,50,100,-4.59,1,30.0,48.0,-923.0,13:35:37.665790,192.168.0.112
86,-1,-100,-100,-100,"0,0,0",0,-3,2,0,-1,2,57,59,67,50,100,-4.66,1,33.0,41.0,-931.0,13:35:37.767791,192.168.0.112
91,-1,-100,-100,-100,"0,0,0",0,-4,2,0,0,1,57,59,70,50,100,-4.65,1,5.0,70.0,-969.0,13:35:37.871545,192.168.0.112
96,-1,-100,-100,-100,"0,0,0",0,-3,2,0,0,1,57,59,72,50,100,-4.64,1,36.0,39.0,-969.0,13:35:37.971655,192.168.0.112
101,-1,-100,-100,-100,"0,0,0",0,-4,2,0,0,1,57,59,74,50,100,-4.56,1,45.0,9.0,-981.0,13:35:38.073440,192.168.0.112
106,-1,-100,-100,-100,"0,0,0",0,-3,2,0,0,0,57,59,75,60,100,-4.52,1,14.0,16.0,-1026.0,13:35:38.176532,192.168.0.112
112,-1,-100,-100,-100,"0,0,0",0,-2,1,0,0,0,57,59,77,60,100,-4.55,2,8.0,8.0,-981.0,13:35:38.277961,192.168.0.112
118,-1,-100,-100,-100,"0,0,0",0,-1,1,0,0,0,57,59,78,60,100,-4.46,2,22.0,3.0,-1014.0,13:35:38.382199,192.168.0.112
122,-1,-100,-100,-100,"0,0,0",0,0,1,0,0,0,57,59,80,60,100,-4.44,2,29.0,-11.0,-988.0,13:35:38.482325,192.168.0.112
127,-1,-100,-100,-100,"0,0,0",0,0,1,0,0,0,57,59,81,60,100,-4.52,2,16.0,0.0,-999.0,13:35:38.584046,192.168.0.112
132,-1,-100,-100,-100,"0,0,0",0,0,1,0,0,0,57,59,82,60,100,-4.49,2,26.0,-7.0,-972.0,13:35:38.685610,192.168.0.112
137,-1,-100,-100,-100,"0,0,0",0,0,1,0,0,0,57,60,83,60,100,-4.4,2,6.0,3.0,-965.0,13:35:38.787735,192.168.0.112
142,-1,-100,-100,-100,"0,0,0",0,0,1,0,0,0,57,60,84,60,100,-4.38,2,20.0,23.0,-974.0,13:35:38.890030,192.168.0.112
145,-1,-100,-100,-100,"0,0,0",0,0,2,0,0,0,57,60,85,70,100,-4.25,2,20.0,32.0,-1029.0,13:35:38.941436,192.168.0.112
150,-1,-100,-100,-100,"0,0,0",0,0,2,0,0,0,57,60,85,70,100,-4.42,2,37.0,22.0,-1006.0,13:35:39.043544,192.168.0.112
155,-1,-100,-100,-100,"0,0,0",0,1,3,0,0,0,57,60,86,70,100,-4.42,2,29.0,28.0,-965.0,13:35:39.144914,192.168.0.112
160,-1,-100,-100,-100,"0,0,0",0,0,2,0,0,0,57,60,87,70,100,-4.41,3,37.0,-1.0,-938.0,13:35:39.248093,192.168.0.112
165,-1,-100,-100,-100,"0,0,0",0,-1,2,0,0,0,57,60,87,70,100,-4.4,3,48.0,-13.0,-974.0,13:35:39.348831,192.168.0.112
170,-1,-100,-100,-100,"0,0,0",1,-1,1,0,0,0,57,60,87,70,100,-4.33,3,26.0,26.0,-999.0,13:35:39.450833,192.168.0.112
175,-1,-100,-100,-100,"0,0,0",1,0,1,0,0,0,57,60,86,70,100,-4.39,3,43.0,10.0,-1012.0,13:35:39.552918,192.168.0.112
180,-1,-100,-100,-100,"0,0,0",1,0,1,0,0,0,57,60,86,70,100,-4.39,3,25.0,5.0,-990.0,13:35:39.655894,192.168.0.112
185,-1,-100,-100,-100,"0,0,0",1,0,1,0,0,0,57,60,86,70,100,-4.31,3,25.0,12.0,-1002.0,13:35:39.756875,192.168.0.112
190,-1,-100,-100,-100,"0,0,0",1,0,1,0,0,0,57,60,86,70,100,-4.33,3,27.0,6.0,-1005.0,13:35:39.859109,192.168.0.112
195,-1,-100,-100,-100,"0,0,0",1,0,1,0,0,0,57,60,86,70,100,-4.3,3,13.0,7.0,-998.0,13:35:39.960967,192.168.0.112
201,-1,-100,-100,-100,"0,0,0",1,0,1,0,0,0,57,60,85,70,100,-4.28,3,27.0,0.0,-991.0,13:35:40.063005,192.168.0.112
206,-1,-100,-100,-100,"0,0,0",0,0,1,0,0,0,57,60,85,70,100,-4.47,3,34.0,-5.0,-1000.0,13:35:40.165010,192.168.0.112
211,-1,-100,-100,-100,"0,0,0",0,0,1,0,0,0,57,60,85,70,100,-4.45,4,25.0,3.0,-995.0,13:35:40.266687,192.168.0.112
216,-1,-100,-100,-100,"0,0,0",0,0,1,0,0,0,57,60,85,70,100,-4.47,4,21.0,7.0,-996.0,13:35:40.368997,192.168.0.112
221,-1,-100,-100,-100,"0,0,0",0,0,1,0,0,0,57,60,85,70,100,-4.46,4,40.0,12.0,-990.0,13:35:40.471238,192.168.0.112
226,-1,-100,-100,-100,"0,0,0",0,0,1,0,0,0,57,60,84,70,100,-4.38,4,10.0,20.0,-1001.0,13:35:40.572684,192.168.0.112
231,-1,-100,-100,-100,"0,0,0",0,0,1,0,0,0,57,60,84,70,100,-4.29,4,16.0,3.0,-1024.0,13:35:40.674846,192.168.0.112
236,-1,-100,-100,-100,"0,0,0",0,0,1,0,0,0,57,60,83,70,100,-4.29,4,32.0,-10.0,-992.0,13:35:40.776819,192.168.0.112
241,-1,-100,-100,-100,"0,0,0",-1,-1,2,0,0,0,57,60,83,70,100,-4.34,4,32.0,2.0,-1017.0,13:35:40.880176,192.168.0.112
246,-1,-100,-100,-100,"0,0,0",0,0,2,0,0,0,57,60,83,70,100,-4.41,4,23.0,16.0,-1006.0,13:35:40.980894,192.168.0.112
251,-1,-100,-100,-100,"0,0,0",0,0,2,0,0,0,57,60,84,70,100,-4.41,4,30.0,9.0,-1010.0,13:35:41.082834,192.168.0.112
256,-1,-100,-100,-100,"0,0,0",0,0,1,0,0,0,57,60,83,70,100,-4.38,4,26.0,0.0,-992.0,13:35:41.184962,192.168.0.112
261,-1,-100,-100,-100,"0,0,0",0,-1,1,0,0,0,57,60,83,70,100,-4.43,5,9.0,-9.0,-1038.0,13:35:41.286841,192.168.0.112
266,-1,-100,-100,-100,"0,0,0",0,-1,1,0,0,0,57,60,82,70,100,-4.35,5,16.0,4.0,-1011.0,13:35:41.388742,192.168.0.112
271,-1,-100,-100,-100,"0,0,0",0,0,1,0,0,0,57,60,83,70,100,-4.31,5,7.0,40.0,-977.0,13:35:41.490901,192.168.0.112
277,-1,-100,-100,-100,"0,0,0",0,0,1,0,0,0,57,60,83,70,100,-4.34,5,32.0,0.0,-1000.0,13:35:41.592821,192.168.0.112
283,-1,-100,-100,-100,"0,0,0",0,0,1,0,0,0,57,60,83,70,100,-4.37,5,25.0,0.0,-995.0,13:35:41.694568,192.168.0.112
288,-1,-100,-100,-100,"0,0,0",0,0,1,0,0,0,57,60,83,70,100,-4.41,5,19.0,-1.0,-1012.0,13:35:41.796703,192.168.0.112
293,-1,-100,-100,-100,"0,0,0",0,0,1,0,0,0,57,60,83,70,100,-4.45,5,15.0,6.0,-997.0,13:35:41.898598,192.168.0.112
298,-1,-100,-100,-100,"0,0,0",0,0,1,0,0,0,57,60,83,70,100,-4.42,5,0.0,16.0,-991.0,13:35:42.000591,192.168.0.112
304,-1,-100,-100,-100,"0,0,0",0,0,1,0,0,0,57,60,83,70,100,-4.51,5,15.0,5.0,-989.0,13:35:42.102698,192.168.0.112
309,-1,-100,-100,-100,"0,0,0",0,0,1,0,0,0,57,60,84,70,100,-4.46,5,18.0,10.0,-993.0,13:35:42.205502,192.168.0.112
314,-1,-100,-100,-100,"0,0,0",0,0,1,0,0,0,57,60,84,70,100,-4.43,6,-1.0,11.0,-999.0,13:35:42.306626,192.168.0.112
315,-1,-100,-100,-100,"0,0,0",0,0,1,0,0,0,57,60,83,70,100,-4.46,6,3.0,3.0,-989.0,13:35:42.358102,192.168.0.112
320,-1,-100,-100,-100,"0,0,0",0,0,1,0,0,0,57,60,83,70,100,-4.44,6,10.0,7.0,-988.0,13:35:42.459701,192.168.0.112
325,-1,-100,-100,-100,"0,0,0",-1,0,1,0,0,0,57,60,84,70,100,-4.47,6,24.0,-10.0,-998.0,13:35:42.561977,192.168.0.112
330,-1,-100,-100,-100,"0,0,0",0,0,1,0,0,0,57,60,84,70,100,-4.44,6,8.0,0.0,-1006.0,13:35:42.663994,192.168.0.112
335,-1,-100,-100,-100,"0,0,0",0,0,1,0,0,0,57,60,83,70,100,-4.48,6,5.0,8.0,-997.0,13:35:42.765681,192.168.0.112
342,-1,-100,-100,-100,"0,0,0",0,0,1,0,0,0,57,60,84,70,100,-4.45,6,19.0,0.0,-1001.0,13:35:42.870294,192.168.0.112
346,-1,-100,-100,-100,"0,0,0",0,0,1,0,0,0,57,60,83,70,100,-4.41,6,15.0,5.0,-996.0,13:35:42.970240,192.168.0.112
351,-1,-100,-100,-100,"0,0,0",0,0,1,0,0,0,57,60,84,70,100,-4.47,6,20.0,1.0,-998.0,13:35:43.071809,192.168.0.112
356,-1,-100,-100,-100,"0,0,0",0,0,1,0,0,0,57,60,84,70,100,-4.47,6,19.0,5.0,-990.0,13:35:43.175117,192.168.0.112
361,-1,-100,-100,-100,"0,0,0",0,0,1,0,0,0,57,60,83,70,100,-4.47,7,0.0,13.0,-991.0,13:35:43.276399,192.168.0.112
366,-1,-100,-100,-100,"0,0,0",0,0,1,0,0,0,57,60,84,70,100,-4.44,7,21.0,-13.0,-983.0,13:35:43.377962,192.168.0.112
371,-1,-100,-100,-100,"0,0,0",0,0,1,0,0,0,57,60,84,70,100,-4.52,7,30.0,-7.0,-996.0,13:35:43.479715,192.168.0.112
376,-1,-100,-100,-100,"0,0,0",0,0,1,0,0,0,57,60,83,70,100,-4.49,7,21.0,7.0,-1004.0,13:35:43.581539,192.168.0.112
381,-1,-100,-100,-100,"0,0,0",0,0,1,0,0,0,57,60,83,60,100,-4.42,7,20.0,-3.0,-999.0,13:35:43.684154,192.168.0.112
386,-1,-100,-100,-100,"0,0,0",0,0,1,0,0,0,57,60,82,60,100,-4.47,7,26.0,-7.0,-1000.0,13:35:43.785956,192.168.0.112
391,-1,-100,-100,-100,"0,0,0",0,0,1,0,0,0,57,60,82,60,100,-4.46,7,17.0,6.0,-997.0,13:35:43.888177,192.168.0.112
396,-1,-100,-100,-100,"0,0,0",0,0,1,0,0,0,57,60,82,60,100,-4.45,7,11.0,1.0,-1000.0,13:35:43.989939,192.168.0.112
401,-1,-100,-100,-100,"0,0,0",0,0,1,0,0,0,57,60,82,60,100,-4.4,7,16.0,0.0,-993.0,13:35:44.092219,192.168.0.112
406,-1,-100,-100,-100,"0,0,0",0,0,1,0,0,0,57,60,83,70,100,-4.39,7,35.0,-25.0,-1002.0,13:35:44.194246,192.168.0.112
412,-1,-100,-100,-100,"0,0,0",0,0,1,0,0,0,57,60,83,70,100,-4.48,8,22.0,-5.0,-974.0,13:35:44.296888,192.168.0.112
417,-1,-100,-100,-100,"0,0,0",0,0,1,0,0,0,57,60,83,70,100,-4.47,8,10.0,13.0,-1006.0,13:35:44.398156,192.168.0.112
422,-1,-100,-100,-100,"0,0,0",0,0,1,0,0,0,57,60,83,70,100,-4.45,8,30.0,-9.0,-988.0,13:35:44.500011,192.168.0.112
428,-1,-100,-100,-100,"0,0,0",0,0,1,0,0,0,57,60,83,70,100,-4.47,8,17.0,-1.0,-994.0,13:35:44.602059,192.168.0.112
432,-1,-100,-100,-100,"0,0,0",0,0,1,0,0,0,57,60,83,70,100,-4.48,8,18.0,2.0,-997.0,13:35:44.705274,192.168.0.112
437,-1,-100,-100,-100,"0,0,0",0,0,1,0,0,0,57,61,83,70,100,-4.43,8,15.0,9.0,-997.0,13:35:44.806031,192.168.0.112
442,-1,-100,-100,-100,"0,0,0",0,0,1,0,0,0,57,61,83,70,100,-4.41,8,9.0,-8.0,-990.0,13:35:44.908050,192.168.0.112
447,-1,-100,-100,-100,"0,0,0",0,0,1,0,0,0,57,61,83,70,100,-4.36,8,8.0,2.0,-994.0,13:35:45.010870,192.168.0.112
453,-1,-100,-100,-100,"0,0,0",0,0,1,0,0,0,57,61,83,70,100,-4.44,8,3.0,16.0,-986.0,13:35:45.113875,192.168.0.112
458,-1,-100,-100,-100,"0,0,0",0,0,1,0,0,0,57,61,84,70,100,-4.5,8,-3.0,13.0,-991.0,13:35:45.214145,192.168.0.112
463,-1,-100,-100,-100,"0,0,0",0,0,1,0,0,0,57,61,84,70,100,-4.42,9,22.0,2.0,-989.0,13:35:45.316076,192.168.0.112
469,-1,-100,-100,-100,"0,0,0",0,0,1,0,0,0,57,61,83,70,100,-4.43,9,4.0,19.0,-1003.0,13:35:45.418038,192.168.0.112
474,-1,-100,-100,-100,"0,0,0",0,0,1,0,0,0,57,61,83,70,100,-4.5,9,6.0,5.0,-1017.0,13:35:45.524759,192.168.0.112
479,-1,-100,-100,-100,"0,0,0",0,0,1,0,0,0,57,61,84,70,100,-4.43,9,5.0,3.0,-999.0,13:35:45.622066,192.168.0.112
480,-1,-100,-100,-100,"0,0,0",0,0,1,0,0,0,57,61,84,70,100,-4.42,9,4.0,3.0,-997.0,13:35:45.673032,192.168.0.112
489,-1,-100,-100,-100,"0,0,0",0,0,1,0,0,0,58,61,83,70,100,-4.44,9,1.0,7.0,-1003.0,13:35:45.825976,192.168.0.112
491,-1,-100,-100,-100,"0,0,0",0,0,1,0,0,0,58,61,83,70,100,-4.42,9,14.0,-2.0,-1004.0,13:35:45.879663,192.168.0.112
495,-1,-100,-100,-100,"0,0,0",0,0,1,0,0,0,58,61,83,70,100,-4.5,9,-12.0,11.0,-1001.0,13:35:45.979847,192.168.0.112
500,-1,-100,-100,-100,"0,0,0",0,0,1,0,0,0,58,61,84,70,100,-4.45,9,4.0,3.0,-1001.0,13:35:46.082170,192.168.0.112
505,-1,-100,-100,-100,"0,0,0",0,0,1,0,0,0,58,61,83,70,100,-4.46,9,9.0,-5.0,-1000.0,13:35:46.184377,192.168.0.112
511,-1,-100,-100,-100,"0,0,0",0,0,1,0,0,0,58,61,83,70,100,-4.35,10,0.0,-7.0,-1005.0,13:35:46.289193,192.168.0.112
515,-1,-100,-100,-100,"0,0,0",-1,0,1,0,0,0,58,61,83,70,100,-4.41,10,5.0,-9.0,-1003.0,13:35:46.388118,192.168.0.112
521,-1,-100,-100,-100,"0,0,0",-1,0,1,0,0,0,58,61,82,70,100,-4.5,10,-6.0,-1.0,-1012.0,13:35:46.490099,192.168.0.112
526,-1,-100,-100,-100,"0,0,0",-1,0,1,0,0,0,58,61,82,70,100,-4.42,10,-14.0,14.0,-994.0,13:35:46.593573,192.168.0.112
531,-1,-100,-100,-100,"0,0,0",-1,0,1,0,0,0,58,61,83,70,100,-4.43,10,-12.0,-2.0,-992.0,13:35:46.694113,192.168.0.112
537,-1,-100,-100,-100,"0,0,0",-1,0,1,0,0,0,58,61,83,70,100,-4.49,10,0.0,-4.0,-1006.0,13:35:46.796122,192.168.0.112
542,-1,-100,-100,-100,"0,0,0",-1,0,1,0,0,0,58,61,83,70,100,-4.4,10,-14.0,-12.0,-995.0,13:35:46.898397,192.168.0.112
547,-1,-100,-100,-100,"0,0,0",-1,0,1,0,0,0,58,61,82,70,100,-4.44,10,-10.0,-1.0,-994.0,13:35:47.000380,192.168.0.112
552,-1,-100,-100,-100,"0,0,0",-1,0,1,0,0,0,58,61,83,70,100,-4.41,10,-6.0,-7.0,-995.0,13:35:47.102098,192.168.0.112
557,-1,-100,-100,-100,"0,0,0",-1,0,1,0,0,0,58,61,82,70,100,-4.38,10,14.0,-18.0,-1003.0,13:35:47.204158,192.168.0.112
562,-1,-100,-100,-100,"0,0,0",-1,0,1,0,0,0,58,61,83,70,100,-4.41,11,20.0,-37.0,-1007.0,13:35:47.306166,192.168.0.112
567,-1,-100,-100,-100,"0,0,0",0,0,1,0,0,0,58,61,83,70,100,-4.44,11,6.0,-8.0,-1002.0,13:35:47.408155,192.168.0.112
572,-1,-100,-100,-100,"0,0,0",0,1,1,0,0,0,58,61,83,70,100,-4.46,11,14.0,-18.0,-1002.0,13:35:47.510846,192.168.0.112
577,-1,-100,-100,-100,"0,0,0",0,0,1,0,0,0,58,61,83,70,100,-4.48,11,11.0,-6.0,-1009.0,13:35:47.612573,192.168.0.112
582,-1,-100,-100,-100,"0,0,0",0,0,1,0,0,0,58,61,83,70,100,-4.51,11,3.0,-14.0,-987.0,13:35:47.718590,192.168.0.112
587,-1,-100,-100,-100,"0,0,0",0,0,1,0,0,0,58,60,83,70,100,-4.47,11,9.0,-1.0,-991.0,13:35:47.816490,192.168.0.112
592,-1,-100,-100,-100,"0,0,0",0,0,1,0,0,0,58,60,83,70,100,-4.51,11,17.0,-15.0,-998.0,13:35:47.917919,192.168.0.112
597,-1,-100,-100,-100,"0,0,0",0,0,1,0,0,0,58,60,83,70,100,-4.47,11,5.0,-8.0,-991.0,13:35:48.020269,192.168.0.112
602,-1,-100,-100,-100,"0,0,0",0,0,1,0,0,0,58,60,83,70,100,-4.53,11,24.0,-17.0,-996.0,13:35:48.122525,192.168.0.112
607,-1,-100,-100,-100,"0,0,0",0,0,1,0,0,0,58,60,83,70,100,-4.47,11,-7.0,0.0,-998.0,13:35:48.224181,192.168.0.112
612,-1,-100,-100,-100,"0,0,0",0,0,1,0,0,0,58,60,84,70,100,-4.52,12,4.0,-1.0,-1009.0,13:35:48.326359,192.168.0.112
617,-1,-100,-100,-100,"0,0,0",0,0,1,0,0,0,58,60,83,70,100,-4.54,12,10.0,-5.0,-997.0,13:35:48.428861,192.168.0.112
622,-1,-100,-100,-100,"0,0,0",0,0,1,0,0,0,58,60,83,70,100,-4.53,12,2.0,10.0,-994.0,13:35:48.531822,192.168.0.112
628,-1,-100,-100,-100,"0,0,0",0,0,1,0,0,0,58,60,83,70,100,-4.48,12,2.0,-3.0,-999.0,13:35:48.632180,192.168.0.112
630,-1,-100,-100,-100,"0,0,0",0,0,1,0,0,0,58,60,83,70,100,-4.49,12,19.0,-1.0,-996.0,13:35:48.683511,192.168.0.112
638,-1,-100,-100,-100,"0,0,0",0,0,1,0,0,0,58,60,83,70,100,-4.53,12,21.0,-10.0,-1014.0,13:35:48.836411,192.168.0.112
641,-1,-100,-100,-100,"0,0,0",0,0,1,0,0,0,58,60,83,70,100,-4.55,12,7.0,2.0,-1013.0,13:35:48.889677,192.168.0.112
646,-1,-100,-100,-100,"0,0,0",0,0,1,0,0,0,58,60,82,70,100,-4.51,12,1.0,11.0,-1000.0,13:35:48.991963,192.168.0.112
650,-1,-100,-100,-100,"0,0,0",0,0,1,0,0,0,58,60,82,70,100,-4.56,12,13.0,-12.0,-996.0,13:35:49.091450,192.168.0.112
656,-1,-100,-100,-100,"0,0,0",0,0,1,0,0,0,58,60,82,70,100,-4.51,12,19.0,0.0,-1000.0,13:35:49.195731,192.168.0.112
660,-1,-100,-100,-100,"0,0,0",0,0,1,0,0,0,58,60,82,70,100,-4.52,13,3.0,-2.0,-1001.0,13:35:49.296024,192.168.0.112
666,-1,-100,-100,-100,"0,0,0",0,0,1,0,0,0,58,60,82,70,100,-4.59,13,12.0,-6.0,-999.0,13:35:49.397264,192.168.0.112
671,-1,-100,-100,-100,"0,0,0",0,0,1,0,0,0,58,60,82,60,100,-4.52,13,13.0,-17.0,-991.0,13:35:49.499181,192.168.0.112
676,-1,-100,-100,-100,"0,0,0",0,0,1,0,0,0,58,60,82,60,100,-4.5,13,5.0,-3.0,-1015.0,13:35:49.601336,192.168.0.112
681,-1,-100,-100,-100,"0,0,0",0,0,1,0,0,0,58,60,81,60,100,-4.46,13,20.0,-2.0,-1004.0,13:35:49.703275,192.168.0.112
687,-1,-100,-100,-100,"0,0,0",0,0,1,0,0,0,58,62,82,60,100,-4.54,13,1.0,7.0,-1017.0,13:35:49.805393,192.168.0.112
692,-1,-100,-100,-100,"0,0,0",0,0,1,0,0,0,58,62,81,60,100,-4.45,13,12.0,-16.0,-999.0,13:35:49.907129,192.168.0.112
697,-1,-100,-100,-100,"0,0,0",0,0,1,0,0,0,58,62,82,60,100,-4.47,13,17.0,-17.0,-997.0,13:35:50.009192,192.168.0.112
702,-1,-100,-100,-100,"0,0,0",0,0,1,0,0,0,58,62,82,60,100,-4.46,13,22.0,-17.0,-1011.0,13:35:50.111352,192.168.0.112
707,-1,-100,-100,-100,"0,0,0",0,0,1,0,0,0,58,62,82,60,100,-4.51,14,28.0,-15.0,-999.0,13:35:50.213291,192.168.0.112
712,-1,-100,-100,-100,"0,0,0",0,0,1,0,0,0,58,62,82,60,100,-4.54,14,14.0,3.0,-1010.0,13:35:50.315471,192.168.0.112
717,-1,-100,-100,-100,"0,0,0",0,0,1,0,0,0,58,62,81,60,100,-4.47,14,10.0,-3.0,-1006.0,13:35:50.417658,192.168.0.112
722,-1,-100,-100,-100,"0,0,0",0,0,1,0,0,0,58,62,82,60,100,-4.48,14,15.0,-8.0,-995.0,13:35:50.519553,192.168.0.112
727,-1,-100,-100,-100,"0,0,0",0,0,1,0,0,0,58,62,82,60,100,-4.58,14,8.0,4.0,-1008.0,13:35:50.621458,192.168.0.112
732,-1,-100,-100,-100,"0,0,0",0,0,1,0,0,0,58,62,82,60,100,-4.53,14,8.0,0.0,-1007.0,13:35:50.723196,192.168.0.112
737,-1,-100,-100,-100,"0,0,0",0,0,1,0,0,0,58,61,82,60,100,-4.59,14,22.0,-9.0,-1007.0,13:35:50.825266,192.168.0.112
742,-1,-100,-100,-100,"0,0,0",0,0,1,0,0,0,58,61,83,60,100,-4.52,14,4.0,-3.0,-999.0,13:35:50.927287,192.168.0.112
747,-1,-100,-100,-100,"0,0,0",0,0,1,0,0,0,58,61,82,70,100,-4.49,14,6.0,5.0,-993.0,13:35:51.029283,192.168.0.112
752,-1,-100,-100,-100,"0,0,0",0,0,1,0,0,0,58,61,82,70,100,-4.47,14,7.0,5.0,-1012.0,13:35:51.131442,192.168.0.112
757,-1,-100,-100,-100,"0,0,0",-1,0,1,0,0,0,58,61,83,70,100,-4.52,15,0.0,-1.0,-994.0,13:35:51.233322,192.168.0.112
762,-1,-100,-100,-100,"0,0,0",-1,0,1,0,0,0,58,61,82,70,100,-4.5,15,4.0,-3.0,-995.0,13:35:51.335528,192.168.0.112
767,-1,-100,-100,-100,"0,0,0",0,0,1,0,0,0,58,61,83,70,100,-4.52,15,9.0,6.0,-1001.0,13:35:51.437298,192.168.0.112
772,-1,-100,-100,-100,"0,0,0",0,0,1,0,0,0,58,61,82,70,100,-4.54,15,-9.0,11.0,-1002.0,13:35:51.539526,192.168.0.112
777,-1,-100,-100,-100,"0,0,0",0,0,1,0,0,0,58,61,82,70,100,-4.54,15,9.0,5.0,-992.0,13:35:51.641359,192.168.0.112
782,-1,-100,-100,-100,"0,0,0",0,0,1,0,0,0,58,61,82,70,100,-4.55,15,-6.0,9.0,-990.0,13:35:51.743312,192.168.0.112
788,-1,-100,-100,-100,"0,0,0",0,0,1,0,0,0,58,61,83,60,100,-4.55,15,-2.0,7.0,-998.0,13:35:51.848874,192.168.0.112
792,-1,-100,-100,-100,"0,0,0",0,0,1,0,0,0,58,61,82,60,100,-4.5,15,13.0,0.0,-996.0,13:35:51.947400,192.168.0.112
798,-1,-100,-100,-100,"0,0,0",0,0,1,0,0,0,58,61,82,60,100,-4.51,15,24.0,2.0,-1009.0,13:35:52.049343,192.168.0.112
803,-1,-100,-100,-100,"0,0,0",0,0,1,0,0,0,58,61,82,60,100,-4.54,15,10.0,10.0,-1019.0,13:35:52.151131,192.168.0.112
806,-1,-100,-100,-100,"0,0,0",0,0,1,0,0,0,58,61,82,60,100,-4.6,16,-11.0,12.0,-990.0,13:35:52.202408,192.168.0.112
811,-1,-100,-100,-100,"0,0,0",0,0,1,0,0,0,58,61,82,60,100,-4.57,16,-5.0,-1.0,-1000.0,13:35:52.304387,192.168.0.112
816,-1,-100,-100,-100,"0,0,0",-1,0,1,0,0,0,58,61,82,60,100,-4.51,16,23.0,-17.0,-997.0,13:35:52.406405,192.168.0.112
821,-1,-100,-100,-100,"0,0,0",-1,0,1,0,0,0,58,61,81,60,100,-4.56,16,8.0,-9.0,-998.0,13:35:52.508674,192.168.0.112
826,-1,-100,-100,-100,"0,0,0",0,0,1,0,0,0,58,61,81,60,100,-4.48,16,2.0,-10.0,-997.0,13:35:52.610706,192.168.0.112
831,-1,-100,-100,-100,"0,0,0",0,0,1,0,0,0,58,61,82,60,100,-4.44,16,32.0,-17.0,-983.0,13:35:52.712287,192.168.0.112
836,-1,-100,-100,-100,"0,0,0",0,0,1,0,0,0,58,61,82,60,100,-4.56,16,4.0,-15.0,-1009.0,13:35:52.816459,192.168.0.112
842,-1,-100,-100,-100,"0,0,0",0,0,1,0,0,0,58,61,82,60,100,-4.63,16,-5.0,-4.0,-1004.0,13:35:52.916348,192.168.0.112
847,-1,-100,-100,-100,"0,0,0",0,0,1,0,0,0,58,61,82,60,100,-4.54,16,7.0,-9.0,-1001.0,13:35:53.018894,192.168.0.112
852,-1,-100,-100,-100,"0,0,0",0,0,1,0,0,0,58,61,82,60,100,-4.52,16,3.0,-10.0,-1002.0,13:35:53.121223,192.168.0.112
857,-1,-100,-100,-100,"0,0,0",0,0,1,0,0,0,58,61,83,60,100,-4.53,17,5.0,-19.0,-988.0,13:35:53.223686,192.168.0.112
861,-1,-100,-100,-100,"0,0,0",0,1,1,0,0,0,58,61,83,70,100,-4.44,17,22.0,-9.0,-1006.0,13:35:53.325984,192.168.0.112
867,-1,-100,-100,-100,"0,0,0",0,1,1,0,0,0,58,61,82,70,100,-4.56,17,22.0,-15.0,-994.0,13:35:53.428260,192.168.0.112
872,-1,-100,-100,-100,"0,0,0",0,1,1,0,0,0,58,61,83,70,100,-4.42,17,0.0,-5.0,-1000.0,13:35:53.530503,192.168.0.112
877,-1,-100,-100,-100,"0,0,0",0,0,1,0,0,0,58,61,82,60,100,-4.48,17,7.0,0.0,-1005.0,13:35:53.630370,192.168.0.112
882,-1,-100,-100,-100,"0,0,0",-1,0,1,0,0,0,58,61,82,60,100,-4.49,17,7.0,-2.0,-987.0,13:35:53.735462,192.168.0.112
887,-1,-100,-100,-100,"0,0,0",0,0,1,0,0,0,58,61,82,60,100,-4.5,17,-4.0,15.0,-1013.0,13:35:53.838122,192.168.0.112
892,-1,-100,-100,-100,"0,0,0",0,0,1,0,0,0,58,61,82,60,100,-4.52,17,21.0,-22.0,-1016.0,13:35:53.936344,192.168.0.112
897,-1,-100,-100,-100,"0,0,0",0,0,1,0,0,0,58,61,82,70,100,-4.58,17,10.0,1.0,-978.0,13:35:54.038415,192.168.0.112
902,-1,-100,-100,-100,"0,0,0",0,0,1,0,0,0,58,61,82,70,100,-4.56,17,17.0,-12.0,-988.0,13:35:54.140346,192.168.0.112
907,-1,-100,-100,-100,"0,0,0",0,0,1,0,0,0,58,61,82,70,100,-4.6,18,21.0,-15.0,-1002.0,13:35:54.242532,192.168.0.112
912,-1,-100,-100,-100,"0,0,0",0,0,1,0,0,0,58,61,82,70,100,-4.57,18,16.0,-5.0,-1006.0,13:35:54.344367,192.168.0.112
917,-1,-100,-100,-100,"0,0,0",0,0,1,0,0,0,58,61,82,70,100,-4.55,18,19.0,-18.0,-988.0,13:35:54.447440,192.168.0.112
922,-1,-100,-100,-100,"0,0,0",0,0,1,0,0,0,58,61,82,60,100,-4.55,18,38.0,-26.0,-1004.0,13:35:54.548523,192.168.0.112
927,-1,-100,-100,-100,"0,0,0",0,0,1,0,0,0,58,61,82,60,100,-4.48,18,24.0,-8.0,-994.0,13:35:54.650674,192.168.0.112
932,-1,-100,-100,-100,"0,0,0",0,0,1,0,0,0,58,61,82,60,100,-4.54,18,17.0,-10.0,-991.0,13:35:54.755068,192.168.0.112
937,-1,-100,-100,-100,"0,0,0",0,0,1,0,0,0,58,61,82,60,100,-4.55,18,19.0,-11.0,-1013.0,13:35:54.854444,192.168.0.112
942,-1,-100,-100,-100,"0,0,0",0,0,1,0,0,0,58,61,82,60,100,-4.52,18,25.0,-13.0,-993.0,13:35:54.956561,192.168.0.112
947,-1,-100,-100,-100,"0,0,0",0,0,1,0,0,0,58,61,82,60,100,-4.6,18,-11.0,15.0,-992.0,13:35:55.058678,192.168.0.112
952,-1,-100,-100,-100,"0,0,0",0,0,1,0,0,0,58,61,82,60,100,-4.61,18,33.0,-16.0,-1009.0,13:35:55.160562,192.168.0.112
958,-1,-100,-100,-100,"0,0,0",0,0,1,0,0,0,58,61,82,60,100,-4.57,19,28.0,-17.0,-980.0,13:35:55.262461,192.168.0.112
963,-1,-100,-100,-100,"0,0,0",0,0,1,0,0,0,58,61,82,70,100,-4.58,19,24.0,-32.0,-1000.0,13:35:55.364410,192.168.0.112
968,-1,-100,-100,-100,"0,0,0",0,0,1,0,0,0,58,61,82,70,100,-4.55,19,14.0,-1.0,-982.0,13:35:55.466447,192.168.0.112
973,-1,-100,-100,-100,"0,0,0",0,1,1,0,0,0,58,61,82,70,100,-4.59,19,21.0,-12.0,-1004.0,13:35:55.568649,192.168.0.112
978,-1,-100,-100,-100,"0,0,0",0,1,1,0,0,0,58,61,83,70,100,-4.58,19,0.0,0.0,-990.0,13:35:55.670631,192.168.0.112
981,-1,-100,-100,-100,"0,0,0",0,1,1,0,0,0,58,61,82,70,100,-4.58,19,26.0,-22.0,-1001.0,13:35:55.721424,192.168.0.112
988,-1,-100,-100,-100,"0,0,0",0,1,1,0,0,0,59,62,83,70,100,-4.63,19,31.0,-33.0,-1003.0,13:35:55.874742,192.168.0.112
991,-1,-100,-100,-100,"0,0,0",0,1,1,0,0,0,59,62,82,70,100,-4.54,19,36.0,-38.0,-996.0,13:35:55.926236,192.168.0.112
996,-1,-100,-100,-100,"0,0,0",0,1,1,0,0,0,59,62,82,70,100,-4.57,19,24.0,-21.0,-999.0,13:35:56.027553,192.168.0.112
1001,-1,-100,-100,-100,"0,0,0",0,1,1,0,0,0,59,62,83,70,100,-4.57,19,17.0,-23.0,-1003.0,13:35:56.129586,192.168.0.112
1006,-1,-100,-100,-100,"0,0,0",0,1,1,0,0,0,59,62,82,70,100,-4.66,20,19.0,-17.0,-999.0,13:35:56.231791,192.168.0.112
1011,-1,-100,-100,-100,"0,0,0",0,0,1,0,0,0,59,62,82,70,100,-4.61,20,14.0,-12.0,-1000.0,13:35:56.333557,192.168.0.112
1016,-1,-100,-100,-100,"0,0,0",0,0,1,0,0,0,59,62,82,70,100,-4.66,20,20.0,-22.0,-1006.0,13:35:56.435576,192.168.0.112
1021,-1,-100,-100,-100,"0,0,0",0,0,1,0,0,0,59,62,82,70,100,-4.65,20,32.0,-23.0,-997.0,13:35:56.537553,192.168.0.112
1026,-1,-100,-100,-100,"0,0,0",0,0,1,0,0,0,59,62,82,70,100,-4.63,20,10.0,-13.0,-1002.0,13:35:56.639422,192.168.0.112
1031,-1,-100,-100,-100,"0,0,0",0,0,1,0,0,0,59,62,82,70,100,-4.58,20,13.0,-18.0,-1009.0,13:35:56.741884,192.168.0.112
1037,-1,-100,-100,-100,"0,0,0",0,0,1,0,0,0,58,61,81,70,100,-4.61,20,2.0,-1.0,-972.0,13:35:56.843375,192.168.0.112
1042,-1,-100,-100,-100,"0,0,0",0,0,1,0,0,0,58,61,82,60,100,-4.63,20,11.0,-16.0,-999.0,13:35:56.945918,192.168.0.112
1047,-1,-100,-100,-100,"0,0,0",0,0,1,0,0,0,58,61,82,60,100,-4.55,20,19.0,-18.0,-1003.0,13:35:57.048886,192.168.0.112
1052,-1,-100,-100,-100,"0,0,0",0,0,1,0,0,0,58,61,82,60,100,-4.57,20,17.0,-11.0,-999.0,13:35:57.150715,192.168.0.112
1057,-1,-100,-100,-100,"0,0,0",0,0,1,0,0,0,58,61,82,60,100,-4.56,21,9.0,-7.0,-995.0,13:35:57.252628,192.168.0.112
1062,-1,-100,-100,-100,"0,0,0",0,0,1,0,0,0,58,61,82,60,100,-4.61,21,22.0,-15.0,-990.0,13:35:57.355034,192.168.0.112
1067,-1,-100,-100,-100,"0,0,0",0,0,1,0,0,0,58,61,82,60,100,-4.66,21,4.0,-10.0,-989.0,13:35:57.456423,192.168.0.112
1072,-1,-100,-100,-100,"0,0,0",0,0,1,0,0,0,58,61,81,60,100,-4.62,21,-10.0,-5.0,-998.0,13:35:57.558557,192.168.0.112
1077,-1,-100,-100,-100,"0,0,0",0,0,1,0,0,0,58,61,81,60,100,-4.58,21,4.0,-16.0,-987.0,13:35:57.660435,192.168.0.112
1082,-1,-100,-100,-100,"0,0,0",-1,0,1,0,0,0,58,61,81,60,100,-4.61,21,22.0,-4.0,-1009.0,13:35:57.762445,192.168.0.112
1087,-1,-100,-100,-100,"0,0,0",0,0,2,0,0,0,59,61,81,60,100,-4.66,21,4.0,-8.0,-1022.0,13:35:57.869722,192.168.0.112
1092,-1,-100,-100,-100,"0,0,0",0,0,2,0,0,0,59,61,80,60,100,-4.54,21,-5.0,8.0,-1005.0,13:35:57.966723,192.168.0.112
1097,-1,-100,-100,-100,"0,0,0",0,0,2,0,0,0,59,61,81,60,100,-4.63,21,8.0,-7.0,-1007.0,13:35:58.069368,192.168.0.112
1102,-1,-100,-100,-100,"0,0,0",0,0,1,0,0,0,59,61,80,60,100,-4.61,21,-1.0,3.0,-980.0,13:35:58.170974,192.168.0.112
1107,-1,-100,-100,-100,"0,0,0",0,0,1,0,0,0,59,61,80,60,100,-4.62,22,0.0,-4.0,-999.0,13:35:58.272633,192.168.0.112
1112,-1,-100,-100,-100,"0,0,0",0,0,1,0,0,0,59,61,80,60,100,-4.6,22,20.0,-21.0,-1000.0,13:35:58.374572,192.168.0.112
1117,-1,-100,-100,-100,"0,0,0",0,0,1,0,0,0,59,61,80,60,100,-4.57,22,13.0,-14.0,-1003.0,13:35:58.476816,192.168.0.112
1122,-1,-100,-100,-100,"0,0,0",0,1,1,0,0,0,59,61,80,60,100,-4.6,22,-1.0,-7.0,-1016.0,13:35:58.578290,192.168.0.112
1128,-1,-100,-100,-100,"0,0,0",0,0,1,0,0,0,59,61,80,60,100,-4.61,22,21.0,-18.0,-994.0,13:35:58.680543,192.168.0.112
1132,-1,-100,-100,-100,"0,0,0",0,0,1,0,0,0,59,61,79,60,100,-4.54,22,9.0,-3.0,-1009.0,13:35:58.782571,192.168.0.112
1138,-1,-100,-100,-100,"0,0,0",0,1,1,0,0,0,59,62,79,60,100,-4.6,22,13.0,0.0,-1001.0,13:35:58.884668,192.168.0.112
1143,-1,-100,-100,-100,"0,0,0",0,0,1,0,0,0,59,62,80,60,100,-4.6,22,25.0,-18.0,-1009.0,13:35:58.986712,192.168.0.112
1148,-1,-100,-100,-100,"0,0,0",0,0,1,0,0,0,59,62,79,60,100,-4.6,22,14.0,-4.0,-1014.0,13:35:59.088689,192.168.0.112
1153,-1,-100,-100,-100,"0,0,0",0,0,1,0,0,0,59,62,81,60,100,-4.62,22,20.0,-21.0,-991.0,13:35:59.190752,192.168.0.112
1156,-1,-100,-100,-100,"0,0,0",0,0,1,0,0,0,59,62,81,60,100,-4.58,23,39.0,-24.0,-1011.0,13:35:59.241896,192.168.0.112
1161,-1,-100,-100,-100,"0,0,0",0,0,1,0,0,0,59,62,81,60,100,-4.61,23,9.0,-11.0,-1001.0,13:35:59.344149,192.168.0.112
1166,-1,-100,-100,-100,"0,0,0",0,0,1,0,0,0,59,62,81,60,100,-4.63,23,9.0,-4.0,-990.0,13:35:59.445593,192.168.0.112
1171,-1,-100,-100,-100,"0,0,0",0,1,1,0,0,0,59,62,81,60,100,-4.65,23,25.0,-16.0,-994.0,13:35:59.547614,192.168.0.112
1176,-1,-100,-100,-100,"0,0,0",0,0,1,0,0,0,59,62,82,60,100,-4.6,23,14.0,-11.0,-992.0,13:35:59.649654,192.168.0.112
1181,-1,-100,-100,-100,"0,0,0",0,0,1,0,0,0,59,62,82,60,100,-4.65,23,14.0,-10.0,-996.0,13:35:59.751932,192.168.0.112
1187,-1,-100,-100,-100,"0,0,0",0,0,1,0,0,0,60,61,82,60,100,-4.61,23,19.0,-18.0,-1004.0,13:35:59.856598,192.168.0.112
1192,-1,-100,-100,-100,"0,0,0",0,0,1,0,0,0,60,61,82,60,100,-4.59,23,29.0,-16.0,-1005.0,13:35:59.955622,192.168.0.112
1197,-1,-100,-100,-100,"0,0,0",0,0,1,0,0,0,60,61,82,60,100,-4.57,23,27.0,-18.0,-989.0,13:36:00.057884,192.168.0.112
1202,-1,-100,-100,-100,"0,0,0",0,1,1,0,0,0,60,61,82,60,100,-4.57,23,28.0,-22.0,-998.0,13:36:00.159710,192.168.0.112
1207,-1,-100,-100,-100,"0,0,0",0,1,1,0,0,0,60,61,82,60,100,-4.6,24,9.0,-18.0,-997.0,13:36:00.261703,192.168.0.112
1212,-1,-100,-100,-100,"0,0,0",0,0,1,0,0,0,60,61,82,70,100,-4.56,24,8.0,5.0,-1000.0,13:36:00.364032,192.168.0.112
1217,-1,-100,-100,-100,"0,0,0",0,0,1,0,0,0,60,61,82,70,100,-4.59,24,18.0,-16.0,-995.0,13:36:00.465685,192.168.0.112
1222,-1,-100,-100,-100,"0,0,0",0,0,1,0,0,0,60,61,82,70,100,-4.63,24,16.0,-14.0,-991.0,13:36:00.567855,192.168.0.112
1227,-1,-100,-100,-100,"0,0,0",0,0,1,0,0,0,60,61,82,70,100,-4.6,24,24.0,-15.0,-1002.0,13:36:00.669836,192.168.0.112
1232,-1,-100,-100,-100,"0,0,0",0,0,1,0,0,0,60,61,82,70,100,-4.63,24,19.0,-16.0,-1006.0,13:36:00.771773,192.168.0.112
1237,-1,-100,-100,-100,"0,0,0",0,0,1,0,0,0,59,62,82,70,100,-4.58,24,8.0,-12.0,-999.0,13:36:00.873620,192.168.0.112
1242,-1,-100,-100,-100,"0,0,0",0,0,1,0,0,0,59,62,82,70,100,-4.65,24,17.0,-13.0,-989.0,13:36:00.977841,192.168.0.112
1247,-1,-100,-100,-100,"0,0,0",0,0,1,0,0,0,59,62,82,70,100,-4.69,24,-7.0,7.0,-1006.0,13:36:01.077768,192.168.0.112
1252,-1,-100,-100,-100,"0,0,0",0,0,1,0,0,0,59,62,83,70,100,-4.66,24,-3.0,-10.0,-1003.0,13:36:01.180038,192.168.0.112
1257,-1,-100,-100,-100,"0,0,0",0,0,1,0,0,0,59,62,82,70,100,-4.6,25,-3.0,-4.0,-987.0,13:36:01.283223,192.168.0.112
1262,-1,-100,-100,-100,"0,0,0",0,0,1,0,0,0,59,62,82,70,100,-4.54,25,2.0,-8.0,-1003.0,13:36:01.384098,192.168.0.112
1267,-1,-100,-100,-100,"0,0,0",0,0,1,0,0,0,59,62,82,60,100,-4.6,25,22.0,-25.0,-1024.0,13:36:01.485708,192.168.0.112
1272,-1,-100,-100,-100,"0,0,0",0,0,1,0,0,0,59,62,81,60,100,-4.62,25,12.0,-8.0,-997.0,13:36:01.587566,192.168.0.112
1277,-1,-100,-100,-100,"0,0,0",0,0,1,0,0,0,59,62,81,60,100,-4.6,25,25.0,-17.0,-1002.0,13:36:01.689999,192.168.0.112
1282,-1,-100,-100,-100,"0,0,0",0,1,1,0,0,0,59,62,81,60,100,-4.58,25,-3.0,0.0,-1001.0,13:36:01.791772,192.168.0.112
1287,-1,-100,-100,-100,"0,0,0",0,0,1,0,0,0,60,62,81,60,100,-4.68,25,30.0,-27.0,-1001.0,13:36:01.893982,192.168.0.112
1292,-1,-100,-100,-100,"0,0,0",0,0,1,0,0,0,60,62,81,60,100,-4.64,25,29.0,-26.0,-1001.0,13:36:01.995948,192.168.0.112
1297,-1,-100,-100,-100,"0,0,0",0,0,1,0,0,0,60,62,81,60,100,-4.64,25,28.0,-18.0,-995.0,13:36:02.097493,192.168.0.112
1303,-1,-100,-100,-100,"0,0,0",0,0,1,0,0,0,60,62,81,60,100,-4.66,25,22.0,-21.0,-1004.0,13:36:02.200130,192.168.0.112
1308,-1,-100,-100,-100,"0,0,0",0,0,1,0,0,0,60,62,82,60,100,-4.67,26,22.0,-13.0,-1003.0,13:36:02.303877,192.168.0.112
1313,-1,-100,-100,-100,"0,0,0",0,0,1,0,0,0,60,62,82,60,100,-4.64,26,15.0,-11.0,-1002.0,13:36:02.403873,192.168.0.112
1319,-1,-100,-100,-100,"0,0,0",0,0,1,0,0,0,60,62,81,60,100,-4.64,26,3.0,0.0,-1001.0,13:36:02.508955,192.168.0.112
1323,-1,-100,-100,-100,"0,0,0",0,0,1,0,0,0,60,62,82,60,100,-4.6,26,2.0,5.0,-1001.0,13:36:02.607724,192.168.0.112
1326,-1,-100,-100,-100,"0,0,0",0,0,1,0,0,0,60,62,81,60,100,-4.62,26,22.0,1.0,-1000.0,13:36:02.659018,192.168.0.112
1331,-1,-100,-100,-100,"0,0,0",0,0,1,0,0,0,60,62,82,60,100,-4.62,26,7.0,-6.0,-996.0,13:36:02.760816,192.168.0.112
1336,-1,-100,-100,-100,"0,0,0",0,0,1,0,0,0,60,62,82,60,100,-4.58,26,17.0,-15.0,-994.0,13:36:02.862929,192.168.0.112
1341,-1,-100,-100,-100,"0,0,0",0,0,1,0,0,0,60,62,81,60,100,-4.58,26,0.0,0.0,-1003.0,13:36:02.965116,192.168.0.112
1346,-1,-100,-100,-100,"0,0,0",0,0,1,0,0,0,60,62,81,60,100,-4.52,26,5.0,-22.0,-998.0,13:36:03.066808,192.168.0.112
1351,-1,-100,-100,-100,"0,0,0",0,0,1,0,0,0,60,62,82,60,100,-4.58,26,7.0,0.0,-1006.0,13:36:03.168828,192.168.0.112
1357,-1,-100,-100,-100,"0,0,0",0,0,1,0,0,0,60,62,81,60,100,-4.52,27,15.0,-20.0,-993.0,13:36:03.271375,192.168.0.112
1361,-1,-100,-100,-100,"0,0,0",0,0,1,0,0,0,60,62,82,60,100,-4.52,27,2.0,-2.0,-999.0,13:36:03.373529,192.168.0.112
1367,-1,-100,-100,-100,"0,0,0",0,0,1,0,0,0,60,62,82,60,100,-4.58,27,0.0,0.0,-1003.0,13:36:03.477982,192.168.0.112
1372,-1,-100,-100,-100,"0,0,0",0,0,1,0,0,0,60,62,81,60,100,-4.57,27,9.0,-10.0,-994.0,13:36:03.576504,192.168.0.112
1377,-1,-100,-100,-100,"0,0,0",0,0,1,0,0,0,60,62,82,60,100,-4.55,27,13.0,-12.0,-1000.0,13:36:03.679149,192.168.0.112
1382,-1,-100,-100,-100,"0,0,0",0,0,1,0,0,0,60,62,81,60,100,-4.53,27,15.0,-14.0,-995.0,13:36:03.780832,192.168.0.112
1387,-1,-100,-100,-100,"0,0,0",0,0,1,0,0,0,60,62,82,60,100,-4.55,27,-4.0,-6.0,-1018.0,13:36:03.882847,192.168.0.112
1392,-1,-100,-100,-100,"0,0,0",0,0,1,0,0,0,60,62,82,60,100,-4.57,27,14.0,-13.0,-991.0,13:36:03.984876,192.168.0.112
1397,-1,-100,-100,-100,"0,0,0",0,0,1,0,0,0,60,62,82,60,100,-4.52,27,3.0,-3.0,-1003.0,13:36:04.086698,192.168.0.112
1402,-1,-100,-100,-100,"0,0,0",0,0,1,0,0,0,60,62,81,60,100,-4.54,27,-4.0,7.0,-1001.0,13:36:04.190100,192.168.0.112
1407,-1,-100,-100,-100,"0,0,0",0,0,1,0,0,0,60,62,81,60,100,-4.51,28,7.0,-10.0,-1004.0,13:36:04.290837,192.168.0.112
1412,-1,-100,-100,-100,"0,0,0",0,0,1,0,0,0,60,62,81,60,100,-4.58,28,19.0,-18.0,-998.0,13:36:04.393067,192.168.0.112
1417,-1,-100,-100,-100,"0,0,0",0,0,1,0,0,0,60,62,81,60,100,-4.54,28,4.0,3.0,-1003.0,13:36:04.496507,192.168.0.112
1422,-1,-100,-100,-100,"0,0,0",0,0,1,0,0,0,60,62,82,60,100,-4.55,28,1.0,-4.0,-991.0,13:36:04.596933,192.168.0.112
1427,-1,-100,-100,-100,"0,0,0",0,0,1,0,0,0,60,62,81,60,100,-4.6,28,23.0,-20.0,-997.0,13:36:04.698968,192.168.0.112
1432,-1,-100,-100,-100,"0,0,0",0,0,1,0,0,0,60,62,81,60,100,-4.53,28,9.0,-13.0,-995.0,13:36:04.801054,192.168.0.112
1437,-1,-100,-100,-100,"0,0,0",0,0,1,0,0,0,60,62,82,60,100,-4.59,28,18.0,0.0,-997.0,13:36:04.902929,192.168.0.112
1442,-1,-100,-100,-100,"0,0,0",0,0,1,0,0,0,60,62,81,60,100,-4.6,28,15.0,-6.0,-997.0,13:36:05.005995,192.168.0.112
1447,-1,-100,-100,-100,"0,0,0",0,0,1,0,0,0,60,62,82,60,100,-4.6,28,26.0,-12.0,-1006.0,13:36:05.107031,192.168.0.112
1452,-1,-100,-100,-100,"0,0,0",0,0,1,0,0,0,60,62,82,60,100,-4.54,28,-2.0,-3.0,-999.0,13:36:05.209032,192.168.0.112
1457,-1,-100,-100,-100,"0,0,0",0,0,1,0,0,0,60,62,81,60,100,-4.62,29,20.0,-19.0,-999.0,13:36:05.311072,192.168.0.112
1462,-1,-100,-100,-100,"0,0,0",0,0,1,0,0,0,60,62,82,60,100,-4.61,29,3.0,-2.0,-1006.0,13:36:05.412859,192.168.0.112
1467,-1,-100,-100,-100,"0,0,0",0,0,1,0,0,0,60,62,82,60,100,-4.56,29,-2.0,-3.0,-999.0,13:36:05.514816,192.168.0.112
1472,-1,-100,-100,-100,"0,0,0",0,0,1,0,0,0,60,62,82,60,100,-4.55,29,-21.0,14.0,-997.0,13:36:05.617014,192.168.0.112
1478,-1,-100,-100,-100,"0,0,0",0,0,1,0,0,0,60,62,82,60,100,-4.55,29,-1.0,-4.0,-1005.0,13:36:05.720545,192.168.0.112
1481,-1,-100,-100,-100,"0,0,0",0,0,1,0,0,0,60,62,82,60,100,-4.57,29,19.0,-9.0,-1007.0,13:36:05.769956,192.168.0.112
1487,-1,-100,-100,-100,"0,0,0",0,0,1,0,0,0,59,62,82,60,100,-4.54,29,0.0,3.0,-997.0,13:36:05.922603,192.168.0.112
1493,-1,-100,-100,-100,"0,0,0",0,0,1,0,0,0,59,62,81,60,100,-4.54,29,-1.0,6.0,-980.0,13:36:06.024970,192.168.0.112
1498,-1,-100,-100,-100,"0,0,0",0,0,1,0,0,0,59,62,81,60,100,-4.54,29,6.0,-11.0,-1003.0,13:36:06.127295,192.168.0.112
1501,-1,-100,-100,-100,"0,0,0",0,0,1,0,0,0,59,62,82,60,100,-4.57,29,0.0,-8.0,-996.0,13:36:06.178056,192.168.0.112
1506,-1,-100,-100,-100,"0,0,0",0,0,1,0,0,0,59,62,81,60,100,-4.56,30,20.0,-13.0,-1004.0,13:36:06.279914,192.168.0.112
1511,-1,-100,-100,-100,"0,0,0",0,0,1,0,0,0,59,62,82,60,100,-4.57,30,22.0,-27.0,-999.0,13:36:06.381976,192.168.0.112
1516,-1,-100,-100,-100,"0,0,0",0,0,1,0,0,0,59,62,81,60,100,-4.58,30,17.0,-14.0,-994.0,13:36:06.483812,192.168.0.112
1521,-1,-100,-100,-100,"0,0,0",0,0,1,0,0,0,59,62,81,60,100,-4.63,30,-5.0,-20.0,-992.0,13:36:06.586311,192.168.0.112
1526,-1,-100,-100,-100,"0,0,0",0,1,1,0,0,0,59,62,82,60,100,-4.61,30,6.0,-14.0,-1010.0,13:36:06.687625,192.168.0.112
1531,-1,-100,-100,-100,"0,0,0",0,0,1,0,0,0,59,62,82,60,100,-4.59,30,-9.0,-1.0,-1000.0,13:36:06.790067,192.168.0.112
1537,-1,-100,-100,-100,"0,0,0",0,0,1,0,0,0,60,62,82,60,100,-4.55,30,7.0,-12.0,-1007.0,13:36:06.894252,192.168.0.112
1542,-1,-100,-100,-100,"0,0,0",0,0,1,0,0,0,60,62,82,60,100,-4.51,30,-12.0,-1.0,-1004.0,13:36:06.995038,192.168.0.112
1547,-1,-100,-100,-100,"0,0,0",0,0,1,0,0,0,60,62,82,60,100,-4.47,30,0.0,-4.0,-1002.0,13:36:07.096185,192.168.0.112
1552,-1,-100,-100,-100,"0,0,0",0,0,1,0,0,0,60,62,82,60,100,-4.56,30,3.0,-4.0,-999.0,13:36:07.198048,192.168.0.112
1557,-1,-100,-100,-100,"0,0,0",0,0,1,0,0,0,60,62,82,60,100,-4.63,31,20.0,-20.0,-1007.0,13:36:07.300004,192.168.0.112
1562,-1,-100,-100,-100,"0,0,0",0,0,1,0,0,0,60,62,82,60,100,-4.55,31,-4.0,-10.0,-996.0,13:36:07.401926,192.168.0.112
1567,-1,-100,-100,-100,"0,0,0",0,0,1,0,0,0,60,62,82,60,100,-4.56,31,1.0,-15.0,-992.0,13:36:07.504905,192.168.0.112
1572,-1,-100,-100,-100,"0,0,0",0,0,1,0,0,0,60,62,83,60,100,-4.54,31,6.0,-18.0,-998.0,13:36:07.609061,192.168.0.112
1577,-1,-100,-100,-100,"0,0,0",0,0,1,0,0,0,60,62,82,60,100,-4.53,31,-1.0,-18.0,-993.0,13:36:07.709070,192.168.0.112
1582,-1,-100,-100,-100,"0,0,0",0,0,1,0,0,0,60,62,82,60,100,-4.5,31,1.0,-7.0,-989.0,13:36:07.809661,192.168.0.112
1587,-1,-100,-100,-100,"0,0,0",0,0,1,0,0,0,60,62,82,60,100,-4.46,31,9.0,-21.0,-980.0,13:36:07.912051,192.168.0.112
1592,-1,-100,-100,-100,"0,0,0",0,1,1,0,0,0,60,62,82,60,100,-4.52,31,16.0,-36.0,-1002.0,13:36:08.013990,192.168.0.112
1597,-1,-100,-100,-100,"0,0,0",0,1,1,0,0,0,60,62,82,60,100,-4.53,31,10.0,-14.0,-1008.0,13:36:08.116773,192.168.0.112
1602,-1,-100,-100,-100,"0,0,0",0,1,1,0,0,0,60,62,82,60,100,-4.55,31,23.0,-21.0,-997.0,13:36:08.219004,192.168.0.112
1607,-1,-100,-100,-100,"0,0,0",0,1,1,0,0,0,60,62,82,60,100,-4.52,32,-13.0,1.0,-994.0,13:36:08.320998,192.168.0.112
1612,-1,-100,-100,-100,"0,0,0",0,0,1,0,0,0,60,62,81,60,100,-4.44,32,8.0,-14.0,-1010.0,13:36:08.422963,192.168.0.112
1617,-1,-100,-100,-100,"0,0,0",0,0,1,0,0,0,60,62,81,60,100,-4.47,32,-4.0,-3.0,-1006.0,13:36:08.525080,192.168.0.112
1622,-1,-100,-100,-100,"0,0,0",0,0,1,0,0,0,60,62,81,60,100,-4.63,32,-1.0,13.0,-1010.0,13:36:08.627010,192.168.0.112
1627,-1,-100,-100,-100,"0,0,0",0,0,1,0,0,0,60,62,81,60,100,-4.63,32,2.0,-4.0,-995.0,13:36:08.729773,192.168.0.112
1632,-1,-100,-100,-100,"0,0,0",0,0,1,0,0,0,60,62,81,60,100,-4.59,32,-11.0,-4.0,-996.0,13:36:08.830874,192.168.0.112
1637,-1,-100,-100,-100,"0,0,0",0,0,1,0,0,0,60,63,81,60,100,-4.58,32,16.0,-24.0,-1011.0,13:36:08.933220,192.168.0.112
1642,-1,-100,-100,-100,"0,0,0",0,0,1,0,0,0,60,63,81,60,100,-4.48,32,23.0,-32.0,-1017.0,13:36:09.035083,192.168.0.112
1648,-1,-100,-100,-100,"0,0,0",0,0,1,0,0,0,60,63,81,60,100,-4.51,32,18.0,-13.0,-1014.0,13:36:09.139230,192.168.0.112
1651,-1,-100,-100,-100,"0,0,0",0,1,1,0,0,0,60,63,82,60,100,-4.47,32,22.0,-8.0,-1006.0,13:36:09.188146,192.168.0.112
1656,-1,-100,-100,-100,"0,0,0",0,1,1,0,0,0,60,63,82,60,100,-4.51,33,10.0,-6.0,-1012.0,13:36:09.290071,192.168.0.112
1661,-1,-100,-100,-100,"0,0,0",0,1,1,0,0,0,60,63,83,60,100,-4.52,33,9.0,0.0,-988.0,13:36:09.392104,192.168.0.112
1666,-1,-100,-100,-100,"0,0,0",0,0,1,0,0,0,60,63,83,60,100,-4.54,33,5.0,3.0,-1000.0,13:36:09.494137,192.168.0.112
1671,-1,-100,-100,-100,"0,0,0",0,0,1,0,0,0,60,63,83,70,100,-4.51,33,0.0,-4.0,-992.0,13:36:09.596035,192.168.0.112
1676,-1,-100,-100,-100,"0,0,0",0,0,1,0,0,0,60,63,83,70,100,-4.45,33,9.0,-9.0,-987.0,13:36:09.699780,192.168.0.112
1681,-1,-100,-100,-100,"0,0,0",0,0,1,0,0,0,60,63,83,70,100,-4.53,33,0.0,-1.0,-990.0,13:36:09.800111,192.168.0.112
1686,-1,-100,-100,-100,"0,0,0",0,0,1,0,0,0,60,63,84,70,100,-4.46,33,-14.0,12.0,-1000.0,13:36:09.902023,192.168.0.112
1691,-1,-100,-100,-100,"0,0,0",0,0,1,0,0,0,60,63,84,70,100,-4.51,33,8.0,-8.0,-993.0,13:36:10.003791,192.168.0.112
1697,-1,-100,-100,-100,"0,0,0",0,0,1,0,0,0,60,63,84,70,100,-4.45,33,2.0,-2.0,-998.0,13:36:10.106025,192.168.0.112
1702,-1,-100,-100,-100,"0,0,0",0,0,1,0,0,0,60,63,84,70,100,-4.41,34,0.0,-8.0,-988.0,13:36:10.208062,192.168.0.112
1707,-1,-100,-100,-100,"0,0,0",0,0,1,0,0,0,60,63,84,70,100,-4.42,34,-4.0,-7.0,-991.0,13:36:10.310475,192.168.0.112
1712,-1,-100,-100,-100,"0,0,0",0,0,1,0,0,0,60,63,84,70,100,-4.42,34,-9.0,7.0,-1004.0,13:36:10.412114,192.168.0.112
1717,-1,-100,-100,-100,"0,0,0",0,0,1,0,0,0,60,63,84,70,100,-4.49,34,25.0,-10.0,-992.0,13:36:10.514121,192.168.0.112
1722,-1,-100,-100,-100,"0,0,0",0,0,1,0,0,0,60,63,84,70,100,-4.44,34,5.0,-2.0,-994.0,13:36:10.616130,192.168.0.112
1727,-1,-100,-100,-100,"0,0,0",0,0,1,0,0,0,60,63,84,70,100,-4.44,34,8.0,-11.0,-1005.0,13:36:10.718259,192.168.0.112
1732,-1,-100,-100,-100,"0,0,0",0,0,1,0,0,0,60,63,83,70,100,-4.37,34,15.0,-8.0,-1017.0,13:36:10.822211,192.168.0.112
1737,-1,-100,-100,-100,"0,0,0",0,0,1,0,0,0,60,63,83,70,100,-4.45,34,-8.0,-10.0,-1002.0,13:36:10.922352,192.168.0.112
1742,-1,-100,-100,-100,"0,0,0",0,0,1,0,0,0,60,63,82,70,100,-4.44,34,10.0,-10.0,-1003.0,13:36:11.024559,192.168.0.112
1747,-1,-100,-100,-100,"0,0,0",0,0,1,0,0,0,60,63,83,70,100,-4.43,34,5.0,5.0,-1008.0,13:36:11.126681,192.168.0.112
1752,-1,-100,-100,-100,"0,0,0",0,0,1,0,0,0,60,63,82,70,100,-4.43,35,-5.0,13.0,-1003.0,13:36:11.228128,192.168.0.112
1757,-1,-100,-100,-100,"0,0,0",0,0,1,0,0,0,60,63,82,70,100,-4.38,35,1.0,4.0,-1015.0,13:36:11.331337,192.168.0.112
1763,-1,-100,-100,-100,"0,0,0",0,0,1,0,0,0,60,63,82,70,100,-4.41,35,10.0,-5.0,-1009.0,13:36:11.434299,192.168.0.112
1767,-1,-100,-100,-100,"0,0,0",0,0,1,0,0,0,60,63,83,70,100,-4.41,35,2.0,10.0,-1012.0,13:36:11.534572,192.168.0.112
1772,-1,-100,-100,-100,"0,0,0",0,0,1,0,0,0,60,63,83,70,100,-4.47,35,-8.0,-2.0,-995.0,13:36:11.636160,192.168.0.112
1777,-1,-100,-100,-100,"0,0,0",0,0,1,0,0,0,60,63,82,70,100,-4.44,35,5.0,1.0,-1010.0,13:36:11.738293,192.168.0.112
1783,-1,-100,-100,-100,"0,0,0",0,0,1,0,0,0,60,63,82,70,100,-4.43,35,29.0,-14.0,-984.0,13:36:11.841717,192.168.0.112
1787,-1,-100,-100,-100,"0,0,0",0,0,1,0,0,0,60,63,82,70,100,-4.53,35,14.0,-7.0,-1003.0,13:36:11.942490,192.168.0.112
1792,-1,-100,-100,-100,"0,0,0",0,0,1,0,0,0,60,63,82,70,100,-4.48,35,7.0,-4.0,-990.0,13:36:12.044455,192.168.0.112
1797,-1,-100,-100,-100,"0,0,0",0,0,1,0,0,0,60,63,83,70,100,-4.47,35,-2.0,-5.0,-995.0,13:36:12.146095,192.168.0.112
1802,-1,-100,-100,-100,"0,0,0",0,0,1,0,0,0,60,63,82,70,100,-4.44,36,-5.0,16.0,-996.0,13:36:12.248371,192.168.0.112
1807,-1,-100,-100,-100,"0,0,0",0,0,1,0,0,0,60,63,82,70,100,-4.41,36,11.0,-18.0,-989.0,13:36:12.350258,192.168.0.112
1812,-1,-100,-100,-100,"0,0,0",0,0,1,0,0,0,60,63,82,70,100,-4.47,36,-1.0,-3.0,-995.0,13:36:12.452308,192.168.0.112
1817,-1,-100,-100,-100,"0,0,0",0,0,1,0,0,0,60,63,82,70,100,-4.48,36,13.0,0.0,-1013.0,13:36:12.554177,192.168.0.112
1823,-1,-100,-100,-100,"0,0,0",0,0,1,0,0,0,60,63,82,70,100,-4.45,36,15.0,-2.0,-998.0,13:36:12.656290,192.168.0.112
1826,-1,-100,-100,-100,"0,0,0",0,0,1,0,0,0,60,63,82,70,100,-4.46,36,11.0,2.0,-987.0,13:36:12.707256,192.168.0.112
1831,-1,-100,-100,-100,"0,0,0",0,0,1,0,0,0,60,63,82,70,100,-4.44,36,-1.0,9.0,-1000.0,13:36:12.812380,192.168.0.112
1836,-1,-100,-100,-100,"0,0,0",0,0,1,0,0,0,60,62,82,60,100,-4.52,36,5.0,4.0,-998.0,13:36:12.911166,192.168.0.112
1841,-1,-100,-100,-100,"0,0,0",0,0,1,0,0,0,60,62,82,60,100,-4.45,36,-4.0,11.0,-993.0,13:36:13.014042,192.168.0.112
1846,-1,-100,-100,-100,"0,0,0",0,0,1,0,0,0,60,62,81,60,100,-4.43,36,-4.0,10.0,-999.0,13:36:13.116127,192.168.0.112
1852,-1,-100,-100,-100,"0,0,0",0,0,1,0,0,0,60,62,82,60,100,-4.45,37,0.0,8.0,-992.0,13:36:13.217281,192.168.0.112
1857,-1,-100,-100,-100,"0,0,0",0,0,1,0,0,0,60,62,82,60,100,-4.47,37,5.0,4.0,-1001.0,13:36:13.319118,192.168.0.112
1861,-1,-100,-100,-100,"0,0,0",0,0,1,0,0,0,60,62,82,60,100,-4.42,37,7.0,0.0,-996.0,13:36:13.421020,192.168.0.112
1867,-1,-100,-100,-100,"0,0,0",0,0,1,0,0,0,60,62,82,60,100,-4.37,37,-6.0,4.0,-1005.0,13:36:13.523796,192.168.0.112
1872,-1,-100,-100,-100,"0,0,0",0,0,1,0,0,0,60,62,81,60,100,-4.49,37,9.0,-4.0,-994.0,13:36:13.625829,192.168.0.112
1877,-1,-100,-100,-100,"0,0,0",0,0,1,0,0,0,60,62,80,60,100,-4.43,37,8.0,0.0,-1009.0,13:36:13.728333,192.168.0.112
1882,-1,-100,-100,-100,"0,0,0",0,0,1,0,0,0,60,62,81,60,100,-4.4,37,1.0,-1.0,-994.0,13:36:13.831592,192.168.0.112
1887,-1,-100,-100,-100,"0,0,0",0,0,1,0,0,0,60,62,81,60,100,-4.43,37,0.0,13.0,-988.0,13:36:13.932355,192.168.0.112
1892,-1,-100,-100,-100,"0,0,0",0,0,1,0,0,0,60,62,81,60,100,-4.46,37,7.0,10.0,-1000.0,13:36:14.034041,192.168.0.112
1897,-1,-100,-100,-100,"0,0,0",0,0,1,0,0,0,60,62,81,60,100,-4.39,37,16.0,-14.0,-1007.0,13:36:14.136317,192.168.0.112
1902,-1,-100,-100,-100,"0,0,0",0,0,1,0,0,0,60,62,81,60,100,-4.35,38,11.0,6.0,-999.0,13:36:14.238248,192.168.0.112
1907,-1,-100,-100,-100,"0,0,0",0,0,1,0,0,0,60,62,81,60,100,-4.29,38,19.0,-1.0,-993.0,13:36:14.340378,192.168.0.112
1912,-1,-100,-100,-100,"0,0,0",0,0,1,0,0,0,60,62,81,60,100,-4.25,38,-4.0,20.0,-991.0,13:36:14.441921,192.168.0.112
1917,-1,-100,-100,-100,"0,0,0",0,0,1,0,0,0,60,62,81,60,100,-4.27,38,6.0,6.0,-998.0,13:36:14.545809,192.168.0.112
1922,-1,-100,-100,-100,"0,0,0",0,0,1,0,0,0,60,62,81,60,100,-4.33,38,14.0,6.0,-992.0,13:36:14.646364,192.168.0.112
1927,-1,-100,-100,-100,"0,0,0",0,0,1,0,0,0,60,62,81,60,100,-4.37,38,7.0,0.0,-992.0,13:36:14.749048,192.168.0.112
1932,-1,-100,-100,-100,"0,0,0",0,0,1,0,0,0,60,62,81,60,100,-4.35,38,10.0,-11.0,-998.0,13:36:14.850316,192.168.0.112
1937,-1,-100,-100,-100,"0,0,0",0,0,1,0,0,0,60,63,81,60,100,-4.41,38,18.0,-7.0,-1001.0,13:36:14.952316,192.168.0.112
1942,-1,-100,-100,-100,"0,0,0",0,0,1,0,0,0,60,63,81,60,100,-4.47,38,18.0,0.0,-999.0,13:36:15.054516,192.168.0.112
1947,-1,-100,-100,-100,"0,0,0",0,0,1,0,0,0,60,63,81,60,100,-4.56,38,1.0,15.0,-1000.0,13:36:15.156545,192.168.0.112
1953,-1,-100,-100,-100,"0,0,0",0,0,1,0,0,0,60,63,81,60,100,-4.58,39,9.0,-1.0,-1001.0,13:36:15.259953,192.168.0.112
1957,-1,-100,-100,-100,"0,0,0",0,0,1,0,0,0,60,63,80,60,100,-4.58,39,8.0,-1.0,-1005.0,13:36:15.360809,192.168.0.112
1962,-1,-100,-100,-100,"0,0,0",0,0,1,0,0,0,60,63,80,60,100,-4.59,39,4.0,11.0,-992.0,13:36:15.462375,192.168.0.112
1968,-1,-100,-100,-100,"0,0,0",0,0,1,0,0,0,60,63,81,60,100,-4.61,39,26.0,-15.0,-1003.0,13:36:15.565103,192.168.0.112
1973,-1,-100,-100,-100,"0,0,0",0,0,1,0,0,0,60,63,80,60,100,-4.58,39,26.0,0.0,-1015.0,13:36:15.668485,192.168.0.112
1977,-1,-100,-100,-100,"0,0,0",0,0,1,0,0,0,60,63,80,60,100,-4.6,39,4.0,9.0,-1007.0,13:36:15.768306,192.168.0.112
1982,-1,-100,-100,-100,"0,0,0",0,0,1,0,0,0,60,63,81,60,100,-4.58,39,14.0,2.0,-993.0,13:36:15.870602,192.168.0.112
1987,-1,-100,-100,-100,"0,0,0",0,0,1,0,0,0,61,62,81,60,100,-4.54,39,16.0,-1.0,-1014.0,13:36:15.972451,192.168.0.112
1991,-1,-100,-100,-100,"0,0,0",0,0,1,0,0,0,61,62,81,60,100,-4.6,39,11.0,11.0,-1011.0,13:36:16.023109,192.168.0.112
1996,-1,-100,-100,-100,"0,0,0",0,0,1,0,0,0,61,62,81,60,100,-4.62,39,21.0,-6.0,-982.0,13:36:16.125358,192.168.0.112
2001,-1,-100,-100,-100,"0,0,0",0,0,1,0,0,0,61,62,82,60,100,-4.56,40,1.0,19.0,-999.0,13:36:16.227665,192.168.0.112
2006,-1,-100,-100,-100,"0,0,0",0,0,1,0,0,0,61,62,82,60,100,-4.58,40,9.0,-1.0,-971.0,13:36:16.329693,192.168.0.112
2011,-1,-100,-100,-100,"0,0,0",0,0,1,0,0,0,61,62,81,60,100,-4.54,40,35.0,-12.0,-1021.0,13:36:16.431549,192.168.0.112
2016,-1,-100,-100,-100,"0,0,0",0,0,1,0,0,0,61,62,82,60,100,-4.57,40,5.0,9.0,-1012.0,13:36:16.533456,192.168.0.112
2021,-1,-100,-100,-100,"0,0,0",0,0,1,0,0,0,61,62,81,60,100,-4.47,40,14.0,4.0,-1001.0,13:36:16.635619,192.168.0.112
2027,-1,-100,-100,-100,"0,0,0",0,0,1,0,0,0,61,62,81,60,100,-4.59,40,14.0,-11.0,-979.0,13:36:16.737586,192.168.0.112
2032,-1,-100,-100,-100,"0,0,0",1,0,2,0,0,0,61,62,81,60,100,-4.56,40,28.0,-6.0,-1028.0,13:36:16.839637,192.168.0.112
2037,-1,-100,-100,-100,"0,0,0",1,0,1,0,0,0,60,63,82,60,100,-4.56,40,14.0,-2.0,-1008.0,13:36:16.941218,192.168.0.112
2042,-1,-100,-100,-100,"0,0,0",0,0,1,0,0,0,60,63,82,60,100,-4.55,40,9.0,11.0,-993.0,13:36:17.043890,192.168.0.112
2047,-1,-100,-100,-100,"0,0,0",0,0,1,0,0,0,60,63,83,60,100,-4.51,40,22.0,-5.0,-989.0,13:36:17.146437,192.168.0.112
2052,-1,-100,-100,-100,"0,0,0",0,0,1,0,0,0,60,63,82,60,100,-4.5,41,32.0,-13.0,-990.0,13:36:17.247718,192.168.0.112
2057,-1,-100,-100,-100,"0,0,0",0,0,1,0,0,0,60,63,83,70,100,-4.54,41,24.0,-14.0,-1005.0,13:36:17.351118,192.168.0.112
2062,-1,-100,-100,-100,"0,0,0",0,0,1,0,0,0,60,63,83,70,100,-4.59,41,24.0,-6.0,-997.0,13:36:17.451636,192.168.0.112
2067,-1,-100,-100,-100,"0,0,0",1,0,1,0,0,0,60,63,82,70,100,-4.62,41,17.0,-15.0,-979.0,13:36:17.553615,192.168.0.112
2072,-1,-100,-100,-100,"0,0,0",1,0,1,0,0,0,60,63,83,70,100,-4.56,41,37.0,-27.0,-994.0,13:36:17.655627,192.168.0.112
2077,-1,-100,-100,-100,"0,0,0",1,0,1,0,0,0,60,63,83,70,100,-4.57,41,12.0,-4.0,-1004.0,13:36:17.757577,192.168.0.112
2082,-1,-100,-100,-100,"0,0,0",1,0,1,0,0,0,60,63,83,70,100,-4.6,41,40.0,-24.0,-1005.0,13:36:17.859708,192.168.0.112
2087,-1,-100,-100,-100,"0,0,0",1,0,1,0,0,0,61,63,83,70,100,-4.61,41,13.0,0.0,-1004.0,13:36:17.962973,192.168.0.112
2092,-1,-100,-100,-100,"0,0,0",1,0,1,0,0,0,61,63,84,70,100,-4.61,41,18.0,-8.0,-1000.0,13:36:18.063292,192.168.0.112
2097,-1,-100,-100,-100,"0,0,0",1,0,1,0,0,0,61,63,84,70,100,-4.6,41,17.0,-20.0,-992.0,13:36:18.165989,192.168.0.112
2102,-1,-100,-100,-100,"0,0,0",0,0,1,0,0,0,61,63,84,70,100,-4.6,42,-1.0,0.0,-999.0,13:36:18.267396,192.168.0.112
2107,-1,-100,-100,-100,"0,0,0",0,0,1,0,0,0,61,63,84,70,100,-4.59,42,12.0,-2.0,-999.0,13:36:18.369420,192.168.0.112
2112,-1,-100,-100,-100,"0,0,0",0,0,1,0,0,0,61,63,84,70,100,-4.63,42,3.0,7.0,-1003.0,13:36:18.471600,192.168.0.112
2117,-1,-100,-100,-100,"0,0,0",0,0,1,0,0,0,61,63,84,70,100,-4.6,42,16.0,10.0,-987.0,13:36:18.573102,192.168.0.112
2123,-1,-100,-100,-100,"0,0,0",0,0,1,0,0,0,61,63,83,70,100,-4.61,42,10.0,9.0,-1002.0,13:36:18.676247,192.168.0.112
2127,-1,-100,-100,-100,"0,0,0",0,0,1,0,0,0,61,63,83,70,100,-4.69,42,26.0,-16.0,-997.0,13:36:18.777463,192.168.0.112
2132,-1,-100,-100,-100,"0,0,0",0,0,1,0,0,0,61,63,83,70,100,-4.56,42,6.0,2.0,-999.0,13:36:18.879441,192.168.0.112
2137,-1,-100,-100,-100,"0,0,0",0,0,1,0,0,0,61,63,83,70,100,-4.63,42,9.0,-7.0,-1009.0,13:36:18.981489,192.168.0.112
2142,-1,-100,-100,-100,"0,0,0",0,0,1,0,0,0,61,63,83,70,100,-4.64,42,7.0,-10.0,-987.0,13:36:19.083090,192.168.0.112
2147,-1,-100,-100,-100,"0,0,0",0,0,1,0,0,0,61,63,83,70,100,-4.58,42,13.0,6.0,-998.0,13:36:19.185300,192.168.0.112
2153,-1,-100,-100,-100,"0,0,0",0,0,1,0,0,0,61,63,83,70,100,-4.64,43,17.0,-1.0,-990.0,13:36:19.288054,192.168.0.112
2158,-1,-100,-100,-100,"0,0,0",0,0,1,0,0,0,61,63,82,70,100,-4.6,43,30.0,-17.0,-1000.0,13:36:19.390329,192.168.0.112
2161,-1,-100,-100,-100,"0,0,0",0,0,1,0,0,0,61,63,82,70,100,-4.62,43,29.0,-18.0,-1011.0,13:36:19.441398,192.168.0.112
2166,-1,-100,-100,-100,"0,0,0",0,0,1,0,0,0,61,63,83,70,100,-4.59,43,3.0,4.0,-994.0,13:36:19.543391,192.168.0.112
2171,-1,-100,-100,-100,"0,0,0",0,0,1,0,0,0,61,63,82,60,100,-4.62,43,14.0,-11.0,-1009.0,13:36:19.645416,192.168.0.112
2176,-1,-100,-100,-100,"0,0,0",0,0,1,0,0,0,61,63,82,60,100,-4.62,43,0.0,11.0,-998.0,13:36:19.748194,192.168.0.112
2181,-1,-100,-100,-100,"0,0,0",0,0,1,0,0,0,61,63,82,60,100,-4.64,43,15.0,-2.0,-996.0,13:36:19.850066,192.168.0.112
2187,-1,-100,-100,-100,"0,0,0",0,0,1,0,0,0,61,63,82,60,100,-4.61,43,11.0,-8.0,-999.0,13:36:19.952447,192.168.0.112
2192,-1,-100,-100,-100,"0,0,0",0,0,1,0,0,0,61,63,83,60,100,-4.6,43,19.0,-22.0,-998.0,13:36:20.055085,192.168.0.112
2197,-1,-100,-100,-100,"0,0,0",0,0,1,0,0,0,61,63,82,60,100,-4.52,43,23.0,-18.0,-989.0,13:36:20.157289,192.168.0.112
2202,-1,-100,-100,-100,"0,0,0",0,0,1,0,0,0,61,63,82,60,100,-4.5,44,0.0,-4.0,-996.0,13:36:20.259558,192.168.0.112
2207,-1,-100,-100,-100,"0,0,0",0,0,1,0,0,0,61,63,82,60,100,-4.49,44,7.0,-1.0,-1003.0,13:36:20.359780,192.168.0.112
2212,-1,-100,-100,-100,"0,0,0",0,0,1,0,0,0,61,63,82,60,100,-4.46,44,33.0,-8.0,-1008.0,13:36:20.461477,192.168.0.112
2217,-1,-100,-100,-100,"0,0,0",0,0,1,0,0,0,61,63,82,60,100,-4.48,44,24.0,-18.0,-999.0,13:36:20.563438,192.168.0.112
2222,-1,-100,-100,-100,"0,0,0",0,0,1,0,0,0,61,63,82,70,100,-4.48,44,7.0,-3.0,-1002.0,13:36:20.665535,192.168.0.112
2227,-1,-100,-100,-100,"0,0,0",0,0,1,0,0,0,61,63,82,70,100,-4.48,44,17.0,-11.0,-998.0,13:36:20.767466,192.168.0.112
2232,-1,-100,-100,-100,"0,0,0",0,0,1,0,0,0,61,63,82,70,100,-4.52,44,31.0,-14.0,-1009.0,13:36:20.869746,192.168.0.112
2237,-1,-100,-100,-100,"0,0,0",0,0,1,0,0,0,61,63,82,70,100,-4.53,44,27.0,-17.0,-1005.0,13:36:20.971373,192.168.0.112
2242,-1,-100,-100,-100,"0,0,0",0,0,1,0,0,0,61,63,82,60,100,-4.52,44,14.0,-6.0,-1002.0,13:36:21.073693,192.168.0.112
2247,-1,-100,-100,-100,"0,0,0",0,0,1,0,0,0,61,63,82,60,100,-4.52,44,20.0,-18.0,-993.0,13:36:21.175182,192.168.0.112
2252,-1,-100,-100,-100,"0,0,0",0,0,1,0,0,0,61,63,82,60,100,-4.54,45,29.0,-13.0,-1000.0,13:36:21.277381,192.168.0.112
2257,-1,-100,-100,-100,"0,0,0",0,0,1,0,0,0,61,63,82,60,100,-4.53,45,6.0,-4.0,-1000.0,13:36:21.379441,192.168.0.112
2263,-1,-100,-100,-100,"0,0,0",0,0,1,0,0,0,61,63,82,60,100,-4.53,45,11.0,-11.0,-1005.0,13:36:21.481277,192.168.0.112
2267,-1,-100,-100,-100,"0,0,0",0,0,1,0,0,0,61,63,82,60,100,-4.51,45,18.0,-20.0,-998.0,13:36:21.583664,192.168.0.112
2273,-1,-100,-100,-100,"0,0,0",0,0,1,0,0,0,61,63,82,60,100,-4.51,45,5.0,-5.0,-1004.0,13:36:21.685362,192.168.0.112
2278,-1,-100,-100,-100,"0,0,0",0,0,1,0,0,0,61,63,82,60,100,-4.56,45,16.0,-15.0,-979.0,13:36:21.787449,192.168.0.112
2283,-1,-100,-100,-100,"0,0,0",0,0,1,0,0,0,61,63,81,60,100,-4.63,45,15.0,-16.0,-1006.0,13:36:21.889521,192.168.0.112
2288,-1,-100,-100,-100,"0,0,0",0,0,1,0,0,0,61,64,82,60,100,-4.5,45,24.0,-29.0,-1007.0,13:36:21.991358,192.168.0.112
2293,-1,-100,-100,-100,"0,0,0",1,1,1,0,0,0,61,64,82,60,100,-4.55,45,26.0,-8.0,-993.0,13:36:22.093558,192.168.0.112
2298,-1,-100,-100,-100,"0,0,0",1,1,1,0,0,0,61,64,82,60,100,-4.55,45,31.0,-15.0,-996.0,13:36:22.197514,192.168.0.112
2303,-1,-100,-100,-100,"0,0,0",1,1,1,0,0,0,61,64,82,60,100,-4.49,46,37.0,-17.0,-999.0,13:36:22.297502,192.168.0.112
2308,-1,-100,-100,-100,"0,0,0",1,0,1,0,0,0,61,64,82,60,100,-4.54,46,27.0,-18.0,-1017.0,13:36:22.399286,192.168.0.112
2313,-1,-100,-100,-100,"0,0,0",1,0,1,0,0,0,61,64,82,60,100,-4.51,46,18.0,-7.0,-983.0,13:36:22.501505,192.168.0.112
2318,-1,-100,-100,-100,"0,0,0",1,1,1,0,0,0,61,64,82,60,100,-4.5,46,17.0,-4.0,-999.0,13:36:22.603821,192.168.0.112
2323,-1,-100,-100,-100,"0,0,0",1,0,1,0,0,0,61,64,82,60,100,-4.51,46,14.0,-6.0,-987.0,13:36:22.705363,192.168.0.112
2326,-1,-100,-100,-100,"0,0,0",0,0,1,0,0,0,61,64,82,60,100,-4.5,46,33.0,-30.0,-991.0,13:36:22.756886,192.168.0.112
2331,-1,-100,-100,-100,"0,0,0",0,0,2,0,0,0,61,64,81,60,100,-4.52,46,41.0,-21.0,-1006.0,13:36:22.858694,192.168.0.112
2338,-1,-100,-100,-100,"0,0,0",1,1,1,0,0,0,61,63,82,60,100,-4.49,46,30.0,-2.0,-1016.0,13:36:23.011424,192.168.0.112
2341,-1,-100,-100,-100,"0,0,0",1,1,1,0,0,0,61,63,82,60,100,-4.49,46,43.0,-18.0,-998.0,13:36:23.062545,192.168.0.112
2346,-1,-100,-100,-100,"0,0,0",1,1,1,0,0,0,61,63,82,60,100,-4.53,46,24.0,-8.0,-1005.0,13:36:23.164531,192.168.0.112
2352,-1,-100,-100,-100,"0,0,0",1,0,1,0,0,0,61,63,82,60,100,-4.51,47,13.0,2.0,-1004.0,13:36:23.266647,192.168.0.112
2357,-1,-100,-100,-100,"0,0,0",1,0,1,0,0,0,61,63,83,70,100,-4.53,47,20.0,-9.0,-995.0,13:36:23.368611,192.168.0.112
2361,-1,-100,-100,-100,"0,0,0",0,0,1,0,0,0,61,63,83,70,100,-4.54,47,15.0,3.0,-999.0,13:36:23.470761,192.168.0.112
2367,-1,-100,-100,-100,"0,0,0",0,0,1,0,0,0,61,63,82,70,100,-4.51,47,30.0,-22.0,-983.0,13:36:23.572430,192.168.0.112
2372,-1,-100,-100,-100,"0,0,0",0,0,1,0,0,0,61,63,82,70,100,-4.49,47,29.0,-14.0,-992.0,13:36:23.674685,192.168.0.112
2377,-1,-100,-100,-100,"0,0,0",0,0,1,0,0,0,61,63,83,70,100,-4.51,47,29.0,-10.0,-992.0,13:36:23.779996,192.168.0.112
2382,-1,-100,-100,-100,"0,0,0",1,0,1,0,0,0,61,63,82,70,100,-4.47,47,26.0,-19.0,-1005.0,13:36:23.878638,192.168.0.112
2387,-1,-100,-100,-100,"0,0,0",1,0,1,0,0,0,61,63,82,70,100,-4.48,47,32.0,-12.0,-1006.0,13:36:23.980564,192.168.0.112
2392,-1,-100,-100,-100,"0,0,0",1,0,1,0,0,0,61,63,82,70,100,-4.47,47,33.0,-33.0,-1004.0,13:36:24.082635,192.168.0.112
2397,-1,-100,-100,-100,"0,0,0",1,0,1,0,0,0,61,63,82,70,100,-4.47,47,18.0,-17.0,-1001.0,13:36:24.185731,192.168.0.112
2402,-1,-100,-100,-100,"0,0,0",1,1,1,0,0,0,61,63,82,70,100,-4.5,48,40.0,-21.0,-1002.0,13:36:24.286631,192.168.0.112
2407,-1,-100,-100,-100,"0,0,0",1,1,1,0,0,0,61,63,82,70,100,-4.5,48,9.0,2.0,-1007.0,13:36:24.388794,192.168.0.112
2412,-1,-100,-100,-100,"0,0,0",1,1,1,0,0,0,61,63,82,70,100,-4.52,48,6.0,-3.0,-1004.0,13:36:24.493637,192.168.0.112
2417,-1,-100,-100,-100,"0,0,0",1,1,1,0,0,0,61,63,82,60,100,-4.52,48,11.0,-4.0,-1003.0,13:36:24.592764,192.168.0.112
2422,-1,-100,-100,-100,"0,0,0",1,1,1,0,0,0,61,63,82,60,100,-4.51,48,13.0,-7.0,-993.0,13:36:24.696060,192.168.0.112
2427,-1,-100,-100,-100,"0,0,0",1,0,1,0,0,0,61,63,82,60,100,-4.52,48,9.0,4.0,-1004.0,13:36:24.799095,192.168.0.112
2432,-1,-100,-100,-100,"0,0,0",1,0,1,0,0,0,61,63,82,70,100,-4.57,48,13.0,-1.0,-996.0,13:36:24.898707,192.168.0.112
2438,-1,-100,-100,-100,"0,0,0",1,0,1,0,0,0,61,64,83,70,100,-4.52,48,25.0,-13.0,-992.0,13:36:25.000575,192.168.0.112
2443,-1,-100,-100,-100,"0,0,0",0,0,1,0,0,0,61,64,82,70,100,-4.48,48,31.0,-23.0,-990.0,13:36:25.102704,192.168.0.112
2448,-1,-100,-100,-100,"0,0,0",0,0,1,0,0,0,61,64,83,70,100,-4.57,48,25.0,-6.0,-1001.0,13:36:25.204735,192.168.0.112
2453,-1,-100,-100,-100,"0,0,0",1,0,1,0,0,0,61,64,82,70,100,-4.53,49,21.0,-14.0,-1002.0,13:36:25.306497,192.168.0.112
2458,-1,-100,-100,-100,"0,0,0",0,0,1,0,0,0,61,64,82,60,100,-4.57,49,22.0,-5.0,-1007.0,13:36:25.408514,192.168.0.112
2463,-1,-100,-100,-100,"0,0,0",0,0,1,0,0,0,61,64,82,60,100,-4.59,49,20.0,-18.0,-1008.0,13:36:25.512584,192.168.0.112
2468,-1,-100,-100,-100,"0,0,0",0,0,1,0,0,0,61,64,82,60,100,-4.57,49,22.0,-15.0,-996.0,13:36:25.612784,192.168.0.112
2473,-1,-100,-100,-100,"0,0,0",0,0,1,0,0,0,61,64,82,60,100,-4.57,49,9.0,-11.0,-1002.0,13:36:25.714311,192.168.0.112
2477,-1,-100,-100,-100,"0,0,0",0,0,1,0,0,0,61,64,82,60,100,-4.55,49,17.0,-26.0,-988.0,13:36:25.816598,192.168.0.112
2481,-1,-100,-100,-100,"0,0,0",0,0,1,0,0,0,61,64,82,60,100,-4.62,49,22.0,-30.0,-996.0,13:36:25.870707,192.168.0.112
2488,-1,-100,-100,-100,"0,0,0",0,0,1,0,0,0,62,64,82,60,100,-4.61,49,28.0,-30.0,-997.0,13:36:26.020641,192.168.0.112
2493,-1,-100,-100,-100,"0,0,0",0,0,1,0,0,0,62,64,82,60,100,-4.58,49,30.0,-20.0,-998.0,13:36:26.122398,192.168.0.112
2498,-1,-100,-100,-100,"0,0,0",0,1,1,0,0,0,62,64,82,60,100,-4.59,49,22.0,-15.0,-989.0,13:36:26.224615,192.168.0.112
2501,-1,-100,-100,-100,"0,0,0",1,1,1,0,0,0,62,64,82,60,100,-4.6,50,19.0,-14.0,-1000.0,13:36:26.275867,192.168.0.112
2506,-1,-100,-100,-100,"0,0,0",1,0,1,0,0,0,62,64,82,60,100,-4.56,50,11.0,-14.0,-1001.0,13:36:26.377736,192.168.0.112
2511,-1,-100,-100,-100,"0,0,0",0,0,1,0,0,0,62,64,83,60,100,-4.58,50,16.0,-19.0,-990.0,13:36:26.479706,192.168.0.112
2516,-1,-100,-100,-100,"0,0,0",0,0,1,0,0,0,62,64,82,60,100,-4.57,50,23.0,-19.0,-1012.0,13:36:26.582737,192.168.0.112
2521,-1,-100,-100,-100,"0,0,0",0,0,1,0,0,0,62,64,82,60,100,-4.59,50,33.0,-31.0,-987.0,13:36:26.683722,192.168.0.112
2526,-1,-100,-100,-100,"0,0,0",0,0,1,0,0,0,62,64,82,60,100,-4.51,50,36.0,-16.0,-987.0,13:36:26.785796,192.168.0.112
2532,-1,-100,-100,-100,"0,0,0",1,1,1,0,0,0,62,64,82,60,100,-4.53,50,36.0,-25.0,-987.0,13:36:26.891429,192.168.0.112
2537,-1,-100,-100,-100,"0,0,0",1,1,1,0,0,0,61,63,81,60,100,-4.51,50,19.0,-11.0,-986.0,13:36:26.990274,192.168.0.112
2542,-1,-100,-100,-100,"0,0,0",2,0,1,0,0,0,61,63,82,60,100,-4.52,50,31.0,-14.0,-1004.0,13:36:27.092019,192.168.0.112
2547,-1,-100,-100,-100,"0,0,0",2,0,1,0,0,0,61,63,82,60,100,-4.55,50,19.0,1.0,-1014.0,13:36:27.193919,192.168.0.112
2552,-1,-100,-100,-100,"0,0,0",1,0,1,0,0,0,61,63,81,60,100,-4.49,51,33.0,-11.0,-990.0,13:36:27.295914,192.168.0.112
2557,-1,-100,-100,-100,"0,0,0",1,0,1,0,0,0,61,63,82,60,100,-4.55,51,22.0,-4.0,-993.0,13:36:27.397778,192.168.0.112
2562,-1,-100,-100,-100,"0,0,0",1,0,1,0,0,0,61,63,82,60,100,-4.5,51,25.0,-3.0,-1002.0,13:36:27.499770,192.168.0.112
2567,-1,-100,-100,-100,"0,0,0",1,0,1,0,0,0,61,63,82,60,100,-4.47,51,32.0,-16.0,-1006.0,13:36:27.602888,192.168.0.112
2572,-1,-100,-100,-100,"0,0,0",1,0,1,0,0,0,61,63,81,60,100,-4.54,51,28.0,-11.0,-1004.0,13:36:27.704045,192.168.0.112
2577,-1,-100,-100,-100,"0,0,0",1,0,1,0,0,0,61,63,81,60,100,-4.5,51,18.0,-14.0,-990.0,13:36:27.805708,192.168.0.112
2582,-1,-100,-100,-100,"0,0,0",1,0,1,0,0,0,61,63,82,60,100,-4.51,51,24.0,-7.0,-997.0,13:36:27.907790,192.168.0.112
2587,-1,-100,-100,-100,"0,0,0",1,0,1,0,0,0,62,63,81,60,100,-4.49,51,13.0,-19.0,-994.0,13:36:28.009795,192.168.0.112
2592,-1,-100,-100,-100,"0,0,0",1,0,1,0,0,0,62,63,81,60,100,-4.58,51,31.0,-17.0,-1012.0,13:36:28.112176,192.168.0.112
2597,-1,-100,-100,-100,"0,0,0",1,0,1,0,0,0,62,63,81,60,100,-4.59,51,26.0,-10.0,-1001.0,13:36:28.213815,192.168.0.112
2603,-1,-100,-100,-100,"0,0,0",1,0,1,0,0,0,62,63,81,60,100,-4.59,52,19.0,0.0,-1008.0,13:36:28.315421,192.168.0.112
2608,-1,-100,-100,-100,"0,0,0",1,0,1,0,0,0,62,63,81,60,100,-4.57,52,27.0,-25.0,-1002.0,13:36:28.417596,192.168.0.112
