,mid,x,y,z,mpry,pitch,roll,yaw,vgx,vgy,vgz,templ,temph,tof,h,bat,baro,time,agx,agy,agz,timestamp,address
2,-1,-100,-100,-100,"0,0,0",0,0,0,0,0,0,66,68,10,0,100,-6.14,0,-6.0,-5.0,-998.0,13:35:36.065221,192.168.0.114
8,-1,-100,-100,-100,"0,0,0",0,0,0,0,0,0,66,68,10,0,100,-6.13,0,-5.0,-6.0,-1001.0,13:35:36.167190,192.168.0.114
13,-1,-100,-100,-100,"0,0,0",0,0,0,0,0,0,66,68,10,0,100,-6.14,0,-7.0,-5.0,-1001.0,13:35:36.269410,192.168.0.114
19,-1,-100,-100,-100,"0,0,0",0,0,0,0,0,0,66,68,10,0,100,-6.14,0,0.0,-10.0,-998.0,13:35:36.371405,192.168.0.114
24,-1,-100,-100,-100,"0,0,0",0,0,0,0,0,0,66,68,10,0,100,-6.14,0,-6.0,2.0,-986.0,13:35:36.473364,192.168.0.114
29,-1,-100,-100,-100,"0,0,0",0,0,0,0,0,0,66,68,10,0,100,-6.14,0,-16.0,24.0,-1022.0,13:35:36.575340,192.168.0.114
34,-1,-100,-100,-100,"0,0,0",0,0,0,0,0,0,66,68,10,0,100,-6.14,0,-16.0,16.0,-1121.0,13:35:36.676707,192.168.0.114
39,-1,-100,-100,-100,"0,0,0",0,0,0,0,0,2,66,68,10,0,100,-6.14,0,-20.0,19.0,-1032.0,13:35:36.782166,192.168.0.114
44,-1,-100,-100,-100,"0,0,0",0,0,0,0,0,5,66,68,10,0,100,-6.14,0,-2.0,20.0,-1209.0,13:35:36.881025,192.168.0.114
49,-1,-100,-100,-100,"0,0,0",0,0,0,0,0,7,66,68,16,10,100,-5.9,0,-7.0,-3.0,-1396.0,13:35:36.983099,192.168.0.114
54,-1,-100,-100,-100,"0,0,0",0,0,0,0,0,8,66,68,25,10,100,-5.77,0,-3.0,-10.0,-1200.0,13:35:37.085033,192.168.0.114
59,-1,-100,-100,-100,"0,0,0",0,0,0,0,0,8,66,68,34,20,100,-5.71,0,0.0,-7.0,-1070.0,13:35:37.187699,192.168.0.114
64,-1,-100,-100,-100,"0,0,0",0,0,0,0,0,7,66,69,40,30,100,-5.58,1,-10.0,0.0,-983.0,13:35:37.289122,192.168.0.114
69,-1,-100,-100,-100,"0,0,0",0,0,0,0,0,6,66,69,48,40,100,-5.53,1,-5.0,17.0,-957.0,13:35:37.390783,192.168.0.114
74,-1,-100,-100,-100,"0,0,0",0,0,0,0,0,5,66,69,54,40,100,-5.43,1,-13.0,15.0,-897.0,13:35:37.492765,192.168.0.114
75,-1,-100,-100,-100,"0,0,0",-1,-2,0,0,0,4,66,69,59,40,100,-5.33,1,-36.0,55.0,-876.0,13:35:37.544063,192.168.0.114
80,-1,-100,-100,-100,"0,0,0",-1,-2,0,0,0,3,66,69,63,50,100,-5.32,1,-21.0,22.0,-859.0,13:35:37.646268,192.168.0.114
85,-1,-100,-100,-100,"0,0,0",-1,-3,0,0,0,2,66,69,67,50,100,-5.43,1,-15.0,40.0,-920.0,13:35:37.748268,192.168.0.114
90,-1,-100,-100,-100,"0,0,0",-1,-3,0,0,0,1,66,69,69,50,100,-5.32,1,-18.0,37.0,-932.0,13:35:37.850663,192.168.0.114
95,-1,-100,-100,-100,"0,0,0",0,-3,0,0,0,1,66,69,70,50,100,-5.3,1,26.0,38.0,-932.0,13:35:37.952202,192.168.0.114
100,-1,-100,-100,-100,"0,0,0",-1,-3,0,0,0,1,66,69,72,60,100,-5.27,1,-6.0,11.0,-955.0,13:35:38.054198,192.168.0.114
105,-1,-100,-100,-100,"0,0,0",-1,-2,0,0,0,1,66,69,73,60,100,-5.23,1,-28.0,10.0,-985.0,13:35:38.155876,192.168.0.114
111,-1,-100,-100,-100,"0,0,0",-1,-1,0,0,0,1,67,68,76,60,100,-5.19,2,-8.0,2.0,-985.0,13:35:38.258297,192.168.0.114
116,-1,-100,-100,-100,"0,0,0",-1,-1,0,0,0,1,67,68,77,60,100,-5.23,2,-19.0,15.0,-985.0,13:35:38.360151,192.168.0.114
121,-1,-100,-100,-100,"0,0,0",-2,-1,0,0,0,1,67,68,79,60,100,-5.22,2,-26.0,4.0,-981.0,13:35:38.462281,192.168.0.114
126,-1,-100,-100,-100,"0,0,0",-1,-1,0,0,0,1,67,68,80,60,100,-5.25,2,-10.0,6.0,-993.0,13:35:38.564399,192.168.0.114
131,-1,-100,-100,-100,"0,0,0",-1,-1,0,0,0,0,67,68,81,60,100,-5.14,2,-12.0,11.0,-987.0,13:35:38.666252,192.168.0.114
136,-1,-100,-100,-100,"0,0,0",-1,-1,0,0,0,0,67,68,83,60,100,-5.19,2,0.0,2.0,-963.0,13:35:38.768117,192.168.0.114
141,-1,-100,-100,-100,"0,0,0",0,0,0,0,0,0,67,68,84,70,100,-5.15,2,-2.0,7.0,-985.0,13:35:38.870479,192.168.0.114
148,-1,-100,-100,-100,"0,0,0",0,0,0,0,0,0,67,68,85,70,100,-5.21,2,-4.0,5.0,-967.0,13:35:38.974493,192.168.0.114
154,-1,-100,-100,-100,"0,0,0",-1,0,0,0,0,0,67,68,84,70,100,-5.1,2,-13.0,-9.0,-953.0,13:35:39.074163,192.168.0.114
159,-1,-100,-100,-100,"0,0,0",-1,0,0,0,0,0,67,68,85,70,100,-5.1,2,-8.0,6.0,-968.0,13:35:39.177021,192.168.0.114
164,-1,-100,-100,-100,"0,0,0",-1,0,0,0,0,0,67,69,85,70,100,-5.1,3,-11.0,11.0,-985.0,13:35:39.278254,192.168.0.114
169,-1,-100,-100,-100,"0,0,0",-1,0,0,0,0,0,67,69,85,70,100,-5.1,3,-16.0,31.0,-1010.0,13:35:39.380147,192.168.0.114
174,-1,-100,-100,-100,"0,0,0",-1,-1,0,0,0,0,67,69,86,70,100,-5.1,3,0.0,6.0,-1002.0,13:35:39.482315,192.168.0.114
179,-1,-100,-100,-100,"0,0,0",-1,0,0,0,0,0,67,69,86,70,100,-5.15,3,-16.0,5.0,-996.0,13:35:39.584385,192.168.0.114
184,-1,-100,-100,-100,"0,0,0",-1,0,0,0,0,0,67,69,85,70,100,-5.1,3,-13.0,6.0,-984.0,13:35:39.686287,192.168.0.114
189,-1,-100,-100,-100,"0,0,0",-1,0,0,0,0,0,67,69,85,70,100,-5.17,3,-36.0,29.0,-1016.0,13:35:39.788853,192.168.0.114
194,-1,-100,-100,-100,"0,0,0",-1,0,0,0,0,0,67,69,84,70,100,-5.16,3,-27.0,21.0,-985.0,13:35:39.890320,192.168.0.114
199,-1,-100,-100,-100,"0,0,0",-1,-1,0,0,0,0,67,69,84,70,100,-5.1,3,6.0,23.0,-1009.0,13:35:39.993128,192.168.0.114
200,-1,-100,-100,-100,"0,0,0",0,-1,0,0,0,0,67,69,84,70,100,-5.04,3,11.0,30.0,-1024.0,13:35:40.043400,192.168.0.114
205,-1,-100,-100,-100,"0,0,0",0,-1,0,0,0,0,67,69,84,70,100,-5.08,3,5.0,26.0,-999.0,13:35:40.145585,192.168.0.114
210,-1,-100,-100,-100,"0,0,0",-1,-1,0,0,0,0,66,68,83,70,100,-5.18,4,-27.0,27.0,-989.0,13:35:40.248192,192.168.0.114
215,-1,-100,-100,-100,"0,0,0",-1,0,0,0,0,0,66,68,83,70,100,-5.19,4,-14.0,0.0,-1006.0,13:35:40.349490,192.168.0.114
220,-1,-100,-100,-100,"0,0,0",0,-1,0,0,0,0,66,68,83,70,100,-5.11,4,-1.0,31.0,-1008.0,13:35:40.451574,192.168.0.114
225,-1,-100,-100,-100,"0,0,0",0,-1,0,0,0,0,66,68,83,70,100,-5.11,4,-11.0,21.0,-999.0,13:35:40.553210,192.168.0.114
230,-1,-100,-100,-100,"0,0,0",0,-1,0,0,0,0,66,68,83,70,100,-5.11,4,-5.0,31.0,-1017.0,13:35:40.655133,192.168.0.114
235,-1,-100,-100,-100,"0,0,0",0,-1,0,0,0,0,66,68,83,70,100,-5.1,4,1.0,0.0,-980.0,13:35:40.757290,192.168.0.114
240,-1,-100,-100,-100,"0,0,0",0,-1,0,0,0,0,66,68,82,70,100,-5.01,4,-25.0,42.0,-989.0,13:35:40.859391,192.168.0.114
245,-1,-100,-100,-100,"0,0,0",0,-1,0,0,0,0,66,68,82,70,100,-5.08,4,-18.0,9.0,-987.0,13:35:40.961293,192.168.0.114
250,-1,-100,-100,-100,"0,0,0",-1,-1,0,0,0,0,66,68,82,70,100,-5.1,4,-23.0,18.0,-1009.0,13:35:41.063242,192.168.0.114
255,-1,-100,-100,-100,"0,0,0",0,-1,0,0,0,0,66,68,82,70,100,-5.08,4,4.0,18.0,-1007.0,13:35:41.165489,192.168.0.114
260,-1,-100,-100,-100,"0,0,0",0,-1,0,0,0,0,67,69,82,70,100,-5.11,5,3.0,28.0,-996.0,13:35:41.267330,192.168.0.114
265,-1,-100,-100,-100,"0,0,0",0,-1,0,0,0,0,67,69,82,70,100,-5.18,5,18.0,29.0,-990.0,13:35:41.369300,192.168.0.114
270,-1,-100,-100,-100,"0,0,0",0,-2,0,0,0,0,67,69,82,70,100,-5.06,5,3.0,47.0,-1020.0,13:35:41.473243,192.168.0.114
276,-1,-100,-100,-100,"0,0,0",0,-2,0,0,0,0,67,69,82,70,100,-5.12,5,8.0,23.0,-999.0,13:35:41.573590,192.168.0.114
282,-1,-100,-100,-100,"0,0,0",0,-2,0,0,0,0,67,69,82,70,100,-5.12,5,3.0,26.0,-1021.0,13:35:41.675000,192.168.0.114
287,-1,-100,-100,-100,"0,0,0",0,0,0,0,0,0,67,69,82,70,100,-5.12,5,-7.0,26.0,-990.0,13:35:41.777159,192.168.0.114
292,-1,-100,-100,-100,"0,0,0",0,-1,0,0,0,0,67,69,82,70,100,-5.08,5,-20.0,23.0,-1000.0,13:35:41.878982,192.168.0.114
297,-1,-100,-100,-100,"0,0,0",0,-1,0,0,0,0,67,69,83,70,100,-5.04,5,9.0,27.0,-1001.0,13:35:41.981322,192.168.0.114
303,-1,-100,-100,-100,"0,0,0",0,-1,0,0,0,0,67,69,83,70,100,-5.12,5,0.0,-3.0,-976.0,13:35:42.083216,192.168.0.114
308,-1,-100,-100,-100,"0,0,0",0,-1,0,0,0,0,67,69,83,70,100,-5.14,5,0.0,3.0,-1015.0,13:35:42.185156,192.168.0.114
313,-1,-100,-100,-100,"0,0,0",0,0,0,0,0,0,66,69,82,70,100,-5.05,6,10.0,2.0,-1000.0,13:35:42.287447,192.168.0.114
319,-1,-100,-100,-100,"0,0,0",0,0,0,0,0,0,66,69,83,70,100,-5.1,6,-22.0,35.0,-974.0,13:35:42.389167,192.168.0.114
324,-1,-100,-100,-100,"0,0,0",-1,-1,0,0,0,0,66,69,82,70,100,-5.17,6,0.0,20.0,-1013.0,13:35:42.491956,192.168.0.114
329,-1,-100,-100,-100,"0,0,0",-1,-1,0,0,0,0,66,69,82,70,100,-5.13,6,12.0,8.0,-984.0,13:35:42.593598,192.168.0.114
334,-1,-100,-100,-100,"0,0,0",0,-1,0,0,0,0,66,69,82,70,100,-5.21,6,12.0,5.0,-1013.0,13:35:42.695657,192.168.0.114
339,-1,-100,-100,-100,"0,0,0",0,-1,0,0,0,0,66,69,82,70,100,-5.2,6,2.0,20.0,-1008.0,13:35:42.796997,192.168.0.114
340,-1,-100,-100,-100,"0,0,0",0,-1,0,0,0,0,66,69,82,70,100,-5.14,6,0.0,5.0,-996.0,13:35:42.848077,192.168.0.114
345,-1,-100,-100,-100,"0,0,0",0,-1,0,0,0,0,66,69,82,70,100,-5.12,6,-37.0,22.0,-989.0,13:35:42.950789,192.168.0.114
350,-1,-100,-100,-100,"0,0,0",0,-1,0,0,0,0,66,69,82,70,100,-5.14,6,-4.0,19.0,-992.0,13:35:43.052439,192.168.0.114
355,-1,-100,-100,-100,"0,0,0",-1,-1,0,0,0,0,66,69,81,70,100,-5.18,6,1.0,31.0,-995.0,13:35:43.154741,192.168.0.114
360,-1,-100,-100,-100,"0,0,0",0,-2,0,0,0,0,66,68,81,70,100,-5.21,7,-10.0,5.0,-993.0,13:35:43.256505,192.168.0.114
365,-1,-100,-100,-100,"0,0,0",0,-2,0,0,0,0,66,68,82,70,100,-5.18,7,1.0,17.0,-1004.0,13:35:43.358514,192.168.0.114
370,-1,-100,-100,-100,"0,0,0",0,-1,0,0,0,0,66,68,81,70,100,-5.15,7,1.0,39.0,-1012.0,13:35:43.460379,192.168.0.114
375,-1,-100,-100,-100,"0,0,0",-1,-1,0,0,0,0,66,68,81,70,100,-5.2,7,22.0,45.0,-994.0,13:35:43.562050,192.168.0.114
380,-1,-100,-100,-100,"0,0,0",0,-2,0,0,0,0,66,68,82,70,100,-5.18,7,15.0,30.0,-974.0,13:35:43.664491,192.168.0.114
385,-1,-100,-100,-100,"0,0,0",0,-2,0,0,0,0,66,68,82,70,100,-5.11,7,-15.0,9.0,-981.0,13:35:43.766474,192.168.0.114
390,-1,-100,-100,-100,"0,0,0",0,-2,0,0,0,0,66,68,82,70,100,-5.06,7,-5.0,21.0,-988.0,13:35:43.868633,192.168.0.114
395,-1,-100,-100,-100,"0,0,0",0,-1,0,0,0,0,66,68,81,70,100,-5.11,7,-2.0,6.0,-1002.0,13:35:43.971512,192.168.0.114
400,-1,-100,-100,-100,"0,0,0",-1,-1,0,0,0,0,66,68,81,70,100,-5.13,7,-8.0,27.0,-1024.0,13:35:44.073541,192.168.0.114
405,-1,-100,-100,-100,"0,0,0",-1,-2,0,0,0,0,66,68,81,70,100,-5.18,7,-1.0,10.0,-999.0,13:35:44.174763,192.168.0.114
411,-1,-100,-100,-100,"0,0,0",-1,-1,0,0,0,0,66,69,81,70,100,-5.18,8,-14.0,25.0,-1021.0,13:35:44.276170,192.168.0.114
416,-1,-100,-100,-100,"0,0,0",-1,-1,0,0,0,0,66,69,81,70,100,-5.14,8,-10.0,39.0,-1031.0,13:35:44.379268,192.168.0.114
421,-1,-100,-100,-100,"0,0,0",-1,-1,0,0,0,0,66,69,81,70,100,-5.15,8,-29.0,25.0,-1016.0,13:35:44.480535,192.168.0.114
427,-1,-100,-100,-100,"0,0,0",-2,-1,0,0,0,0,66,69,81,70,100,-5.12,8,-10.0,29.0,-1015.0,13:35:44.582437,192.168.0.114
431,-1,-100,-100,-100,"0,0,0",-2,-1,0,0,0,0,66,69,82,70,100,-5.2,8,9.0,3.0,-988.0,13:35:44.684472,192.168.0.114
436,-1,-100,-100,-100,"0,0,0",-2,-1,0,0,0,0,66,69,81,70,100,-5.18,8,-15.0,23.0,-1006.0,13:35:44.786456,192.168.0.114
441,-1,-100,-100,-100,"0,0,0",-1,-1,0,0,0,0,66,69,81,70,100,-5.13,8,-22.0,38.0,-991.0,13:35:44.888573,192.168.0.114
446,-1,-100,-100,-100,"0,0,0",-1,-1,0,0,0,0,66,69,81,70,100,-5.21,8,-30.0,20.0,-977.0,13:35:44.990722,192.168.0.114
452,-1,-100,-100,-100,"0,0,0",-1,-1,0,0,0,0,66,69,81,70,100,-5.22,8,0.0,20.0,-1002.0,13:35:45.092450,192.168.0.114
457,-1,-100,-100,-100,"0,0,0",-1,-1,0,0,0,0,66,69,81,70,100,-5.22,8,-8.0,40.0,-1010.0,13:35:45.194485,192.168.0.114
462,-1,-100,-100,-100,"0,0,0",0,-2,0,0,0,0,67,69,82,70,100,-5.22,9,-10.0,30.0,-1005.0,13:35:45.296788,192.168.0.114
468,-1,-100,-100,-100,"0,0,0",0,-2,0,0,0,0,67,69,82,70,100,-5.2,9,-4.0,-3.0,-997.0,13:35:45.398518,192.168.0.114
473,-1,-100,-100,-100,"0,0,0",0,-2,0,0,0,0,67,69,82,70,100,-5.13,9,2.0,26.0,-994.0,13:35:45.500367,192.168.0.114
478,-1,-100,-100,-100,"0,0,0",0,-1,0,0,0,0,67,69,81,70,100,-5.22,9,-33.0,41.0,-1007.0,13:35:45.602722,192.168.0.114
484,-1,-100,-100,-100,"0,0,0",-1,-1,0,0,0,0,67,69,82,70,100,-5.17,9,-15.0,11.0,-1020.0,13:35:45.704329,192.168.0.114
488,-1,-100,-100,-100,"0,0,0",-1,-1,0,0,0,0,67,69,81,70,100,-5.19,9,-19.0,28.0,-1014.0,13:35:45.806473,192.168.0.114
494,-1,-100,-100,-100,"0,0,0",-1,-1,0,0,0,0,67,69,81,70,100,-5.13,9,-27.0,26.0,-1006.0,13:35:45.908646,192.168.0.114
499,-1,-100,-100,-100,"0,0,0",-1,-1,0,0,0,0,67,69,81,70,100,-5.15,9,-26.0,48.0,-1000.0,13:35:46.010300,192.168.0.114
504,-1,-100,-100,-100,"0,0,0",0,-2,0,0,0,0,67,69,81,70,100,-5.13,9,-51.0,21.0,-974.0,13:35:46.112646,192.168.0.114
509,-1,-100,-100,-100,"0,0,0",-1,-2,0,0,0,0,67,69,82,70,100,-5.17,9,-40.0,17.0,-986.0,13:35:46.215122,192.168.0.114
514,-1,-100,-100,-100,"0,0,0",-2,-2,0,0,0,0,67,69,82,70,100,-5.24,10,-36.0,33.0,-1029.0,13:35:46.316513,192.168.0.114
519,-1,-100,-100,-100,"0,0,0",-2,-1,0,0,0,0,67,69,83,70,100,-5.26,10,-36.0,28.0,-981.0,13:35:46.418566,192.168.0.114
520,-1,-100,-100,-100,"0,0,0",-2,-1,0,0,0,0,67,69,83,70,100,-5.23,10,-14.0,34.0,-1020.0,13:35:46.469527,192.168.0.114
525,-1,-100,-100,-100,"0,0,0",-2,-1,0,0,0,0,67,69,83,70,100,-5.14,10,-26.0,27.0,-996.0,13:35:46.571828,192.168.0.114
530,-1,-100,-100,-100,"0,0,0",-2,-1,0,0,0,0,67,69,83,70,100,-5.18,10,-16.0,0.0,-988.0,13:35:46.673556,192.168.0.114
536,-1,-100,-100,-100,"0,0,0",-1,-1,0,0,0,0,67,69,84,70,100,-5.2,10,-51.0,41.0,-984.0,13:35:46.776641,192.168.0.114
541,-1,-100,-100,-100,"0,0,0",-2,-1,0,0,0,0,67,69,83,70,100,-5.11,10,-33.0,25.0,-990.0,13:35:46.877740,192.168.0.114
546,-1,-100,-100,-100,"0,0,0",-2,-1,0,0,0,0,67,69,84,70,100,-5.19,10,-26.0,28.0,-986.0,13:35:46.980960,192.168.0.114
551,-1,-100,-100,-100,"0,0,0",-1,-2,0,0,0,0,67,69,83,70,100,-5.17,10,-13.0,42.0,-1002.0,13:35:47.081893,192.168.0.114
556,-1,-100,-100,-100,"0,0,0",-1,-1,0,0,0,0,67,69,84,70,100,-5.16,10,-21.0,34.0,-969.0,13:35:47.183532,192.168.0.114
561,-1,-100,-100,-100,"0,0,0",-1,-1,0,0,0,0,66,69,84,70,100,-5.28,11,-41.0,29.0,-1017.0,13:35:47.285533,192.168.0.114
566,-1,-100,-100,-100,"0,0,0",-1,-1,0,0,0,0,66,69,83,70,100,-5.24,11,-19.0,30.0,-1020.0,13:35:47.387545,192.168.0.114
571,-1,-100,-100,-100,"0,0,0",-1,-1,0,0,0,0,66,69,84,70,100,-5.21,11,8.0,16.0,-989.0,13:35:47.489809,192.168.0.114
576,-1,-100,-100,-100,"0,0,0",-1,-1,0,0,0,0,66,69,83,70,100,-5.22,11,-28.0,37.0,-1002.0,13:35:47.591604,192.168.0.114
581,-1,-100,-100,-100,"0,0,0",-1,-1,0,0,0,0,66,69,83,70,100,-5.23,11,-19.0,28.0,-1001.0,13:35:47.694571,192.168.0.114
586,-1,-100,-100,-100,"0,0,0",-1,-1,0,0,0,0,66,69,82,70,100,-5.24,11,0.0,-2.0,-1013.0,13:35:47.796144,192.168.0.114
591,-1,-100,-100,-100,"0,0,0",0,-1,0,0,0,0,66,69,82,70,100,-5.23,11,-20.0,4.0,-986.0,13:35:47.898095,192.168.0.114
596,-1,-100,-100,-100,"0,0,0",0,-1,0,0,0,0,66,69,82,70,100,-5.21,11,-13.0,23.0,-996.0,13:35:48.000808,192.168.0.114
601,-1,-100,-100,-100,"0,0,0",-1,-1,0,0,0,0,66,69,82,70,100,-5.24,11,-4.0,36.0,-1008.0,13:35:48.103288,192.168.0.114
606,-1,-100,-100,-100,"0,0,0",-1,-1,0,0,0,0,66,69,82,70,100,-5.26,11,5.0,13.0,-1013.0,13:35:48.210137,192.168.0.114
611,-1,-100,-100,-100,"0,0,0",0,-1,0,0,0,0,67,68,82,70,100,-5.25,12,1.0,39.0,-993.0,13:35:48.308205,192.168.0.114
616,-1,-100,-100,-100,"0,0,0",0,-1,0,0,0,0,67,68,82,70,100,-5.25,12,-13.0,14.0,-980.0,13:35:48.407655,192.168.0.114
621,-1,-100,-100,-100,"0,0,0",0,-1,0,0,0,0,67,68,82,70,100,-5.23,12,-31.0,34.0,-1007.0,13:35:48.513239,192.168.0.114
627,-1,-100,-100,-100,"0,0,0",0,-1,0,0,0,0,67,68,81,70,100,-5.18,12,-8.0,21.0,-1017.0,13:35:48.615181,192.168.0.114
632,-1,-100,-100,-100,"0,0,0",-1,-1,0,0,0,0,67,68,81,70,100,-5.22,12,-10.0,18.0,-994.0,13:35:48.714181,192.168.0.114
637,-1,-100,-100,-100,"0,0,0",-1,-1,0,0,0,0,67,68,81,70,100,-5.19,12,-2.0,8.0,-997.0,13:35:48.815631,192.168.0.114
643,-1,-100,-100,-100,"0,0,0",-1,-1,0,0,0,0,67,68,82,70,100,-5.28,12,-2.0,9.0,-1007.0,13:35:48.917440,192.168.0.114
648,-1,-100,-100,-100,"0,0,0",-1,-1,0,0,0,0,67,68,81,70,100,-5.25,12,-4.0,0.0,-1012.0,13:35:49.020197,192.168.0.114
654,-1,-100,-100,-100,"0,0,0",-1,-1,0,0,0,0,67,68,81,70,100,-5.3,12,-10.0,24.0,-1022.0,13:35:49.121602,192.168.0.114
659,-1,-100,-100,-100,"0,0,0",-1,-1,0,0,0,0,67,68,81,70,100,-5.28,12,-17.0,9.0,-1000.0,13:35:49.223703,192.168.0.114
664,-1,-100,-100,-100,"0,0,0",-1,-1,0,0,0,0,67,69,81,70,100,-5.3,13,12.0,7.0,-970.0,13:35:49.325644,192.168.0.114
669,-1,-100,-100,-100,"0,0,0",-1,-1,0,0,0,0,67,69,82,70,100,-5.23,13,0.0,30.0,-972.0,13:35:49.427692,192.168.0.114
674,-1,-100,-100,-100,"0,0,0",0,-2,0,0,0,0,67,69,82,70,100,-5.27,13,-4.0,9.0,-1017.0,13:35:49.529691,192.168.0.114
679,-1,-100,-100,-100,"0,0,0",0,-1,0,0,0,0,67,69,82,70,100,-5.23,13,-14.0,12.0,-1028.0,13:35:49.631650,192.168.0.114
684,-1,-100,-100,-100,"0,0,0",0,-1,0,0,0,0,67,69,82,70,100,-5.2,13,-42.0,0.0,-970.0,13:35:49.733541,192.168.0.114
686,-1,-100,-100,-100,"0,0,0",0,-1,0,0,0,0,67,69,81,70,100,-5.24,13,-32.0,0.0,-1008.0,13:35:49.784595,192.168.0.114
691,-1,-100,-100,-100,"0,0,0",-1,-1,0,0,0,0,67,69,81,70,100,-5.24,13,-15.0,16.0,-1006.0,13:35:49.886701,192.168.0.114
696,-1,-100,-100,-100,"0,0,0",-1,0,0,0,0,0,67,69,81,70,100,-5.2,13,-24.0,21.0,-978.0,13:35:49.988692,192.168.0.114
701,-1,-100,-100,-100,"0,0,0",-1,-1,0,0,0,0,67,69,81,70,100,-5.23,13,-3.0,42.0,-1028.0,13:35:50.093051,192.168.0.114
706,-1,-100,-100,-100,"0,0,0",-1,-1,0,0,0,0,67,69,81,70,100,-5.3,13,13.0,14.0,-1004.0,13:35:50.192600,192.168.0.114
711,-1,-100,-100,-100,"0,0,0",-1,-1,0,0,0,0,68,69,81,70,100,-5.31,14,-3.0,26.0,-1010.0,13:35:50.294726,192.168.0.114
716,-1,-100,-100,-100,"0,0,0",0,-1,0,0,0,0,68,69,81,70,100,-5.33,14,0.0,6.0,-994.0,13:35:50.397066,192.168.0.114
721,-1,-100,-100,-100,"0,0,0",0,-1,0,0,0,0,68,69,82,70,100,-5.31,14,-8.0,13.0,-1019.0,13:35:50.498807,192.168.0.114
726,-1,-100,-100,-100,"0,0,0",0,0,0,0,0,0,68,69,82,70,100,-5.31,14,-13.0,6.0,-1002.0,13:35:50.600716,192.168.0.114
731,-1,-100,-100,-100,"0,0,0",0,0,0,0,0,0,68,69,82,70,100,-5.2,14,-16.0,23.0,-987.0,13:35:50.702809,192.168.0.114
736,-1,-100,-100,-100,"0,0,0",0,0,0,0,0,0,68,69,82,70,100,-5.24,14,-9.0,-6.0,-977.0,13:35:50.804842,192.168.0.114
741,-1,-100,-100,-100,"0,0,0",0,0,0,0,0,0,68,69,82,70,100,-5.33,14,-4.0,1.0,-1017.0,13:35:50.906708,192.168.0.114
746,-1,-100,-100,-100,"0,0,0",-1,-1,0,0,0,0,68,69,83,70,100,-5.26,14,-7.0,23.0,-994.0,13:35:51.013271,192.168.0.114
751,-1,-100,-100,-100,"0,0,0",-1,-1,0,0,0,0,68,69,83,70,100,-5.28,14,13.0,1.0,-996.0,13:35:51.110885,192.168.0.114
756,-1,-100,-100,-100,"0,0,0",0,-1,0,0,0,0,68,69,83,70,100,-5.28,14,-5.0,12.0,-1002.0,13:35:51.212747,192.168.0.114
761,-1,-100,-100,-100,"0,0,0",0,0,0,0,0,0,67,68,83,70,100,-5.34,15,-6.0,-3.0,-987.0,13:35:51.314890,192.168.0.114
766,-1,-100,-100,-100,"0,0,0",0,-1,0,0,0,0,67,68,82,70,100,-5.33,15,-15.0,21.0,-1011.0,13:35:51.416765,192.168.0.114
771,-1,-100,-100,-100,"0,0,0",0,-1,0,0,0,0,67,68,82,70,100,-5.35,15,-11.0,11.0,-1004.0,13:35:51.519570,192.168.0.114
776,-1,-100,-100,-100,"0,0,0",0,0,0,0,0,0,67,68,82,70,100,-5.37,15,-16.0,17.0,-989.0,13:35:51.622169,192.168.0.114
781,-1,-100,-100,-100,"0,0,0",0,-1,0,0,0,0,67,68,82,70,100,-5.34,15,-7.0,5.0,-996.0,13:35:51.723947,192.168.0.114
786,-1,-100,-100,-100,"0,0,0",0,0,0,0,0,0,67,68,83,70,100,-5.3,15,-8.0,28.0,-990.0,13:35:51.827442,192.168.0.114
791,-1,-100,-100,-100,"0,0,0",0,0,0,0,0,0,67,68,82,70,100,-5.37,15,16.0,0.0,-992.0,13:35:51.927817,192.168.0.114
797,-1,-100,-100,-100,"0,0,0",0,0,0,0,0,0,67,68,82,70,100,-5.34,15,0.0,9.0,-1022.0,13:35:52.029531,192.168.0.114
802,-1,-100,-100,-100,"0,0,0",0,0,0,0,0,0,67,68,82,70,100,-5.35,15,-3.0,9.0,-992.0,13:35:52.131953,192.168.0.114
808,-1,-100,-100,-100,"0,0,0",0,0,0,0,0,0,67,68,83,70,100,-5.24,15,14.0,14.0,-1013.0,13:35:52.239765,192.168.0.114
813,-1,-100,-100,-100,"0,0,0",0,0,0,0,0,0,67,69,83,70,100,-5.28,16,3.0,10.0,-996.0,13:35:52.335965,192.168.0.114
818,-1,-100,-100,-100,"0,0,0",0,0,0,0,0,0,67,69,83,70,100,-5.3,16,0.0,3.0,-1015.0,13:35:52.437966,192.168.0.114
824,-1,-100,-100,-100,"0,0,0",0,0,0,0,0,0,67,69,83,70,100,-5.29,16,-32.0,26.0,-982.0,13:35:52.540121,192.168.0.114
828,-1,-100,-100,-100,"0,0,0",0,-1,0,0,0,0,67,69,83,70,100,-5.34,16,-19.0,11.0,-1014.0,13:35:52.645563,192.168.0.114
834,-1,-100,-100,-100,"0,0,0",0,-1,0,0,0,0,67,69,83,70,100,-5.25,16,-1.0,5.0,-980.0,13:35:52.743671,192.168.0.114
839,-1,-100,-100,-100,"0,0,0",0,-1,0,0,0,0,67,69,83,70,100,-5.33,16,-7.0,9.0,-972.0,13:35:52.847308,192.168.0.114
841,-1,-100,-100,-100,"0,0,0",-1,-1,0,0,0,0,67,69,83,70,100,-5.31,16,-7.0,11.0,-983.0,13:35:52.898814,192.168.0.114
846,-1,-100,-100,-100,"0,0,0",0,-1,0,0,0,0,67,69,82,70,100,-5.3,16,-7.0,24.0,-1011.0,13:35:52.998909,192.168.0.114
851,-1,-100,-100,-100,"0,0,0",0,-1,0,0,0,0,67,69,83,70,100,-5.26,16,9.0,3.0,-1022.0,13:35:53.100825,192.168.0.114
856,-1,-100,-100,-100,"0,0,0",0,-1,0,0,0,0,67,69,83,70,100,-5.26,16,-11.0,7.0,-984.0,13:35:53.204961,192.168.0.114
864,-1,-100,-100,-100,"0,0,0",0,0,0,0,0,0,67,69,82,70,100,-5.21,17,-25.0,19.0,-979.0,13:35:53.355914,192.168.0.114
866,-1,-100,-100,-100,"0,0,0",0,-1,0,0,0,0,67,69,83,70,100,-5.2,17,-6.0,12.0,-1014.0,13:35:53.410156,192.168.0.114
871,-1,-100,-100,-100,"0,0,0",0,-1,0,0,0,0,67,69,82,70,100,-5.19,17,-47.0,16.0,-998.0,13:35:53.509037,192.168.0.114
876,-1,-100,-100,-100,"0,0,0",-1,-1,0,0,0,0,67,69,81,70,100,-5.26,17,-42.0,-6.0,-989.0,13:35:53.610876,192.168.0.114
881,-1,-100,-100,-100,"0,0,0",-2,0,0,0,0,0,67,69,82,70,100,-5.31,17,0.0,17.0,-994.0,13:35:53.713517,192.168.0.114
886,-1,-100,-100,-100,"0,0,0",-2,-1,0,0,0,0,67,69,82,70,100,-5.2,17,25.0,8.0,-1022.0,13:35:53.814893,192.168.0.114
891,-1,-100,-100,-100,"0,0,0",0,-1,0,0,0,0,67,69,81,70,100,-5.29,17,-2.0,21.0,-1020.0,13:35:53.917422,192.168.0.114
896,-1,-100,-100,-100,"0,0,0",0,-1,0,0,0,0,67,69,81,70,100,-5.35,17,-15.0,15.0,-984.0,13:35:54.018745,192.168.0.114
901,-1,-100,-100,-100,"0,0,0",0,-1,0,0,0,0,67,69,81,70,100,-5.25,17,-2.0,8.0,-1016.0,13:35:54.120911,192.168.0.114
906,-1,-100,-100,-100,"0,0,0",0,-1,0,0,0,0,67,69,81,70,100,-5.34,18,-4.0,23.0,-1012.0,13:35:54.223005,192.168.0.114
911,-1,-100,-100,-100,"0,0,0",0,-1,0,0,0,0,67,69,81,70,100,-5.32,18,-6.0,17.0,-1003.0,13:35:54.324856,192.168.0.114
916,-1,-100,-100,-100,"0,0,0",-1,-1,0,0,0,0,67,69,81,70,100,-5.39,18,-6.0,32.0,-1023.0,13:35:54.426961,192.168.0.114
921,-1,-100,-100,-100,"0,0,0",-1,-1,0,0,0,0,67,69,81,70,100,-5.28,18,23.0,4.0,-994.0,13:35:54.528881,192.168.0.114
926,-1,-100,-100,-100,"0,0,0",0,-1,0,0,0,0,67,69,81,70,100,-5.36,18,14.0,9.0,-1015.0,13:35:54.631339,192.168.0.114
931,-1,-100,-100,-100,"0,0,0",0,-1,0,0,0,0,67,69,80,70,100,-5.32,18,4.0,2.0,-1000.0,13:35:54.732959,192.168.0.114
936,-1,-100,-100,-100,"0,0,0",0,-1,0,0,0,0,67,69,81,70,100,-5.31,18,-2.0,5.0,-1009.0,13:35:54.835394,192.168.0.114
941,-1,-100,-100,-100,"0,0,0",0,-1,0,0,0,0,67,69,79,60,100,-5.36,18,-7.0,18.0,-1001.0,13:35:54.936898,192.168.0.114
946,-1,-100,-100,-100,"0,0,0",0,-1,0,0,0,0,67,69,80,60,100,-5.29,18,-19.0,4.0,-990.0,13:35:55.039066,192.168.0.114
951,-1,-100,-100,-100,"0,0,0",0,-1,0,0,0,0,67,69,80,60,100,-5.27,18,-8.0,0.0,-1020.0,13:35:55.141158,192.168.0.114
957,-1,-100,-100,-100,"0,0,0",0,0,0,0,0,0,67,69,79,60,100,-5.35,19,-21.0,4.0,-1002.0,13:35:55.243015,192.168.0.114
962,-1,-100,-100,-100,"0,0,0",-1,0,0,0,0,0,67,69,80,60,100,-5.33,19,-16.0,0.0,-1021.0,13:35:55.345052,192.168.0.114
967,-1,-100,-100,-100,"0,0,0",-1,0,0,0,0,0,67,69,80,60,100,-5.35,19,-7.0,-9.0,-1009.0,13:35:55.446809,192.168.0.114
972,-1,-100,-100,-100,"0,0,0",-1,0,0,0,0,0,67,69,80,60,100,-5.39,19,-29.0,20.0,-1005.0,13:35:55.548758,192.168.0.114
977,-1,-100,-100,-100,"0,0,0",-1,0,0,0,0,0,67,69,79,60,100,-5.34,19,-35.0,6.0,-997.0,13:35:55.650748,192.168.0.114
983,-1,-100,-100,-100,"0,0,0",-1,0,0,0,0,0,67,69,79,60,100,-5.31,19,-23.0,2.0,-992.0,13:35:55.752952,192.168.0.114
987,-1,-100,-100,-100,"0,0,0",-1,0,0,0,0,0,67,69,80,60,100,-5.26,19,-16.0,22.0,-1002.0,13:35:55.854873,192.168.0.114
993,-1,-100,-100,-100,"0,0,0",-1,0,0,0,0,0,67,69,81,60,100,-5.24,19,0.0,23.0,-1007.0,13:35:55.957188,192.168.0.114
998,-1,-100,-100,-100,"0,0,0",-1,0,0,0,0,0,67,69,80,60,100,-5.33,19,-11.0,7.0,-1001.0,13:35:56.059048,192.168.0.114
1003,-1,-100,-100,-100,"0,0,0",0,0,0,0,0,0,67,69,81,60,100,-5.33,19,15.0,33.0,-1008.0,13:35:56.161183,192.168.0.114
1009,-1,-100,-100,-100,"0,0,0",0,-1,0,0,0,0,67,69,81,70,100,-5.45,20,31.0,13.0,-985.0,13:35:56.262939,192.168.0.114
1014,-1,-100,-100,-100,"0,0,0",0,-1,0,0,0,0,67,69,82,70,100,-5.31,20,5.0,6.0,-981.0,13:35:56.364925,192.168.0.114
1019,-1,-100,-100,-100,"0,0,0",0,-1,0,0,0,0,67,69,82,70,100,-5.33,20,1.0,24.0,-1011.0,13:35:56.466832,192.168.0.114
1024,-1,-100,-100,-100,"0,0,0",0,-1,0,0,0,0,67,69,83,70,100,-5.39,20,-26.0,19.0,-978.0,13:35:56.569044,192.168.0.114
1029,-1,-100,-100,-100,"0,0,0",0,-1,0,0,0,0,67,69,83,70,100,-5.33,20,-12.0,11.0,-971.0,13:35:56.671101,192.168.0.114
1034,-1,-100,-100,-100,"0,0,0",0,-1,0,0,0,0,67,69,83,70,100,-5.36,20,-5.0,19.0,-983.0,13:35:56.772990,192.168.0.114
1036,-1,-100,-100,-100,"0,0,0",0,-1,0,0,0,0,67,69,83,70,100,-5.36,20,-23.0,30.0,-1014.0,13:35:56.824961,192.168.0.114
1041,-1,-100,-100,-100,"0,0,0",0,-1,0,0,0,0,67,69,83,70,100,-5.37,20,-34.0,28.0,-980.0,13:35:56.926017,192.168.0.114
1046,-1,-100,-100,-100,"0,0,0",0,0,0,0,0,0,67,69,83,70,100,-5.33,20,-21.0,34.0,-987.0,13:35:57.028893,192.168.0.114
1051,-1,-100,-100,-100,"0,0,0",-1,0,0,0,0,0,67,69,82,70,100,-5.31,20,-24.0,54.0,-996.0,13:35:57.132280,192.168.0.114
1056,-1,-100,-100,-100,"0,0,0",-1,-2,0,0,0,0,67,69,82,70,100,-5.27,21,-2.0,12.0,-992.0,13:35:57.233110,192.168.0.114
1061,-1,-100,-100,-100,"0,0,0",-1,-2,0,0,0,0,67,69,83,70,100,-5.32,21,-1.0,21.0,-995.0,13:35:57.335019,192.168.0.114
1066,-1,-100,-100,-100,"0,0,0",-1,-2,0,0,0,0,67,69,82,70,100,-5.32,21,-4.0,18.0,-1025.0,13:35:57.437019,192.168.0.114
1071,-1,-100,-100,-100,"0,0,0",-1,-1,0,0,0,0,67,69,82,70,100,-5.31,21,8.0,34.0,-986.0,13:35:57.539065,192.168.0.114
1076,-1,-100,-100,-100,"0,0,0",0,-1,0,0,0,0,67,69,82,70,100,-5.37,21,11.0,31.0,-999.0,13:35:57.641002,192.168.0.114
1081,-1,-100,-100,-100,"0,0,0",0,-1,0,0,0,0,67,69,82,70,100,-5.33,21,4.0,8.0,-998.0,13:35:57.742889,192.168.0.114
1086,-1,-100,-100,-100,"0,0,0",0,-1,0,0,0,0,67,69,82,70,100,-5.38,21,-4.0,29.0,-1000.0,13:35:57.844965,192.168.0.114
1091,-1,-100,-100,-100,"0,0,0",0,-1,0,0,0,0,67,69,82,70,100,-5.32,21,-7.0,32.0,-1029.0,13:35:57.947190,192.168.0.114
1096,-1,-100,-100,-100,"0,0,0",0,0,0,0,0,0,67,69,82,70,100,-5.27,21,-10.0,33.0,-990.0,13:35:58.049074,192.168.0.114
1101,-1,-100,-100,-100,"0,0,0",0,-1,0,0,0,0,67,69,82,70,100,-5.37,21,23.0,31.0,-1018.0,13:35:58.151368,192.168.0.114
1106,-1,-100,-100,-100,"0,0,0",0,-2,0,0,0,0,67,69,82,70,100,-5.35,22,26.0,29.0,-1000.0,13:35:58.253065,192.168.0.114
1111,-1,-100,-100,-100,"0,0,0",0,-2,0,0,0,0,67,69,82,70,100,-5.27,22,21.0,24.0,-982.0,13:35:58.355407,192.168.0.114
1116,-1,-100,-100,-100,"0,0,0",0,-2,0,0,0,0,67,69,81,70,100,-5.46,22,25.0,48.0,-1022.0,13:35:58.457153,192.168.0.114
1121,-1,-100,-100,-100,"0,0,0",0,-2,0,0,0,0,67,69,81,70,100,-5.35,22,1.0,59.0,-1011.0,13:35:58.558959,192.168.0.114
1127,-1,-100,-100,-100,"0,0,0",0,-2,0,0,0,0,67,69,82,70,100,-5.41,22,14.0,16.0,-995.0,13:35:58.661321,192.168.0.114
1131,-1,-100,-100,-100,"0,0,0",0,-2,0,0,0,0,67,69,81,70,100,-5.4,22,-4.0,34.0,-1041.0,13:35:58.763369,192.168.0.114
1137,-1,-100,-100,-100,"0,0,0",0,-2,0,0,0,0,67,69,81,70,100,-5.38,22,19.0,34.0,-1021.0,13:35:58.865261,192.168.0.114
1142,-1,-100,-100,-100,"0,0,0",0,-2,0,0,0,0,67,69,81,70,100,-5.23,22,27.0,40.0,-988.0,13:35:58.967106,192.168.0.114
1147,-1,-100,-100,-100,"0,0,0",0,-3,0,0,0,0,67,69,81,70,100,-5.16,22,30.0,38.0,-983.0,13:35:59.069075,192.168.0.114
1152,-1,-100,-100,-100,"0,0,0",0,-2,0,0,0,0,67,69,81,70,100,-5.32,22,9.0,30.0,-1001.0,13:35:59.175321,192.168.0.114
1158,-1,-100,-100,-100,"0,0,0",0,-1,0,0,0,0,67,69,81,70,100,-5.25,23,-16.0,54.0,-984.0,13:35:59.273411,192.168.0.114
1163,-1,-100,-100,-100,"0,0,0",0,-1,0,0,0,0,68,69,81,60,100,-5.25,23,0.0,39.0,-977.0,13:35:59.375011,192.168.0.114
1168,-1,-100,-100,-100,"0,0,0",0,-2,0,0,0,0,68,69,80,60,100,-5.36,23,5.0,28.0,-1027.0,13:35:59.477274,192.168.0.114
1173,-1,-100,-100,-100,"0,0,0",0,-3,0,0,0,0,68,69,81,60,100,-5.2,23,9.0,39.0,-1023.0,13:35:59.579095,192.168.0.114
1178,-1,-100,-100,-100,"0,0,0",0,-1,0,0,0,0,68,69,81,60,100,-5.33,23,-2.0,7.0,-1012.0,13:35:59.681128,192.168.0.114
1183,-1,-100,-100,-100,"0,0,0",0,-1,0,0,0,0,68,69,81,60,100,-5.31,23,-5.0,23.0,-1021.0,13:35:59.783224,192.168.0.114
1186,-1,-100,-100,-100,"0,0,0",0,-1,0,0,0,0,68,69,81,60,100,-5.39,23,13.0,26.0,-1029.0,13:35:59.834078,192.168.0.114
1191,-1,-100,-100,-100,"0,0,0",0,0,0,0,0,0,68,69,81,60,100,-5.33,23,17.0,13.0,-1014.0,13:35:59.936151,192.168.0.114
1196,-1,-100,-100,-100,"0,0,0",0,0,0,0,0,0,68,69,81,60,100,-5.34,23,8.0,12.0,-1016.0,13:36:00.038402,192.168.0.114
1201,-1,-100,-100,-100,"0,0,0",0,0,0,0,0,0,68,69,81,70,100,-5.32,23,7.0,26.0,-1017.0,13:36:00.140414,192.168.0.114
1206,-1,-100,-100,-100,"0,0,0",0,0,0,0,0,0,68,69,81,70,100,-5.33,24,6.0,6.0,-1011.0,13:36:00.242244,192.168.0.114
1211,-1,-100,-100,-100,"0,0,0",0,-1,0,0,0,0,68,69,81,70,100,-5.41,24,-8.0,7.0,-1006.0,13:36:00.344573,192.168.0.114
1216,-1,-100,-100,-100,"0,0,0",0,-1,0,0,0,0,68,69,82,70,100,-5.35,24,3.0,-2.0,-991.0,13:36:00.446173,192.168.0.114
1221,-1,-100,-100,-100,"0,0,0",0,0,0,0,0,0,68,69,82,70,100,-5.37,24,-8.0,12.0,-989.0,13:36:00.548753,192.168.0.114
1226,-1,-100,-100,-100,"0,0,0",0,0,0,0,0,0,68,69,82,70,100,-5.29,24,4.0,3.0,-967.0,13:36:00.650448,192.168.0.114
1231,-1,-100,-100,-100,"0,0,0",0,0,0,0,0,0,68,69,82,70,100,-5.33,24,-14.0,8.0,-981.0,13:36:00.752072,192.168.0.114
1236,-1,-100,-100,-100,"0,0,0",0,0,0,0,0,0,68,69,82,70,100,-5.34,24,0.0,0.0,-987.0,13:36:00.854353,192.168.0.114
1241,-1,-100,-100,-100,"0,0,0",0,0,0,0,0,0,68,69,82,70,100,-5.28,24,-11.0,14.0,-1006.0,13:36:00.958110,192.168.0.114
1246,-1,-100,-100,-100,"0,0,0",0,0,0,0,0,0,68,69,82,70,100,-5.37,24,3.0,-9.0,-998.0,13:36:01.059656,192.168.0.114
1251,-1,-100,-100,-100,"0,0,0",0,0,0,0,0,0,68,69,82,70,100,-5.32,24,-10.0,11.0,-991.0,13:36:01.160222,192.168.0.114
1256,-1,-100,-100,-100,"0,0,0",0,0,0,0,0,0,68,69,82,70,100,-5.33,25,-1.0,43.0,-997.0,13:36:01.262152,192.168.0.114
1261,-1,-100,-100,-100,"0,0,0",0,0,0,0,0,0,68,69,82,70,100,-5.31,25,19.0,35.0,-992.0,13:36:01.364435,192.168.0.114
1266,-1,-100,-100,-100,"0,0,0",0,-1,0,0,0,0,68,69,82,70,100,-5.24,25,-23.0,50.0,-980.0,13:36:01.466441,192.168.0.114
1271,-1,-100,-100,-100,"0,0,0",0,-1,0,0,0,0,68,69,82,70,100,-5.3,25,1.0,43.0,-984.0,13:36:01.569191,192.168.0.114
1276,-1,-100,-100,-100,"0,0,0",0,-2,0,0,0,0,68,69,82,70,100,-5.11,25,19.0,36.0,-996.0,13:36:01.670235,192.168.0.114
1281,-1,-100,-100,-100,"0,0,0",0,-2,0,0,0,0,68,69,82,70,100,-5.38,25,14.0,31.0,-1032.0,13:36:01.772288,192.168.0.114
1286,-1,-100,-100,-100,"0,0,0",0,-2,0,0,0,0,68,69,82,70,100,-5.44,25,-6.0,50.0,-1026.0,13:36:01.874293,192.168.0.114
1291,-1,-100,-100,-100,"0,0,0",0,-2,0,0,0,0,68,69,81,70,100,-5.37,25,11.0,18.0,-1006.0,13:36:01.976564,192.168.0.114
1296,-1,-100,-100,-100,"0,0,0",0,-2,0,0,0,0,68,69,82,70,100,-5.29,25,5.0,24.0,-1027.0,13:36:02.078238,192.168.0.114
1302,-1,-100,-100,-100,"0,0,0",0,-2,0,0,0,0,68,69,82,70,100,-5.35,25,-11.0,28.0,-988.0,13:36:02.180327,192.168.0.114
1307,-1,-100,-100,-100,"0,0,0",0,-1,0,0,0,0,68,69,82,70,100,-5.33,26,-26.0,32.0,-995.0,13:36:02.282443,192.168.0.114
1312,-1,-100,-100,-100,"0,0,0",0,-1,0,0,0,0,67,70,82,70,100,-5.25,26,2.0,19.0,-1005.0,13:36:02.384516,192.168.0.114
1317,-1,-100,-100,-100,"0,0,0",0,-1,0,0,0,0,67,70,82,70,100,-5.42,26,1.0,49.0,-1031.0,13:36:02.486190,192.168.0.114
1322,-1,-100,-100,-100,"0,0,0",0,-1,0,0,0,0,67,70,82,70,100,-5.3,26,9.0,20.0,-985.0,13:36:02.589085,192.168.0.114
1328,-1,-100,-100,-100,"0,0,0",0,-1,0,0,0,0,67,70,82,70,100,-5.33,26,-7.0,35.0,-963.0,13:36:02.693702,192.168.0.114
1333,-1,-100,-100,-100,"0,0,0",0,-1,0,0,0,0,67,70,82,70,100,-5.3,26,-5.0,55.0,-958.0,13:36:02.793151,192.168.0.114
1338,-1,-100,-100,-100,"0,0,0",0,-2,0,0,0,0,67,70,82,70,100,-5.27,26,-23.0,47.0,-987.0,13:36:02.895490,192.168.0.114
1343,-1,-100,-100,-100,"0,0,0",0,-2,0,0,0,0,67,70,82,70,100,-5.31,26,11.0,25.0,-1037.0,13:36:02.997471,192.168.0.114
1348,-1,-100,-100,-100,"0,0,0",0,-2,0,0,0,0,67,70,82,70,100,-5.31,26,-13.0,15.0,-1013.0,13:36:03.101064,192.168.0.114
1354,-1,-100,-100,-100,"0,0,0",0,-2,0,0,0,0,67,70,82,70,100,-5.27,26,2.0,13.0,-988.0,13:36:03.201296,192.168.0.114
1356,-1,-100,-100,-100,"0,0,0",0,-1,0,0,0,0,67,70,83,70,100,-5.21,27,10.0,34.0,-998.0,13:36:03.252371,192.168.0.114
1364,-1,-100,-100,-100,"0,0,0",0,-1,0,0,0,0,67,70,83,70,100,-5.36,27,-3.0,23.0,-1003.0,13:36:03.406039,192.168.0.114
1366,-1,-100,-100,-100,"0,0,0",0,-1,0,0,0,0,67,70,83,70,100,-5.26,27,19.0,34.0,-997.0,13:36:03.457277,192.168.0.114
1371,-1,-100,-100,-100,"0,0,0",0,-2,0,0,0,0,67,70,83,70,100,-5.35,27,17.0,32.0,-979.0,13:36:03.558913,192.168.0.114
1376,-1,-100,-100,-100,"0,0,0",0,-2,0,0,0,0,67,70,83,70,100,-5.32,27,-2.0,47.0,-987.0,13:36:03.661908,192.168.0.114
1381,-1,-100,-100,-100,"0,0,0",0,-2,0,0,0,0,67,70,83,70,100,-5.3,27,-3.0,51.0,-959.0,13:36:03.762673,192.168.0.114
1386,-1,-100,-100,-100,"0,0,0",0,-2,0,0,0,0,67,70,83,70,100,-5.35,27,7.0,52.0,-1001.0,13:36:03.865966,192.168.0.114
1391,-1,-100,-100,-100,"0,0,0",0,-2,0,0,0,0,67,70,83,70,100,-5.39,27,-20.0,66.0,-1001.0,13:36:03.966326,192.168.0.114
1396,-1,-100,-100,-100,"0,0,0",0,-2,0,0,0,0,67,70,83,70,100,-5.28,27,10.0,39.0,-1007.0,13:36:04.068259,192.168.0.114
1401,-1,-100,-100,-100,"0,0,0",0,-3,0,0,0,0,67,70,84,70,100,-5.31,27,23.0,31.0,-1026.0,13:36:04.170348,192.168.0.114
1406,-1,-100,-100,-100,"0,0,0",0,-3,0,0,0,0,67,70,83,70,100,-5.35,28,-9.0,23.0,-974.0,13:36:04.275234,192.168.0.114
1411,-1,-100,-100,-100,"0,0,0",0,-2,0,0,0,0,67,70,84,70,100,-5.35,28,13.0,24.0,-999.0,13:36:04.374430,192.168.0.114
1416,-1,-100,-100,-100,"0,0,0",0,-1,0,0,0,0,67,70,83,70,100,-5.34,28,11.0,30.0,-999.0,13:36:04.476355,192.168.0.114
1421,-1,-100,-100,-100,"0,0,0",0,-1,0,0,0,0,67,70,83,70,100,-5.36,28,14.0,21.0,-1002.0,13:36:04.578311,192.168.0.114
1426,-1,-100,-100,-100,"0,0,0",0,-1,0,0,0,0,67,70,83,70,100,-5.28,28,19.0,16.0,-1002.0,13:36:04.680358,192.168.0.114
1431,-1,-100,-100,-100,"0,0,0",0,-1,0,0,0,0,67,70,83,70,100,-5.34,28,0.0,19.0,-994.0,13:36:04.782685,192.168.0.114
1436,-1,-100,-100,-100,"0,0,0",0,-1,0,0,0,0,67,70,83,70,100,-5.37,28,12.0,22.0,-1022.0,13:36:04.884412,192.168.0.114
1441,-1,-100,-100,-100,"0,0,0",0,-1,0,0,0,0,67,70,82,70,100,-5.33,28,26.0,18.0,-1034.0,13:36:04.986388,192.168.0.114
1446,-1,-100,-100,-100,"0,0,0",0,-1,0,0,0,0,67,70,82,70,100,-5.36,28,14.0,32.0,-968.0,13:36:05.088748,192.168.0.114
1451,-1,-100,-100,-100,"0,0,0",0,0,0,0,0,0,67,70,82,70,100,-5.32,28,12.0,25.0,-1035.0,13:36:05.190671,192.168.0.114
1456,-1,-100,-100,-100,"0,0,0",0,-1,0,0,0,0,67,70,81,70,100,-5.18,29,6.0,8.0,-999.0,13:36:05.292600,192.168.0.114
1461,-1,-100,-100,-100,"0,0,0",0,-1,0,0,0,0,67,70,81,70,100,-5.32,29,3.0,10.0,-1030.0,13:36:05.395037,192.168.0.114
1466,-1,-100,-100,-100,"0,0,0",0,-1,0,0,0,0,67,70,82,70,100,-5.29,29,3.0,11.0,-989.0,13:36:05.496042,192.168.0.114
1471,-1,-100,-100,-100,"0,0,0",0,0,0,0,0,0,67,70,81,70,100,-5.23,29,-2.0,19.0,-995.0,13:36:05.600562,192.168.0.114
1477,-1,-100,-100,-100,"0,0,0",0,0,0,0,0,0,67,70,82,70,100,-5.45,29,-16.0,46.0,-971.0,13:36:05.700522,192.168.0.114
1482,-1,-100,-100,-100,"0,0,0",0,0,0,0,0,0,67,70,81,70,100,-5.22,29,10.0,15.0,-1000.0,13:36:05.802631,192.168.0.114
1486,-1,-100,-100,-100,"0,0,0",0,-1,0,0,0,0,67,70,82,70,100,-5.26,29,-5.0,2.0,-1015.0,13:36:05.904421,192.168.0.114
1492,-1,-100,-100,-100,"0,0,0",0,-1,0,0,0,0,67,70,82,70,100,-5.2,29,5.0,18.0,-993.0,13:36:06.006449,192.168.0.114
1497,-1,-100,-100,-100,"0,0,0",0,0,0,0,0,0,67,70,82,70,100,-5.25,29,-18.0,23.0,-999.0,13:36:06.108380,192.168.0.114
1503,-1,-100,-100,-100,"0,0,0",0,0,0,0,0,0,67,70,81,70,100,-5.27,29,-7.0,10.0,-988.0,13:36:06.210822,192.168.0.114
1508,-1,-100,-100,-100,"0,0,0",0,-1,0,0,0,0,67,70,81,70,100,-5.22,30,-2.0,6.0,-1018.0,13:36:06.312658,192.168.0.114
1513,-1,-100,-100,-100,"0,0,0",0,0,0,0,0,0,67,69,81,70,100,-5.23,30,5.0,16.0,-1005.0,13:36:06.414037,192.168.0.114
1518,-1,-100,-100,-100,"0,0,0",0,0,0,0,0,0,67,69,81,70,100,-5.29,30,-9.0,9.0,-1000.0,13:36:06.516235,192.168.0.114
1524,-1,-100,-100,-100,"0,0,0",0,0,0,0,0,0,67,69,80,70,100,-5.25,30,-9.0,28.0,-1016.0,13:36:06.618533,192.168.0.114
1528,-1,-100,-100,-100,"0,0,0",0,0,0,0,0,0,67,69,80,70,100,-5.25,30,49.0,3.0,-1015.0,13:36:06.720176,192.168.0.114
1534,-1,-100,-100,-100,"0,0,0",0,0,0,0,0,0,67,69,81,70,100,-5.28,30,5.0,16.0,-1013.0,13:36:06.822481,192.168.0.114
1536,-1,-100,-100,-100,"0,0,0",0,0,0,0,0,0,67,69,80,70,100,-5.28,30,1.0,6.0,-1016.0,13:36:06.873451,192.168.0.114
1541,-1,-100,-100,-100,"0,0,0",0,0,0,0,0,0,67,69,81,70,100,-5.31,30,1.0,13.0,-986.0,13:36:06.975680,192.168.0.114
1546,-1,-100,-100,-100,"0,0,0",0,0,0,0,0,0,67,69,81,70,100,-5.28,30,21.0,-8.0,-989.0,13:36:07.077588,192.168.0.114
1551,-1,-100,-100,-100,"0,0,0",0,0,0,0,0,0,67,69,81,70,100,-5.35,30,2.0,14.0,-983.0,13:36:07.179423,192.168.0.114
1556,-1,-100,-100,-100,"0,0,0",0,0,0,0,0,0,67,69,81,70,100,-5.38,31,-10.0,13.0,-983.0,13:36:07.281418,192.168.0.114
1561,-1,-100,-100,-100,"0,0,0",0,0,0,0,0,0,68,69,81,70,100,-5.32,31,-5.0,11.0,-1003.0,13:36:07.383619,192.168.0.114
1566,-1,-100,-100,-100,"0,0,0",0,0,0,0,0,0,68,69,82,70,100,-5.27,31,0.0,-4.0,-972.0,13:36:07.490969,192.168.0.114
1571,-1,-100,-100,-100,"0,0,0",0,0,0,0,0,0,68,69,81,70,100,-5.24,31,-12.0,1.0,-985.0,13:36:07.587544,192.168.0.114
1576,-1,-100,-100,-100,"0,0,0",0,0,0,0,0,0,68,69,81,70,100,-5.32,31,-8.0,29.0,-1022.0,13:36:07.689427,192.168.0.114
1581,-1,-100,-100,-100,"0,0,0",0,0,0,0,0,0,68,69,81,70,100,-5.29,31,-20.0,21.0,-972.0,13:36:07.791148,192.168.0.114
1586,-1,-100,-100,-100,"0,0,0",0,0,0,0,0,0,68,69,81,70,100,-5.29,31,8.0,7.0,-1005.0,13:36:07.893085,192.168.0.114
1591,-1,-100,-100,-100,"0,0,0",0,0,0,0,0,0,68,69,81,70,100,-5.31,31,-11.0,27.0,-1029.0,13:36:07.995459,192.168.0.114
1596,-1,-100,-100,-100,"0,0,0",0,-1,0,0,0,0,68,69,81,70,100,-5.34,31,-8.0,-1.0,-990.0,13:36:08.098054,192.168.0.114
1601,-1,-100,-100,-100,"0,0,0",-1,-1,0,0,0,0,68,69,81,70,100,-5.36,31,2.0,-8.0,-1014.0,13:36:08.200277,192.168.0.114
1606,-1,-100,-100,-100,"0,0,0",0,0,0,0,0,0,68,69,81,70,100,-5.38,32,6.0,-18.0,-1016.0,13:36:08.302228,192.168.0.114
1611,-1,-100,-100,-100,"0,0,0",0,0,0,0,0,0,68,70,81,70,100,-5.27,32,-9.0,5.0,-1001.0,13:36:08.404212,192.168.0.114
1616,-1,-100,-100,-100,"0,0,0",0,0,0,0,0,0,68,70,81,70,100,-5.31,32,-7.0,4.0,-1024.0,13:36:08.506385,192.168.0.114
1621,-1,-100,-100,-100,"0,0,0",0,0,0,0,0,0,68,70,81,70,100,-5.33,32,-9.0,-7.0,-985.0,13:36:08.612275,192.168.0.114
1626,-1,-100,-100,-100,"0,0,0",0,0,0,0,0,0,68,70,81,70,100,-5.28,32,-11.0,3.0,-1005.0,13:36:08.710542,192.168.0.114
1631,-1,-100,-100,-100,"0,0,0",0,0,0,0,0,0,68,70,81,70,100,-5.24,32,-14.0,0.0,-994.0,13:36:08.812471,192.168.0.114
1636,-1,-100,-100,-100,"0,0,0",0,0,0,0,0,0,68,70,81,70,100,-5.21,32,10.0,-5.0,-999.0,13:36:08.914686,192.168.0.114
1641,-1,-100,-100,-100,"0,0,0",0,0,0,0,0,0,68,70,81,70,100,-5.27,32,-9.0,5.0,-975.0,13:36:09.016787,192.168.0.114
1646,-1,-100,-100,-100,"0,0,0",0,0,0,0,0,0,68,70,81,70,100,-5.3,32,-13.0,1.0,-1027.0,13:36:09.118770,192.168.0.114
1652,-1,-100,-100,-100,"0,0,0",0,0,0,0,0,0,68,70,81,70,100,-5.24,32,-39.0,31.0,-986.0,13:36:09.220884,192.168.0.114
1657,-1,-100,-100,-100,"0,0,0",0,0,0,0,0,0,68,70,80,60,100,-5.24,33,-15.0,21.0,-998.0,13:36:09.322484,192.168.0.114
1663,-1,-100,-100,-100,"0,0,0",0,0,0,0,0,0,68,70,80,60,100,-5.3,33,13.0,0.0,-1029.0,13:36:09.424483,192.168.0.114
1668,-1,-100,-100,-100,"0,0,0",0,0,0,0,0,0,68,70,80,60,100,-5.27,33,-34.0,20.0,-1018.0,13:36:09.526385,192.168.0.114
1673,-1,-100,-100,-100,"0,0,0",0,0,0,0,0,0,68,70,80,60,100,-5.22,33,10.0,4.0,-1022.0,13:36:09.628365,192.168.0.114
1678,-1,-100,-100,-100,"0,0,0",0,0,0,0,0,0,68,70,80,60,100,-5.23,33,29.0,-1.0,-1019.0,13:36:09.730393,192.168.0.114
1683,-1,-100,-100,-100,"0,0,0",0,0,0,0,0,0,68,70,80,60,100,-5.23,33,0.0,9.0,-1015.0,13:36:09.832543,192.168.0.114
1688,-1,-100,-100,-100,"0,0,0",0,0,0,0,0,0,68,70,81,60,100,-5.23,33,7.0,-6.0,-1006.0,13:36:09.934605,192.168.0.114
1693,-1,-100,-100,-100,"0,0,0",0,0,0,0,0,0,68,70,81,70,100,-5.23,33,18.0,-2.0,-1015.0,13:36:10.036449,192.168.0.114
1696,-1,-100,-100,-100,"0,0,0",0,0,0,0,0,0,68,70,81,70,100,-5.28,33,16.0,-4.0,-1003.0,13:36:10.087336,192.168.0.114
1701,-1,-100,-100,-100,"0,0,0",0,0,0,0,0,0,68,70,81,70,100,-5.3,33,14.0,18.0,-1013.0,13:36:10.189459,192.168.0.114
1706,-1,-100,-100,-100,"0,0,0",0,0,0,0,0,0,68,70,81,70,100,-5.25,34,-3.0,13.0,-989.0,13:36:10.291840,192.168.0.114
1711,-1,-100,-100,-100,"0,0,0",0,0,0,0,0,0,67,70,82,70,100,-5.26,34,-6.0,19.0,-985.0,13:36:10.393658,192.168.0.114
1716,-1,-100,-100,-100,"0,0,0",0,0,0,0,0,0,67,70,81,70,100,-5.27,34,-1.0,16.0,-982.0,13:36:10.495627,192.168.0.114
1721,-1,-100,-100,-100,"0,0,0",0,0,0,0,0,0,67,70,81,70,100,-5.26,34,-17.0,16.0,-977.0,13:36:10.597502,192.168.0.114
1726,-1,-100,-100,-100,"0,0,0",0,0,0,0,0,0,67,70,81,70,100,-5.23,34,5.0,9.0,-1018.0,13:36:10.699495,192.168.0.114
1731,-1,-100,-100,-100,"0,0,0",0,0,0,0,0,0,67,70,81,70,100,-5.22,34,11.0,9.0,-1016.0,13:36:10.802713,192.168.0.114
1736,-1,-100,-100,-100,"0,0,0",0,0,0,0,0,0,67,70,80,70,100,-5.21,34,15.0,0.0,-1008.0,13:36:10.903601,192.168.0.114
1741,-1,-100,-100,-100,"0,0,0",0,0,0,0,0,0,67,70,80,70,100,-5.24,34,14.0,9.0,-995.0,13:36:11.005645,192.168.0.114
1746,-1,-100,-100,-100,"0,0,0",0,0,0,0,0,0,67,70,80,60,100,-5.14,34,21.0,6.0,-994.0,13:36:11.107640,192.168.0.114
1751,-1,-100,-100,-100,"0,0,0",0,0,0,0,0,0,67,70,80,60,100,-5.22,34,19.0,6.0,-1019.0,13:36:11.209644,192.168.0.114
1756,-1,-100,-100,-100,"0,0,0",0,0,0,0,0,0,67,70,80,60,100,-5.16,35,-8.0,20.0,-1000.0,13:36:11.311925,192.168.0.114
1761,-1,-100,-100,-100,"0,0,0",0,0,0,0,0,0,68,70,80,60,100,-5.07,35,17.0,-17.0,-1045.0,13:36:11.413718,192.168.0.114
1766,-1,-100,-100,-100,"0,0,0",0,0,0,0,0,0,68,70,80,60,100,-5.14,35,15.0,-8.0,-1014.0,13:36:11.515594,192.168.0.114
1771,-1,-100,-100,-100,"0,0,0",0,0,0,0,0,0,68,70,80,60,100,-5.22,35,1.0,16.0,-1033.0,13:36:11.617610,192.168.0.114
1776,-1,-100,-100,-100,"0,0,0",0,0,0,0,0,0,68,70,80,60,100,-5.16,35,-9.0,6.0,-998.0,13:36:11.719798,192.168.0.114
1781,-1,-100,-100,-100,"0,0,0",0,0,0,0,0,0,68,70,80,60,100,-5.23,35,-17.0,12.0,-967.0,13:36:11.821675,192.168.0.114
1786,-1,-100,-100,-100,"0,0,0",0,0,0,0,0,0,68,70,80,60,100,-5.28,35,-3.0,14.0,-1032.0,13:36:11.924357,192.168.0.114
1791,-1,-100,-100,-100,"0,0,0",0,0,0,0,0,0,68,70,80,60,100,-5.26,35,4.0,-13.0,-979.0,13:36:12.025711,192.168.0.114
1796,-1,-100,-100,-100,"0,0,0",0,0,0,0,0,0,68,70,79,60,100,-5.22,35,-18.0,8.0,-993.0,13:36:12.127681,192.168.0.114
1801,-1,-100,-100,-100,"0,0,0",0,0,0,0,0,0,68,70,79,60,100,-5.22,35,-5.0,-5.0,-979.0,13:36:12.229593,192.168.0.114
1806,-1,-100,-100,-100,"0,0,0",-1,0,0,0,0,0,68,70,79,60,100,-5.15,36,-8.0,11.0,-972.0,13:36:12.333533,192.168.0.114
1811,-1,-100,-100,-100,"0,0,0",0,0,0,0,0,0,67,70,78,60,100,-5.21,36,-15.0,12.0,-1010.0,13:36:12.433636,192.168.0.114
1816,-1,-100,-100,-100,"0,0,0",0,0,0,0,0,0,67,70,79,60,100,-5.19,36,-10.0,8.0,-1017.0,13:36:12.536540,192.168.0.114
1822,-1,-100,-100,-100,"0,0,0",0,0,0,0,0,0,67,70,78,60,100,-5.27,36,-22.0,24.0,-1011.0,13:36:12.637812,192.168.0.114
1828,-1,-100,-100,-100,"0,0,0",0,0,0,0,0,0,67,70,78,60,100,-5.25,36,-14.0,-11.0,-1009.0,13:36:12.740526,192.168.0.114
1833,-1,-100,-100,-100,"0,0,0",0,0,0,0,0,0,67,70,78,60,100,-5.19,36,-6.0,8.0,-1028.0,13:36:12.841731,192.168.0.114
1838,-1,-100,-100,-100,"0,0,0",0,0,0,0,0,0,67,70,79,60,100,-5.22,36,-12.0,3.0,-995.0,13:36:12.943338,192.168.0.114
1843,-1,-100,-100,-100,"0,0,0",0,0,0,0,0,0,67,70,79,60,100,-5.21,36,-26.0,13.0,-1006.0,13:36:13.045361,192.168.0.114
1848,-1,-100,-100,-100,"0,0,0",0,0,0,0,0,0,67,70,80,60,100,-5.26,36,-13.0,8.0,-953.0,13:36:13.147396,192.168.0.114
1851,-1,-100,-100,-100,"0,0,0",0,0,0,0,0,0,67,70,80,60,100,-5.2,36,0.0,22.0,-997.0,13:36:13.199015,192.168.0.114
1856,-1,-100,-100,-100,"0,0,0",-1,0,0,0,0,0,67,70,80,60,100,-5.15,37,-22.0,36.0,-1018.0,13:36:13.300738,192.168.0.114
1863,-1,-100,-100,-100,"0,0,0",-1,-1,0,0,0,0,67,70,80,60,100,-5.19,37,-1.0,13.0,-1002.0,13:36:13.453904,192.168.0.114
1866,-1,-100,-100,-100,"0,0,0",0,-1,0,0,0,0,67,70,80,60,100,-5.26,37,-25.0,29.0,-991.0,13:36:13.504847,192.168.0.114
1871,-1,-100,-100,-100,"0,0,0",0,-1,0,0,0,0,67,70,79,60,100,-5.23,37,0.0,13.0,-977.0,13:36:13.606877,192.168.0.114
1876,-1,-100,-100,-100,"0,0,0",0,-2,0,0,0,0,67,70,80,60,100,-5.21,37,8.0,19.0,-998.0,13:36:13.708982,192.168.0.114
1881,-1,-100,-100,-100,"0,0,0",0,-1,0,0,0,0,67,70,79,60,100,-5.21,37,10.0,5.0,-1003.0,13:36:13.810511,192.168.0.114
1886,-1,-100,-100,-100,"0,0,0",0,-1,0,0,0,0,67,70,80,60,100,-5.19,37,-14.0,28.0,-1002.0,13:36:13.912843,192.168.0.114
1891,-1,-100,-100,-100,"0,0,0",0,-1,0,0,0,0,67,70,80,60,100,-5.17,37,-38.0,20.0,-993.0,13:36:14.014411,192.168.0.114
1896,-1,-100,-100,-100,"0,0,0",0,-1,0,0,0,0,67,70,80,60,100,-5.18,37,-22.0,22.0,-994.0,13:36:14.116482,192.168.0.114
1901,-1,-100,-100,-100,"0,0,0",0,-1,0,0,0,0,67,70,80,60,100,-5.16,38,7.0,-6.0,-1010.0,13:36:14.219328,192.168.0.114
1906,-1,-100,-100,-100,"0,0,0",0,0,0,0,0,0,67,70,80,60,100,-5.12,38,17.0,-3.0,-1006.0,13:36:14.320844,192.168.0.114
1911,-1,-100,-100,-100,"0,0,0",0,0,0,0,0,0,67,70,80,60,100,-5.04,38,-22.0,18.0,-993.0,13:36:14.422518,192.168.0.114
1916,-1,-100,-100,-100,"0,0,0",0,0,0,0,0,0,67,70,80,60,100,-5.06,38,-3.0,19.0,-995.0,13:36:14.524791,192.168.0.114
1921,-1,-100,-100,-100,"0,0,0",0,0,0,0,0,0,67,70,80,60,100,-5.1,38,-27.0,35.0,-994.0,13:36:14.627284,192.168.0.114
1926,-1,-100,-100,-100,"0,0,0",0,0,0,0,0,0,67,70,80,60,100,-5.17,38,-16.0,36.0,-1005.0,13:36:14.729915,192.168.0.114
1931,-1,-100,-100,-100,"0,0,0",0,0,0,0,0,0,67,70,80,60,100,-5.19,38,0.0,8.0,-1003.0,13:36:14.832131,192.168.0.114
1936,-1,-100,-100,-100,"0,0,0",0,0,0,0,0,0,67,70,80,60,100,-5.26,38,-5.0,14.0,-997.0,13:36:14.934423,192.168.0.114
1941,-1,-100,-100,-100,"0,0,0",0,0,0,0,0,0,67,70,80,60,100,-5.28,38,3.0,12.0,-991.0,13:36:15.037951,192.168.0.114
1946,-1,-100,-100,-100,"0,0,0",0,0,0,0,0,0,67,70,80,60,100,-5.38,38,14.0,2.0,-1025.0,13:36:15.139926,192.168.0.114
1951,-1,-100,-100,-100,"0,0,0",0,0,0,0,0,0,67,70,80,60,100,-5.39,39,30.0,-8.0,-1030.0,13:36:15.241844,192.168.0.114
1956,-1,-100,-100,-100,"0,0,0",0,0,0,0,0,0,67,70,80,60,100,-5.35,39,-7.0,8.0,-1039.0,13:36:15.341187,192.168.0.114
1961,-1,-100,-100,-100,"0,0,0",0,0,0,0,0,0,68,70,80,60,100,-5.39,39,-6.0,5.0,-988.0,13:36:15.442817,192.168.0.114
1966,-1,-100,-100,-100,"0,0,0",0,0,0,0,0,0,68,70,80,60,100,-5.41,39,-14.0,20.0,-1028.0,13:36:15.545002,192.168.0.114
1971,-1,-100,-100,-100,"0,0,0",0,0,0,0,0,0,68,70,80,60,100,-5.41,39,-28.0,2.0,-981.0,13:36:15.648492,192.168.0.114
1976,-1,-100,-100,-100,"0,0,0",0,0,0,0,0,0,68,70,80,60,100,-5.38,39,-12.0,2.0,-975.0,13:36:15.748796,192.168.0.114
1981,-1,-100,-100,-100,"0,0,0",0,0,0,0,0,0,68,70,80,60,100,-5.35,39,1.0,7.0,-1004.0,13:36:15.850800,192.168.0.114
1986,-1,-100,-100,-100,"0,0,0",0,0,0,0,0,0,68,70,80,60,100,-5.36,39,-10.0,-1.0,-995.0,13:36:15.952550,192.168.0.114
1992,-1,-100,-100,-100,"0,0,0",0,0,0,0,0,0,68,70,80,60,100,-5.3,39,-22.0,21.0,-1016.0,13:36:16.054894,192.168.0.114
1998,-1,-100,-100,-100,"0,0,0",0,0,0,0,0,0,68,70,80,70,100,-5.34,39,-19.0,22.0,-968.0,13:36:16.156777,192.168.0.114
2003,-1,-100,-100,-100,"0,0,0",-1,0,0,0,0,0,68,70,81,70,100,-5.26,40,-35.0,21.0,-1001.0,13:36:16.259092,192.168.0.114
2008,-1,-100,-100,-100,"0,0,0",-1,0,0,0,0,0,68,70,81,70,100,-5.33,40,-9.0,24.0,-1000.0,13:36:16.361224,192.168.0.114
2013,-1,-100,-100,-100,"0,0,0",-1,0,0,0,0,0,67,70,81,70,100,-5.38,40,-13.0,26.0,-1000.0,13:36:16.462966,192.168.0.114
2018,-1,-100,-100,-100,"0,0,0",-1,-1,0,0,0,0,67,70,81,70,100,-5.31,40,-1.0,9.0,-999.0,13:36:16.565118,192.168.0.114
2023,-1,-100,-100,-100,"0,0,0",-1,-1,0,0,0,0,67,70,81,70,100,-5.37,40,0.0,28.0,-998.0,13:36:16.667086,192.168.0.114
2026,-1,-100,-100,-100,"0,0,0",-1,-1,0,0,0,0,67,70,82,70,100,-5.29,40,-10.0,34.0,-1011.0,13:36:16.720689,192.168.0.114
2031,-1,-100,-100,-100,"0,0,0",0,-1,0,0,0,0,67,70,81,70,100,-5.26,40,0.0,32.0,-996.0,13:36:16.820222,192.168.0.114
2036,-1,-100,-100,-100,"0,0,0",0,-1,0,0,0,0,67,70,81,70,100,-5.35,40,-11.0,39.0,-979.0,13:36:16.922400,192.168.0.114
2041,-1,-100,-100,-100,"0,0,0",0,-2,0,0,0,0,67,70,82,70,100,-5.36,40,-8.0,42.0,-985.0,13:36:17.023810,192.168.0.114
2046,-1,-100,-100,-100,"0,0,0",0,-2,0,0,0,0,67,70,82,70,100,-5.4,40,-6.0,29.0,-1001.0,13:36:17.125947,192.168.0.114
2051,-1,-100,-100,-100,"0,0,0",0,-2,0,0,0,0,67,70,82,70,100,-5.37,41,-9.0,27.0,-1010.0,13:36:17.229087,192.168.0.114
2056,-1,-100,-100,-100,"0,0,0",0,-2,0,0,0,0,67,70,83,70,100,-5.37,41,8.0,27.0,-1019.0,13:36:17.330343,192.168.0.114
2061,-1,-100,-100,-100,"0,0,0",0,-2,0,0,0,0,68,70,83,70,100,-5.37,41,5.0,27.0,-1008.0,13:36:17.432291,192.168.0.114
2066,-1,-100,-100,-100,"0,0,0",0,-2,0,0,0,0,68,70,83,70,100,-5.35,41,6.0,40.0,-1008.0,13:36:17.534251,192.168.0.114
2071,-1,-100,-100,-100,"0,0,0",0,-2,0,0,0,0,68,70,83,70,100,-5.29,41,23.0,24.0,-982.0,13:36:17.636180,192.168.0.114
2076,-1,-100,-100,-100,"0,0,0",0,-2,0,0,0,0,68,70,83,70,100,-5.35,41,-2.0,0.0,-986.0,13:36:17.738420,192.168.0.114
2081,-1,-100,-100,-100,"0,0,0",0,-2,0,0,0,0,68,70,83,70,100,-5.33,41,-8.0,42.0,-1018.0,13:36:17.840663,192.168.0.114
2086,-1,-100,-100,-100,"0,0,0",0,-2,0,0,0,0,68,70,83,70,100,-5.34,41,-23.0,45.0,-986.0,13:36:17.942182,192.168.0.114
2091,-1,-100,-100,-100,"0,0,0",0,-2,0,0,0,0,68,70,83,70,100,-5.34,41,-3.0,20.0,-1017.0,13:36:18.043871,192.168.0.114
2096,-1,-100,-100,-100,"0,0,0",0,-2,0,0,0,0,68,70,84,70,100,-5.43,41,-6.0,40.0,-985.0,13:36:18.146129,192.168.0.114
2101,-1,-100,-100,-100,"0,0,0",0,-2,0,0,0,0,68,70,84,70,100,-5.37,42,20.0,23.0,-1007.0,13:36:18.248212,192.168.0.114
2106,-1,-100,-100,-100,"0,0,0",0,-1,0,0,0,0,68,70,83,70,100,-5.32,42,-11.0,45.0,-986.0,13:36:18.349851,192.168.0.114
2111,-1,-100,-100,-100,"0,0,0",0,-1,0,0,0,0,68,70,84,70,100,-5.31,42,6.0,34.0,-1001.0,13:36:18.452468,192.168.0.114
2116,-1,-100,-100,-100,"0,0,0",0,-1,0,0,0,0,68,70,84,70,100,-5.33,42,-14.0,56.0,-1015.0,13:36:18.559870,192.168.0.114
2121,-1,-100,-100,-100,"0,0,0",0,-2,0,0,0,0,68,70,83,70,100,-5.35,42,-18.0,59.0,-985.0,13:36:18.655876,192.168.0.114
2126,-1,-100,-100,-100,"0,0,0",-1,-3,0,0,0,0,68,70,83,70,100,-5.27,42,-12.0,54.0,-970.0,13:36:18.758637,192.168.0.114
2131,-1,-100,-100,-100,"0,0,0",-1,-3,0,0,0,0,68,70,83,70,100,-5.39,42,-27.0,38.0,-977.0,13:36:18.859646,192.168.0.114
2136,-1,-100,-100,-100,"0,0,0",-1,-2,0,0,0,0,68,70,83,70,100,-5.36,42,12.0,34.0,-998.0,13:36:18.962018,192.168.0.114
2141,-1,-100,-100,-100,"0,0,0",0,-2,0,0,0,0,68,70,83,70,100,-5.48,42,-15.0,30.0,-1018.0,13:36:19.063593,192.168.0.114
2146,-1,-100,-100,-100,"0,0,0",0,-2,0,0,0,0,68,70,82,70,100,-5.42,42,-16.0,22.0,-1008.0,13:36:19.166014,192.168.0.114
2151,-1,-100,-100,-100,"0,0,0",0,-2,0,0,0,0,68,70,83,70,100,-5.4,43,-1.0,27.0,-985.0,13:36:19.268764,192.168.0.114
2156,-1,-100,-100,-100,"0,0,0",0,-2,0,0,0,0,68,70,83,70,100,-5.4,43,-11.0,26.0,-1009.0,13:36:19.370893,192.168.0.114
2162,-1,-100,-100,-100,"0,0,0",0,-1,0,0,0,0,68,70,83,70,100,-5.35,43,0.0,18.0,-1009.0,13:36:19.472951,192.168.0.114
2167,-1,-100,-100,-100,"0,0,0",0,-1,0,0,0,0,68,70,82,70,100,-5.53,43,-33.0,-1.0,-970.0,13:36:19.575270,192.168.0.114
2173,-1,-100,-100,-100,"0,0,0",0,-1,0,0,0,0,68,70,82,70,100,-5.4,43,-5.0,35.0,-1002.0,13:36:19.676943,192.168.0.114
2178,-1,-100,-100,-100,"0,0,0",-1,-1,0,0,0,0,68,70,82,70,100,-5.39,43,-19.0,35.0,-989.0,13:36:19.778905,192.168.0.114
2183,-1,-100,-100,-100,"0,0,0",-1,-1,0,0,0,0,68,70,81,70,100,-5.3,43,9.0,25.0,-972.0,13:36:19.880942,192.168.0.114
2186,-1,-100,-100,-100,"0,0,0",0,-1,0,0,0,0,68,70,81,70,100,-5.34,43,-18.0,50.0,-1010.0,13:36:19.932055,192.168.0.114
2191,-1,-100,-100,-100,"0,0,0",0,-2,0,0,0,0,68,70,81,70,100,-5.32,43,-11.0,45.0,-983.0,13:36:20.034816,192.168.0.114
2196,-1,-100,-100,-100,"0,0,0",0,-2,0,0,0,0,68,70,82,70,100,-5.26,43,-9.0,43.0,-1040.0,13:36:20.136354,192.168.0.114
2201,-1,-100,-100,-100,"0,0,0",-1,-2,0,0,0,0,68,70,81,70,100,-5.15,44,-9.0,54.0,-964.0,13:36:20.238073,192.168.0.114
2206,-1,-100,-100,-100,"0,0,0",0,-2,0,0,0,0,68,70,82,70,100,-5.2,44,3.0,40.0,-926.0,13:36:20.339980,192.168.0.114
2211,-1,-100,-100,-100,"0,0,0",0,-3,0,0,0,0,67,69,82,70,100,-5.26,44,-14.0,50.0,-1009.0,13:36:20.442081,192.168.0.114
2216,-1,-100,-100,-100,"0,0,0",0,-3,0,0,0,0,67,69,82,70,100,-5.3,44,-6.0,35.0,-993.0,13:36:20.543986,192.168.0.114
2221,-1,-100,-100,-100,"0,0,0",0,-3,0,0,0,0,67,69,82,70,100,-5.13,44,15.0,37.0,-970.0,13:36:20.645922,192.168.0.114
2226,-1,-100,-100,-100,"0,0,0",0,-3,0,0,0,0,67,69,82,70,100,-5.28,44,15.0,48.0,-982.0,13:36:20.748624,192.168.0.114
2231,-1,-100,-100,-100,"0,0,0",0,-2,0,0,0,0,67,69,81,70,100,-5.25,44,52.0,31.0,-1000.0,13:36:20.856601,192.168.0.114
2236,-1,-100,-100,-100,"0,0,0",0,-2,0,0,0,0,67,69,81,70,100,-5.29,44,42.0,47.0,-1011.0,13:36:20.952627,192.168.0.114
2241,-1,-100,-100,-100,"0,0,0",1,-2,0,0,0,0,67,69,81,70,100,-5.31,44,7.0,67.0,-1011.0,13:36:21.055673,192.168.0.114
2246,-1,-100,-100,-100,"0,0,0",2,-3,0,0,0,0,67,69,82,70,100,-5.23,44,12.0,7.0,-997.0,13:36:21.155730,192.168.0.114
2251,-1,-100,-100,-100,"0,0,0",1,-4,0,0,0,0,67,69,81,70,100,-5.2,45,30.0,30.0,-1000.0,13:36:21.257765,192.168.0.114
2256,-1,-100,-100,-100,"0,0,0",1,-3,0,0,0,0,67,69,81,70,100,-5.37,45,9.0,35.0,-1006.0,13:36:21.359876,192.168.0.114
2261,-1,-100,-100,-100,"0,0,0",1,-2,0,0,0,0,68,70,81,70,100,-5.31,45,-15.0,57.0,-1010.0,13:36:21.462173,192.168.0.114
2266,-1,-100,-100,-100,"0,0,0",1,-1,0,0,0,0,68,70,81,70,100,-5.22,45,-5.0,55.0,-972.0,13:36:21.564080,192.168.0.114
2271,-1,-100,-100,-100,"0,0,0",0,-2,0,0,0,0,68,70,81,70,100,-5.32,45,14.0,34.0,-1018.0,13:36:21.667173,192.168.0.114
2276,-1,-100,-100,-100,"0,0,0",0,-2,0,0,0,0,68,70,81,70,100,-5.28,45,-13.0,36.0,-989.0,13:36:21.768078,192.168.0.114
2281,-1,-100,-100,-100,"0,0,0",0,-2,0,0,0,0,68,70,81,70,100,-5.33,45,-7.0,51.0,-1000.0,13:36:21.870317,192.168.0.114
2286,-1,-100,-100,-100,"0,0,0",0,-2,0,0,0,0,68,70,82,70,100,-5.47,45,-15.0,48.0,-983.0,13:36:21.972327,192.168.0.114
2291,-1,-100,-100,-100,"0,0,0",0,-2,0,0,0,0,68,70,81,70,100,-5.39,45,-4.0,41.0,-984.0,13:36:22.074059,192.168.0.114
2296,-1,-100,-100,-100,"0,0,0",0,-2,0,0,0,0,68,70,81,70,100,-5.33,45,-11.0,41.0,-981.0,13:36:22.176073,192.168.0.114
2301,-1,-100,-100,-100,"0,0,0",0,-2,0,0,0,0,68,70,81,60,100,-5.42,46,-8.0,47.0,-1010.0,13:36:22.279578,192.168.0.114
2306,-1,-100,-100,-100,"0,0,0",0,-2,0,0,0,0,68,70,81,70,100,-5.33,46,-13.0,58.0,-1019.0,13:36:22.380036,192.168.0.114
2311,-1,-100,-100,-100,"0,0,0",0,-2,0,0,0,0,68,70,82,70,100,-5.35,46,-12.0,34.0,-1008.0,13:36:22.482013,192.168.0.114
2316,-1,-100,-100,-100,"0,0,0",-1,-2,0,0,0,0,68,70,82,70,100,-5.28,46,-14.0,59.0,-981.0,13:36:22.584357,192.168.0.114
2321,-1,-100,-100,-100,"0,0,0",-1,-2,0,0,0,0,68,70,82,70,100,-5.33,46,-17.0,48.0,-1024.0,13:36:22.686253,192.168.0.114
2328,-1,-100,-100,-100,"0,0,0",-1,-2,0,0,0,0,68,70,82,70,100,-5.19,46,-4.0,36.0,-1008.0,13:36:22.791462,192.168.0.114
2332,-1,-100,-100,-100,"0,0,0",0,-3,0,0,0,0,68,70,83,70,100,-5.24,46,7.0,57.0,-960.0,13:36:22.889810,192.168.0.114
2336,-1,-100,-100,-100,"0,0,0",0,-2,0,0,0,0,68,70,82,70,100,-5.2,46,15.0,32.0,-949.0,13:36:22.995045,192.168.0.114
2342,-1,-100,-100,-100,"0,0,0",0,-2,0,0,0,0,68,70,82,70,100,-5.32,46,0.0,19.0,-1005.0,13:36:23.102382,192.168.0.114
2348,-1,-100,-100,-100,"0,0,0",0,-2,0,0,0,0,68,70,82,70,100,-5.3,46,0.0,56.0,-1019.0,13:36:23.196272,192.168.0.114
2351,-1,-100,-100,-100,"0,0,0",0,-2,0,0,0,0,68,70,83,70,100,-5.23,47,-11.0,50.0,-1021.0,13:36:23.247075,192.168.0.114
2356,-1,-100,-100,-100,"0,0,0",0,-3,0,0,0,0,68,70,83,70,100,-5.22,47,3.0,40.0,-972.0,13:36:23.349189,192.168.0.114
2363,-1,-100,-100,-100,"0,0,0",0,-2,0,0,0,0,68,70,83,70,100,-5.27,47,15.0,65.0,-999.0,13:36:23.501998,192.168.0.114
2366,-1,-100,-100,-100,"0,0,0",1,-2,0,0,0,0,68,70,84,70,100,-5.28,47,11.0,45.0,-998.0,13:36:23.553034,192.168.0.114
2371,-1,-100,-100,-100,"0,0,0",1,-2,0,0,0,0,68,70,83,70,100,-5.29,47,-12.0,51.0,-1017.0,13:36:23.655732,192.168.0.114
2376,-1,-100,-100,-100,"0,0,0",1,-2,0,0,0,0,68,70,83,70,100,-5.32,47,-13.0,48.0,-986.0,13:36:23.761999,192.168.0.114
2381,-1,-100,-100,-100,"0,0,0",0,-2,0,0,0,0,68,70,83,70,100,-5.26,47,3.0,57.0,-1020.0,13:36:23.859114,192.168.0.114
2386,-1,-100,-100,-100,"0,0,0",0,-1,0,0,0,0,68,70,83,70,100,-5.22,47,23.0,50.0,-963.0,13:36:23.961108,192.168.0.114
2391,-1,-100,-100,-100,"0,0,0",0,-2,0,0,0,0,68,70,83,70,100,-5.2,47,14.0,44.0,-989.0,13:36:24.063085,192.168.0.114
2396,-1,-100,-100,-100,"0,0,0",1,-3,0,0,0,0,68,70,84,70,100,-5.35,47,0.0,61.0,-1033.0,13:36:24.165050,192.168.0.114
2401,-1,-100,-100,-100,"0,0,0",0,-2,0,0,0,0,68,70,84,70,100,-5.35,48,-3.0,38.0,-1029.0,13:36:24.267212,192.168.0.114
2406,-1,-100,-100,-100,"0,0,0",0,-2,0,0,0,0,68,70,84,70,100,-5.38,48,3.0,37.0,-996.0,13:36:24.369148,192.168.0.114
2411,-1,-100,-100,-100,"0,0,0",0,-2,0,0,0,0,68,70,84,70,100,-5.28,48,4.0,47.0,-1016.0,13:36:24.471240,192.168.0.114
2416,-1,-100,-100,-100,"0,0,0",0,-2,0,0,0,0,68,70,84,70,100,-5.36,48,8.0,39.0,-951.0,13:36:24.573294,192.168.0.114
2421,-1,-100,-100,-100,"0,0,0",0,-2,0,0,0,0,68,70,84,70,100,-5.32,48,8.0,25.0,-992.0,13:36:24.675170,192.168.0.114
2426,-1,-100,-100,-100,"0,0,0",0,-1,0,0,0,0,68,70,83,70,100,-5.25,48,-16.0,30.0,-996.0,13:36:24.777251,192.168.0.114
2431,-1,-100,-100,-100,"0,0,0",0,-1,0,0,0,0,68,70,83,70,100,-5.3,48,5.0,42.0,-1013.0,13:36:24.879393,192.168.0.114
2436,-1,-100,-100,-100,"0,0,0",0,-1,0,0,0,0,68,70,84,70,100,-5.3,48,2.0,44.0,-934.0,13:36:24.981942,192.168.0.114
2441,-1,-100,-100,-100,"0,0,0",0,-2,0,0,0,0,68,70,84,70,100,-5.26,48,31.0,3.0,-1024.0,13:36:25.084566,192.168.0.114
2446,-1,-100,-100,-100,"0,0,0",0,-2,0,0,0,0,68,70,84,70,100,-5.24,48,0.0,26.0,-997.0,13:36:25.185098,192.168.0.114
2451,-1,-100,-100,-100,"0,0,0",0,-1,0,0,0,0,68,70,84,70,100,-5.25,49,17.0,29.0,-1001.0,13:36:25.287115,192.168.0.114
2456,-1,-100,-100,-100,"0,0,0",0,-1,0,0,0,0,68,70,84,70,100,-5.42,49,-22.0,20.0,-971.0,13:36:25.389181,192.168.0.114
2461,-1,-100,-100,-100,"0,0,0",0,-1,0,0,0,0,67,70,84,70,100,-5.32,49,-23.0,36.0,-1011.0,13:36:25.491498,192.168.0.114
2466,-1,-100,-100,-100,"0,0,0",0,-1,0,0,0,0,67,70,84,70,100,-5.3,49,-20.0,50.0,-1002.0,13:36:25.593486,192.168.0.114
2471,-1,-100,-100,-100,"0,0,0",-1,-1,0,0,0,0,67,70,84,70,100,-5.3,49,1.0,40.0,-998.0,13:36:25.694918,192.168.0.114
2476,-1,-100,-100,-100,"0,0,0",-1,-1,0,0,0,0,67,70,84,70,100,-5.28,49,13.0,48.0,-1011.0,13:36:25.797487,192.168.0.114
2482,-1,-100,-100,-100,"0,0,0",0,-2,0,0,0,0,67,70,84,70,100,-5.34,49,-14.0,66.0,-1009.0,13:36:25.899368,192.168.0.114
2486,-1,-100,-100,-100,"0,0,0",0,-2,0,0,0,0,67,70,85,70,100,-5.3,49,-14.0,37.0,-982.0,13:36:26.001382,192.168.0.114
2491,-1,-100,-100,-100,"0,0,0",0,-2,0,0,0,0,67,70,85,70,100,-5.22,49,-18.0,47.0,-1017.0,13:36:26.103821,192.168.0.114
2496,-1,-100,-100,-100,"0,0,0",0,-2,0,0,0,0,67,70,85,70,100,-5.19,49,6.0,27.0,-965.0,13:36:26.205356,192.168.0.114
2503,-1,-100,-100,-100,"0,0,0",0,-2,0,0,0,0,67,70,85,70,100,-5.34,50,-19.0,52.0,-976.0,13:36:26.308152,192.168.0.114
2508,-1,-100,-100,-100,"0,0,0",0,-2,0,0,0,0,67,70,85,70,100,-5.3,50,-20.0,40.0,-1010.0,13:36:26.409384,192.168.0.114
2513,-1,-100,-100,-100,"0,0,0",0,-3,0,0,0,0,68,70,84,70,100,-5.26,50,-31.0,36.0,-1007.0,13:36:26.511256,192.168.0.114
2518,-1,-100,-100,-100,"0,0,0",0,-2,0,0,0,0,68,70,84,70,100,-5.23,50,-34.0,45.0,-1028.0,13:36:26.613201,192.168.0.114
2523,-1,-100,-100,-100,"0,0,0",0,-1,0,0,0,0,68,70,84,70,100,-5.31,50,-22.0,40.0,-990.0,13:36:26.715330,192.168.0.114
2528,-1,-100,-100,-100,"0,0,0",-1,-1,0,0,0,0,68,70,84,70,100,-5.34,50,-29.0,58.0,-990.0,13:36:26.817191,192.168.0.114
2531,-1,-100,-100,-100,"0,0,0",-1,-1,0,0,0,0,68,70,83,70,100,-5.24,50,20.0,18.0,-982.0,13:36:26.868335,192.168.0.114
2536,-1,-100,-100,-100,"0,0,0",0,-1,0,0,0,0,68,70,84,70,100,-5.35,50,-9.0,50.0,-1027.0,13:36:26.970265,192.168.0.114
2541,-1,-100,-100,-100,"0,0,0",0,-1,0,0,0,0,68,70,84,70,100,-5.26,50,-12.0,24.0,-990.0,13:36:27.072425,192.168.0.114
2546,-1,-100,-100,-100,"0,0,0",0,-1,0,0,0,0,68,70,83,70,100,-5.3,50,-24.0,42.0,-1001.0,13:36:27.174282,192.168.0.114
2551,-1,-100,-100,-100,"0,0,0",0,-1,0,0,0,0,68,70,83,70,100,-5.28,51,-4.0,21.0,-978.0,13:36:27.276604,192.168.0.114
2556,-1,-100,-100,-100,"0,0,0",0,-1,0,0,0,0,68,70,83,70,100,-5.35,51,-10.0,7.0,-990.0,13:36:27.378155,192.168.0.114
2561,-1,-100,-100,-100,"0,0,0",0,-1,0,0,0,0,68,69,83,70,100,-5.27,51,-17.0,41.0,-981.0,13:36:27.480043,192.168.0.114
2566,-1,-100,-100,-100,"0,0,0",0,-1,0,0,0,0,68,69,83,70,100,-5.34,51,-4.0,36.0,-1015.0,13:36:27.584035,192.168.0.114
2571,-1,-100,-100,-100,"0,0,0",0,-1,0,0,0,0,68,69,83,70,100,-5.28,51,8.0,22.0,-989.0,13:36:27.684299,192.168.0.114
2576,-1,-100,-100,-100,"0,0,0",0,-1,0,0,0,0,68,69,83,70,100,-5.35,51,5.0,31.0,-995.0,13:36:27.787149,192.168.0.114
2581,-1,-100,-100,-100,"0,0,0",0,-1,0,0,0,0,68,69,83,70,100,-5.24,51,10.0,17.0,-984.0,13:36:27.888241,192.168.0.114
2586,-1,-100,-100,-100,"0,0,0",0,-1,0,0,0,0,68,69,82,70,100,-5.31,51,-1.0,21.0,-1008.0,13:36:27.990441,192.168.0.114
