,mid,x,y,z,mpry,pitch,roll,yaw,vgx,vgy,vgz,templ,temph,tof,h,bat,baro,time,agx,agy,agz,timestamp,address
0,-1,-100,-100,-100,"0,0,0",0,0,0,0,0,0,61,63,10,0,100,-5.68,0,-7.0,0.0,-999.0,13:35:36.048538,192.168.0.115
6,-1,-100,-100,-100,"0,0,0",0,0,0,0,0,0,61,63,10,0,100,-5.68,0,-5.0,-1.0,-999.0,13:35:36.150883,192.168.0.115
11,-1,-100,-100,-100,"0,0,0",0,0,0,0,0,0,61,63,10,0,100,-5.72,0,0.0,-2.0,-998.0,13:35:36.252620,192.168.0.115
17,-1,-100,-100,-100,"0,0,0",0,0,0,0,0,0,61,63,10,0,100,-5.72,0,-13.0,12.0,-1000.0,13:35:36.354686,192.168.0.115
22,-1,-100,-100,-100,"0,0,0",0,0,0,0,0,0,61,63,10,0,100,-5.72,0,-17.0,10.0,-1006.0,13:35:36.456540,192.168.0.115
27,-1,-100,-100,-100,"0,0,0",0,0,0,0,0,0,61,63,10,0,100,-5.72,0,-13.0,1.0,-987.0,13:35:36.560721,192.168.0.115
32,-1,-100,-100,-100,"0,0,0",-1,0,0,0,0,0,61,64,10,0,100,-5.72,0,-14.0,7.0,-1145.0,13:35:36.660308,192.168.0.115
37,-1,-100,-100,-100,"0,0,0",0,0,0,0,0,2,61,64,10,0,100,-5.72,0,-1.0,2.0,-1367.0,13:35:36.762648,192.168.0.115
42,-1,-100,-100,-100,"0,0,0",0,0,0,0,0,5,61,64,10,0,100,-5.72,0,7.0,-15.0,-1249.0,13:35:36.864473,192.168.0.115
47,-1,-100,-100,-100,"0,0,0",0,0,-1,0,0,7,61,64,13,0,100,-5.61,0,-12.0,7.0,-1117.0,13:35:36.966263,192.168.0.115
52,-1,-100,-100,-100,"0,0,0",0,0,-1,0,0,8,61,64,21,10,100,-5.34,0,-4.0,23.0,-1037.0,13:35:37.068410,192.168.0.115
57,-1,-100,-100,-100,"0,0,0",-1,0,0,0,0,8,61,64,27,20,100,-5.29,0,-26.0,32.0,-970.0,13:35:37.170976,192.168.0.115
62,-1,-100,-100,-100,"0,0,0",0,0,0,0,0,7,61,64,36,20,100,-5.24,1,-14.0,20.0,-926.0,13:35:37.272329,192.168.0.115
67,-1,-100,-100,-100,"0,0,0",-1,0,0,0,0,6,61,64,44,30,100,-5.12,1,3.0,60.0,-887.0,13:35:37.374221,192.168.0.115
72,-1,-100,-100,-100,"0,0,0",-2,-2,0,0,-1,5,61,64,51,40,100,-4.96,1,14.0,65.0,-870.0,13:35:37.476101,192.168.0.115
78,-1,-100,-100,-100,"0,0,0",0,-3,0,0,-1,4,61,64,56,40,100,-4.93,1,-34.0,57.0,-938.0,13:35:37.578457,192.168.0.115
83,-1,-100,-100,-100,"0,0,0",0,-3,0,0,0,3,62,64,61,40,100,-4.96,1,9.0,51.0,-911.0,13:35:37.680344,192.168.0.115
88,-1,-100,-100,-100,"0,0,0",-1,-3,0,0,0,2,62,64,65,50,100,-4.93,1,40.0,27.0,-933.0,13:35:37.782488,192.168.0.115
93,-1,-100,-100,-100,"0,0,0",0,-3,0,0,0,1,62,64,68,50,100,-4.81,1,17.0,32.0,-979.0,13:35:37.884446,192.168.0.115
98,-1,-100,-100,-100,"0,0,0",0,-2,0,0,0,1,62,64,72,50,100,-4.88,1,40.0,23.0,-963.0,13:35:37.986533,192.168.0.115
103,-1,-100,-100,-100,"0,0,0",1,-3,0,0,0,1,62,64,75,50,100,-4.85,1,-19.0,62.0,-956.0,13:35:38.088080,192.168.0.115
108,-1,-100,-100,-100,"0,0,0",0,-3,0,0,0,1,62,64,77,50,100,-4.62,1,-6.0,67.0,-917.0,13:35:38.190854,192.168.0.115
110,-1,-100,-100,-100,"0,0,0",0,-4,0,0,0,0,62,64,79,60,100,-4.82,2,4.0,44.0,-970.0,13:35:38.241510,192.168.0.115
115,-1,-100,-100,-100,"0,0,0",0,-4,0,0,0,0,62,64,81,60,100,-4.77,2,-2.0,27.0,-970.0,13:35:38.343536,192.168.0.115
120,-1,-100,-100,-100,"0,0,0",0,-3,0,0,0,0,62,64,83,60,100,-4.65,2,25.0,20.0,-983.0,13:35:38.445662,192.168.0.115
125,-1,-100,-100,-100,"0,0,0",0,-1,0,0,0,0,62,64,84,60,100,-4.71,2,7.0,57.0,-994.0,13:35:38.557989,192.168.0.115
130,-1,-100,-100,-100,"0,0,0",0,-2,0,0,0,0,62,63,85,60,100,-4.62,2,-9.0,58.0,-955.0,13:35:38.649466,192.168.0.115
135,-1,-100,-100,-100,"0,0,0",0,-3,0,0,0,0,62,63,86,60,100,-4.67,2,6.0,42.0,-989.0,13:35:38.751535,192.168.0.115
140,-1,-100,-100,-100,"0,0,0",0,-3,0,0,0,0,62,63,86,60,100,-4.61,2,40.0,19.0,-968.0,13:35:38.853595,192.168.0.115
146,-1,-100,-100,-100,"0,0,0",1,-2,0,0,0,0,62,63,86,60,100,-4.68,2,32.0,28.0,-1005.0,13:35:38.955733,192.168.0.115
152,-1,-100,-100,-100,"0,0,0",1,-1,0,0,0,0,62,63,87,60,100,-4.6,2,51.0,6.0,-966.0,13:35:39.057835,192.168.0.115
157,-1,-100,-100,-100,"0,0,0",3,0,0,0,0,0,62,63,88,60,100,-4.67,2,44.0,33.0,-979.0,13:35:39.159490,192.168.0.115
162,-1,-100,-100,-100,"0,0,0",3,0,0,0,0,0,62,63,88,70,100,-4.61,3,58.0,34.0,-1008.0,13:35:39.261487,192.168.0.115
167,-1,-100,-100,-100,"0,0,0",2,-1,0,0,0,0,62,63,88,70,100,-4.77,3,22.0,47.0,-987.0,13:35:39.363433,192.168.0.115
172,-1,-100,-100,-100,"0,0,0",2,-1,0,0,0,0,62,63,88,70,100,-4.58,3,43.0,74.0,-956.0,13:35:39.465462,192.168.0.115
177,-1,-100,-100,-100,"0,0,0",2,-3,-1,0,0,0,62,63,88,70,100,-4.56,3,14.0,79.0,-1003.0,13:35:39.567502,192.168.0.115
182,-1,-100,-100,-100,"0,0,0",2,-3,-1,0,0,0,62,64,88,70,100,-4.56,3,-14.0,92.0,-1022.0,13:35:39.669687,192.168.0.115
187,-1,-100,-100,-100,"0,0,0",1,-4,0,0,0,0,62,64,87,70,100,-4.35,3,35.0,28.0,-980.0,13:35:39.771488,192.168.0.115
192,-1,-100,-100,-100,"0,0,0",0,-4,0,0,0,0,62,64,86,70,100,-4.57,3,25.0,58.0,-1029.0,13:35:39.873626,192.168.0.115
197,-1,-100,-100,-100,"0,0,0",0,-3,0,0,0,0,62,64,86,70,100,-4.44,3,24.0,80.0,-1004.0,13:35:39.975535,192.168.0.115
203,-1,-100,-100,-100,"0,0,0",1,-3,0,0,0,0,62,64,85,70,100,-4.64,3,14.0,72.0,-989.0,13:35:40.077492,192.168.0.115
208,-1,-100,-100,-100,"0,0,0",1,-4,0,0,0,0,62,64,85,60,100,-4.73,3,-8.0,88.0,-983.0,13:35:40.179626,192.168.0.115
213,-1,-100,-100,-100,"0,0,0",1,-4,0,0,0,0,62,64,85,60,100,-4.64,4,11.0,71.0,-977.0,13:35:40.282204,192.168.0.115
218,-1,-100,-100,-100,"0,0,0",0,-4,0,0,0,0,62,64,84,60,100,-4.71,4,23.0,46.0,-1009.0,13:35:40.383821,192.168.0.115
223,-1,-100,-100,-100,"0,0,0",0,-3,0,0,0,0,62,64,84,60,100,-4.77,4,30.0,63.0,-1005.0,13:35:40.485681,192.168.0.115
228,-1,-100,-100,-100,"0,0,0",0,-3,0,0,0,0,62,64,84,60,100,-4.63,4,31.0,60.0,-993.0,13:35:40.587481,192.168.0.115
233,-1,-100,-100,-100,"0,0,0",1,-4,0,0,0,0,62,64,84,60,100,-4.73,4,27.0,56.0,-1013.0,13:35:40.689526,192.168.0.115
238,-1,-100,-100,-100,"0,0,0",0,-5,0,0,0,0,62,64,83,60,100,-4.75,4,18.0,79.0,-993.0,13:35:40.794590,192.168.0.115
243,-1,-100,-100,-100,"0,0,0",1,-4,0,0,0,0,62,64,83,60,100,-4.61,4,24.0,66.0,-982.0,13:35:40.893401,192.168.0.115
248,-1,-100,-100,-100,"0,0,0",1,-4,-1,0,0,0,62,64,82,60,100,-4.68,4,-7.0,94.0,-1004.0,13:35:40.996755,192.168.0.115
253,-1,-100,-100,-100,"0,0,0",0,-4,-1,0,0,0,62,64,82,60,100,-4.66,4,-12.0,85.0,-991.0,13:35:41.097755,192.168.0.115
258,-1,-100,-100,-100,"0,0,0",0,-5,0,0,0,0,62,64,83,60,100,-4.75,4,-20.0,85.0,-1062.0,13:35:41.199490,192.168.0.115
263,-1,-100,-100,-100,"0,0,0",0,-5,0,0,0,0,62,64,82,60,100,-4.69,5,0.0,88.0,-999.0,13:35:41.301528,192.168.0.115
268,8,-19,-2,102,"12,10,-162",0,-5,0,0,0,0,62,64,82,60,100,-4.71,5,14.0,71.0,-974.0,13:35:41.403467,192.168.0.115
273,8,-19,-2,102,"12,10,-162",0,-5,0,0,0,0,62,64,82,60,100,-4.68,5,13.0,72.0,-1002.0,13:35:41.505447,192.168.0.115
275,8,-19,-2,102,"12,10,-162",0,-4,0,0,0,0,62,64,81,60,100,-4.75,5,-5.0,72.0,-1042.0,13:35:41.556811,192.168.0.115
281,8,-19,-2,102,"12,10,-162",0,-4,0,0,0,0,62,64,82,60,100,-4.81,5,16.0,85.0,-1017.0,13:35:41.658257,192.168.0.115
286,8,-19,-2,102,"12,10,-162",0,-5,0,0,0,0,62,64,82,60,100,-4.67,5,31.0,77.0,-984.0,13:35:41.760438,192.168.0.115
291,8,-19,-2,102,"12,10,-162",0,-5,0,0,0,0,62,64,82,60,100,-4.75,5,10.0,93.0,-1024.0,13:35:41.862230,192.168.0.115
296,8,-19,-2,102,"12,10,-162",0,-4,0,0,0,0,62,64,82,60,100,-4.69,5,5.0,84.0,-999.0,13:35:41.964246,192.168.0.115
301,8,-19,-2,102,"12,10,-162",0,-5,0,0,0,0,62,64,83,60,100,-4.72,5,3.0,78.0,-964.0,13:35:42.066748,192.168.0.115
306,8,-19,-2,102,"12,10,-162",0,-5,0,0,0,0,62,64,82,60,100,-4.92,5,-12.0,73.0,-1012.0,13:35:42.168525,192.168.0.115
311,8,-19,-2,102,"12,10,-162",0,-4,0,0,0,0,62,64,82,60,100,-4.99,6,8.0,81.0,-1006.0,13:35:42.271062,192.168.0.115
317,8,-19,-2,102,"12,10,-162",0,-3,0,0,0,0,62,64,83,60,100,-4.82,6,-9.0,77.0,-1016.0,13:35:42.372437,192.168.0.115
322,8,-19,-2,102,"12,10,-162",0,-4,0,0,0,0,62,64,83,60,100,-4.78,6,47.0,58.0,-995.0,13:35:42.474423,192.168.0.115
327,8,-19,-2,102,"12,10,-162",0,-4,0,0,0,0,62,64,84,60,100,-4.84,6,24.0,58.0,-989.0,13:35:42.576645,192.168.0.115
332,8,-19,-2,102,"12,10,-162",0,-4,0,0,0,0,62,63,84,60,100,-4.8,6,19.0,72.0,-991.0,13:35:42.680218,192.168.0.115
337,8,-19,-2,102,"12,10,-162",0,-4,0,0,0,0,62,63,84,60,100,-4.73,6,11.0,59.0,-978.0,13:35:42.780248,192.168.0.115
343,8,-19,-2,102,"12,10,-162",0,-3,0,0,1,0,62,63,83,60,100,-4.8,6,29.0,73.0,-1023.0,13:35:42.882467,192.168.0.115
348,8,-19,-2,102,"12,10,-162",1,-1,0,0,0,0,62,63,84,60,100,-4.74,6,3.0,63.0,-970.0,13:35:42.984906,192.168.0.115
353,8,-19,-2,102,"12,10,-162",1,-2,0,0,0,0,62,63,84,60,100,-4.81,6,0.0,55.0,-957.0,13:35:43.086500,192.168.0.115
358,8,-19,-2,102,"12,10,-162",1,-3,0,0,0,0,62,63,84,60,100,-4.67,6,18.0,70.0,-973.0,13:35:43.188899,192.168.0.115
363,8,-19,-2,102,"12,10,-162",0,-4,0,0,0,0,62,63,84,60,100,-4.74,7,13.0,50.0,-985.0,13:35:43.290946,192.168.0.115
368,8,-19,-2,102,"12,10,-162",0,-3,0,0,0,0,62,63,84,60,100,-4.64,7,18.0,53.0,-990.0,13:35:43.392826,192.168.0.115
373,8,-19,-2,102,"12,10,-162",1,-2,0,0,0,0,62,63,84,60,100,-4.73,7,7.0,68.0,-992.0,13:35:43.494380,192.168.0.115
378,8,-19,-2,102,"12,10,-162",1,-2,0,0,0,0,62,63,84,60,100,-4.84,7,9.0,76.0,-1012.0,13:35:43.597239,192.168.0.115
383,8,-19,-2,102,"12,10,-162",0,-3,0,0,0,0,61,63,84,60,100,-4.73,7,21.0,75.0,-1011.0,13:35:43.699618,192.168.0.115
388,8,-19,-2,102,"12,10,-162",0,-3,0,0,0,0,61,63,84,60,100,-4.65,7,23.0,68.0,-987.0,13:35:43.802042,192.168.0.115
393,8,-19,-2,102,"12,10,-162",0,-3,0,0,0,0,61,63,85,60,100,-4.69,7,48.0,38.0,-981.0,13:35:43.904493,192.168.0.115
398,8,-19,-2,102,"12,10,-162",1,-2,0,0,0,0,61,63,85,60,100,-4.73,7,3.0,76.0,-995.0,13:35:44.006811,192.168.0.115
403,8,-19,-2,102,"12,10,-162",2,-3,0,0,0,0,61,63,85,60,100,-4.65,7,26.0,70.0,-988.0,13:35:44.109330,192.168.0.115
408,8,-19,-2,102,"12,10,-162",2,-3,0,0,0,0,61,63,86,60,100,-4.86,7,26.0,54.0,-1016.0,13:35:44.208748,192.168.0.115
413,8,-19,-2,102,"12,10,-162",1,-3,0,0,0,0,61,63,85,60,100,-4.8,8,7.0,64.0,-962.0,13:35:44.310637,192.168.0.115
418,8,-19,-2,102,"12,10,-162",1,-4,0,0,0,0,61,63,85,60,100,-4.58,8,-6.0,45.0,-1007.0,13:35:44.412906,192.168.0.115
423,8,-19,-2,102,"12,10,-162",0,-3,0,0,0,0,61,63,85,60,100,-4.69,8,17.0,57.0,-1004.0,13:35:44.516110,192.168.0.115
426,8,-19,-2,102,"12,10,-162",1,-2,0,0,0,0,61,63,85,60,100,-4.84,8,28.0,31.0,-1005.0,13:35:44.565939,192.168.0.115
433,8,-19,-2,102,"12,10,-162",1,-1,0,0,0,0,61,63,85,60,100,-4.66,8,46.0,49.0,-995.0,13:35:44.718705,192.168.0.115
438,8,-19,-2,102,"12,10,-162",1,-2,0,0,0,0,61,63,85,60,100,-4.85,8,40.0,61.0,-1002.0,13:35:44.820761,192.168.0.115
443,8,-19,-2,102,"12,10,-162",1,-2,0,0,0,0,61,63,86,60,100,-4.83,8,31.0,64.0,-996.0,13:35:44.922988,192.168.0.115
448,8,-19,-2,102,"12,10,-162",1,-3,0,0,0,0,61,63,86,60,100,-4.81,8,-8.0,67.0,-999.0,13:35:45.024651,192.168.0.115
451,8,-19,-2,102,"12,10,-162",1,-4,0,0,0,0,61,63,86,60,100,-4.84,8,17.0,51.0,-1013.0,13:35:45.075801,192.168.0.115
456,8,-19,-2,102,"12,10,-162",1,-3,0,0,0,0,61,63,86,60,100,-4.86,8,37.0,54.0,-1008.0,13:35:45.177795,192.168.0.115
461,8,-19,-2,102,"12,10,-162",0,-3,0,0,0,0,61,63,86,60,100,-4.84,9,48.0,37.0,-993.0,13:35:45.279699,192.168.0.115
466,8,-19,-2,102,"12,10,-162",1,-3,0,0,0,0,61,63,86,60,100,-4.88,9,9.0,56.0,-1001.0,13:35:45.381752,192.168.0.115
471,8,-19,-2,102,"12,10,-162",1,-3,0,0,0,0,61,63,86,60,100,-4.69,9,16.0,78.0,-974.0,13:35:45.483662,192.168.0.115
476,8,-19,-2,102,"12,10,-162",1,-3,0,0,0,0,61,63,87,60,100,-4.76,9,5.0,81.0,-998.0,13:35:45.585620,192.168.0.115
482,8,-19,-2,102,"12,10,-162",1,-4,0,0,0,0,61,63,86,60,100,-4.63,9,21.0,47.0,-1004.0,13:35:45.691110,192.168.0.115
486,8,-19,-2,102,"12,10,-162",0,-4,0,0,0,0,61,63,86,60,100,-4.75,9,26.0,76.0,-995.0,13:35:45.789737,192.168.0.115
492,8,-19,-2,102,"12,10,-162",0,-4,0,0,0,0,61,63,86,60,100,-4.85,9,18.0,84.0,-1006.0,13:35:45.891922,192.168.0.115
497,8,-19,-2,102,"12,10,-162",0,-3,0,0,0,0,61,63,86,60,100,-4.88,9,21.0,86.0,-1013.0,13:35:45.993494,192.168.0.115
502,8,-19,-2,102,"12,10,-162",1,-4,0,0,0,0,61,63,86,60,100,-4.83,9,10.0,85.0,-1021.0,13:35:46.096843,192.168.0.115
507,8,-19,-2,102,"12,10,-162",1,-4,0,0,0,0,61,63,85,60,100,-4.82,9,1.0,112.0,-1036.0,13:35:46.198864,192.168.0.115
512,8,-19,-2,102,"12,10,-162",1,-4,0,0,0,0,61,63,86,60,100,-4.88,10,5.0,40.0,-977.0,13:35:46.299812,192.168.0.115
517,8,-19,-2,102,"12,10,-162",0,-5,-1,0,0,0,61,63,85,60,100,-4.84,10,5.0,59.0,-1015.0,13:35:46.401883,192.168.0.115
523,8,-19,-2,102,"12,10,-162",0,-4,-1,0,0,0,61,63,86,60,100,-4.82,10,-8.0,44.0,-963.0,13:35:46.503904,192.168.0.115
528,8,-19,-2,102,"12,10,-162",0,-4,-1,0,0,0,61,63,85,60,100,-4.83,10,-19.0,60.0,-1024.0,13:35:46.605898,192.168.0.115
533,-1,-100,-100,-100,"0,0,0",0,-4,-1,0,0,0,61,64,85,60,100,-4.81,10,24.0,41.0,-1017.0,13:35:46.707794,192.168.0.115
538,-1,-100,-100,-100,"0,0,0",0,-3,0,0,0,0,61,64,85,60,100,-4.83,10,-2.0,51.0,-1038.0,13:35:46.809903,192.168.0.115
543,-1,-100,-100,-100,"0,0,0",0,-2,0,0,0,0,61,64,84,60,100,-4.88,10,-7.0,57.0,-1024.0,13:35:46.911943,192.168.0.115
548,-1,-100,-100,-100,"0,0,0",0,-2,0,0,0,0,61,64,85,60,100,-4.99,10,12.0,73.0,-986.0,13:35:47.016380,192.168.0.115
553,-1,-100,-100,-100,"0,0,0",0,-2,0,0,0,0,61,64,85,60,100,-4.83,10,2.0,99.0,-1010.0,13:35:47.116029,192.168.0.115
558,-1,-100,-100,-100,"0,0,0",0,-3,0,0,0,0,61,64,86,60,100,-4.64,10,23.0,72.0,-992.0,13:35:47.217931,192.168.0.115
563,-1,-100,-100,-100,"0,0,0",0,-4,0,0,0,0,61,64,86,60,100,-4.87,11,28.0,71.0,-976.0,13:35:47.319815,192.168.0.115
568,-1,-100,-100,-100,"0,0,0",0,-3,0,0,0,0,61,64,87,60,100,-4.87,11,1.0,93.0,-981.0,13:35:47.421705,192.168.0.115
573,-1,-100,-100,-100,"0,0,0",0,-4,0,0,0,0,61,64,87,60,100,-4.82,11,-4.0,76.0,-993.0,13:35:47.524110,192.168.0.115
578,-1,-100,-100,-100,"0,0,0",0,-4,0,0,0,0,61,64,87,60,100,-4.85,11,-1.0,107.0,-963.0,13:35:47.625942,192.168.0.115
583,-1,-100,-100,-100,"0,0,0",0,-4,0,0,0,0,62,64,86,60,100,-4.78,11,-13.0,87.0,-973.0,13:35:47.728173,192.168.0.115
588,-1,-100,-100,-100,"0,0,0",0,-6,0,0,0,0,62,64,86,60,100,-4.87,11,0.0,64.0,-1025.0,13:35:47.830669,192.168.0.115
593,-1,-100,-100,-100,"0,0,0",0,-5,0,0,0,0,62,64,86,60,100,-4.94,11,0.0,72.0,-969.0,13:35:47.931551,192.168.0.115
598,-1,-100,-100,-100,"0,0,0",0,-4,0,0,0,0,62,64,86,60,100,-4.97,11,-15.0,80.0,-1000.0,13:35:48.033851,192.168.0.115
603,-1,-100,-100,-100,"0,0,0",0,-4,0,0,0,0,62,64,85,60,100,-4.81,11,-27.0,84.0,-985.0,13:35:48.136083,192.168.0.115
608,-1,-100,-100,-100,"0,0,0",0,-4,0,0,0,0,62,64,85,60,100,-4.8,11,-14.0,94.0,-998.0,13:35:48.238150,192.168.0.115
613,-1,-100,-100,-100,"0,0,0",0,-4,0,0,0,0,62,64,85,60,100,-4.83,12,-18.0,48.0,-1057.0,13:35:48.340149,192.168.0.115
618,-1,-100,-100,-100,"0,0,0",0,-4,0,0,0,0,62,64,84,60,100,-4.7,12,31.0,82.0,-980.0,13:35:48.441885,192.168.0.115
623,-1,-100,-100,-100,"0,0,0",0,-4,0,0,0,0,62,64,84,60,100,-5.0,12,7.0,90.0,-974.0,13:35:48.543907,192.168.0.115
626,-1,-100,-100,-100,"0,0,0",0,-2,0,0,0,0,62,64,84,60,100,-4.9,12,17.0,98.0,-956.0,13:35:48.594799,192.168.0.115
633,-1,-100,-100,-100,"0,0,0",1,-3,0,0,0,0,62,63,83,60,100,-4.88,12,26.0,92.0,-1014.0,13:35:48.748108,192.168.0.115
636,-1,-100,-100,-100,"0,0,0",1,-4,0,0,0,0,62,63,83,60,100,-4.83,12,20.0,73.0,-998.0,13:35:48.798887,192.168.0.115
642,-1,-100,-100,-100,"0,0,0",1,-4,0,0,0,0,62,63,83,60,100,-4.9,12,12.0,118.0,-976.0,13:35:48.900965,192.168.0.115
647,-1,-100,-100,-100,"0,0,0",1,-4,0,0,0,0,62,63,84,60,100,-4.92,12,16.0,93.0,-1020.0,13:35:49.002809,192.168.0.115
652,-1,-100,-100,-100,"0,0,0",1,-6,0,0,0,0,62,63,83,60,100,-4.76,12,-7.0,106.0,-961.0,13:35:49.105834,192.168.0.115
657,-1,-100,-100,-100,"0,0,0",1,-6,0,0,0,0,62,63,83,60,100,-4.82,12,43.0,49.0,-1005.0,13:35:49.206791,192.168.0.115
662,-1,-100,-100,-100,"0,0,0",1,-5,0,0,0,0,62,63,82,60,100,-4.87,13,-7.0,106.0,-1000.0,13:35:49.310158,192.168.0.115
667,-1,-100,-100,-100,"0,0,0",1,-4,0,0,0,0,62,63,82,60,100,-4.67,13,3.0,83.0,-968.0,13:35:49.411104,192.168.0.115
672,-1,-100,-100,-100,"0,0,0",1,-5,0,0,0,0,62,63,82,60,100,-4.88,13,0.0,75.0,-1064.0,13:35:49.513039,192.168.0.115
677,-1,-100,-100,-100,"0,0,0",1,-5,0,0,0,0,62,63,83,60,100,-4.89,13,2.0,65.0,-1004.0,13:35:49.614930,192.168.0.115
682,-1,-100,-100,-100,"0,0,0",0,-4,0,0,0,0,62,64,82,60,100,-4.96,13,-25.0,107.0,-1018.0,13:35:49.716779,192.168.0.115
688,-1,-100,-100,-100,"0,0,0",0,-4,0,0,0,0,62,64,82,60,100,-4.86,13,2.0,95.0,-1022.0,13:35:49.818859,192.168.0.115
693,-1,-100,-100,-100,"0,0,0",0,-4,0,0,0,0,62,64,82,60,100,-4.93,13,19.0,96.0,-981.0,13:35:49.920918,192.168.0.115
698,-1,-100,-100,-100,"0,0,0",0,-5,0,0,0,0,62,64,82,60,100,-4.93,13,3.0,81.0,-983.0,13:35:50.022794,192.168.0.115
703,-1,-100,-100,-100,"0,0,0",0,-5,0,0,0,0,62,64,82,60,100,-4.96,13,-12.0,82.0,-1010.0,13:35:50.124939,192.168.0.115
708,-1,-100,-100,-100,"0,0,0",0,-4,0,0,0,0,62,64,82,60,100,-4.82,13,30.0,70.0,-963.0,13:35:50.228590,192.168.0.115
713,-1,-100,-100,-100,"0,0,0",1,-5,0,0,0,0,62,64,82,60,100,-4.96,14,-60.0,96.0,-1032.0,13:35:50.328769,192.168.0.115
718,-1,-100,-100,-100,"0,0,0",0,-5,0,0,0,0,62,64,82,60,100,-5.02,14,-51.0,93.0,-1049.0,13:35:50.431136,192.168.0.115
723,-1,-100,-100,-100,"0,0,0",0,-5,0,1,0,0,62,64,82,60,100,-4.95,14,0.0,81.0,-1022.0,13:35:50.532825,192.168.0.115
728,-1,-100,-100,-100,"0,0,0",-1,-5,0,0,0,0,62,64,82,60,100,-4.97,14,0.0,113.0,-964.0,13:35:50.635946,192.168.0.115
733,-1,-100,-100,-100,"0,0,0",-1,-4,0,0,0,0,61,64,83,60,100,-4.97,14,13.0,75.0,-981.0,13:35:50.737138,192.168.0.115
738,-1,-100,-100,-100,"0,0,0",-1,-5,0,0,0,0,61,64,84,60,100,-4.78,14,54.0,30.0,-1011.0,13:35:50.839058,192.168.0.115
743,-1,-100,-100,-100,"0,0,0",0,-5,0,0,0,0,61,64,84,60,100,-4.9,14,56.0,60.0,-977.0,13:35:50.940967,192.168.0.115
748,-1,-100,-100,-100,"0,0,0",0,-4,0,0,0,0,61,64,84,60,100,-5.04,14,-28.0,90.0,-956.0,13:35:51.042833,192.168.0.115
753,-1,-100,-100,-100,"0,0,0",1,-4,0,0,0,0,61,64,84,60,100,-4.88,14,7.0,48.0,-1022.0,13:35:51.144914,192.168.0.115
758,-1,-100,-100,-100,"0,0,0",1,-5,0,0,0,0,61,64,84,60,100,-4.96,14,-20.0,96.0,-1028.0,13:35:51.246844,192.168.0.115
763,-1,-100,-100,-100,"0,0,0",1,-4,0,0,0,0,61,64,84,60,100,-4.91,15,-17.0,112.0,-1005.0,13:35:51.350388,192.168.0.115
768,-1,-100,-100,-100,"0,0,0",0,-4,0,0,0,0,61,64,84,60,100,-4.93,15,-15.0,79.0,-975.0,13:35:51.452037,192.168.0.115
773,-1,-100,-100,-100,"0,0,0",0,-4,0,0,0,0,61,64,84,60,100,-4.92,15,3.0,92.0,-988.0,13:35:51.552994,192.168.0.115
778,-1,-100,-100,-100,"0,0,0",1,-4,0,0,0,0,61,64,84,60,100,-4.8,15,25.0,65.0,-1003.0,13:35:51.654940,192.168.0.115
783,-1,-100,-100,-100,"0,0,0",1,-4,0,0,0,0,62,64,83,60,100,-4.94,15,25.0,81.0,-996.0,13:35:51.761457,192.168.0.115
789,-1,-100,-100,-100,"0,0,0",1,-4,0,0,0,0,62,64,84,60,100,-4.79,15,13.0,58.0,-982.0,13:35:51.858980,192.168.0.115
794,-1,-100,-100,-100,"0,0,0",1,-4,0,0,0,0,62,64,84,60,100,-4.95,15,22.0,87.0,-1000.0,13:35:51.960960,192.168.0.115
796,-1,-100,-100,-100,"0,0,0",0,-3,0,0,0,0,62,64,84,60,100,-4.9,15,0.0,69.0,-989.0,13:35:52.012160,192.168.0.115
801,-1,-100,-100,-100,"0,0,0",1,-4,0,0,0,0,62,64,84,60,100,-4.97,15,12.0,55.0,-1003.0,13:35:52.113686,192.168.0.115
807,-1,-100,-100,-100,"0,0,0",1,-3,0,0,0,0,62,64,84,60,100,-4.85,15,38.0,45.0,-977.0,13:35:52.215961,192.168.0.115
812,-1,-100,-100,-100,"0,0,0",1,-3,0,0,0,0,62,64,84,60,100,-4.86,16,23.0,37.0,-1005.0,13:35:52.319288,192.168.0.115
817,-1,-100,-100,-100,"0,0,0",1,-3,0,0,0,0,62,64,84,60,100,-4.93,16,25.0,48.0,-983.0,13:35:52.420026,192.168.0.115
822,-1,-100,-100,-100,"0,0,0",1,-1,0,0,0,0,62,64,84,60,100,-4.92,16,24.0,72.0,-994.0,13:35:52.522130,192.168.0.115
827,-1,-100,-100,-100,"0,0,0",1,-2,0,0,0,0,62,64,84,60,100,-4.86,16,18.0,32.0,-978.0,13:35:52.624635,192.168.0.115
832,-1,-100,-100,-100,"0,0,0",1,-2,0,0,0,0,62,64,84,60,100,-4.88,16,5.0,52.0,-969.0,13:35:52.725894,192.168.0.115
837,-1,-100,-100,-100,"0,0,0",2,-2,0,0,0,0,62,64,83,60,100,-4.92,16,5.0,50.0,-995.0,13:35:52.828354,192.168.0.115
843,-1,-100,-100,-100,"0,0,0",1,-2,0,0,0,0,62,64,83,60,100,-4.91,16,7.0,51.0,-1021.0,13:35:52.930025,192.168.0.115
848,-1,-100,-100,-100,"0,0,0",1,-2,0,0,0,0,62,64,83,60,100,-5.04,16,24.0,56.0,-978.0,13:35:53.032332,192.168.0.115
853,-1,-100,-100,-100,"0,0,0",1,-1,0,0,0,0,62,64,83,60,100,-4.99,16,67.0,21.0,-995.0,13:35:53.134093,192.168.0.115
858,-1,-100,-100,-100,"0,0,0",2,-2,0,0,0,0,62,64,82,60,100,-4.96,16,18.0,44.0,-996.0,13:35:53.236105,192.168.0.115
862,-1,-100,-100,-100,"0,0,0",2,-2,0,0,0,0,62,64,83,60,100,-4.87,17,8.0,23.0,-983.0,13:35:53.338039,192.168.0.115
868,-1,-100,-100,-100,"0,0,0",3,-1,0,0,0,0,62,64,83,60,100,-4.84,17,14.0,46.0,-972.0,13:35:53.439924,192.168.0.115
873,-1,-100,-100,-100,"0,0,0",2,0,0,0,0,0,62,64,83,60,100,-4.9,17,20.0,20.0,-1028.0,13:35:53.541742,192.168.0.115
878,-1,-100,-100,-100,"0,0,0",1,-1,0,0,0,0,62,64,83,60,100,-5.08,17,31.0,90.0,-1010.0,13:35:53.644071,192.168.0.115
883,-1,-100,-100,-100,"0,0,0",1,0,0,0,0,0,62,64,83,60,100,-5.12,17,74.0,23.0,-1009.0,13:35:53.746163,192.168.0.115
888,-1,-100,-100,-100,"0,0,0",2,-2,0,0,0,0,62,64,83,60,100,-5.06,17,17.0,56.0,-1012.0,13:35:53.847967,192.168.0.115
893,-1,-100,-100,-100,"0,0,0",2,-3,0,0,0,0,62,64,83,60,100,-4.93,17,26.0,73.0,-936.0,13:35:53.962426,192.168.0.115
898,-1,-100,-100,-100,"0,0,0",2,-2,0,0,0,0,62,64,82,60,100,-4.9,17,17.0,40.0,-999.0,13:35:54.052211,192.168.0.115
903,-1,-100,-100,-100,"0,0,0",1,-4,0,0,0,0,62,64,83,60,100,-5.08,17,8.0,87.0,-974.0,13:35:54.154859,192.168.0.115
908,-1,-100,-100,-100,"0,0,0",2,-3,0,0,0,0,62,64,84,60,100,-4.9,17,19.0,41.0,-1018.0,13:35:54.257284,192.168.0.115
913,-1,-100,-100,-100,"0,0,0",2,-4,0,0,0,0,62,64,83,60,100,-4.95,18,14.0,61.0,-1026.0,13:35:54.358633,192.168.0.115
918,-1,-100,-100,-100,"0,0,0",0,-3,0,0,0,0,62,64,84,60,100,-4.94,18,6.0,48.0,-1014.0,13:35:54.460083,192.168.0.115
923,-1,-100,-100,-100,"0,0,0",0,-3,0,0,0,0,62,64,84,60,100,-5.07,18,28.0,61.0,-961.0,13:35:54.562110,192.168.0.115
929,-1,-100,-100,-100,"0,0,0",0,-3,-1,0,0,0,62,64,83,60,100,-5.0,18,7.0,58.0,-988.0,13:35:54.664074,192.168.0.115
934,-1,-100,-100,-100,"0,0,0",0,-4,0,0,0,0,62,64,83,60,100,-4.98,18,8.0,56.0,-970.0,13:35:54.766029,192.168.0.115
939,-1,-100,-100,-100,"0,0,0",0,-4,0,0,0,0,62,64,83,60,100,-5.02,18,10.0,39.0,-1012.0,13:35:54.868307,192.168.0.115
944,-1,-100,-100,-100,"0,0,0",1,-4,-1,0,0,0,62,64,82,60,100,-5.08,18,14.0,86.0,-1003.0,13:35:54.970310,192.168.0.115
949,-1,-100,-100,-100,"0,0,0",0,-4,-1,0,0,0,62,64,82,60,100,-5.05,18,5.0,64.0,-987.0,13:35:55.072398,192.168.0.115
954,-1,-100,-100,-100,"0,0,0",0,-4,0,0,0,0,62,64,82,60,100,-4.99,18,-22.0,59.0,-946.0,13:35:55.174208,192.168.0.115
956,-1,-100,-100,-100,"0,0,0",0,-4,0,0,0,0,62,64,81,60,100,-4.94,18,-12.0,89.0,-1055.0,13:35:55.225256,192.168.0.115
961,-1,-100,-100,-100,"0,0,0",0,-3,0,0,0,0,62,64,81,60,100,-4.9,19,-1.0,60.0,-1012.0,13:35:55.327120,192.168.0.115
966,-1,-100,-100,-100,"0,0,0",0,-4,0,0,0,0,62,64,82,60,100,-4.87,19,22.0,104.0,-987.0,13:35:55.429195,192.168.0.115
971,-1,-100,-100,-100,"0,0,0",0,-4,0,0,0,0,62,64,82,60,100,-4.86,19,23.0,69.0,-1033.0,13:35:55.531237,192.168.0.115
976,-1,-100,-100,-100,"0,0,0",0,-3,0,0,0,0,62,64,81,60,100,-5.03,19,10.0,37.0,-977.0,13:35:55.633141,192.168.0.115
982,-1,-100,-100,-100,"0,0,0",0,-2,0,0,0,0,63,65,81,60,100,-5.03,19,17.0,80.0,-986.0,13:35:55.735117,192.168.0.115
986,-1,-100,-100,-100,"0,0,0",0,-3,0,0,0,0,63,65,81,60,100,-4.94,19,3.0,56.0,-985.0,13:35:55.838165,192.168.0.115
992,-1,-100,-100,-100,"0,0,0",0,-5,0,0,0,0,63,65,81,60,100,-5.05,19,0.0,79.0,-1042.0,13:35:55.939552,192.168.0.115
997,-1,-100,-100,-100,"0,0,0",0,-4,0,0,0,0,63,65,81,60,100,-4.94,19,24.0,45.0,-1002.0,13:35:56.041146,192.168.0.115
1002,-1,-100,-100,-100,"0,0,0",0,-5,0,0,0,0,63,65,81,60,100,-5.03,19,30.0,53.0,-1003.0,13:35:56.143058,192.168.0.115
1007,-1,-100,-100,-100,"0,0,0",0,-4,0,0,0,0,63,65,81,60,100,-5.04,19,24.0,64.0,-976.0,13:35:56.245250,192.168.0.115
1012,-1,-100,-100,-100,"0,0,0",1,-2,0,0,0,0,63,65,81,60,100,-4.89,20,-3.0,82.0,-986.0,13:35:56.347245,192.168.0.115
1017,-1,-100,-100,-100,"0,0,0",1,-3,0,0,0,0,63,65,81,60,100,-4.91,20,8.0,71.0,-1006.0,13:35:56.449443,192.168.0.115
1022,-1,-100,-100,-100,"0,0,0",1,-4,0,0,0,0,63,65,81,60,100,-5.02,20,-47.0,76.0,-947.0,13:35:56.551135,192.168.0.115
1027,-1,-100,-100,-100,"0,0,0",1,-4,-1,0,0,0,63,65,81,60,100,-5.01,20,-9.0,82.0,-1007.0,13:35:56.653114,192.168.0.115
1032,-1,-100,-100,-100,"0,0,0",0,-4,0,0,0,0,62,65,81,60,100,-4.9,20,-17.0,77.0,-970.0,13:35:56.755194,192.168.0.115
1038,-1,-100,-100,-100,"0,0,0",0,-4,0,0,0,0,62,65,81,60,100,-5.08,20,-12.0,47.0,-1009.0,13:35:56.857509,192.168.0.115
1043,-1,-100,-100,-100,"0,0,0",0,-3,0,0,0,0,62,65,81,60,100,-5.0,20,34.0,57.0,-995.0,13:35:56.959174,192.168.0.115
1048,-1,-100,-100,-100,"0,0,0",0,-3,0,0,0,0,62,65,81,60,100,-4.96,20,7.0,98.0,-1066.0,13:35:57.061550,192.168.0.115
1053,-1,-100,-100,-100,"0,0,0",0,-3,0,0,0,0,62,65,81,60,100,-5.03,20,-3.0,106.0,-956.0,13:35:57.163160,192.168.0.115
1058,-1,-100,-100,-100,"0,0,0",0,-5,0,0,0,0,62,65,81,60,100,-5.08,21,-2.0,50.0,-1014.0,13:35:57.265126,192.168.0.115
1063,-1,-100,-100,-100,"0,0,0",0,-5,0,0,0,0,62,65,81,60,100,-4.92,21,30.0,44.0,-969.0,13:35:57.367211,192.168.0.115
1068,-1,-100,-100,-100,"0,0,0",0,-4,0,0,0,0,62,65,81,60,100,-4.99,21,34.0,50.0,-1003.0,13:35:57.469179,192.168.0.115
1073,-1,-100,-100,-100,"0,0,0",0,-3,0,0,0,0,62,65,81,60,100,-4.97,21,40.0,94.0,-989.0,13:35:57.571278,192.168.0.115
1078,-1,-100,-100,-100,"0,0,0",1,-3,0,0,0,0,62,65,81,60,100,-4.99,21,1.0,82.0,-992.0,13:35:57.673213,192.168.0.115
1083,-1,-100,-100,-100,"0,0,0",1,-4,0,0,0,0,62,65,81,60,100,-5.03,21,13.0,68.0,-956.0,13:35:57.775236,192.168.0.115
1088,-1,-100,-100,-100,"0,0,0",0,-4,-1,0,0,0,62,65,81,60,100,-4.97,21,-2.0,67.0,-960.0,13:35:57.877104,192.168.0.115
1094,-1,-100,-100,-100,"0,0,0",0,-4,-1,0,0,0,62,65,81,60,100,-5.0,21,-8.0,67.0,-1051.0,13:35:57.979271,192.168.0.115
1099,-1,-100,-100,-100,"0,0,0",0,-4,0,0,0,0,62,65,81,60,100,-4.94,21,37.0,54.0,-961.0,13:35:58.082022,192.168.0.115
1104,-1,-100,-100,-100,"0,0,0",0,-3,0,0,0,0,62,65,80,60,100,-4.88,21,-23.0,76.0,-1012.0,13:35:58.183519,192.168.0.115
1109,-1,-100,-100,-100,"0,0,0",0,-3,0,0,0,0,62,65,80,60,100,-5.06,22,16.0,95.0,-995.0,13:35:58.285231,192.168.0.115
1114,-1,-100,-100,-100,"0,0,0",0,-3,0,0,0,0,62,65,80,60,100,-4.99,22,21.0,89.0,-983.0,13:35:58.387499,192.168.0.115
1119,-1,-100,-100,-100,"0,0,0",0,-4,0,0,0,0,62,65,80,60,100,-5.14,22,27.0,65.0,-1011.0,13:35:58.489331,192.168.0.115
1124,-1,-100,-100,-100,"0,0,0",0,-5,0,0,0,0,62,65,80,60,100,-5.03,22,-4.0,79.0,-1031.0,13:35:58.591053,192.168.0.115
1126,-1,-100,-100,-100,"0,0,0",0,-4,0,0,0,0,62,65,80,60,100,-5.01,22,2.0,78.0,-1006.0,13:35:58.644351,192.168.0.115
1134,-1,-100,-100,-100,"0,0,0",0,-4,0,0,0,0,63,65,80,60,100,-4.92,22,0.0,74.0,-963.0,13:35:58.795220,192.168.0.115
1136,-1,-100,-100,-100,"0,0,0",0,-4,0,0,0,0,63,65,79,60,100,-5.05,22,5.0,97.0,-937.0,13:35:58.846206,192.168.0.115
1141,-1,-100,-100,-100,"0,0,0",0,-5,-1,0,0,0,63,65,80,60,100,-5.08,22,-7.0,88.0,-997.0,13:35:58.948271,192.168.0.115
1146,-1,-100,-100,-100,"0,0,0",0,-6,-1,0,0,0,63,65,79,60,100,-5.04,22,-16.0,91.0,-1008.0,13:35:59.050302,192.168.0.115
1151,-1,-100,-100,-100,"0,0,0",0,-5,-1,0,0,0,63,65,80,60,100,-5.04,22,-45.0,50.0,-965.0,13:35:59.153237,192.168.0.115
1157,-1,-100,-100,-100,"0,0,0",0,-5,0,0,0,0,63,65,79,60,100,-5.16,23,-24.0,49.0,-1013.0,13:35:59.254564,192.168.0.115
1162,-1,-100,-100,-100,"0,0,0",-1,-4,0,0,0,0,63,65,79,60,100,-5.1,23,10.0,63.0,-1003.0,13:35:59.356240,192.168.0.115
1167,-1,-100,-100,-100,"0,0,0",0,-3,0,0,0,0,63,65,79,60,100,-5.12,23,-19.0,29.0,-1015.0,13:35:59.458493,192.168.0.115
1172,-1,-100,-100,-100,"0,0,0",0,-3,0,0,0,0,63,65,79,60,100,-5.07,23,-5.0,118.0,-1021.0,13:35:59.560365,192.168.0.115
1177,-1,-100,-100,-100,"0,0,0",0,-3,0,0,0,0,63,65,80,60,100,-5.04,23,5.0,79.0,-997.0,13:35:59.662349,192.168.0.115
1182,-1,-100,-100,-100,"0,0,0",0,-4,0,0,0,0,63,65,81,60,100,-5.1,23,-7.0,107.0,-995.0,13:35:59.767785,192.168.0.115
1188,-1,-100,-100,-100,"0,0,0",0,-5,0,0,0,0,63,65,82,60,100,-5.01,23,10.0,61.0,-1012.0,13:35:59.866362,192.168.0.115
1193,-1,-100,-100,-100,"0,0,0",1,-4,0,0,0,0,63,65,82,60,100,-5.03,23,-8.0,88.0,-975.0,13:35:59.969469,192.168.0.115
1198,-1,-100,-100,-100,"0,0,0",0,-4,0,0,0,0,63,65,83,60,100,-4.97,23,-17.0,71.0,-957.0,13:36:00.070262,192.168.0.115
1203,-1,-100,-100,-100,"0,0,0",0,-4,0,0,0,0,63,65,82,60,100,-5.12,23,-9.0,46.0,-1010.0,13:36:00.172361,192.168.0.115
1208,-1,-100,-100,-100,"0,0,0",0,-3,0,0,0,0,63,65,83,60,100,-5.13,24,-21.0,61.0,-992.0,13:36:00.274391,192.168.0.115
1213,-1,-100,-100,-100,"0,0,0",0,-2,0,0,0,0,63,65,83,60,100,-5.06,24,-15.0,101.0,-1018.0,13:36:00.376683,192.168.0.115
1218,-1,-100,-100,-100,"0,0,0",0,-3,0,0,0,0,63,65,82,60,100,-4.94,24,33.0,65.0,-1017.0,13:36:00.478476,192.168.0.115
1223,-1,-100,-100,-100,"0,0,0",0,-4,0,0,0,0,63,65,83,60,100,-4.95,24,11.0,90.0,-978.0,13:36:00.582515,192.168.0.115
1228,-1,-100,-100,-100,"0,0,0",2,-3,0,0,0,0,63,65,83,60,100,-4.95,24,1.0,91.0,-960.0,13:36:00.684963,192.168.0.115
1233,-1,-100,-100,-100,"0,0,0",2,-3,0,0,0,0,63,65,83,60,100,-4.87,24,-24.0,91.0,-994.0,13:36:00.784332,192.168.0.115
1238,-1,-100,-100,-100,"0,0,0",1,-4,0,0,0,0,63,65,83,60,100,-4.97,24,0.0,93.0,-1032.0,13:36:00.886369,192.168.0.115
1243,-1,-100,-100,-100,"0,0,0",1,-4,0,0,0,0,63,65,83,60,100,-5.04,24,-7.0,75.0,-953.0,13:36:00.988424,192.168.0.115
1248,-1,-100,-100,-100,"0,0,0",1,-4,0,0,0,0,63,65,82,60,100,-5.05,24,-9.0,63.0,-1000.0,13:36:01.090633,192.168.0.115
1253,-1,-100,-100,-100,"0,0,0",0,-4,0,0,0,0,63,65,82,60,100,-4.93,24,11.0,63.0,-1008.0,13:36:01.192486,192.168.0.115
1259,-1,-100,-100,-100,"0,0,0",0,-4,0,0,0,0,63,65,82,60,100,-4.88,25,1.0,76.0,-976.0,13:36:01.295462,192.168.0.115
1264,-1,-100,-100,-100,"0,0,0",1,-3,0,0,0,0,63,65,82,60,100,-4.83,25,46.0,78.0,-994.0,13:36:01.396613,192.168.0.115
1269,-1,-100,-100,-100,"0,0,0",1,-4,0,0,0,0,63,65,82,60,100,-4.99,25,11.0,89.0,-994.0,13:36:01.498143,192.168.0.115
1274,-1,-100,-100,-100,"0,0,0",1,-4,0,0,0,0,63,65,82,60,100,-4.97,25,-33.0,73.0,-1032.0,13:36:01.600713,192.168.0.115
1279,-1,-100,-100,-100,"0,0,0",0,-5,0,0,0,0,63,65,82,60,100,-5.02,25,18.0,82.0,-966.0,13:36:01.702613,192.168.0.115
1284,-1,-100,-100,-100,"0,0,0",0,-5,0,0,0,0,63,65,82,60,100,-5.11,25,-28.0,92.0,-999.0,13:36:01.804228,192.168.0.115
1289,-1,-100,-100,-100,"0,0,0",0,-5,0,0,0,0,63,65,82,60,100,-5.11,25,-30.0,104.0,-1047.0,13:36:01.906651,192.168.0.115
1294,-1,-100,-100,-100,"0,0,0",0,-5,0,0,0,0,63,65,82,60,100,-5.11,25,-51.0,82.0,-974.0,13:36:02.009544,192.168.0.115
1299,-1,-100,-100,-100,"0,0,0",0,-5,0,0,0,0,63,65,83,60,100,-5.16,25,-13.0,71.0,-1034.0,13:36:02.110473,192.168.0.115
1301,-1,-100,-100,-100,"0,0,0",0,-4,0,0,0,0,63,65,83,60,100,-4.99,25,3.0,68.0,-1012.0,13:36:02.161393,192.168.0.115
1306,-1,-100,-100,-100,"0,0,0",0,-3,0,0,0,0,63,65,83,60,100,-5.0,26,13.0,75.0,-979.0,13:36:02.263515,192.168.0.115
1311,-1,-100,-100,-100,"0,0,0",0,-4,0,0,0,0,63,65,84,60,100,-5.01,26,26.0,56.0,-983.0,13:36:02.365726,192.168.0.115
1316,-1,-100,-100,-100,"0,0,0",0,-4,0,0,0,0,63,65,84,60,100,-5.08,26,26.0,52.0,-988.0,13:36:02.467385,192.168.0.115
1321,-1,-100,-100,-100,"0,0,0",0,-2,0,0,0,0,63,65,84,60,100,-5.02,26,22.0,91.0,-915.0,13:36:02.570352,192.168.0.115
1327,-1,-100,-100,-100,"0,0,0",1,-4,-1,0,0,0,63,65,84,60,100,-5.02,26,-34.0,79.0,-981.0,13:36:02.671381,192.168.0.115
1332,-1,-100,-100,-100,"0,0,0",1,-4,0,0,0,0,63,65,84,60,100,-5.09,26,-22.0,51.0,-1002.0,13:36:02.774735,192.168.0.115
1337,-1,-100,-100,-100,"0,0,0",0,-3,0,0,0,0,63,65,83,60,100,-5.05,26,-33.0,49.0,-1010.0,13:36:02.875605,192.168.0.115
1342,-1,-100,-100,-100,"0,0,0",-1,-2,0,0,0,0,63,65,83,60,100,-5.0,26,-2.0,59.0,-966.0,13:36:02.977681,192.168.0.115
1347,-1,-100,-100,-100,"0,0,0",-1,-2,0,0,0,0,63,65,83,60,100,-4.95,26,38.0,68.0,-1045.0,13:36:03.079294,192.168.0.115
1352,-1,-100,-100,-100,"0,0,0",0,-4,0,0,0,0,63,65,83,60,100,-4.86,26,39.0,97.0,-1015.0,13:36:03.181356,192.168.0.115
1358,-1,-100,-100,-100,"0,0,0",1,-4,0,0,0,0,63,65,83,60,100,-4.98,27,18.0,82.0,-999.0,13:36:03.283437,192.168.0.115
1362,-1,-100,-100,-100,"0,0,0",1,-4,0,0,0,0,63,65,83,60,100,-4.88,27,-8.0,79.0,-973.0,13:36:03.385422,192.168.0.115
1368,-1,-100,-100,-100,"0,0,0",1,-4,0,0,0,0,63,65,84,60,100,-4.97,27,23.0,104.0,-1001.0,13:36:03.493152,192.168.0.115
1373,-1,-100,-100,-100,"0,0,0",0,-4,0,0,0,0,63,65,84,60,100,-5.02,27,26.0,63.0,-966.0,13:36:03.589267,192.168.0.115
1378,-1,-100,-100,-100,"0,0,0",1,-4,0,0,0,0,63,65,84,60,100,-4.92,27,-5.0,90.0,-1012.0,13:36:03.692356,192.168.0.115
1383,-1,-100,-100,-100,"0,0,0",1,-4,0,0,0,0,63,65,84,60,100,-4.89,27,-4.0,77.0,-962.0,13:36:03.793430,192.168.0.115
1388,-1,-100,-100,-100,"0,0,0",0,-4,0,0,0,0,63,65,84,60,100,-5.02,27,21.0,78.0,-1036.0,13:36:03.895447,192.168.0.115
1393,-1,-100,-100,-100,"0,0,0",0,-5,0,0,0,0,63,65,84,60,100,-4.99,27,-30.0,102.0,-977.0,13:36:03.997328,192.168.0.115
1398,-1,-100,-100,-100,"0,0,0",0,-5,0,0,0,0,63,65,83,60,100,-4.89,27,0.0,102.0,-953.0,13:36:04.099908,192.168.0.115
1403,-1,-100,-100,-100,"0,0,0",-1,-6,0,0,0,0,63,65,82,60,100,-4.99,27,-27.0,88.0,-975.0,13:36:04.201667,192.168.0.115
1409,-1,-100,-100,-100,"0,0,0",0,-4,0,0,0,0,63,65,82,60,100,-5.11,28,-23.0,65.0,-1008.0,13:36:04.303491,192.168.0.115
1414,-1,-100,-100,-100,"0,0,0",0,-4,0,0,0,0,63,65,82,60,100,-5.11,28,-3.0,102.0,-1020.0,13:36:04.405521,192.168.0.115
1418,-1,-100,-100,-100,"0,0,0",0,-5,0,0,0,0,63,65,81,60,100,-5.1,28,-4.0,107.0,-985.0,13:36:04.509341,192.168.0.115
1423,-1,-100,-100,-100,"0,0,0",0,-5,0,0,0,0,63,65,81,60,100,-5.07,28,-11.0,71.0,-1017.0,13:36:04.609528,192.168.0.115
1428,-1,-100,-100,-100,"0,0,0",0,-4,0,0,0,0,63,65,80,60,100,-4.86,28,-1.0,72.0,-1027.0,13:36:04.711641,192.168.0.115
1434,-1,-100,-100,-100,"0,0,0",0,-3,0,0,0,0,63,66,80,60,100,-4.98,28,-5.0,91.0,-1039.0,13:36:04.813514,192.168.0.115
1439,-1,-100,-100,-100,"0,0,0",0,-2,0,0,0,0,63,66,80,60,100,-5.0,28,43.0,73.0,-1014.0,13:36:04.915471,192.168.0.115
1444,-1,-100,-100,-100,"0,0,0",0,-3,0,0,0,0,63,66,80,60,100,-4.97,28,27.0,80.0,-973.0,13:36:05.017400,192.168.0.115
1449,-1,-100,-100,-100,"0,0,0",0,-4,0,0,0,0,63,66,81,60,100,-5.02,28,-22.0,97.0,-959.0,13:36:05.119537,192.168.0.115
1454,-1,-100,-100,-100,"0,0,0",0,-4,0,0,0,0,63,66,81,60,100,-5.01,28,-27.0,65.0,-991.0,13:36:05.221773,192.168.0.115
1459,-1,-100,-100,-100,"0,0,0",0,-4,-1,0,0,0,63,66,80,60,100,-4.95,29,-2.0,78.0,-1006.0,13:36:05.323612,192.168.0.115
1464,-1,-100,-100,-100,"0,0,0",0,-3,0,0,0,0,63,66,80,60,100,-4.95,29,-3.0,53.0,-1040.0,13:36:05.425284,192.168.0.115
1469,-1,-100,-100,-100,"0,0,0",0,-4,0,0,0,0,63,66,80,60,100,-5.01,29,11.0,49.0,-1005.0,13:36:05.527279,192.168.0.115
1474,-1,-100,-100,-100,"0,0,0",0,-3,0,0,0,0,63,66,81,60,100,-5.05,29,-39.0,93.0,-1017.0,13:36:05.629617,192.168.0.115
1476,-1,-100,-100,-100,"0,0,0",0,-3,0,0,0,0,63,66,81,60,100,-5.1,29,35.0,46.0,-985.0,13:36:05.680543,192.168.0.115
1484,-1,-100,-100,-100,"0,0,0",-1,-3,0,0,0,0,63,66,82,60,100,-4.83,29,-1.0,97.0,-965.0,13:36:05.833528,192.168.0.115
1489,-1,-100,-100,-100,"0,0,0",0,-4,0,0,0,0,63,66,82,60,100,-4.88,29,9.0,98.0,-993.0,13:36:05.935526,192.168.0.115
1491,-1,-100,-100,-100,"0,0,0",0,-4,0,0,0,0,63,66,82,60,100,-4.86,29,-2.0,66.0,-1031.0,13:36:05.986888,192.168.0.115
1496,-1,-100,-100,-100,"0,0,0",0,-4,0,0,0,0,63,66,83,60,100,-4.97,29,16.0,71.0,-1029.0,13:36:06.088558,192.168.0.115
1502,-1,-100,-100,-100,"0,0,0",0,-4,0,0,0,0,63,66,83,60,100,-4.75,29,30.0,67.0,-998.0,13:36:06.190597,192.168.0.115
1507,-1,-100,-100,-100,"0,0,0",1,-4,0,0,0,0,63,66,83,60,100,-4.85,30,16.0,94.0,-1018.0,13:36:06.292547,192.168.0.115
1512,-1,-100,-100,-100,"0,0,0",1,-4,0,0,0,0,63,66,83,60,100,-4.99,30,12.0,98.0,-984.0,13:36:06.395262,192.168.0.115
1517,-1,-100,-100,-100,"0,0,0",1,-4,0,0,0,0,63,66,84,60,100,-4.96,30,0.0,74.0,-989.0,13:36:06.496584,192.168.0.115
1522,-1,-100,-100,-100,"0,0,0",1,-5,0,0,0,0,63,66,83,60,100,-4.87,30,4.0,70.0,-1022.0,13:36:06.598761,192.168.0.115
1527,-1,-100,-100,-100,"0,0,0",2,-5,0,0,0,0,63,66,84,60,100,-4.96,30,-32.0,66.0,-971.0,13:36:06.700343,192.168.0.115
1532,-1,-100,-100,-100,"0,0,0",1,-4,0,0,0,0,65,67,83,60,100,-4.92,30,-23.0,74.0,-1006.0,13:36:06.802615,192.168.0.115
1538,-1,-100,-100,-100,"0,0,0",0,-4,0,0,0,0,65,67,83,60,100,-4.89,30,1.0,72.0,-1000.0,13:36:06.904547,192.168.0.115
1543,-1,-100,-100,-100,"0,0,0",0,-4,0,0,0,0,65,67,83,60,100,-5.01,30,16.0,112.0,-1026.0,13:36:07.009201,192.168.0.115
1548,-1,-100,-100,-100,"0,0,0",0,-4,0,0,0,0,65,67,83,60,100,-4.94,30,-21.0,40.0,-915.0,13:36:07.109604,192.168.0.115
1553,-1,-100,-100,-100,"0,0,0",0,-5,-1,0,0,0,65,67,82,60,100,-4.92,30,-34.0,75.0,-1046.0,13:36:07.211723,192.168.0.115
1558,-1,-100,-100,-100,"0,0,0",0,-3,0,0,0,0,65,67,82,60,100,-5.06,31,-23.0,64.0,-984.0,13:36:07.313674,192.168.0.115
1563,-1,-100,-100,-100,"0,0,0",0,-2,0,0,0,0,65,67,81,60,100,-4.98,31,18.0,48.0,-1010.0,13:36:07.415600,192.168.0.115
1568,-1,-100,-100,-100,"0,0,0",-1,-3,0,0,0,0,65,67,81,60,100,-4.99,31,18.0,75.0,-990.0,13:36:07.517370,192.168.0.115
1573,-1,-100,-100,-100,"0,0,0",0,-3,0,0,0,0,65,67,81,60,100,-4.96,31,34.0,69.0,-1039.0,13:36:07.619524,192.168.0.115
1578,-1,-100,-100,-100,"0,0,0",0,-3,0,0,0,0,65,67,81,60,100,-5.0,31,12.0,35.0,-974.0,13:36:07.721480,192.168.0.115
1583,-1,-100,-100,-100,"0,0,0",0,-5,0,0,0,0,64,65,82,60,100,-5.1,31,-22.0,68.0,-1066.0,13:36:07.823260,192.168.0.115
1589,-1,-100,-100,-100,"0,0,0",1,-3,0,0,0,0,64,65,81,60,100,-5.05,31,-12.0,45.0,-951.0,13:36:07.925637,192.168.0.115
1594,-1,-100,-100,-100,"0,0,0",0,-4,-1,0,0,0,64,65,81,60,100,-5.06,31,-23.0,41.0,-993.0,13:36:08.027604,192.168.0.115
1599,-1,-100,-100,-100,"0,0,0",0,-4,0,0,0,0,64,65,81,60,100,-4.98,31,-25.0,16.0,-983.0,13:36:08.129429,192.168.0.115
1604,-1,-100,-100,-100,"0,0,0",0,-3,0,0,0,0,64,65,81,60,100,-4.75,31,-16.0,85.0,-1025.0,13:36:08.231467,192.168.0.115
1609,-1,-100,-100,-100,"0,0,0",-1,-3,0,0,0,0,64,65,81,60,100,-5.06,32,-19.0,18.0,-1023.0,13:36:08.333440,192.168.0.115
1614,-1,-100,-100,-100,"0,0,0",0,-3,0,0,0,0,64,65,81,60,100,-4.95,32,21.0,27.0,-987.0,13:36:08.435516,192.168.0.115
1619,-1,-100,-100,-100,"0,0,0",0,-1,0,0,0,0,64,65,82,60,100,-5.02,32,-8.0,76.0,-986.0,13:36:08.538165,192.168.0.115
1624,-1,-100,-100,-100,"0,0,0",0,-1,0,0,0,0,64,65,83,60,100,-5.06,32,-46.0,67.0,-1024.0,13:36:08.639782,192.168.0.115
1629,-1,-100,-100,-100,"0,0,0",0,-1,0,0,0,0,64,65,83,60,100,-4.89,32,21.0,39.0,-969.0,13:36:08.741606,192.168.0.115
1634,-1,-100,-100,-100,"0,0,0",0,-2,0,0,0,0,63,66,83,60,100,-4.87,32,-18.0,62.0,-1013.0,13:36:08.843596,192.168.0.115
1639,-1,-100,-100,-100,"0,0,0",0,-1,0,0,0,0,63,66,83,60,100,-4.91,32,10.0,68.0,-1027.0,13:36:08.947353,192.168.0.115
1644,-1,-100,-100,-100,"0,0,0",0,-1,0,0,0,0,63,66,83,60,100,-4.93,32,36.0,70.0,-1029.0,13:36:09.047798,192.168.0.115
1649,-1,-100,-100,-100,"0,0,0",0,-2,0,0,0,0,63,66,83,60,100,-4.88,32,3.0,77.0,-983.0,13:36:09.149902,192.168.0.115
1654,-1,-100,-100,-100,"0,0,0",0,-4,0,0,0,0,63,66,84,60,100,-4.98,32,23.0,59.0,-1018.0,13:36:09.251730,192.168.0.115
1659,-1,-100,-100,-100,"0,0,0",0,-3,0,0,0,0,63,66,83,60,100,-4.96,33,47.0,52.0,-1004.0,13:36:09.353659,192.168.0.115
1662,-1,-100,-100,-100,"0,0,0",0,-3,0,0,0,0,63,66,83,60,100,-4.91,33,48.0,69.0,-979.0,13:36:09.404861,192.168.0.115
1667,-1,-100,-100,-100,"0,0,0",1,-3,0,0,0,0,63,66,84,60,100,-4.86,33,-17.0,119.0,-985.0,13:36:09.506576,192.168.0.115
1672,-1,-100,-100,-100,"0,0,0",2,-5,0,0,0,0,63,66,83,60,100,-4.99,33,-38.0,89.0,-990.0,13:36:09.609268,192.168.0.115
1677,-1,-100,-100,-100,"0,0,0",1,-5,0,0,0,0,63,66,82,60,100,-4.86,33,16.0,61.0,-1024.0,13:36:09.711417,192.168.0.115
1682,-1,-100,-100,-100,"0,0,0",0,-5,0,0,0,0,64,66,82,60,100,-4.93,33,31.0,61.0,-1025.0,13:36:09.813898,192.168.0.115
1687,-1,-100,-100,-100,"0,0,0",0,-4,0,0,0,0,64,66,82,60,100,-4.95,33,11.0,102.0,-971.0,13:36:09.916554,192.168.0.115
1692,-1,-100,-100,-100,"0,0,0",0,-4,0,0,0,0,64,66,83,60,100,-4.93,33,6.0,76.0,-984.0,13:36:10.018836,192.168.0.115
1698,-1,-100,-100,-100,"0,0,0",1,-4,0,0,0,0,64,66,82,60,100,-4.96,33,13.0,70.0,-1000.0,13:36:10.121059,192.168.0.115
1703,-1,-100,-100,-100,"0,0,0",0,-3,0,0,0,0,64,66,82,60,100,-4.76,33,28.0,88.0,-988.0,13:36:10.220971,192.168.0.115
1708,-1,-100,-100,-100,"0,0,0",1,-4,0,0,0,0,64,66,82,60,100,-4.98,34,-3.0,95.0,-1045.0,13:36:10.322990,192.168.0.115
1713,-1,-100,-100,-100,"0,0,0",1,-5,0,0,0,0,64,66,82,60,100,-4.98,34,1.0,89.0,-1004.0,13:36:10.425499,192.168.0.115
1718,-1,-100,-100,-100,"0,0,0",0,-5,0,0,0,0,64,66,82,60,100,-4.84,34,15.0,78.0,-993.0,13:36:10.526615,192.168.0.115
1723,-1,-100,-100,-100,"0,0,0",1,-4,0,0,0,0,64,66,82,60,100,-4.89,34,7.0,104.0,-990.0,13:36:10.628681,192.168.0.115
1728,-1,-100,-100,-100,"0,0,0",1,-4,0,0,0,0,64,66,81,60,100,-4.88,34,24.0,84.0,-1029.0,13:36:10.730981,192.168.0.115
1733,-1,-100,-100,-100,"0,0,0",1,-4,0,0,0,0,64,66,82,60,100,-4.84,34,4.0,84.0,-970.0,13:36:10.833113,192.168.0.115
1738,-1,-100,-100,-100,"0,0,0",0,-5,0,0,0,0,64,66,82,60,100,-4.88,34,-30.0,79.0,-1010.0,13:36:10.934720,192.168.0.115
1743,-1,-100,-100,-100,"0,0,0",0,-5,0,0,0,0,64,66,82,60,100,-4.92,34,-33.0,107.0,-1006.0,13:36:11.036756,192.168.0.115
1748,-1,-100,-100,-100,"0,0,0",0,-5,0,0,0,0,64,66,82,60,100,-4.98,34,-4.0,84.0,-1010.0,13:36:11.138792,192.168.0.115
1754,-1,-100,-100,-100,"0,0,0",0,-5,0,0,0,0,64,66,82,60,100,-4.75,34,27.0,103.0,-990.0,13:36:11.240789,192.168.0.115
1759,-1,-100,-100,-100,"0,0,0",0,-5,0,0,0,0,64,66,82,60,100,-4.95,35,-30.0,105.0,-969.0,13:36:11.343027,192.168.0.115
1764,-1,-100,-100,-100,"0,0,0",1,-5,0,0,0,0,64,66,82,60,100,-4.88,35,-28.0,108.0,-1009.0,13:36:11.444869,192.168.0.115
1769,-1,-100,-100,-100,"0,0,0",0,-5,0,0,0,0,64,66,82,60,100,-4.88,35,-4.0,100.0,-1001.0,13:36:11.546706,192.168.0.115
1774,-1,-100,-100,-100,"0,0,0",0,-6,0,0,0,0,64,66,82,60,100,-4.82,35,-10.0,74.0,-994.0,13:36:11.648688,192.168.0.115
1779,-1,-100,-100,-100,"0,0,0",0,-5,0,0,0,0,64,66,82,60,100,-4.88,35,18.0,78.0,-985.0,13:36:11.751032,192.168.0.115
1784,-1,-100,-100,-100,"0,0,0",0,-4,0,0,0,0,64,66,82,60,100,-4.96,35,-5.0,76.0,-986.0,13:36:11.852672,192.168.0.115
1789,-1,-100,-100,-100,"0,0,0",1,-4,0,0,0,0,64,66,82,60,100,-4.8,35,-4.0,113.0,-1012.0,13:36:11.954824,192.168.0.115
1794,-1,-100,-100,-100,"0,0,0",0,-4,0,0,0,0,64,66,82,60,100,-4.9,35,-29.0,106.0,-1005.0,13:36:12.056774,192.168.0.115
1799,-1,-100,-100,-100,"0,0,0",0,-5,0,0,0,0,64,66,81,60,100,-5.05,35,-11.0,79.0,-1031.0,13:36:12.158879,192.168.0.115
1804,-1,-100,-100,-100,"0,0,0",0,-5,0,0,0,0,64,66,81,60,100,-4.89,35,-4.0,102.0,-1014.0,13:36:12.260842,192.168.0.115
1809,-1,-100,-100,-100,"0,0,0",0,-5,0,0,0,0,64,66,81,60,100,-4.76,36,12.0,86.0,-975.0,13:36:12.362636,192.168.0.115
1814,-1,-100,-100,-100,"0,0,0",0,-4,0,0,0,0,64,66,81,60,100,-4.93,36,17.0,106.0,-1049.0,13:36:12.464831,192.168.0.115
1819,-1,-100,-100,-100,"0,0,0",0,-4,0,0,0,0,64,66,80,60,100,-4.85,36,42.0,93.0,-964.0,13:36:12.566798,192.168.0.115
1821,-1,-100,-100,-100,"0,0,0",0,-5,0,0,0,0,64,66,80,60,100,-4.93,36,25.0,122.0,-978.0,13:36:12.617734,192.168.0.115
1827,-1,-100,-100,-100,"0,0,0",1,-5,0,0,0,0,64,66,80,60,100,-4.91,36,6.0,118.0,-1016.0,13:36:12.720521,192.168.0.115
1832,-1,-100,-100,-100,"0,0,0",1,-5,0,0,0,0,64,66,80,60,100,-4.88,36,20.0,75.0,-1015.0,13:36:12.822203,192.168.0.115
1837,-1,-100,-100,-100,"0,0,0",1,-5,0,0,0,0,64,66,80,60,100,-4.93,36,34.0,89.0,-998.0,13:36:12.923814,192.168.0.115
1842,-1,-100,-100,-100,"0,0,0",1,-6,0,0,0,0,64,66,80,60,100,-4.88,36,49.0,71.0,-982.0,13:36:13.025578,192.168.0.115
1847,-1,-100,-100,-100,"0,0,0",0,-6,0,0,0,0,64,66,80,60,100,-4.85,36,5.0,74.0,-1021.0,13:36:13.127574,192.168.0.115
1853,-1,-100,-100,-100,"0,0,0",0,-5,0,0,0,0,64,66,80,60,100,-4.9,36,31.0,74.0,-1003.0,13:36:13.229896,192.168.0.115
1858,-1,-100,-100,-100,"0,0,0",0,-5,0,0,0,0,64,66,79,60,100,-4.94,37,7.0,74.0,-963.0,13:36:13.331991,192.168.0.115
1862,-1,-100,-100,-100,"0,0,0",0,-5,0,0,0,0,64,66,80,60,100,-4.93,37,-11.0,80.0,-997.0,13:36:13.434008,192.168.0.115
1868,-1,-100,-100,-100,"0,0,0",0,-6,0,0,0,0,64,66,80,60,100,-4.88,37,13.0,63.0,-1016.0,13:36:13.535998,192.168.0.115
1873,-1,-100,-100,-100,"0,0,0",0,-4,0,0,0,0,64,66,80,60,100,-5.02,37,17.0,81.0,-1022.0,13:36:13.644076,192.168.0.115
1878,-1,-100,-100,-100,"0,0,0",0,-3,0,0,0,0,64,66,80,60,100,-4.77,37,14.0,91.0,-957.0,13:36:13.740183,192.168.0.115
1883,-1,-100,-100,-100,"0,0,0",0,-3,0,0,0,0,64,67,80,60,100,-4.88,37,-7.0,96.0,-1005.0,13:36:13.841871,192.168.0.115
1888,-1,-100,-100,-100,"0,0,0",0,-4,0,0,0,0,64,67,80,60,100,-5.07,37,4.0,74.0,-1028.0,13:36:13.943500,192.168.0.115
1893,-1,-100,-100,-100,"0,0,0",0,-5,0,0,0,0,64,67,80,60,100,-4.96,37,0.0,47.0,-1024.0,13:36:14.045907,192.168.0.115
1898,-1,-100,-100,-100,"0,0,0",0,-5,0,0,0,0,64,67,80,60,100,-4.79,37,8.0,59.0,-1012.0,13:36:14.147909,192.168.0.115
1903,-1,-100,-100,-100,"0,0,0",0,-4,0,0,0,0,64,67,80,60,100,-4.81,37,23.0,99.0,-1009.0,13:36:14.249888,192.168.0.115
1908,-1,-100,-100,-100,"0,0,0",0,-4,0,0,0,0,64,67,81,60,100,-4.82,38,35.0,73.0,-996.0,13:36:14.351865,192.168.0.115
1913,-1,-100,-100,-100,"0,0,0",0,-4,0,0,0,0,64,67,81,60,100,-4.76,38,33.0,65.0,-983.0,13:36:14.453524,192.168.0.115
1918,-1,-100,-100,-100,"0,0,0",1,-3,0,0,0,0,64,67,82,60,100,-4.75,38,10.0,102.0,-989.0,13:36:14.555704,192.168.0.115
1923,-1,-100,-100,-100,"0,0,0",1,-3,0,0,0,0,64,67,82,60,100,-4.84,38,5.0,65.0,-997.0,13:36:14.658104,192.168.0.115
1928,-1,-100,-100,-100,"0,0,0",1,-4,0,0,0,0,64,67,83,60,100,-4.79,38,18.0,64.0,-1034.0,13:36:14.760341,192.168.0.115
1934,-1,-100,-100,-100,"0,0,0",1,-4,0,0,0,0,64,66,82,60,100,-4.95,38,0.0,54.0,-1009.0,13:36:14.861945,192.168.0.115
1939,-1,-100,-100,-100,"0,0,0",1,-4,0,0,0,0,64,66,83,60,100,-5.09,38,5.0,50.0,-983.0,13:36:14.963656,192.168.0.115
1944,-1,-100,-100,-100,"0,0,0",0,-3,0,0,0,0,64,66,83,60,100,-4.98,38,14.0,43.0,-1003.0,13:36:15.066033,192.168.0.115
1949,-1,-100,-100,-100,"0,0,0",0,-2,0,0,0,0,64,66,83,60,100,-5.0,38,48.0,75.0,-978.0,13:36:15.168179,192.168.0.115
1954,-1,-100,-100,-100,"0,0,0",1,-2,0,0,0,0,64,66,83,60,100,-4.97,39,23.0,76.0,-989.0,13:36:15.270324,192.168.0.115
1959,-1,-100,-100,-100,"0,0,0",1,-3,0,0,0,0,64,66,82,60,100,-5.02,39,34.0,93.0,-997.0,13:36:15.372476,192.168.0.115
1964,-1,-100,-100,-100,"0,0,0",1,-3,0,0,0,0,64,66,83,60,100,-4.99,39,8.0,45.0,-987.0,13:36:15.473722,192.168.0.115
1969,-1,-100,-100,-100,"0,0,0",1,-3,0,0,0,0,64,66,82,60,100,-5.07,39,1.0,53.0,-1024.0,13:36:15.576175,192.168.0.115
1974,-1,-100,-100,-100,"0,0,0",0,-4,0,0,0,0,64,66,82,60,100,-5.0,39,4.0,48.0,-990.0,13:36:15.678085,192.168.0.115
1979,-1,-100,-100,-100,"0,0,0",0,-3,0,0,0,0,64,66,82,60,100,-5.05,39,35.0,57.0,-1013.0,13:36:15.779997,192.168.0.115
1984,-1,-100,-100,-100,"0,0,0",0,-2,0,0,0,0,64,66,83,60,100,-5.11,39,25.0,46.0,-1000.0,13:36:15.882085,192.168.0.115
1989,-1,-100,-100,-100,"0,0,0",1,-2,0,0,0,0,64,66,82,60,100,-4.97,39,39.0,56.0,-936.0,13:36:15.984183,192.168.0.115
1994,-1,-100,-100,-100,"0,0,0",1,-2,0,0,0,0,64,66,82,60,100,-5.1,39,18.0,73.0,-984.0,13:36:16.086026,192.168.0.115
1997,-1,-100,-100,-100,"0,0,0",1,-2,0,0,0,0,64,66,82,60,100,-5.13,39,37.0,72.0,-968.0,13:36:16.137161,192.168.0.115
2002,-1,-100,-100,-100,"0,0,0",1,-3,0,0,0,0,64,66,82,60,100,-5.17,40,41.0,60.0,-1002.0,13:36:16.239428,192.168.0.115
2007,-1,-100,-100,-100,"0,0,0",1,-4,0,0,0,0,64,66,82,60,100,-4.99,40,-5.0,46.0,-1034.0,13:36:16.342177,192.168.0.115
2012,-1,-100,-100,-100,"0,0,0",0,-5,0,0,0,0,64,66,82,60,100,-4.94,40,24.0,50.0,-1008.0,13:36:16.443135,192.168.0.115
2017,-1,-100,-100,-100,"0,0,0",0,-3,0,0,0,0,64,66,82,60,100,-5.01,40,6.0,65.0,-986.0,13:36:16.545178,192.168.0.115
2022,-1,-100,-100,-100,"0,0,0",0,-2,0,0,0,0,64,66,82,60,100,-5.05,40,-8.0,66.0,-985.0,13:36:16.647307,192.168.0.115
2028,-1,-100,-100,-100,"0,0,0",0,-3,0,0,0,0,64,66,81,60,100,-5.12,40,8.0,67.0,-1005.0,13:36:16.749290,192.168.0.115
2033,-1,-100,-100,-100,"0,0,0",0,-4,0,0,0,0,64,66,82,60,100,-5.02,40,8.0,41.0,-999.0,13:36:16.851269,192.168.0.115
2038,-1,-100,-100,-100,"0,0,0",0,-4,0,0,0,0,64,66,81,60,100,-5.06,40,1.0,66.0,-1013.0,13:36:16.953091,192.168.0.115
2043,-1,-100,-100,-100,"0,0,0",0,-3,0,0,0,0,64,66,82,60,100,-4.93,40,-12.0,80.0,-1015.0,13:36:17.055006,192.168.0.115
2048,-1,-100,-100,-100,"0,0,0",0,-3,0,0,0,0,64,66,81,60,100,-4.99,40,-2.0,64.0,-1023.0,13:36:17.157156,192.168.0.115
2053,-1,-100,-100,-100,"0,0,0",0,-3,0,0,0,0,64,66,82,60,100,-4.96,41,-1.0,81.0,-1041.0,13:36:17.261897,192.168.0.115
2058,-1,-100,-100,-100,"0,0,0",0,-4,0,0,0,0,64,66,81,60,100,-5.02,41,13.0,76.0,-978.0,13:36:17.361149,192.168.0.115
2063,-1,-100,-100,-100,"0,0,0",0,-4,0,0,0,0,64,66,83,60,100,-5.06,41,21.0,64.0,-989.0,13:36:17.463339,192.168.0.115
2068,-1,-100,-100,-100,"0,0,0",1,-4,0,0,0,0,64,66,83,60,100,-5.1,41,-13.0,73.0,-989.0,13:36:17.567625,192.168.0.115
2073,-1,-100,-100,-100,"0,0,0",0,-4,0,0,0,0,64,66,83,60,100,-5.04,41,2.0,55.0,-1004.0,13:36:17.667203,192.168.0.115
2078,-1,-100,-100,-100,"0,0,0",0,-3,0,0,0,0,64,66,83,60,100,-4.95,41,15.0,49.0,-1006.0,13:36:17.768890,192.168.0.115
2083,-1,-100,-100,-100,"0,0,0",0,-3,0,0,0,0,64,67,83,60,100,-5.04,41,38.0,55.0,-984.0,13:36:17.871315,192.168.0.115
2088,-1,-100,-100,-100,"0,0,0",0,-3,0,0,0,0,64,67,83,60,100,-5.12,41,33.0,70.0,-990.0,13:36:17.974121,192.168.0.115
2093,-1,-100,-100,-100,"0,0,0",0,-4,0,0,0,0,64,67,83,60,100,-5.02,41,8.0,66.0,-982.0,13:36:18.080605,192.168.0.115
2098,-1,-100,-100,-100,"0,0,0",1,-4,0,0,0,0,64,67,83,60,100,-4.98,41,-21.0,48.0,-977.0,13:36:18.177979,192.168.0.115
2104,-1,-100,-100,-100,"0,0,0",0,-3,0,0,0,0,64,67,83,60,100,-5.06,42,3.0,83.0,-994.0,13:36:18.280068,192.168.0.115
2109,-1,-100,-100,-100,"0,0,0",1,-3,0,0,0,0,64,67,82,60,100,-5.04,42,20.0,24.0,-979.0,13:36:18.381999,192.168.0.115
2114,-1,-100,-100,-100,"0,0,0",1,-2,0,0,0,0,64,67,82,60,100,-5.1,42,-5.0,53.0,-1007.0,13:36:18.484006,192.168.0.115
2119,-1,-100,-100,-100,"0,0,0",1,-2,0,0,0,0,64,67,82,60,100,-5.01,42,7.0,51.0,-981.0,13:36:18.585662,192.168.0.115
2124,-1,-100,-100,-100,"0,0,0",1,-2,0,0,0,0,64,67,82,60,100,-4.96,42,1.0,33.0,-1029.0,13:36:18.687999,192.168.0.115
2129,-1,-100,-100,-100,"0,0,0",0,-1,0,0,0,0,64,67,82,60,100,-5.05,42,15.0,37.0,-1038.0,13:36:18.789733,192.168.0.115
2134,-1,-100,-100,-100,"0,0,0",0,-1,0,0,0,0,65,66,82,60,100,-5.21,42,-11.0,51.0,-982.0,13:36:18.892119,192.168.0.115
2139,-1,-100,-100,-100,"0,0,0",0,-2,0,0,0,0,65,66,82,60,100,-5.17,42,-8.0,36.0,-990.0,13:36:18.993820,192.168.0.115
2144,-1,-100,-100,-100,"0,0,0",0,-2,0,0,0,0,65,66,82,60,100,-5.08,42,13.0,26.0,-979.0,13:36:19.095793,192.168.0.115
2149,-1,-100,-100,-100,"0,0,0",0,-1,0,0,0,0,65,66,82,60,100,-5.06,42,3.0,40.0,-981.0,13:36:19.197731,192.168.0.115
2154,-1,-100,-100,-100,"0,0,0",0,-1,0,0,0,0,65,66,82,60,100,-5.04,43,-9.0,37.0,-1028.0,13:36:19.299701,192.168.0.115
2159,-1,-100,-100,-100,"0,0,0",0,-2,0,0,0,0,65,66,82,60,100,-5.07,43,-24.0,20.0,-1002.0,13:36:19.402175,192.168.0.115
2164,-1,-100,-100,-100,"0,0,0",0,-1,0,0,0,0,65,66,82,60,100,-5.1,43,-19.0,28.0,-982.0,13:36:19.504314,192.168.0.115
2169,-1,-100,-100,-100,"0,0,0",-1,0,0,0,0,0,65,66,81,60,100,-5.09,43,8.0,46.0,-1029.0,13:36:19.606057,192.168.0.115
2172,-1,-100,-100,-100,"0,0,0",-1,-1,0,0,0,0,65,66,81,60,100,-5.11,43,-1.0,68.0,-980.0,13:36:19.656860,192.168.0.115
2177,-1,-100,-100,-100,"0,0,0",0,-2,-1,0,0,0,65,66,82,60,100,-5.12,43,-8.0,0.0,-988.0,13:36:19.761012,192.168.0.115
2182,-1,-100,-100,-100,"0,0,0",0,-1,0,0,0,0,65,67,80,60,100,-5.21,43,-7.0,34.0,-1018.0,13:36:19.861151,192.168.0.115
2188,-1,-100,-100,-100,"0,0,0",-1,-1,0,0,0,0,65,67,80,60,100,-5.02,43,-27.0,32.0,-1052.0,13:36:19.962956,192.168.0.115
2193,-1,-100,-100,-100,"0,0,0",0,-1,0,0,0,0,65,67,80,60,100,-4.91,43,5.0,37.0,-1020.0,13:36:20.065283,192.168.0.115
2198,-1,-100,-100,-100,"0,0,0",0,-2,0,0,0,0,65,67,80,60,100,-4.94,43,16.0,64.0,-987.0,13:36:20.167093,192.168.0.115
2203,-1,-100,-100,-100,"0,0,0",0,-2,0,0,0,0,65,67,81,60,100,-4.79,44,44.0,73.0,-979.0,13:36:20.269384,192.168.0.115
2208,-1,-100,-100,-100,"0,0,0",1,-3,0,0,0,0,65,67,82,60,100,-5.05,44,-21.0,64.0,-1026.0,13:36:20.371160,192.168.0.115
2213,-1,-100,-100,-100,"0,0,0",1,-2,0,0,0,0,65,67,82,60,100,-5.02,44,-19.0,44.0,-1028.0,13:36:20.473025,192.168.0.115
2218,-1,-100,-100,-100,"0,0,0",0,-2,0,0,0,0,65,67,82,60,100,-4.89,44,3.0,40.0,-964.0,13:36:20.577788,192.168.0.115
2223,-1,-100,-100,-100,"0,0,0",0,-1,0,0,0,0,65,67,81,60,100,-4.84,44,35.0,84.0,-1010.0,13:36:20.678274,192.168.0.115
2228,-1,-100,-100,-100,"0,0,0",0,-3,0,0,0,0,65,67,81,60,100,-4.89,44,-6.0,82.0,-971.0,13:36:20.785311,192.168.0.115
2233,-1,-100,-100,-100,"0,0,0",0,-4,0,0,0,0,65,67,81,60,100,-4.89,44,2.0,48.0,-984.0,13:36:20.881328,192.168.0.115
2238,-1,-100,-100,-100,"0,0,0",0,-3,0,0,0,0,65,67,81,60,100,-4.82,44,-10.0,85.0,-1006.0,13:36:20.986409,192.168.0.115
2243,-1,-100,-100,-100,"0,0,0",0,-4,0,0,-1,0,65,67,81,60,100,-4.8,44,39.0,124.0,-996.0,13:36:21.085278,192.168.0.115
2248,-1,-100,-100,-100,"0,0,0",1,-6,0,0,-1,0,65,67,80,60,100,-5.03,44,-5.0,60.0,-948.0,13:36:21.186786,192.168.0.115
2253,-1,-100,-100,-100,"0,0,0",0,-5,0,0,0,0,65,67,80,60,100,-4.93,45,-4.0,82.0,-1014.0,13:36:21.289208,192.168.0.115
2258,-1,-100,-100,-100,"0,0,0",0,-5,0,0,0,0,65,67,80,60,100,-4.89,45,-62.0,80.0,-982.0,13:36:21.391326,192.168.0.115
2264,-1,-100,-100,-100,"0,0,0",0,-4,-1,0,0,0,65,67,79,60,100,-4.95,45,7.0,112.0,-986.0,13:36:21.493180,192.168.0.115
2268,-1,-100,-100,-100,"0,0,0",0,-5,-1,0,0,0,65,67,78,60,100,-4.96,45,-11.0,80.0,-1016.0,13:36:21.595150,192.168.0.115
2274,-1,-100,-100,-100,"0,0,0",0,-5,0,0,0,0,65,67,78,60,100,-4.96,45,-39.0,64.0,-1016.0,13:36:21.698844,192.168.0.115
2279,-1,-100,-100,-100,"0,0,0",0,-5,0,0,0,0,65,67,78,60,100,-4.96,45,4.0,82.0,-1033.0,13:36:21.799201,192.168.0.115
2284,-1,-100,-100,-100,"0,0,0",0,-5,0,0,0,0,65,67,78,60,100,-4.88,45,7.0,76.0,-1001.0,13:36:21.901088,192.168.0.115
2289,-1,-100,-100,-100,"0,0,0",0,-4,0,0,0,0,65,67,77,60,100,-5.03,45,21.0,90.0,-1027.0,13:36:22.003216,192.168.0.115
2294,-1,-100,-100,-100,"0,0,0",0,-5,0,0,0,0,65,67,78,60,100,-4.95,45,-23.0,85.0,-969.0,13:36:22.105184,192.168.0.115
2299,-1,-100,-100,-100,"0,0,0",0,-5,0,0,0,0,65,67,78,60,100,-5.05,45,-51.0,89.0,-995.0,13:36:22.207051,192.168.0.115
2304,-1,-100,-100,-100,"0,0,0",0,-5,0,0,0,0,65,67,78,60,100,-5.01,46,-17.0,62.0,-929.0,13:36:22.309314,192.168.0.115
2309,-1,-100,-100,-100,"0,0,0",0,-4,-1,0,0,0,65,67,77,60,100,-5.09,46,-67.0,85.0,-984.0,13:36:22.411102,192.168.0.115
2314,-1,-100,-100,-100,"0,0,0",-1,-4,0,0,0,0,65,67,76,60,100,-4.93,46,-25.0,62.0,-1022.0,13:36:22.514479,192.168.0.115
2319,-1,-100,-100,-100,"0,0,0",-1,-3,0,0,0,0,65,67,76,60,100,-5.1,46,-18.0,54.0,-999.0,13:36:22.615248,192.168.0.115
2324,-1,-100,-100,-100,"0,0,0",-2,-2,0,0,0,0,65,67,76,60,100,-5.03,46,-25.0,72.0,-987.0,13:36:22.717746,192.168.0.115
2327,-1,-100,-100,-100,"0,0,0",-2,-3,0,0,0,0,65,67,76,60,100,-4.91,46,-53.0,60.0,-1015.0,13:36:22.768564,192.168.0.115
2334,-1,-100,-100,-100,"0,0,0",-1,-3,0,0,0,0,65,67,76,60,100,-4.91,46,-24.0,42.0,-943.0,13:36:22.922145,192.168.0.115
2339,-1,-100,-100,-100,"0,0,0",-1,-2,0,0,0,0,65,67,77,60,100,-4.96,46,-29.0,73.0,-995.0,13:36:23.024669,192.168.0.115
2344,-1,-100,-100,-100,"0,0,0",-1,-2,0,0,0,0,65,67,77,60,100,-5.05,46,-17.0,67.0,-1028.0,13:36:23.127097,192.168.0.115
2347,-1,-100,-100,-100,"0,0,0",0,-2,0,0,0,0,65,67,78,60,100,-4.92,46,-29.0,73.0,-995.0,13:36:23.178801,192.168.0.115
2353,-1,-100,-100,-100,"0,0,0",-1,-3,0,0,0,0,65,67,79,60,100,-4.99,47,-6.0,86.0,-1024.0,13:36:23.279710,192.168.0.115
2358,-1,-100,-100,-100,"0,0,0",0,-4,0,0,0,0,65,67,79,60,100,-4.98,47,-28.0,60.0,-1007.0,13:36:23.380366,192.168.0.115
2362,-1,-100,-100,-100,"0,0,0",0,-4,0,0,0,0,65,67,79,60,100,-5.07,47,-14.0,66.0,-909.0,13:36:23.482311,192.168.0.115
2368,-1,-100,-100,-100,"0,0,0",0,-3,0,0,0,0,65,67,79,60,100,-4.96,47,-4.0,103.0,-1069.0,13:36:23.584275,192.168.0.115
2373,-1,-100,-100,-100,"0,0,0",-1,-3,0,0,0,0,65,67,79,60,100,-4.96,47,0.0,119.0,-955.0,13:36:23.686268,192.168.0.115
2378,-1,-100,-100,-100,"0,0,0",0,-5,0,0,0,0,65,67,79,60,100,-5.02,47,-25.0,81.0,-960.0,13:36:23.788292,192.168.0.115
2383,-1,-100,-100,-100,"0,0,0",0,-5,0,0,0,0,65,67,79,60,100,-5.04,47,-12.0,61.0,-1004.0,13:36:23.890249,192.168.0.115
2388,-1,-100,-100,-100,"0,0,0",0,-6,0,0,0,0,65,67,79,60,100,-4.79,47,14.0,72.0,-1000.0,13:36:23.992498,192.168.0.115
2393,-1,-100,-100,-100,"0,0,0",-1,-5,0,0,0,0,65,67,79,60,100,-4.97,47,30.0,86.0,-991.0,13:36:24.094547,192.168.0.115
2398,-1,-100,-100,-100,"0,0,0",0,-3,0,0,0,0,65,67,79,60,100,-4.87,47,15.0,89.0,-1001.0,13:36:24.196409,192.168.0.115
2403,-1,-100,-100,-100,"0,0,0",1,-4,0,0,0,0,65,67,79,60,100,-4.92,48,-22.0,105.0,-1026.0,13:36:24.298309,192.168.0.115
2408,-1,-100,-100,-100,"0,0,0",1,-4,0,0,0,0,65,67,79,60,100,-5.04,48,-22.0,90.0,-1044.0,13:36:24.400952,192.168.0.115
2413,-1,-100,-100,-100,"0,0,0",0,-5,0,0,0,0,65,67,80,60,100,-4.94,48,6.0,97.0,-1001.0,13:36:24.502143,192.168.0.115
2418,-1,-100,-100,-100,"0,0,0",0,-5,0,0,0,0,65,67,80,60,100,-4.92,48,-31.0,97.0,-987.0,13:36:24.604258,192.168.0.115
2423,-1,-100,-100,-100,"0,0,0",0,-5,0,0,0,0,65,67,80,60,100,-4.93,48,-20.0,91.0,-1008.0,13:36:24.706585,192.168.0.115
2428,-1,-100,-100,-100,"0,0,0",0,-5,0,0,0,0,65,67,80,60,100,-5.06,48,-24.0,64.0,-943.0,13:36:24.808644,192.168.0.115
2433,-1,-100,-100,-100,"0,0,0",0,-5,0,0,0,0,65,67,80,60,100,-4.99,48,-38.0,124.0,-1060.0,13:36:24.910302,192.168.0.115
2439,-1,-100,-100,-100,"0,0,0",-1,-5,0,0,0,0,65,67,80,60,100,-4.88,48,-11.0,74.0,-953.0,13:36:25.012527,192.168.0.115
2444,-1,-100,-100,-100,"0,0,0",0,-4,0,0,0,0,65,67,80,60,100,-4.98,48,0.0,105.0,-1000.0,13:36:25.114263,192.168.0.115
2449,-1,-100,-100,-100,"0,0,0",0,-5,0,0,0,0,65,67,81,60,100,-5.01,48,-34.0,83.0,-962.0,13:36:25.216233,192.168.0.115
2454,-1,-100,-100,-100,"0,0,0",-1,-6,0,0,0,0,65,67,81,60,100,-5.13,49,-14.0,110.0,-1006.0,13:36:25.318376,192.168.0.115
2459,-1,-100,-100,-100,"0,0,0",-2,-5,0,0,0,0,65,67,81,60,100,-4.89,49,1.0,99.0,-1013.0,13:36:25.420576,192.168.0.115
2464,-1,-100,-100,-100,"0,0,0",-1,-5,0,0,0,0,65,67,80,60,100,-4.93,49,15.0,94.0,-969.0,13:36:25.522597,192.168.0.115
2469,-1,-100,-100,-100,"0,0,0",0,-5,0,0,0,0,65,67,80,60,100,-5.02,49,-20.0,75.0,-1030.0,13:36:25.624042,192.168.0.115
2474,-1,-100,-100,-100,"0,0,0",0,-4,0,0,0,0,65,67,80,60,100,-4.97,49,-34.0,109.0,-968.0,13:36:25.726239,192.168.0.115
2479,-1,-100,-100,-100,"0,0,0",0,-6,0,0,0,0,65,67,80,60,100,-4.93,49,-13.0,80.0,-972.0,13:36:25.828622,192.168.0.115
2484,-1,-100,-100,-100,"0,0,0",-1,-5,0,0,0,0,65,68,80,60,100,-4.98,49,3.0,97.0,-984.0,13:36:25.930538,192.168.0.115
2489,-1,-100,-100,-100,"0,0,0",-1,-4,0,0,0,0,65,68,79,60,100,-4.88,49,-16.0,75.0,-977.0,13:36:26.032567,192.168.0.115
2494,-1,-100,-100,-100,"0,0,0",0,-4,0,0,0,0,65,68,80,60,100,-5.08,49,-19.0,127.0,-1048.0,13:36:26.134584,192.168.0.115
2499,-1,-100,-100,-100,"0,0,0",0,-5,0,0,0,0,65,68,80,60,100,-4.98,49,-1.0,89.0,-1004.0,13:36:26.236406,192.168.0.115
2502,-1,-100,-100,-100,"0,0,0",0,-5,0,0,0,0,65,68,80,60,100,-5.0,50,-10.0,69.0,-1018.0,13:36:26.287330,192.168.0.115
2507,-1,-100,-100,-100,"0,0,0",0,-4,0,0,0,0,65,68,80,60,100,-4.98,50,-16.0,85.0,-961.0,13:36:26.389492,192.168.0.115
2512,-1,-100,-100,-100,"0,0,0",-1,-4,0,0,0,0,65,68,80,60,100,-5.09,50,-18.0,88.0,-1008.0,13:36:26.491470,192.168.0.115
2517,-1,-100,-100,-100,"0,0,0",-1,-4,0,0,0,0,65,68,80,60,100,-4.95,50,10.0,100.0,-977.0,13:36:26.593316,192.168.0.115
2522,-1,-100,-100,-100,"0,0,0",-1,-5,0,0,0,0,65,68,81,60,100,-4.97,50,-63.0,98.0,-1010.0,13:36:26.695502,192.168.0.115
2527,-1,-100,-100,-100,"0,0,0",0,-5,0,0,0,0,65,68,80,60,100,-5.08,50,12.0,100.0,-1032.0,13:36:26.797323,192.168.0.115
2533,-1,-100,-100,-100,"0,0,0",0,-5,0,0,0,0,65,67,81,60,100,-5.04,50,12.0,87.0,-1006.0,13:36:26.899495,192.168.0.115
2538,-1,-100,-100,-100,"0,0,0",-1,-5,0,0,0,0,65,67,82,60,100,-4.95,50,-9.0,108.0,-975.0,13:36:27.001438,192.168.0.115
2543,-1,-100,-100,-100,"0,0,0",-1,-5,0,0,0,0,65,67,83,60,100,-5.05,50,13.0,81.0,-970.0,13:36:27.103435,192.168.0.115
2548,-1,-100,-100,-100,"0,0,0",0,-5,0,0,0,0,65,67,83,60,100,-4.95,50,-11.0,113.0,-967.0,13:36:27.205581,192.168.0.115
2553,-1,-100,-100,-100,"0,0,0",0,-6,0,0,0,0,65,67,83,60,100,-5.08,51,12.0,95.0,-992.0,13:36:27.307270,192.168.0.115
2558,-1,-100,-100,-100,"0,0,0",0,-5,0,0,0,0,65,67,84,60,100,-5.18,51,-21.0,90.0,-988.0,13:36:27.409350,192.168.0.115
2563,-1,-100,-100,-100,"0,0,0",-1,-5,0,0,0,0,65,67,84,60,100,-4.98,51,-47.0,113.0,-1014.0,13:36:27.511423,192.168.0.115
2568,-1,-100,-100,-100,"0,0,0",-2,-5,0,0,0,0,65,67,85,60,100,-4.98,51,-4.0,82.0,-993.0,13:36:27.613769,192.168.0.115
2573,-1,-100,-100,-100,"0,0,0",-2,-5,0,0,0,0,65,67,84,60,100,-5.02,51,1.0,81.0,-1018.0,13:36:27.715518,192.168.0.115
2578,-1,-100,-100,-100,"0,0,0",0,-4,0,0,0,0,65,67,84,60,100,-5.11,51,-20.0,67.0,-958.0,13:36:27.817432,192.168.0.115
