,mid,x,y,z,mpry,pitch,roll,yaw,vgx,vgy,vgz,templ,temph,tof,h,bat,baro,time,agx,agy,agz,timestamp,address
1,-1,-100,-100,-100,"0,0,0",0,0,0,0,0,0,61,63,10,0,100,-6.35,0,1.0,-5.0,-1000.0,13:35:36.059215,192.168.0.113
7,-1,-100,-100,-100,"0,0,0",0,0,0,0,0,0,61,63,10,0,100,-6.32,0,0.0,-4.0,-1001.0,13:35:36.161093,192.168.0.113
12,-1,-100,-100,-100,"0,0,0",0,0,0,0,0,0,61,63,10,0,100,-6.33,0,-1.0,-2.0,-1001.0,13:35:36.263314,192.168.0.113
18,-1,-100,-100,-100,"0,0,0",0,0,0,0,0,0,61,63,10,0,100,-6.33,0,9.0,-11.0,-997.0,13:35:36.365484,192.168.0.113
23,-1,-100,-100,-100,"0,0,0",0,0,0,0,0,0,61,63,10,0,100,-6.33,0,7.0,-14.0,-989.0,13:35:36.467267,192.168.0.113
28,-1,-100,-100,-100,"0,0,0",0,0,0,0,0,0,61,64,10,0,100,-6.33,0,-3.0,19.0,-1000.0,13:35:36.569278,192.168.0.113
33,-1,-100,-100,-100,"0,0,0",0,0,0,0,0,0,61,64,10,0,100,-6.33,0,14.0,-5.0,-1105.0,13:35:36.671020,192.168.0.113
38,-1,-100,-100,-100,"0,0,0",0,0,0,0,0,2,61,64,10,0,100,-6.33,0,-1.0,1.0,-1400.0,13:35:36.773219,192.168.0.113
43,-1,-100,-100,-100,"0,0,0",0,0,0,0,0,5,61,64,10,0,100,-6.33,0,-1.0,-19.0,-1184.0,13:35:36.875020,192.168.0.113
48,-1,-100,-100,-100,"0,0,0",1,0,0,0,0,7,61,64,15,10,100,-6.09,0,-4.0,-1.0,-1047.0,13:35:36.976807,192.168.0.113
53,-1,-100,-100,-100,"0,0,0",0,0,0,0,0,8,61,64,23,10,100,-5.92,0,-10.0,19.0,-1006.0,13:35:37.080910,192.168.0.113
58,-1,-100,-100,-100,"0,0,0",0,0,0,0,0,8,61,64,30,20,100,-5.79,0,37.0,16.0,-945.0,13:35:37.181218,192.168.0.113
63,-1,-100,-100,-100,"0,0,0",0,0,0,0,0,7,61,64,39,30,100,-5.79,1,18.0,6.0,-888.0,13:35:37.282945,192.168.0.113
68,-1,-100,-100,-100,"0,0,0",0,0,0,0,0,6,61,64,47,30,100,-5.63,1,-2.0,21.0,-845.0,13:35:37.384938,192.168.0.113
73,-1,-100,-100,-100,"0,0,0",1,0,0,0,0,5,61,64,53,40,100,-5.63,1,1.0,13.0,-900.0,13:35:37.490741,192.168.0.113
79,-1,-100,-100,-100,"0,0,0",1,0,0,0,0,4,60,64,58,40,100,-5.46,1,12.0,11.0,-895.0,13:35:37.592415,192.168.0.113
84,-1,-100,-100,-100,"0,0,0",0,-1,0,0,0,3,60,64,63,50,100,-5.45,1,31.0,17.0,-937.0,13:35:37.691150,192.168.0.113
89,-1,-100,-100,-100,"0,0,0",0,-1,0,0,0,2,60,64,67,50,100,-5.41,1,4.0,16.0,-941.0,13:35:37.793340,192.168.0.113
94,-1,-100,-100,-100,"0,0,0",0,-1,0,0,0,1,60,64,69,50,100,-5.44,1,-5.0,46.0,-962.0,13:35:37.895163,192.168.0.113
99,-1,-100,-100,-100,"0,0,0",0,-2,0,0,0,1,60,64,71,50,100,-5.42,1,-1.0,23.0,-982.0,13:35:38.002489,192.168.0.113
104,-1,-100,-100,-100,"0,0,0",0,-2,0,0,0,1,60,64,73,50,100,-5.4,1,-8.0,32.0,-990.0,13:35:38.098886,192.168.0.113
109,-1,-100,-100,-100,"0,0,0",0,-2,0,0,0,1,60,64,75,60,100,-5.28,1,-1.0,41.0,-968.0,13:35:38.201317,192.168.0.113
114,-1,-100,-100,-100,"0,0,0",0,-2,0,0,0,0,60,64,77,60,100,-5.28,2,10.0,44.0,-964.0,13:35:38.302826,192.168.0.113
119,-1,-100,-100,-100,"0,0,0",0,-2,0,0,0,0,60,64,79,60,100,-5.33,2,-1.0,48.0,-994.0,13:35:38.405173,192.168.0.113
124,-1,-100,-100,-100,"0,0,0",0,-3,0,0,0,0,60,64,80,60,100,-5.37,2,4.0,46.0,-980.0,13:35:38.507129,192.168.0.113
129,-1,-100,-100,-100,"0,0,0",0,-3,0,0,0,0,61,64,81,60,100,-5.22,2,8.0,31.0,-969.0,13:35:38.609369,192.168.0.113
134,-1,-100,-100,-100,"0,0,0",0,-4,0,0,0,0,61,64,83,60,100,-5.32,2,14.0,34.0,-999.0,13:35:38.711351,192.168.0.113
139,-1,-100,-100,-100,"0,0,0",0,-3,0,0,0,0,61,64,84,60,100,-5.35,2,0.0,39.0,-987.0,13:35:38.813177,192.168.0.113
144,-1,-100,-100,-100,"0,0,0",0,-2,0,0,0,0,61,64,84,60,100,-5.26,2,-10.0,66.0,-978.0,13:35:38.915462,192.168.0.113
147,-1,-100,-100,-100,"0,0,0",0,-2,0,0,0,0,61,64,85,70,100,-5.35,2,8.0,42.0,-975.0,13:35:38.966417,192.168.0.113
153,-1,-100,-100,-100,"0,0,0",0,-3,0,0,0,0,61,64,86,70,100,-5.23,2,12.0,49.0,-978.0,13:35:39.068324,192.168.0.113
158,-1,-100,-100,-100,"0,0,0",0,-3,0,0,0,0,61,64,86,70,100,-5.37,2,8.0,24.0,-964.0,13:35:39.170188,192.168.0.113
163,-1,-100,-100,-100,"0,0,0",0,-2,0,0,0,0,61,64,86,70,100,-5.27,3,2.0,34.0,-1031.0,13:35:39.272391,192.168.0.113
168,-1,-100,-100,-100,"0,0,0",0,-2,0,0,0,0,61,64,86,70,100,-5.25,3,0.0,56.0,-1020.0,13:35:39.374215,192.168.0.113
173,-1,-100,-100,-100,"0,0,0",0,-2,0,0,0,0,61,64,87,70,100,-5.26,3,-19.0,25.0,-978.0,13:35:39.476080,192.168.0.113
178,-1,-100,-100,-100,"0,0,0",0,-2,0,0,0,0,62,63,86,70,100,-5.2,3,-2.0,7.0,-986.0,13:35:39.578149,192.168.0.113
183,-1,-100,-100,-100,"0,0,0",0,-2,0,0,0,0,62,63,87,70,100,-5.2,3,2.0,8.0,-986.0,13:35:39.680110,192.168.0.113
188,-1,-100,-100,-100,"0,0,0",0,-1,0,0,0,0,62,63,86,70,100,-5.21,3,18.0,32.0,-996.0,13:35:39.782679,192.168.0.113
193,-1,-100,-100,-100,"0,0,0",0,-1,0,0,0,0,62,63,85,70,100,-5.19,3,3.0,30.0,-1007.0,13:35:39.884231,192.168.0.113
198,-1,-100,-100,-100,"0,0,0",0,-1,0,0,0,0,62,63,85,70,100,-5.15,3,3.0,33.0,-983.0,13:35:39.986638,192.168.0.113
204,-1,-100,-100,-100,"0,0,0",0,-2,0,0,0,0,62,63,85,70,100,-5.11,3,3.0,22.0,-999.0,13:35:40.088240,192.168.0.113
209,-1,-100,-100,-100,"0,0,0",0,-2,0,0,0,0,62,63,84,70,100,-5.1,3,5.0,41.0,-1017.0,13:35:40.190282,192.168.0.113
214,-1,-100,-100,-100,"0,0,0",0,-2,0,0,0,0,62,63,84,70,100,-5.17,4,3.0,32.0,-1015.0,13:35:40.293041,192.168.0.113
219,-1,-100,-100,-100,"0,0,0",0,-2,0,0,0,0,62,63,83,70,100,-5.32,4,-5.0,29.0,-1012.0,13:35:40.394568,192.168.0.113
224,-1,-100,-100,-100,"0,0,0",0,-2,0,0,0,0,62,63,83,70,100,-5.23,4,-7.0,21.0,-989.0,13:35:40.497589,192.168.0.113
229,-1,-100,-100,-100,"0,0,0",0,-1,0,0,0,0,61,64,83,70,100,-5.3,4,5.0,43.0,-981.0,13:35:40.598121,192.168.0.113
234,-1,-100,-100,-100,"0,0,0",0,-2,0,0,0,0,61,64,82,70,100,-5.33,4,0.0,14.0,-1004.0,13:35:40.700484,192.168.0.113
239,-1,-100,-100,-100,"0,0,0",0,-1,0,0,0,0,61,64,82,70,100,-5.29,4,-28.0,25.0,-987.0,13:35:40.802110,192.168.0.113
244,-1,-100,-100,-100,"0,0,0",0,-1,0,0,0,0,61,64,81,70,100,-5.14,4,3.0,35.0,-990.0,13:35:40.903988,192.168.0.113
249,-1,-100,-100,-100,"0,0,0",0,-1,0,0,0,0,61,64,81,60,100,-5.19,4,12.0,55.0,-1040.0,13:35:41.006248,192.168.0.113
254,-1,-100,-100,-100,"0,0,0",0,-2,0,0,0,0,61,64,81,60,100,-5.25,4,-18.0,49.0,-1008.0,13:35:41.108345,192.168.0.113
259,-1,-100,-100,-100,"0,0,0",0,-3,0,0,0,0,61,64,82,60,100,-5.29,4,2.0,12.0,-968.0,13:35:41.210461,192.168.0.113
264,-1,-100,-100,-100,"0,0,0",0,-3,-1,0,0,0,61,64,82,60,100,-5.35,5,-22.0,40.0,-975.0,13:35:41.312520,192.168.0.113
269,-1,-100,-100,-100,"0,0,0",-1,-2,0,0,0,0,61,64,82,60,100,-5.25,5,-9.0,33.0,-1017.0,13:35:41.414093,192.168.0.113
274,-1,-100,-100,-100,"0,0,0",0,-2,0,0,0,0,61,64,82,60,100,-5.25,5,-33.0,33.0,-1024.0,13:35:41.516261,192.168.0.113
279,-1,-100,-100,-100,"0,0,0",0,-2,0,0,0,0,61,65,82,60,100,-5.38,5,-12.0,56.0,-1010.0,13:35:41.620994,192.168.0.113
284,-1,-100,-100,-100,"0,0,0",0,-3,0,0,0,0,61,65,82,70,100,-5.18,5,1.0,47.0,-981.0,13:35:41.720383,192.168.0.113
289,-1,-100,-100,-100,"0,0,0",0,-3,0,0,0,0,61,65,83,70,100,-5.26,5,2.0,23.0,-996.0,13:35:41.822143,192.168.0.113
294,-1,-100,-100,-100,"0,0,0",0,-3,0,0,0,0,61,65,83,70,100,-5.27,5,-3.0,30.0,-998.0,13:35:41.923928,192.168.0.113
299,-1,-100,-100,-100,"0,0,0",0,-2,0,0,0,0,61,65,83,70,100,-5.24,5,-2.0,16.0,-981.0,13:35:42.026702,192.168.0.113
302,-1,-100,-100,-100,"0,0,0",0,-1,0,0,0,0,61,65,83,70,100,-5.23,5,-14.0,24.0,-994.0,13:35:42.076988,192.168.0.113
307,-1,-100,-100,-100,"0,0,0",0,-1,0,0,0,0,61,65,84,70,100,-5.17,5,10.0,44.0,-1010.0,13:35:42.179046,192.168.0.113
312,-1,-100,-100,-100,"0,0,0",0,-1,0,0,0,0,61,65,84,70,100,-5.17,6,-12.0,64.0,-965.0,13:35:42.281399,192.168.0.113
318,-1,-100,-100,-100,"0,0,0",1,-2,0,0,0,0,61,65,83,70,100,-5.21,6,-10.0,49.0,-1037.0,13:35:42.383181,192.168.0.113
323,-1,-100,-100,-100,"0,0,0",0,-3,0,0,0,0,61,65,83,70,100,-5.22,6,2.0,23.0,-1010.0,13:35:42.485188,192.168.0.113
328,-1,-100,-100,-100,"0,0,0",0,-3,0,0,0,0,61,64,83,70,100,-5.3,6,-17.0,9.0,-1021.0,13:35:42.587319,192.168.0.113
333,-1,-100,-100,-100,"0,0,0",0,-2,0,0,0,0,61,64,84,70,100,-5.29,6,11.0,28.0,-1020.0,13:35:42.689470,192.168.0.113
338,-1,-100,-100,-100,"0,0,0",0,-1,0,0,0,0,61,64,84,70,100,-5.35,6,0.0,56.0,-1009.0,13:35:42.790986,192.168.0.113
344,-1,-100,-100,-100,"0,0,0",0,-1,0,0,0,0,61,64,84,70,100,-5.44,6,-30.0,77.0,-991.0,13:35:42.893137,192.168.0.113
349,-1,-100,-100,-100,"0,0,0",0,-4,0,0,0,0,61,64,85,70,100,-5.35,6,-40.0,68.0,-1007.0,13:35:42.995684,192.168.0.113
354,-1,-100,-100,-100,"0,0,0",0,-5,0,0,0,0,61,64,85,70,100,-5.34,6,-13.0,41.0,-1003.0,13:35:43.097151,192.168.0.113
359,-1,-100,-100,-100,"0,0,0",-1,-4,0,0,0,0,61,64,85,70,100,-5.23,6,-43.0,33.0,-951.0,13:35:43.200220,192.168.0.113
364,-1,-100,-100,-100,"0,0,0",-1,-4,0,0,0,0,61,64,86,70,100,-5.32,7,-12.0,52.0,-979.0,13:35:43.301727,192.168.0.113
369,-1,-100,-100,-100,"0,0,0",-1,-3,0,0,0,0,61,64,85,70,100,-5.19,7,-3.0,41.0,-1007.0,13:35:43.403350,192.168.0.113
374,-1,-100,-100,-100,"0,0,0",-1,-3,0,0,0,0,61,64,86,70,100,-5.29,7,16.0,38.0,-1016.0,13:35:43.504979,192.168.0.113
379,-1,-100,-100,-100,"0,0,0",-1,-2,0,0,0,0,62,64,86,70,100,-5.25,7,9.0,46.0,-955.0,13:35:43.607422,192.168.0.113
384,-1,-100,-100,-100,"0,0,0",0,-3,0,0,0,0,62,64,86,70,100,-5.33,7,25.0,23.0,-990.0,13:35:43.709582,192.168.0.113
389,-1,-100,-100,-100,"0,0,0",0,-3,0,0,0,0,62,64,85,70,100,-5.24,7,19.0,37.0,-982.0,13:35:43.811414,192.168.0.113
394,-1,-100,-100,-100,"0,0,0",0,-2,0,0,0,0,62,64,86,70,100,-5.29,7,1.0,41.0,-1009.0,13:35:43.913409,192.168.0.113
399,-1,-100,-100,-100,"0,0,0",0,-2,0,0,0,0,62,64,85,70,100,-5.23,7,-9.0,36.0,-1017.0,13:35:44.015562,192.168.0.113
404,-1,-100,-100,-100,"0,0,0",0,-2,0,0,0,0,62,64,85,70,100,-5.29,7,0.0,43.0,-978.0,13:35:44.117639,192.168.0.113
409,-1,-100,-100,-100,"0,0,0",0,-2,0,0,0,0,62,64,85,70,100,-5.23,7,-9.0,37.0,-1012.0,13:35:44.219148,192.168.0.113
414,-1,-100,-100,-100,"0,0,0",0,-2,0,0,0,0,62,64,85,70,100,-5.33,8,-14.0,26.0,-996.0,13:35:44.321136,192.168.0.113
419,-1,-100,-100,-100,"0,0,0",0,-1,0,0,0,0,62,64,84,70,100,-5.29,8,5.0,33.0,-1002.0,13:35:44.423664,192.168.0.113
424,-1,-100,-100,-100,"0,0,0",0,-1,0,0,0,0,62,64,85,70,100,-5.22,8,-24.0,72.0,-1013.0,13:35:44.525485,192.168.0.113
429,-1,-100,-100,-100,"0,0,0",0,-1,0,0,0,0,62,64,85,70,100,-5.21,8,16.0,33.0,-989.0,13:35:44.627400,192.168.0.113
434,-1,-100,-100,-100,"0,0,0",0,-2,0,0,0,0,62,64,86,70,100,-5.23,8,-7.0,44.0,-1008.0,13:35:44.729385,192.168.0.113
439,-1,-100,-100,-100,"0,0,0",0,-2,0,0,0,0,62,64,85,70,100,-5.17,8,5.0,17.0,-967.0,13:35:44.831352,192.168.0.113
444,-1,-100,-100,-100,"0,0,0",1,-1,0,0,0,0,62,64,84,70,100,-5.21,8,0.0,26.0,-1014.0,13:35:44.935652,192.168.0.113
449,-1,-100,-100,-100,"0,0,0",1,-1,0,0,0,0,62,64,84,70,100,-5.19,8,25.0,27.0,-968.0,13:35:45.035322,192.168.0.113
454,-1,-100,-100,-100,"0,0,0",1,-1,0,0,0,0,62,64,85,70,100,-5.17,8,14.0,32.0,-991.0,13:35:45.137505,192.168.0.113
459,-1,-100,-100,-100,"0,0,0",1,-1,0,0,0,0,62,64,84,70,100,-5.31,8,-8.0,24.0,-1035.0,13:35:45.240248,192.168.0.113
464,-1,-100,-100,-100,"0,0,0",0,-2,0,0,0,0,62,64,85,70,100,-5.24,9,-27.0,68.0,-983.0,13:35:45.341422,192.168.0.113
467,-1,-100,-100,-100,"0,0,0",0,-3,0,0,0,0,62,64,84,70,100,-5.26,9,4.0,42.0,-976.0,13:35:45.392566,192.168.0.113
472,-1,-100,-100,-100,"0,0,0",0,-3,0,0,0,0,62,64,84,70,100,-5.33,9,15.0,26.0,-984.0,13:35:45.494586,192.168.0.113
477,-1,-100,-100,-100,"0,0,0",0,-3,0,0,0,0,61,65,85,70,100,-5.23,9,17.0,30.0,-1014.0,13:35:45.596533,192.168.0.113
483,-1,-100,-100,-100,"0,0,0",0,-3,0,0,0,0,61,65,84,70,100,-5.27,9,8.0,37.0,-993.0,13:35:45.698358,192.168.0.113
487,-1,-100,-100,-100,"0,0,0",0,-2,0,0,0,0,61,65,84,70,100,-5.27,9,11.0,23.0,-1010.0,13:35:45.800402,192.168.0.113
493,-1,-100,-100,-100,"0,0,0",0,-2,0,0,0,0,61,65,84,70,100,-5.22,9,11.0,9.0,-980.0,13:35:45.902766,192.168.0.113
498,-1,-100,-100,-100,"0,0,0",1,-2,0,0,0,0,61,65,84,70,100,-5.37,9,11.0,23.0,-1015.0,13:35:46.004484,192.168.0.113
503,-1,-100,-100,-100,"0,0,0",1,-2,0,0,0,0,61,65,84,70,100,-5.1,9,-5.0,23.0,-975.0,13:35:46.106464,192.168.0.113
508,-1,-100,-100,-100,"0,0,0",0,-2,0,0,0,0,61,65,84,70,100,-5.24,9,-10.0,30.0,-1035.0,13:35:46.209940,192.168.0.113
513,-1,-100,-100,-100,"0,0,0",0,-2,0,0,0,0,61,65,84,70,100,-5.33,10,4.0,55.0,-1028.0,13:35:46.310480,192.168.0.113
518,-1,-100,-100,-100,"0,0,0",0,-2,0,0,0,0,61,65,84,70,100,-5.34,10,7.0,43.0,-1011.0,13:35:46.413460,192.168.0.113
524,-1,-100,-100,-100,"0,0,0",1,-2,0,0,0,0,61,65,84,70,100,-5.41,10,6.0,51.0,-970.0,13:35:46.514485,192.168.0.113
529,-1,-100,-100,-100,"0,0,0",1,-3,0,0,0,0,62,65,84,70,100,-5.28,10,0.0,39.0,-1004.0,13:35:46.616812,192.168.0.113
534,-1,-100,-100,-100,"0,0,0",1,-2,0,0,0,0,62,65,85,70,100,-5.27,10,0.0,57.0,-1001.0,13:35:46.718613,192.168.0.113
539,-1,-100,-100,-100,"0,0,0",1,-2,0,0,0,0,62,65,84,70,100,-5.2,10,9.0,30.0,-961.0,13:35:46.820607,192.168.0.113
544,-1,-100,-100,-100,"0,0,0",1,-3,0,0,0,0,62,65,85,70,100,-5.21,10,9.0,26.0,-998.0,13:35:46.922148,192.168.0.113
549,-1,-100,-100,-100,"0,0,0",2,-2,0,0,0,0,62,65,85,70,100,-5.21,10,8.0,26.0,-977.0,13:35:47.024577,192.168.0.113
554,-1,-100,-100,-100,"0,0,0",1,-2,0,0,0,0,62,65,85,70,100,-5.2,10,15.0,24.0,-1001.0,13:35:47.126504,192.168.0.113
559,-1,-100,-100,-100,"0,0,0",1,-2,0,0,0,0,62,65,85,70,100,-5.26,11,1.0,55.0,-1036.0,13:35:47.228526,192.168.0.113
564,-1,-100,-100,-100,"0,0,0",1,-2,0,0,0,0,62,65,84,70,100,-5.28,11,2.0,42.0,-981.0,13:35:47.330649,192.168.0.113
569,-1,-100,-100,-100,"0,0,0",1,-2,0,0,0,0,62,65,85,70,100,-5.15,11,14.0,28.0,-995.0,13:35:47.433285,192.168.0.113
574,-1,-100,-100,-100,"0,0,0",1,-2,0,0,0,0,62,65,84,70,100,-5.31,11,-2.0,30.0,-1007.0,13:35:47.534720,192.168.0.113
579,-1,-100,-100,-100,"0,0,0",1,-2,0,0,0,0,62,65,85,70,100,-5.39,11,-22.0,15.0,-1006.0,13:35:47.636366,192.168.0.113
584,-1,-100,-100,-100,"0,0,0",0,-1,0,0,0,0,62,65,84,70,100,-5.31,11,1.0,27.0,-976.0,13:35:47.740188,192.168.0.113
589,-1,-100,-100,-100,"0,0,0",0,-1,0,0,0,0,62,65,84,70,100,-5.35,11,-18.0,11.0,-986.0,13:35:47.840644,192.168.0.113
594,-1,-100,-100,-100,"0,0,0",0,-1,0,0,0,0,62,65,84,70,100,-5.35,11,-13.0,16.0,-979.0,13:35:47.942306,192.168.0.113
599,-1,-100,-100,-100,"0,0,0",0,-1,0,0,0,0,62,65,84,70,100,-5.37,11,18.0,25.0,-978.0,13:35:48.044465,192.168.0.113
604,-1,-100,-100,-100,"0,0,0",0,-1,0,0,0,0,62,65,84,70,100,-5.39,11,3.0,37.0,-1012.0,13:35:48.147287,192.168.0.113
609,-1,-100,-100,-100,"0,0,0",0,-1,0,0,0,0,62,65,84,70,100,-5.44,12,-1.0,12.0,-990.0,13:35:48.248687,192.168.0.113
614,-1,-100,-100,-100,"0,0,0",0,-1,0,0,0,0,62,65,84,70,100,-5.38,12,-6.0,10.0,-996.0,13:35:48.350652,192.168.0.113
619,-1,-100,-100,-100,"0,0,0",0,-1,0,0,0,0,62,65,83,70,100,-5.4,12,10.0,16.0,-996.0,13:35:48.452580,192.168.0.113
624,-1,-100,-100,-100,"0,0,0",0,-1,0,0,0,0,62,65,83,70,100,-5.36,12,-1.0,44.0,-1006.0,13:35:48.555594,192.168.0.113
629,-1,-100,-100,-100,"0,0,0",0,-1,0,0,0,0,62,64,83,70,100,-5.28,12,11.0,14.0,-1010.0,13:35:48.656685,192.168.0.113
634,-1,-100,-100,-100,"0,0,0",0,-1,0,0,0,0,62,64,84,70,100,-5.32,12,16.0,19.0,-1019.0,13:35:48.758559,192.168.0.113
639,-1,-100,-100,-100,"0,0,0",0,-1,0,0,0,0,62,64,83,70,100,-5.33,12,-1.0,24.0,-990.0,13:35:48.860728,192.168.0.113
644,-1,-100,-100,-100,"0,0,0",0,-1,0,0,0,0,62,64,83,70,100,-5.35,12,12.0,0.0,-1009.0,13:35:48.962705,192.168.0.113
649,-1,-100,-100,-100,"0,0,0",1,-1,0,0,0,0,62,64,82,70,100,-5.38,12,-12.0,16.0,-1007.0,13:35:49.064642,192.168.0.113
653,-1,-100,-100,-100,"0,0,0",0,-1,0,0,0,0,62,64,82,70,100,-5.37,12,-29.0,28.0,-997.0,13:35:49.115824,192.168.0.113
658,-1,-100,-100,-100,"0,0,0",0,-1,0,0,0,0,62,64,83,60,100,-5.34,13,6.0,31.0,-976.0,13:35:49.217996,192.168.0.113
663,-1,-100,-100,-100,"0,0,0",0,-1,0,0,0,0,62,64,82,60,100,-5.54,13,-7.0,46.0,-1009.0,13:35:49.319595,192.168.0.113
668,-1,-100,-100,-100,"0,0,0",0,-1,0,0,0,0,62,64,82,60,100,-5.38,13,11.0,35.0,-996.0,13:35:49.421606,192.168.0.113
673,-1,-100,-100,-100,"0,0,0",0,-3,0,0,0,0,62,64,82,60,100,-5.29,13,1.0,45.0,-976.0,13:35:49.525091,192.168.0.113
678,-1,-100,-100,-100,"0,0,0",1,-2,0,0,0,0,62,65,82,60,100,-5.24,13,0.0,15.0,-996.0,13:35:49.625453,192.168.0.113
683,-1,-100,-100,-100,"0,0,0",1,-2,0,0,0,0,62,65,81,60,100,-5.3,13,-1.0,48.0,-1011.0,13:35:49.727786,192.168.0.113
689,-1,-100,-100,-100,"0,0,0",1,-2,0,0,0,0,62,65,81,60,100,-5.31,13,0.0,22.0,-1027.0,13:35:49.829742,192.168.0.113
694,-1,-100,-100,-100,"0,0,0",2,-1,0,0,0,0,62,65,82,60,100,-5.34,13,-4.0,49.0,-1017.0,13:35:49.931493,192.168.0.113
699,-1,-100,-100,-100,"0,0,0",2,-1,0,0,0,0,62,65,82,60,100,-5.29,13,-24.0,37.0,-1009.0,13:35:50.033511,192.168.0.113
704,-1,-100,-100,-100,"0,0,0",1,-2,0,0,0,0,62,65,81,60,100,-5.28,13,-24.0,42.0,-1002.0,13:35:50.139213,192.168.0.113
709,-1,-100,-100,-100,"0,0,0",0,-2,0,0,0,0,62,65,81,60,100,-5.32,14,2.0,32.0,-985.0,13:35:50.237575,192.168.0.113
714,-1,-100,-100,-100,"0,0,0",0,-2,0,0,0,0,62,65,81,60,100,-5.35,14,16.0,24.0,-994.0,13:35:50.339587,192.168.0.113
719,-1,-100,-100,-100,"0,0,0",1,-2,0,0,0,0,62,65,81,60,100,-5.43,14,19.0,67.0,-990.0,13:35:50.441871,192.168.0.113
724,-1,-100,-100,-100,"0,0,0",2,-2,0,0,0,0,62,65,82,60,100,-5.52,14,13.0,49.0,-979.0,13:35:50.543629,192.168.0.113
729,-1,-100,-100,-100,"0,0,0",2,-3,0,0,0,0,62,65,82,60,100,-5.3,14,-2.0,48.0,-972.0,13:35:50.647420,192.168.0.113
734,-1,-100,-100,-100,"0,0,0",2,-3,0,0,0,0,62,65,83,60,100,-5.39,14,8.0,38.0,-1021.0,13:35:50.747555,192.168.0.113
739,-1,-100,-100,-100,"0,0,0",1,-3,0,0,0,0,62,65,82,60,100,-5.39,14,-15.0,52.0,-1001.0,13:35:50.850940,192.168.0.113
744,-1,-100,-100,-100,"0,0,0",1,-2,0,0,0,0,62,65,82,60,100,-5.29,14,5.0,41.0,-1015.0,13:35:50.951654,192.168.0.113
749,-1,-100,-100,-100,"0,0,0",2,-2,0,0,0,0,62,65,82,60,100,-5.29,14,-14.0,30.0,-1002.0,13:35:51.053738,192.168.0.113
754,-1,-100,-100,-100,"0,0,0",1,-1,0,0,0,0,62,65,82,60,100,-5.39,14,5.0,38.0,-998.0,13:35:51.155585,192.168.0.113
759,-1,-100,-100,-100,"0,0,0",2,-2,0,0,0,0,62,65,82,60,100,-5.38,15,-21.0,71.0,-1002.0,13:35:51.257602,192.168.0.113
764,-1,-100,-100,-100,"0,0,0",1,-2,0,0,0,0,62,65,82,60,100,-5.47,15,-6.0,50.0,-1006.0,13:35:51.359809,192.168.0.113
769,-1,-100,-100,-100,"0,0,0",1,-3,0,0,0,0,62,65,82,60,100,-5.36,15,-37.0,48.0,-1014.0,13:35:51.462002,192.168.0.113
774,-1,-100,-100,-100,"0,0,0",0,-2,0,0,0,0,62,65,82,60,100,-5.44,15,-22.0,31.0,-1016.0,13:35:51.563907,192.168.0.113
779,-1,-100,-100,-100,"0,0,0",0,-2,0,1,0,0,62,65,81,60,100,-5.46,15,3.0,37.0,-977.0,13:35:51.667522,192.168.0.113
784,-1,-100,-100,-100,"0,0,0",0,-1,0,1,0,0,62,65,81,60,100,-5.45,15,-6.0,-6.0,-995.0,13:35:51.767899,192.168.0.113
790,-1,-100,-100,-100,"0,0,0",0,-1,0,1,0,0,62,65,81,60,100,-5.46,15,-20.0,75.0,-1037.0,13:35:51.869851,192.168.0.113
795,-1,-100,-100,-100,"0,0,0",0,-1,0,1,0,0,62,65,80,60,100,-5.45,15,-23.0,52.0,-987.0,13:35:51.971555,192.168.0.113
800,-1,-100,-100,-100,"0,0,0",0,-2,0,1,0,0,62,65,80,60,100,-5.47,15,5.0,53.0,-999.0,13:35:52.073407,192.168.0.113
805,-1,-100,-100,-100,"0,0,0",0,-3,0,1,0,0,62,65,80,60,100,-5.4,15,-9.0,44.0,-1001.0,13:35:52.175433,192.168.0.113
810,-1,-100,-100,-100,"0,0,0",0,-3,0,1,0,0,62,65,81,60,100,-5.5,16,-28.0,20.0,-999.0,13:35:52.277732,192.168.0.113
815,-1,-100,-100,-100,"0,0,0",0,-2,0,1,0,0,62,65,81,60,100,-5.37,16,-36.0,77.0,-1031.0,13:35:52.379841,192.168.0.113
820,-1,-100,-100,-100,"0,0,0",0,-2,0,0,0,0,62,65,82,60,100,-5.35,16,-2.0,30.0,-986.0,13:35:52.481706,192.168.0.113
823,-1,-100,-100,-100,"0,0,0",0,-2,0,0,0,0,62,65,81,60,100,-5.35,16,-25.0,8.0,-980.0,13:35:52.532859,192.168.0.113
830,-1,-100,-100,-100,"0,0,0",0,-2,0,0,0,0,62,65,82,60,100,-5.46,16,-29.0,48.0,-1010.0,13:35:52.685759,192.168.0.113
833,-1,-100,-100,-100,"0,0,0",0,-2,0,0,0,0,62,65,82,70,100,-5.48,16,-40.0,43.0,-991.0,13:35:52.736657,192.168.0.113
838,-1,-100,-100,-100,"0,0,0",0,-1,0,0,0,0,62,65,82,70,100,-5.42,16,-26.0,50.0,-1010.0,13:35:52.838969,192.168.0.113
844,-1,-100,-100,-100,"0,0,0",0,-1,0,1,0,0,62,65,82,70,100,-5.48,16,-9.0,44.0,-989.0,13:35:52.941055,192.168.0.113
849,-1,-100,-100,-100,"0,0,0",0,-2,0,1,0,0,62,65,83,70,100,-5.48,16,-8.0,37.0,-979.0,13:35:53.042574,192.168.0.113
854,-1,-100,-100,-100,"0,0,0",0,-3,0,0,0,0,62,65,83,70,100,-5.34,16,6.0,64.0,-1027.0,13:35:53.144582,192.168.0.113
859,-1,-100,-100,-100,"0,0,0",0,-3,0,0,0,0,62,65,83,70,100,-5.23,17,8.0,51.0,-958.0,13:35:53.246760,192.168.0.113
863,-1,-100,-100,-100,"0,0,0",0,-2,0,0,0,0,62,65,82,70,100,-5.39,17,17.0,45.0,-1026.0,13:35:53.348683,192.168.0.113
869,-1,-100,-100,-100,"0,0,0",0,-2,0,0,0,0,62,65,82,70,100,-5.42,17,29.0,37.0,-985.0,13:35:53.450752,192.168.0.113
874,-1,-100,-100,-100,"0,0,0",1,-2,0,0,0,0,62,65,81,70,100,-5.43,17,-10.0,72.0,-1029.0,13:35:53.552459,192.168.0.113
879,-1,-100,-100,-100,"0,0,0",1,-2,0,0,0,0,62,65,82,60,100,-5.4,17,1.0,50.0,-971.0,13:35:53.654715,192.168.0.113
884,-1,-100,-100,-100,"0,0,0",1,-3,0,0,0,0,62,65,82,60,100,-5.4,17,-19.0,56.0,-978.0,13:35:53.756685,192.168.0.113
889,-1,-100,-100,-100,"0,0,0",0,-3,0,0,0,0,62,65,82,60,100,-5.32,17,-8.0,33.0,-1020.0,13:35:53.858579,192.168.0.113
894,-1,-100,-100,-100,"0,0,0",0,-2,0,0,0,0,62,65,82,60,100,-5.4,17,-11.0,63.0,-1006.0,13:35:53.964023,192.168.0.113
899,-1,-100,-100,-100,"0,0,0",0,-2,0,0,0,0,62,65,81,60,100,-5.42,17,-9.0,56.0,-1000.0,13:35:54.066345,192.168.0.113
904,-1,-100,-100,-100,"0,0,0",1,-2,0,0,0,0,62,65,81,60,100,-5.48,17,-5.0,34.0,-1000.0,13:35:54.166875,192.168.0.113
909,-1,-100,-100,-100,"0,0,0",1,-2,0,0,0,0,62,65,82,60,100,-5.34,18,-11.0,34.0,-996.0,13:35:54.266714,192.168.0.113
914,-1,-100,-100,-100,"0,0,0",1,-2,0,0,0,0,62,65,81,60,100,-5.34,18,17.0,36.0,-985.0,13:35:54.368810,192.168.0.113
919,-1,-100,-100,-100,"0,0,0",1,-2,0,0,0,0,62,65,81,60,100,-5.34,18,3.0,35.0,-974.0,13:35:54.470712,192.168.0.113
924,-1,-100,-100,-100,"0,0,0",1,-2,0,0,0,0,62,65,82,60,100,-5.44,18,9.0,51.0,-1000.0,13:35:54.573601,192.168.0.113
930,-1,-100,-100,-100,"0,0,0",1,-1,0,0,0,0,62,64,82,60,100,-5.49,18,-18.0,14.0,-1008.0,13:35:54.674691,192.168.0.113
935,-1,-100,-100,-100,"0,0,0",1,-1,0,0,0,0,62,64,82,60,100,-5.52,18,-30.0,27.0,-1017.0,13:35:54.778162,192.168.0.113
940,-1,-100,-100,-100,"0,0,0",0,-1,0,0,0,0,62,64,82,60,100,-5.46,18,-9.0,36.0,-1016.0,13:35:54.878899,192.168.0.113
945,-1,-100,-100,-100,"0,0,0",0,-1,0,0,0,0,62,64,82,60,100,-5.25,18,1.0,38.0,-979.0,13:35:54.980786,192.168.0.113
950,-1,-100,-100,-100,"0,0,0",0,-1,0,0,0,0,62,64,82,60,100,-5.28,18,18.0,50.0,-998.0,13:35:55.082855,192.168.0.113
955,-1,-100,-100,-100,"0,0,0",0,-1,0,0,0,0,62,64,82,60,100,-5.46,18,27.0,22.0,-1000.0,13:35:55.185024,192.168.0.113
960,-1,-100,-100,-100,"0,0,0",1,-1,0,0,0,0,62,64,82,60,100,-5.47,19,-4.0,-2.0,-995.0,13:35:55.287038,192.168.0.113
965,-1,-100,-100,-100,"0,0,0",1,-1,0,0,0,0,62,64,83,60,100,-5.39,19,0.0,31.0,-1021.0,13:35:55.388768,192.168.0.113
970,-1,-100,-100,-100,"0,0,0",1,-1,0,0,0,0,62,64,83,60,100,-5.43,19,-4.0,24.0,-1003.0,13:35:55.490784,192.168.0.113
975,-1,-100,-100,-100,"0,0,0",1,-1,0,0,0,0,62,64,83,60,100,-5.47,19,-1.0,3.0,-976.0,13:35:55.592789,192.168.0.113
980,-1,-100,-100,-100,"0,0,0",1,-1,0,0,0,0,62,65,83,60,100,-5.44,19,13.0,27.0,-1002.0,13:35:55.694768,192.168.0.113
985,-1,-100,-100,-100,"0,0,0",1,-1,0,0,0,0,62,65,82,60,100,-5.5,19,10.0,12.0,-1019.0,13:35:55.796693,192.168.0.113
990,-1,-100,-100,-100,"0,0,0",1,-1,0,0,0,0,62,65,84,60,100,-5.49,19,0.0,11.0,-998.0,13:35:55.899266,192.168.0.113
995,-1,-100,-100,-100,"0,0,0",1,-1,0,0,0,0,62,65,82,60,100,-5.49,19,-25.0,32.0,-1005.0,13:35:56.001303,192.168.0.113
1000,-1,-100,-100,-100,"0,0,0",1,-1,0,0,0,0,62,65,83,60,100,-5.48,19,-15.0,73.0,-957.0,13:35:56.102880,192.168.0.113
1005,-1,-100,-100,-100,"0,0,0",0,-3,0,0,0,0,62,65,82,70,100,-5.44,19,2.0,24.0,-1007.0,13:35:56.204918,192.168.0.113
1008,-1,-100,-100,-100,"0,0,0",0,-3,0,0,0,0,62,65,83,70,100,-5.45,20,-2.0,24.0,-1009.0,13:35:56.255797,192.168.0.113
1013,-1,-100,-100,-100,"0,0,0",0,-2,0,0,0,0,62,65,83,70,100,-5.38,20,-18.0,25.0,-988.0,13:35:56.357796,192.168.0.113
1018,-1,-100,-100,-100,"0,0,0",0,-1,0,0,0,0,62,65,83,70,100,-5.45,20,8.0,18.0,-1015.0,13:35:56.460081,192.168.0.113
1023,-1,-100,-100,-100,"0,0,0",0,0,0,0,0,0,62,65,83,70,100,-5.41,20,1.0,29.0,-997.0,13:35:56.561884,192.168.0.113
1028,-1,-100,-100,-100,"0,0,0",0,-1,0,0,0,0,63,65,83,70,100,-5.37,20,4.0,41.0,-1012.0,13:35:56.663730,192.168.0.113
1033,-1,-100,-100,-100,"0,0,0",0,-1,0,0,0,0,63,65,83,70,100,-5.42,20,0.0,30.0,-1015.0,13:35:56.765740,192.168.0.113
1039,-1,-100,-100,-100,"0,0,0",1,-2,0,0,0,0,63,65,83,70,100,-5.35,20,-13.0,11.0,-998.0,13:35:56.867881,192.168.0.113
1044,-1,-100,-100,-100,"0,0,0",1,-1,0,0,0,0,63,65,83,70,100,-5.39,20,11.0,31.0,-1000.0,13:35:56.969831,192.168.0.113
1049,-1,-100,-100,-100,"0,0,0",1,-1,0,0,0,0,63,65,83,70,100,-5.37,20,19.0,15.0,-1016.0,13:35:57.071963,192.168.0.113
1054,-1,-100,-100,-100,"0,0,0",1,-1,0,0,0,0,63,65,83,70,100,-5.43,20,0.0,21.0,-990.0,13:35:57.176020,192.168.0.113
1059,-1,-100,-100,-100,"0,0,0",1,-1,0,0,0,0,63,65,83,70,100,-5.35,21,9.0,43.0,-993.0,13:35:57.276085,192.168.0.113
1064,-1,-100,-100,-100,"0,0,0",1,-1,0,0,0,0,63,65,82,70,100,-5.35,21,16.0,25.0,-999.0,13:35:57.378117,192.168.0.113
1069,-1,-100,-100,-100,"0,0,0",1,-1,0,0,0,0,63,65,83,70,100,-5.36,21,3.0,25.0,-983.0,13:35:57.479800,192.168.0.113
1074,-1,-100,-100,-100,"0,0,0",1,-1,0,0,0,0,63,65,82,70,100,-5.46,21,6.0,42.0,-1008.0,13:35:57.581939,192.168.0.113
1079,-1,-100,-100,-100,"0,0,0",0,-1,0,0,0,0,62,65,82,70,100,-5.33,21,9.0,37.0,-1015.0,13:35:57.685149,192.168.0.113
1084,-1,-100,-100,-100,"0,0,0",1,-2,0,0,0,0,62,65,82,70,100,-5.39,21,0.0,34.0,-996.0,13:35:57.790047,192.168.0.113
1089,-1,-100,-100,-100,"0,0,0",1,-1,0,0,0,0,62,65,83,70,100,-5.43,21,10.0,21.0,-999.0,13:35:57.888079,192.168.0.113
1095,-1,-100,-100,-100,"0,0,0",1,-1,0,0,0,0,62,65,83,70,100,-5.47,21,16.0,25.0,-1020.0,13:35:57.989809,192.168.0.113
1100,-1,-100,-100,-100,"0,0,0",2,-1,0,0,0,0,62,65,83,70,100,-5.37,21,-7.0,8.0,-972.0,13:35:58.091933,192.168.0.113
1105,-1,-100,-100,-100,"0,0,0",1,-2,0,0,0,0,62,65,83,70,100,-5.42,21,1.0,26.0,-1006.0,13:35:58.193866,192.168.0.113
1110,-1,-100,-100,-100,"0,0,0",1,-2,0,0,0,0,62,65,83,70,100,-5.41,22,-4.0,56.0,-1007.0,13:35:58.300013,192.168.0.113
1115,-1,-100,-100,-100,"0,0,0",1,-1,0,0,0,0,62,65,83,70,100,-5.39,22,1.0,25.0,-966.0,13:35:58.398204,192.168.0.113
1120,-1,-100,-100,-100,"0,0,0",1,-1,0,0,0,0,62,65,82,70,100,-5.55,22,9.0,28.0,-1027.0,13:35:58.500071,192.168.0.113
1125,-1,-100,-100,-100,"0,0,0",1,-1,0,0,0,0,62,65,82,70,100,-5.41,22,15.0,44.0,-992.0,13:35:58.601640,192.168.0.113
1130,-1,-100,-100,-100,"0,0,0",0,-2,0,0,0,0,63,65,82,70,100,-5.38,22,7.0,29.0,-974.0,13:35:58.705055,192.168.0.113
1135,-1,-100,-100,-100,"0,0,0",0,-2,0,0,0,0,63,65,82,60,100,-5.43,22,8.0,20.0,-992.0,13:35:58.809497,192.168.0.113
1140,-1,-100,-100,-100,"0,0,0",1,-1,0,0,0,0,63,65,82,60,100,-5.45,22,-1.0,21.0,-1017.0,13:35:58.908433,192.168.0.113
1145,-1,-100,-100,-100,"0,0,0",1,-1,0,0,0,0,63,65,82,60,100,-5.48,22,22.0,48.0,-1010.0,13:35:59.009792,192.168.0.113
1150,-1,-100,-100,-100,"0,0,0",1,-1,0,0,0,0,63,65,81,60,100,-5.52,22,22.0,22.0,-990.0,13:35:59.111975,192.168.0.113
1155,-1,-100,-100,-100,"0,0,0",1,-1,0,0,0,0,63,65,81,60,100,-5.49,22,21.0,24.0,-1017.0,13:35:59.214232,192.168.0.113
1160,-1,-100,-100,-100,"0,0,0",1,-1,0,0,0,0,63,65,82,60,100,-5.45,23,6.0,23.0,-1015.0,13:35:59.316087,192.168.0.113
1165,-1,-100,-100,-100,"0,0,0",1,-1,0,0,0,0,63,65,81,60,100,-5.56,23,0.0,29.0,-1034.0,13:35:59.417972,192.168.0.113
1170,-1,-100,-100,-100,"0,0,0",1,-1,0,0,0,0,63,65,81,60,100,-5.46,23,20.0,21.0,-1003.0,13:35:59.520095,192.168.0.113
1175,-1,-100,-100,-100,"0,0,0",1,0,0,0,0,0,63,65,81,60,100,-5.44,23,32.0,6.0,-988.0,13:35:59.622007,192.168.0.113
1180,-1,-100,-100,-100,"0,0,0",1,0,0,0,0,0,62,66,82,60,100,-5.47,23,19.0,32.0,-1026.0,13:35:59.726959,192.168.0.113
1185,-1,-100,-100,-100,"0,0,0",2,-1,0,0,0,0,62,66,82,60,100,-5.49,23,18.0,13.0,-1007.0,13:35:59.826027,192.168.0.113
1189,-1,-100,-100,-100,"0,0,0",2,-1,0,0,0,0,62,66,81,60,100,-5.43,23,8.0,25.0,-1001.0,13:35:59.877276,192.168.0.113
1194,-1,-100,-100,-100,"0,0,0",1,-1,0,0,0,0,62,66,81,60,100,-5.45,23,-4.0,5.0,-990.0,13:35:59.979099,192.168.0.113
1199,-1,-100,-100,-100,"0,0,0",1,-1,0,0,0,0,62,66,81,60,100,-5.45,23,-20.0,12.0,-1003.0,13:36:00.081086,192.168.0.113
1204,-1,-100,-100,-100,"0,0,0",0,-1,0,0,0,0,62,66,81,60,100,-5.48,23,-12.0,50.0,-1028.0,13:36:00.182990,192.168.0.113
1209,-1,-100,-100,-100,"0,0,0",0,-1,0,1,0,0,62,66,80,60,100,-5.41,24,31.0,-14.0,-949.0,13:36:00.285051,192.168.0.113
1214,-1,-100,-100,-100,"0,0,0",0,-1,0,0,0,0,62,66,79,60,100,-5.5,24,-45.0,48.0,-1055.0,13:36:00.387651,192.168.0.113
1219,-1,-100,-100,-100,"0,0,0",0,-1,0,0,0,0,62,66,79,60,100,-5.6,24,-29.0,40.0,-1012.0,13:36:00.489126,192.168.0.113
1224,-1,-100,-100,-100,"0,0,0",0,-1,0,0,0,0,62,66,78,60,100,-5.52,24,0.0,35.0,-991.0,13:36:00.591121,192.168.0.113
1229,-1,-100,-100,-100,"0,0,0",0,-1,0,0,0,0,62,65,78,60,100,-5.38,24,-20.0,48.0,-1039.0,13:36:00.693023,192.168.0.113
1234,-1,-100,-100,-100,"0,0,0",1,-1,0,0,0,0,62,65,78,60,100,-5.39,24,26.0,49.0,-1014.0,13:36:00.795294,192.168.0.113
1239,-1,-100,-100,-100,"0,0,0",1,-1,0,0,0,0,62,65,78,60,100,-5.44,24,8.0,47.0,-1024.0,13:36:00.897096,192.168.0.113
1244,-1,-100,-100,-100,"0,0,0",1,-2,0,0,0,0,62,65,78,60,100,-5.48,24,0.0,50.0,-986.0,13:36:01.000061,192.168.0.113
1249,-1,-100,-100,-100,"0,0,0",0,-2,0,0,0,0,62,65,77,60,100,-5.58,24,-8.0,49.0,-959.0,13:36:01.101619,192.168.0.113
1254,-1,-100,-100,-100,"0,0,0",0,-3,0,0,0,0,62,65,77,60,100,-5.52,24,-32.0,62.0,-1004.0,13:36:01.203228,192.168.0.113
1260,-1,-100,-100,-100,"0,0,0",1,-2,0,0,0,0,62,65,77,60,100,-5.49,25,-27.0,24.0,-972.0,13:36:01.305242,192.168.0.113
1265,-1,-100,-100,-100,"0,0,0",1,-3,0,0,0,0,62,65,76,60,100,-5.53,25,-5.0,19.0,-1010.0,13:36:01.407301,192.168.0.113
1270,-1,-100,-100,-100,"0,0,0",0,-2,0,0,0,0,62,65,76,60,100,-5.53,25,0.0,27.0,-1015.0,13:36:01.508694,192.168.0.113
1275,-1,-100,-100,-100,"0,0,0",0,-2,0,1,0,0,62,65,76,60,100,-5.62,25,-49.0,43.0,-1015.0,13:36:01.611019,192.168.0.113
1280,-1,-100,-100,-100,"0,0,0",0,-1,0,1,0,0,62,65,76,60,100,-5.5,25,4.0,32.0,-1006.0,13:36:01.713501,192.168.0.113
1285,-1,-100,-100,-100,"0,0,0",0,-2,0,1,0,0,62,65,77,60,100,-5.46,25,12.0,12.0,-994.0,13:36:01.814936,192.168.0.113
1290,-1,-100,-100,-100,"0,0,0",0,-3,0,0,0,0,62,65,77,60,100,-5.53,25,7.0,15.0,-1030.0,13:36:01.917278,192.168.0.113
1295,-1,-100,-100,-100,"0,0,0",0,-3,0,0,0,0,62,65,78,60,100,-5.55,25,-1.0,11.0,-1011.0,13:36:02.019081,192.168.0.113
1300,-1,-100,-100,-100,"0,0,0",0,-1,0,0,0,0,62,65,79,60,100,-5.51,25,-25.0,27.0,-985.0,13:36:02.120950,192.168.0.113
1305,-1,-100,-100,-100,"0,0,0",0,-1,0,0,0,0,62,65,79,60,100,-5.54,25,-17.0,32.0,-964.0,13:36:02.223294,192.168.0.113
1310,-1,-100,-100,-100,"0,0,0",0,-1,0,0,0,0,62,65,79,60,100,-5.48,26,-9.0,46.0,-986.0,13:36:02.325363,192.168.0.113
1315,-1,-100,-100,-100,"0,0,0",0,0,0,0,0,0,62,65,80,60,100,-5.54,26,-10.0,45.0,-1009.0,13:36:02.426923,192.168.0.113
1320,-1,-100,-100,-100,"0,0,0",0,-1,0,0,0,0,62,65,80,60,100,-5.41,26,4.0,34.0,-971.0,13:36:02.529187,192.168.0.113
1325,-1,-100,-100,-100,"0,0,0",0,-2,0,0,0,0,62,65,79,60,100,-5.41,26,-42.0,25.0,-1050.0,13:36:02.633907,192.168.0.113
1330,-1,-100,-100,-100,"0,0,0",0,-1,0,0,0,0,63,66,80,60,100,-5.48,26,-14.0,55.0,-1013.0,13:36:02.733826,192.168.0.113
1335,-1,-100,-100,-100,"0,0,0",0,-1,0,0,0,0,63,66,79,60,100,-5.45,26,-26.0,50.0,-993.0,13:36:02.835849,192.168.0.113
1340,-1,-100,-100,-100,"0,0,0",0,-1,0,0,0,0,63,66,80,60,100,-5.46,26,4.0,37.0,-979.0,13:36:02.937234,192.168.0.113
1345,-1,-100,-100,-100,"0,0,0",0,-1,0,0,0,0,63,66,80,60,100,-5.4,26,-2.0,27.0,-1005.0,13:36:03.039192,192.168.0.113
1350,-1,-100,-100,-100,"0,0,0",0,-2,0,0,0,0,63,66,81,60,100,-5.41,26,11.0,46.0,-1020.0,13:36:03.141243,192.168.0.113
1353,-1,-100,-100,-100,"0,0,0",0,-2,0,0,0,0,63,66,81,60,100,-5.45,26,17.0,43.0,-977.0,13:36:03.192744,192.168.0.113
1359,-1,-100,-100,-100,"0,0,0",0,-2,0,0,0,0,63,66,81,60,100,-5.48,27,-23.0,29.0,-1004.0,13:36:03.294098,192.168.0.113
1363,-1,-100,-100,-100,"0,0,0",0,-2,0,0,0,0,63,66,81,60,100,-5.41,27,-29.0,9.0,-991.0,13:36:03.396178,192.168.0.113
1369,-1,-100,-100,-100,"0,0,0",0,-3,0,0,0,0,63,66,81,60,100,-5.37,27,-45.0,44.0,-992.0,13:36:03.498111,192.168.0.113
1374,-1,-100,-100,-100,"0,0,0",0,-2,0,0,0,0,63,66,81,60,100,-5.48,27,-1.0,-7.0,-989.0,13:36:03.600179,192.168.0.113
1379,-1,-100,-100,-100,"0,0,0",0,-1,0,0,0,0,63,66,80,60,100,-5.35,27,-29.0,52.0,-1017.0,13:36:03.702504,192.168.0.113
1384,-1,-100,-100,-100,"0,0,0",0,-1,0,0,0,0,63,66,81,60,100,-5.3,27,-38.0,34.0,-1006.0,13:36:03.804161,192.168.0.113
1389,-1,-100,-100,-100,"0,0,0",0,-1,0,0,0,0,63,66,81,60,100,-5.45,27,-33.0,37.0,-986.0,13:36:03.906030,192.168.0.113
1394,-1,-100,-100,-100,"0,0,0",0,-1,0,0,0,0,63,66,80,60,100,-5.4,27,1.0,-7.0,-982.0,13:36:04.007994,192.168.0.113
1399,-1,-100,-100,-100,"0,0,0",0,0,0,0,0,0,63,66,79,60,100,-5.43,27,-40.0,25.0,-1008.0,13:36:04.110124,192.168.0.113
1404,-1,-100,-100,-100,"0,0,0",0,0,0,0,0,0,63,66,79,60,100,-5.4,27,-39.0,21.0,-984.0,13:36:04.212165,192.168.0.113
1410,-1,-100,-100,-100,"0,0,0",0,0,0,0,0,0,63,66,79,60,100,-5.43,28,-7.0,4.0,-1017.0,13:36:04.314258,192.168.0.113
1415,-1,-100,-100,-100,"0,0,0",0,0,0,0,0,0,63,66,80,60,100,-5.42,28,-18.0,6.0,-1029.0,13:36:04.416148,192.168.0.113
1419,-1,-100,-100,-100,"0,0,0",0,0,0,0,0,0,63,66,80,60,100,-5.32,28,-10.0,19.0,-1040.0,13:36:04.518327,192.168.0.113
1424,-1,-100,-100,-100,"0,0,0",0,0,0,0,0,0,63,66,81,60,100,-5.48,28,3.0,18.0,-996.0,13:36:04.620041,192.168.0.113
1429,-1,-100,-100,-100,"0,0,0",0,0,0,0,0,0,63,65,81,60,100,-5.46,28,4.0,43.0,-992.0,13:36:04.722177,192.168.0.113
1435,-1,-100,-100,-100,"0,0,0",0,0,0,0,0,0,63,65,81,60,100,-5.52,28,-22.0,61.0,-987.0,13:36:04.824256,192.168.0.113
1440,-1,-100,-100,-100,"0,0,0",0,-2,0,0,0,0,63,65,81,60,100,-5.37,28,-6.0,39.0,-954.0,13:36:04.926094,192.168.0.113
1445,-1,-100,-100,-100,"0,0,0",0,-3,0,0,0,0,63,65,82,60,100,-5.31,28,11.0,36.0,-977.0,13:36:05.028098,192.168.0.113
1450,-1,-100,-100,-100,"0,0,0",0,-3,0,0,0,0,63,65,82,60,100,-5.3,28,-12.0,29.0,-1002.0,13:36:05.130195,192.168.0.113
1455,-1,-100,-100,-100,"0,0,0",0,-3,0,0,0,0,63,65,82,60,100,-5.31,29,-15.0,28.0,-1012.0,13:36:05.232542,192.168.0.113
1460,-1,-100,-100,-100,"0,0,0",0,-2,0,0,0,0,63,65,82,60,100,-5.42,29,3.0,16.0,-997.0,13:36:05.337940,192.168.0.113
1465,-1,-100,-100,-100,"0,0,0",0,-1,0,0,0,0,63,65,82,60,100,-5.29,29,-34.0,8.0,-997.0,13:36:05.435972,192.168.0.113
1470,-1,-100,-100,-100,"0,0,0",0,-1,0,0,0,0,63,65,81,60,100,-5.4,29,-11.0,-6.0,-990.0,13:36:05.537910,192.168.0.113
1475,-1,-100,-100,-100,"0,0,0",0,-1,0,0,0,0,63,65,82,60,100,-5.34,29,-3.0,37.0,-994.0,13:36:05.640525,192.168.0.113
1480,-1,-100,-100,-100,"0,0,0",0,-1,0,0,0,0,63,67,82,60,100,-5.37,29,-4.0,39.0,-1013.0,13:36:05.742019,192.168.0.113
1485,-1,-100,-100,-100,"0,0,0",0,-1,0,0,0,0,63,67,81,60,100,-5.14,29,18.0,36.0,-989.0,13:36:05.844077,192.168.0.113
1490,-1,-100,-100,-100,"0,0,0",0,-1,0,0,0,0,63,67,82,60,100,-5.21,29,3.0,40.0,-984.0,13:36:05.946182,192.168.0.113
1495,-1,-100,-100,-100,"0,0,0",1,-2,0,0,0,0,63,67,81,60,100,-5.23,29,16.0,43.0,-987.0,13:36:06.048575,192.168.0.113
1500,-1,-100,-100,-100,"0,0,0",1,-2,0,0,0,0,63,67,81,60,100,-5.39,29,6.0,68.0,-1034.0,13:36:06.151635,192.168.0.113
1505,-1,-100,-100,-100,"0,0,0",1,-2,0,0,0,0,63,67,82,60,100,-5.34,30,20.0,18.0,-985.0,13:36:06.252336,192.168.0.113
1510,-1,-100,-100,-100,"0,0,0",0,-3,0,0,0,0,63,67,82,60,100,-5.35,30,0.0,38.0,-1037.0,13:36:06.354796,192.168.0.113
1515,-1,-100,-100,-100,"0,0,0",0,-3,0,0,0,0,63,67,82,60,100,-5.38,30,-26.0,29.0,-1000.0,13:36:06.456485,192.168.0.113
1520,-1,-100,-100,-100,"0,0,0",1,-2,0,0,0,0,63,67,82,60,100,-5.45,30,2.0,22.0,-1008.0,13:36:06.558207,192.168.0.113
1523,-1,-100,-100,-100,"0,0,0",0,-2,0,0,0,0,63,67,82,60,100,-5.38,30,22.0,48.0,-999.0,13:36:06.609404,192.168.0.113
1530,-1,-100,-100,-100,"0,0,0",1,-2,0,0,0,0,63,66,82,60,100,-5.51,30,-12.0,47.0,-991.0,13:36:06.762288,192.168.0.113
1533,-1,-100,-100,-100,"0,0,0",0,-3,0,0,0,0,63,66,82,60,100,-5.36,30,-2.0,62.0,-1003.0,13:36:06.813917,192.168.0.113
1540,-1,-100,-100,-100,"0,0,0",0,-3,0,0,0,0,63,66,82,60,100,-5.3,30,0.0,47.0,-1005.0,13:36:06.965906,192.168.0.113
1545,-1,-100,-100,-100,"0,0,0",0,-3,0,0,0,0,63,66,82,60,100,-5.31,30,11.0,30.0,-1000.0,13:36:07.068297,192.168.0.113
1549,-1,-100,-100,-100,"0,0,0",0,-2,0,0,0,0,63,66,82,60,100,-5.32,30,16.0,51.0,-1012.0,13:36:07.119001,192.168.0.113
1554,-1,-100,-100,-100,"0,0,0",0,-2,0,0,0,0,63,66,82,70,100,-5.33,31,0.0,17.0,-1013.0,13:36:07.221228,192.168.0.113
1559,-1,-100,-100,-100,"0,0,0",1,-2,0,0,0,0,63,66,82,70,100,-5.33,31,2.0,37.0,-1006.0,13:36:07.323421,192.168.0.113
1564,-1,-100,-100,-100,"0,0,0",1,-1,0,0,0,0,63,66,83,70,100,-5.28,31,8.0,28.0,-1002.0,13:36:07.425109,192.168.0.113
1569,-1,-100,-100,-100,"0,0,0",1,-2,0,0,0,0,63,66,83,60,100,-5.29,31,0.0,56.0,-992.0,13:36:07.527179,192.168.0.113
1574,-1,-100,-100,-100,"0,0,0",1,-2,0,0,0,0,63,66,82,60,100,-5.28,31,10.0,42.0,-1001.0,13:36:07.629557,192.168.0.113
1579,-1,-100,-100,-100,"0,0,0",1,-2,0,0,0,0,63,66,82,60,100,-5.32,31,10.0,40.0,-1006.0,13:36:07.731109,192.168.0.113
1584,-1,-100,-100,-100,"0,0,0",1,-1,0,0,0,0,63,66,82,60,100,-5.4,31,8.0,48.0,-967.0,13:36:07.833031,192.168.0.113
1590,-1,-100,-100,-100,"0,0,0",1,-2,0,0,0,0,63,66,82,60,100,-5.48,31,24.0,59.0,-1029.0,13:36:07.935152,192.168.0.113
1595,-1,-100,-100,-100,"0,0,0",1,-3,0,0,0,0,63,66,82,60,100,-5.34,31,1.0,51.0,-990.0,13:36:08.037413,192.168.0.113
1600,-1,-100,-100,-100,"0,0,0",1,-3,0,0,0,0,63,66,83,60,100,-5.5,31,7.0,52.0,-995.0,13:36:08.139178,192.168.0.113
1605,-1,-100,-100,-100,"0,0,0",1,-2,0,0,0,0,63,66,82,60,100,-5.42,32,28.0,18.0,-978.0,13:36:08.241162,192.168.0.113
1610,-1,-100,-100,-100,"0,0,0",1,-2,0,0,0,0,63,66,82,60,100,-5.57,32,25.0,39.0,-999.0,13:36:08.343193,192.168.0.113
1615,-1,-100,-100,-100,"0,0,0",1,-2,0,0,0,0,63,66,82,60,100,-5.42,32,19.0,25.0,-968.0,13:36:08.445320,192.168.0.113
1620,-1,-100,-100,-100,"0,0,0",1,-2,0,0,0,0,63,66,82,60,100,-5.44,32,-11.0,27.0,-981.0,13:36:08.547274,192.168.0.113
1625,-1,-100,-100,-100,"0,0,0",1,-1,0,0,0,0,63,66,81,60,100,-5.46,32,-32.0,30.0,-986.0,13:36:08.649238,192.168.0.113
1630,-1,-100,-100,-100,"0,0,0",0,-1,0,0,0,0,63,66,81,60,100,-5.46,32,12.0,17.0,-1033.0,13:36:08.751305,192.168.0.113
1635,-1,-100,-100,-100,"0,0,0",0,-1,0,0,0,0,63,66,82,60,100,-5.3,32,-21.0,27.0,-996.0,13:36:08.854741,192.168.0.113
1640,-1,-100,-100,-100,"0,0,0",0,-1,0,0,0,0,63,66,81,60,100,-5.43,32,22.0,21.0,-1000.0,13:36:08.955353,192.168.0.113
1645,-1,-100,-100,-100,"0,0,0",0,-1,0,0,0,0,63,66,81,60,100,-5.49,32,23.0,30.0,-1009.0,13:36:09.058617,192.168.0.113
1650,-1,-100,-100,-100,"0,0,0",0,0,0,0,0,0,63,66,81,60,100,-5.48,32,-22.0,13.0,-1011.0,13:36:09.159276,192.168.0.113
1655,-1,-100,-100,-100,"0,0,0",0,0,0,0,0,0,63,66,80,60,100,-5.33,33,11.0,36.0,-956.0,13:36:09.261324,192.168.0.113
1660,-1,-100,-100,-100,"0,0,0",0,0,0,0,0,0,63,66,80,60,100,-5.42,33,-9.0,25.0,-1036.0,13:36:09.363518,192.168.0.113
1665,-1,-100,-100,-100,"0,0,0",0,-1,0,0,0,0,63,66,80,60,100,-5.27,33,4.0,51.0,-1002.0,13:36:09.465517,192.168.0.113
1670,-1,-100,-100,-100,"0,0,0",0,-1,0,0,0,0,63,66,80,60,100,-5.38,33,-2.0,29.0,-1023.0,13:36:09.567339,192.168.0.113
1675,-1,-100,-100,-100,"0,0,0",0,-1,0,0,0,0,63,66,80,60,100,-5.43,33,-7.0,62.0,-1021.0,13:36:09.669404,192.168.0.113
1680,-1,-100,-100,-100,"0,0,0",0,-1,0,0,0,0,63,66,80,60,100,-5.42,33,-3.0,49.0,-986.0,13:36:09.771314,192.168.0.113
1685,-1,-100,-100,-100,"0,0,0",0,-2,0,0,0,0,63,66,80,60,100,-5.39,33,0.0,35.0,-1010.0,13:36:09.873404,192.168.0.113
1690,-1,-100,-100,-100,"0,0,0",0,-2,0,0,0,0,63,66,80,60,100,-5.36,33,-29.0,39.0,-997.0,13:36:09.975319,192.168.0.113
1695,-1,-100,-100,-100,"0,0,0",0,-2,0,0,0,0,63,66,80,60,100,-5.39,33,-1.0,35.0,-1008.0,13:36:10.077364,192.168.0.113
1700,-1,-100,-100,-100,"0,0,0",0,-2,0,0,0,0,63,66,80,60,100,-5.33,33,-31.0,11.0,-998.0,13:36:10.179212,192.168.0.113
1704,-1,-100,-100,-100,"0,0,0",0,-1,0,0,0,0,63,66,79,60,100,-5.43,34,13.0,21.0,-1015.0,13:36:10.230311,192.168.0.113
1709,-1,-100,-100,-100,"0,0,0",0,0,0,0,0,0,63,66,80,60,100,-5.39,34,-22.0,43.0,-981.0,13:36:10.332574,192.168.0.113
1714,-1,-100,-100,-100,"0,0,0",0,-2,0,0,0,0,63,66,80,60,100,-5.29,34,-16.0,41.0,-1007.0,13:36:10.434139,192.168.0.113
1719,-1,-100,-100,-100,"0,0,0",0,-2,0,0,0,0,63,66,80,60,100,-5.42,34,0.0,42.0,-1033.0,13:36:10.536379,192.168.0.113
1724,-1,-100,-100,-100,"0,0,0",0,-2,0,0,0,0,63,66,79,60,100,-5.35,34,-24.0,28.0,-1026.0,13:36:10.638530,192.168.0.113
1729,-1,-100,-100,-100,"0,0,0",0,-1,0,0,0,0,63,66,79,60,100,-5.44,34,-26.0,4.0,-1050.0,13:36:10.740587,192.168.0.113
1734,-1,-100,-100,-100,"0,0,0",-1,0,0,0,0,0,63,66,79,60,100,-5.46,34,-31.0,18.0,-1019.0,13:36:10.843304,192.168.0.113
1739,-1,-100,-100,-100,"0,0,0",-1,0,0,0,0,0,63,66,79,60,100,-5.38,34,-15.0,64.0,-993.0,13:36:10.944526,192.168.0.113
1744,-1,-100,-100,-100,"0,0,0",-1,-1,0,0,0,0,63,66,79,60,100,-5.35,34,-34.0,52.0,-991.0,13:36:11.046338,192.168.0.113
1749,-1,-100,-100,-100,"0,0,0",0,-2,0,0,0,0,63,66,80,60,100,-5.47,34,0.0,32.0,-1002.0,13:36:11.148487,192.168.0.113
1755,-1,-100,-100,-100,"0,0,0",0,-2,0,0,0,0,63,66,80,60,100,-5.2,35,-10.0,49.0,-987.0,13:36:11.251489,192.168.0.113
1760,-1,-100,-100,-100,"0,0,0",0,-2,0,0,0,0,63,66,81,60,100,-5.32,35,17.0,35.0,-996.0,13:36:11.352700,192.168.0.113
1765,-1,-100,-100,-100,"0,0,0",0,-3,0,0,0,0,63,66,81,60,100,-5.26,35,5.0,38.0,-990.0,13:36:11.454559,192.168.0.113
1770,-1,-100,-100,-100,"0,0,0",0,-2,0,0,0,0,63,66,81,60,100,-5.26,35,2.0,29.0,-992.0,13:36:11.556387,192.168.0.113
1775,-1,-100,-100,-100,"0,0,0",0,-1,0,0,0,0,63,66,81,60,100,-5.19,35,18.0,55.0,-983.0,13:36:11.658127,192.168.0.113
1780,-1,-100,-100,-100,"0,0,0",1,-1,0,0,0,0,64,65,82,60,100,-5.39,35,25.0,34.0,-1005.0,13:36:11.760585,192.168.0.113
1785,-1,-100,-100,-100,"0,0,0",1,-2,0,0,0,0,64,65,81,60,100,-5.38,35,17.0,23.0,-994.0,13:36:11.862615,192.168.0.113
1790,-1,-100,-100,-100,"0,0,0",1,-3,0,0,0,0,64,65,81,60,100,-5.41,35,1.0,39.0,-1008.0,13:36:11.964517,192.168.0.113
1795,-1,-100,-100,-100,"0,0,0",1,-3,0,0,0,0,64,65,82,60,100,-5.42,35,-3.0,57.0,-970.0,13:36:12.067158,192.168.0.113
1800,-1,-100,-100,-100,"0,0,0",1,-2,0,0,0,0,64,65,81,60,100,-5.31,35,13.0,36.0,-989.0,13:36:12.169381,192.168.0.113
1805,-1,-100,-100,-100,"0,0,0",1,-2,0,0,0,0,64,65,81,60,100,-5.36,36,19.0,49.0,-1017.0,13:36:12.271547,192.168.0.113
1810,-1,-100,-100,-100,"0,0,0",1,-3,0,0,0,0,64,65,81,60,100,-5.22,36,-14.0,61.0,-998.0,13:36:12.374075,192.168.0.113
1815,-1,-100,-100,-100,"0,0,0",1,-2,0,0,0,0,64,65,81,60,100,-5.29,36,25.0,37.0,-1015.0,13:36:12.476629,192.168.0.113
1820,-1,-100,-100,-100,"0,0,0",1,-2,0,0,0,0,64,65,81,60,100,-5.38,36,14.0,37.0,-985.0,13:36:12.579075,192.168.0.113
1825,-1,-100,-100,-100,"0,0,0",1,-2,0,0,0,0,64,65,81,60,100,-5.19,36,0.0,30.0,-1014.0,13:36:12.678481,192.168.0.113
1830,-1,-100,-100,-100,"0,0,0",1,-2,0,0,0,0,64,65,82,60,100,-5.19,36,4.0,39.0,-984.0,13:36:12.780477,192.168.0.113
1835,-1,-100,-100,-100,"0,0,0",1,-1,0,0,0,0,64,65,82,60,100,-5.36,36,4.0,51.0,-1015.0,13:36:12.882219,192.168.0.113
1840,-1,-100,-100,-100,"0,0,0",0,-2,0,0,0,0,64,65,82,60,100,-5.25,36,24.0,46.0,-990.0,13:36:12.984177,192.168.0.113
1845,-1,-100,-100,-100,"0,0,0",0,-2,0,0,0,0,64,65,82,60,100,-5.25,36,-10.0,55.0,-971.0,13:36:13.086287,192.168.0.113
1850,-1,-100,-100,-100,"0,0,0",1,-2,0,0,0,0,64,65,82,60,100,-5.44,36,3.0,40.0,-994.0,13:36:13.188446,192.168.0.113
1855,-1,-100,-100,-100,"0,0,0",1,-2,0,0,0,0,64,65,83,70,100,-5.31,37,-1.0,47.0,-1005.0,13:36:13.290694,192.168.0.113
1860,-1,-100,-100,-100,"0,0,0",0,-2,0,0,0,0,64,65,82,70,100,-5.28,37,-17.0,53.0,-995.0,13:36:13.392174,192.168.0.113
1865,-1,-100,-100,-100,"0,0,0",0,-3,0,0,0,0,64,65,82,70,100,-5.33,37,11.0,57.0,-974.0,13:36:13.494471,192.168.0.113
1869,-1,-100,-100,-100,"0,0,0",0,-3,0,0,0,0,64,65,82,60,100,-5.33,37,-15.0,43.0,-977.0,13:36:13.545518,192.168.0.113
1874,-1,-100,-100,-100,"0,0,0",0,-2,0,0,0,0,64,65,82,60,100,-5.22,37,-24.0,59.0,-1032.0,13:36:13.647601,192.168.0.113
1880,-1,-100,-100,-100,"0,0,0",0,-3,0,0,0,0,64,67,81,60,100,-5.29,37,16.0,30.0,-1020.0,13:36:13.800533,192.168.0.113
1884,-1,-100,-100,-100,"0,0,0",0,-2,0,0,0,0,64,67,81,60,100,-5.3,37,-6.0,52.0,-989.0,13:36:13.851469,192.168.0.113
1889,-1,-100,-100,-100,"0,0,0",0,-2,0,0,0,0,64,67,81,60,100,-5.29,37,-7.0,33.0,-1009.0,13:36:13.953418,192.168.0.113
1894,-1,-100,-100,-100,"0,0,0",0,-2,0,0,0,0,64,67,81,60,100,-5.34,37,-17.0,53.0,-1001.0,13:36:14.055618,192.168.0.113
1899,-1,-100,-100,-100,"0,0,0",0,-2,0,0,0,0,64,67,81,60,100,-5.21,37,9.0,23.0,-975.0,13:36:14.157999,192.168.0.113
1904,-1,-100,-100,-100,"0,0,0",0,-2,0,0,0,0,64,67,81,60,100,-5.29,38,-43.0,69.0,-1014.0,13:36:14.259476,192.168.0.113
1909,-1,-100,-100,-100,"0,0,0",0,-2,0,0,0,0,64,67,81,60,100,-5.11,38,10.0,40.0,-998.0,13:36:14.361339,192.168.0.113
1914,-1,-100,-100,-100,"0,0,0",0,-2,0,0,0,0,64,67,80,60,100,-5.18,38,-37.0,50.0,-1023.0,13:36:14.463784,192.168.0.113
1919,-1,-100,-100,-100,"0,0,0",0,-2,0,0,0,0,64,67,80,60,100,-5.23,38,4.0,36.0,-997.0,13:36:14.565434,192.168.0.113
1924,-1,-100,-100,-100,"0,0,0",0,0,0,0,0,0,64,67,79,60,100,-5.2,38,33.0,22.0,-1010.0,13:36:14.667562,192.168.0.113
1929,-1,-100,-100,-100,"0,0,0",0,0,0,0,0,0,63,67,80,60,100,-5.33,38,-40.0,63.0,-1037.0,13:36:14.769460,192.168.0.113
1935,-1,-100,-100,-100,"0,0,0",0,0,0,0,0,0,63,67,80,60,100,-5.34,38,-9.0,58.0,-974.0,13:36:14.871596,192.168.0.113
1940,-1,-100,-100,-100,"0,0,0",0,-1,0,0,0,0,63,67,80,60,100,-5.37,38,-1.0,50.0,-1005.0,13:36:14.973711,192.168.0.113
1945,-1,-100,-100,-100,"0,0,0",0,-2,0,0,0,0,63,67,80,60,100,-5.37,38,11.0,20.0,-1038.0,13:36:15.076135,192.168.0.113
1950,-1,-100,-100,-100,"0,0,0",0,-2,0,0,0,0,63,67,80,60,100,-5.5,38,-9.0,21.0,-1029.0,13:36:15.177698,192.168.0.113
1955,-1,-100,-100,-100,"0,0,0",0,-1,0,0,0,0,63,67,80,60,100,-5.5,39,-6.0,16.0,-1005.0,13:36:15.280205,192.168.0.113
1960,-1,-100,-100,-100,"0,0,0",0,-1,0,0,0,0,63,67,81,60,100,-5.4,39,-19.0,70.0,-994.0,13:36:15.381983,192.168.0.113
1965,-1,-100,-100,-100,"0,0,0",0,-1,0,0,0,0,63,67,81,60,100,-5.5,39,-13.0,55.0,-948.0,13:36:15.483473,192.168.0.113
1970,-1,-100,-100,-100,"0,0,0",0,-2,0,0,0,0,63,67,81,60,100,-5.5,39,-63.0,43.0,-1024.0,13:36:15.585709,192.168.0.113
1975,-1,-100,-100,-100,"0,0,0",0,-3,0,0,0,0,63,67,82,60,100,-5.5,39,-68.0,85.0,-991.0,13:36:15.687909,192.168.0.113
1980,-1,-100,-100,-100,"0,0,0",-1,-3,0,0,0,0,64,66,82,60,100,-5.47,39,-61.0,83.0,-991.0,13:36:15.794849,192.168.0.113
1985,-1,-100,-100,-100,"0,0,0",-2,-3,0,1,0,0,64,66,82,60,100,-5.37,39,-22.0,68.0,-1012.0,13:36:15.891521,192.168.0.113
1990,-1,-100,-100,-100,"0,0,0",-2,-3,0,0,0,0,64,66,83,70,100,-5.57,39,-14.0,61.0,-990.0,13:36:15.993857,192.168.0.113
1995,-1,-100,-100,-100,"0,0,0",-2,-2,0,0,0,0,64,66,82,70,100,-5.3,39,5.0,86.0,-983.0,13:36:16.095487,192.168.0.113
2000,-1,-100,-100,-100,"0,0,0",-1,-3,0,0,0,0,64,66,82,70,100,-5.49,39,5.0,67.0,-1005.0,13:36:16.197694,192.168.0.113
2005,-1,-100,-100,-100,"0,0,0",0,-4,0,0,0,0,64,66,83,70,100,-5.54,40,-10.0,40.0,-976.0,13:36:16.300181,192.168.0.113
2010,-1,-100,-100,-100,"0,0,0",0,-4,0,0,0,0,64,66,83,70,100,-5.45,40,1.0,68.0,-967.0,13:36:16.401966,192.168.0.113
2015,-1,-100,-100,-100,"0,0,0",0,-4,0,0,0,0,64,66,82,60,100,-5.5,40,11.0,48.0,-985.0,13:36:16.504202,192.168.0.113
2020,-1,-100,-100,-100,"0,0,0",0,-3,0,0,0,0,64,66,82,60,100,-5.42,40,-28.0,51.0,-1000.0,13:36:16.605881,192.168.0.113
2025,-1,-100,-100,-100,"0,0,0",0,-2,0,0,0,0,64,66,82,60,100,-5.54,40,-28.0,92.0,-1034.0,13:36:16.708248,192.168.0.113
2030,-1,-100,-100,-100,"0,0,0",0,-2,0,0,0,0,64,67,82,60,100,-5.56,40,1.0,53.0,-986.0,13:36:16.809901,192.168.0.113
2035,-1,-100,-100,-100,"0,0,0",0,-3,0,0,0,0,64,67,81,60,100,-5.48,40,-15.0,34.0,-993.0,13:36:16.916161,192.168.0.113
2040,-1,-100,-100,-100,"0,0,0",0,-3,0,0,0,0,64,67,82,60,100,-5.24,40,11.0,29.0,-994.0,13:36:17.013471,192.168.0.113
2045,-1,-100,-100,-100,"0,0,0",0,-3,0,0,0,0,64,67,81,60,100,-5.42,40,9.0,41.0,-996.0,13:36:17.116175,192.168.0.113
2050,-1,-100,-100,-100,"0,0,0",0,-2,0,0,0,0,64,67,82,60,100,-5.33,40,17.0,53.0,-980.0,13:36:17.218250,192.168.0.113
2054,-1,-100,-100,-100,"0,0,0",0,-2,0,0,0,0,64,67,82,60,100,-5.41,41,4.0,59.0,-1004.0,13:36:17.269123,192.168.0.113
2059,-1,-100,-100,-100,"0,0,0",0,-2,0,0,0,0,64,67,82,60,100,-5.57,41,7.0,43.0,-995.0,13:36:17.370844,192.168.0.113
2064,-1,-100,-100,-100,"0,0,0",0,-2,0,0,0,0,64,67,83,60,100,-5.66,41,2.0,56.0,-985.0,13:36:17.473764,192.168.0.113
2069,-1,-100,-100,-100,"0,0,0",0,-3,0,0,0,0,64,67,83,70,100,-5.42,41,-21.0,47.0,-985.0,13:36:17.574900,192.168.0.113
2074,-1,-100,-100,-100,"0,0,0",0,-3,0,0,0,0,64,67,83,70,100,-5.42,41,-27.0,42.0,-1001.0,13:36:17.676790,192.168.0.113
2079,-1,-100,-100,-100,"0,0,0",0,-2,0,0,0,0,63,67,84,70,100,-5.48,41,20.0,49.0,-992.0,13:36:17.786544,192.168.0.113
2084,-1,-100,-100,-100,"0,0,0",0,-2,0,0,0,0,63,67,83,70,100,-5.6,41,-17.0,58.0,-994.0,13:36:17.880944,192.168.0.113
2089,-1,-100,-100,-100,"0,0,0",0,-3,0,0,0,0,63,67,83,70,100,-5.45,41,-8.0,52.0,-1016.0,13:36:17.982886,192.168.0.113
2094,-1,-100,-100,-100,"0,0,0",0,-3,0,0,0,0,63,67,84,70,100,-5.44,41,-6.0,41.0,-981.0,13:36:18.085453,192.168.0.113
2099,-1,-100,-100,-100,"0,0,0",0,-3,0,0,0,0,63,67,84,70,100,-5.44,41,-7.0,53.0,-988.0,13:36:18.186874,192.168.0.113
2105,-1,-100,-100,-100,"0,0,0",0,-2,0,0,0,0,63,67,84,70,100,-5.4,42,-8.0,28.0,-1011.0,13:36:18.288594,192.168.0.113
2110,-1,-100,-100,-100,"0,0,0",0,-1,0,0,0,0,63,67,84,70,100,-5.52,42,6.0,45.0,-1004.0,13:36:18.393027,192.168.0.113
2115,-1,-100,-100,-100,"0,0,0",0,-2,0,0,0,0,63,67,84,70,100,-5.5,42,14.0,36.0,-967.0,13:36:18.492514,192.168.0.113
2120,-1,-100,-100,-100,"0,0,0",0,-2,0,0,0,0,63,67,85,70,100,-5.44,42,2.0,45.0,-963.0,13:36:18.595115,192.168.0.113
2125,-1,-100,-100,-100,"0,0,0",0,-2,0,0,0,0,63,67,84,70,100,-5.33,42,-1.0,69.0,-989.0,13:36:18.697065,192.168.0.113
2130,-1,-100,-100,-100,"0,0,0",0,-3,0,0,0,0,63,66,84,70,100,-5.49,42,3.0,49.0,-996.0,13:36:18.798318,192.168.0.113
2135,-1,-100,-100,-100,"0,0,0",0,-3,0,0,0,0,63,66,84,70,100,-5.55,42,19.0,47.0,-1029.0,13:36:18.900629,192.168.0.113
2140,-1,-100,-100,-100,"0,0,0",0,-2,0,0,0,0,63,66,84,70,100,-5.57,42,-16.0,53.0,-959.0,13:36:19.002320,192.168.0.113
2145,-1,-100,-100,-100,"0,0,0",0,-2,0,0,0,0,63,66,84,70,100,-5.55,42,-18.0,24.0,-997.0,13:36:19.104370,192.168.0.113
2150,-1,-100,-100,-100,"0,0,0",0,-3,0,0,0,0,63,66,84,70,100,-5.52,42,-8.0,13.0,-974.0,13:36:19.206534,192.168.0.113
2155,-1,-100,-100,-100,"0,0,0",0,-2,0,0,0,0,63,66,83,70,100,-5.52,43,6.0,30.0,-991.0,13:36:19.308648,192.168.0.113
2160,-1,-100,-100,-100,"0,0,0",0,-1,0,0,0,0,63,66,83,70,100,-5.5,43,-21.0,58.0,-1002.0,13:36:19.410665,192.168.0.113
2165,-1,-100,-100,-100,"0,0,0",0,-1,0,0,0,0,63,66,82,70,100,-5.46,43,2.0,43.0,-1008.0,13:36:19.512585,192.168.0.113
2170,-1,-100,-100,-100,"0,0,0",0,-1,0,0,0,0,63,66,82,70,100,-5.54,43,0.0,37.0,-977.0,13:36:19.614465,192.168.0.113
2175,-1,-100,-100,-100,"0,0,0",0,-1,0,0,0,0,63,66,82,60,100,-5.54,43,13.0,27.0,-991.0,13:36:19.716766,192.168.0.113
2180,-1,-100,-100,-100,"0,0,0",0,-2,0,0,0,0,64,66,82,60,100,-5.47,43,37.0,34.0,-1019.0,13:36:19.818930,192.168.0.113
2185,-1,-100,-100,-100,"0,0,0",0,-1,0,0,0,0,64,66,82,60,100,-5.45,43,13.0,47.0,-1012.0,13:36:19.920735,192.168.0.113
2190,-1,-100,-100,-100,"0,0,0",1,-1,0,0,0,0,64,66,83,60,100,-5.32,43,-14.0,45.0,-979.0,13:36:20.022860,192.168.0.113
2195,-1,-100,-100,-100,"0,0,0",1,-1,0,0,0,0,64,66,82,60,100,-5.37,43,21.0,19.0,-1011.0,13:36:20.125183,192.168.0.113
2200,-1,-100,-100,-100,"0,0,0",1,-1,0,0,0,0,64,66,83,60,100,-5.29,43,13.0,65.0,-1008.0,13:36:20.226862,192.168.0.113
2205,-1,-100,-100,-100,"0,0,0",1,-2,0,0,0,0,64,66,82,60,100,-5.34,44,-3.0,48.0,-965.0,13:36:20.328629,192.168.0.113
2210,-1,-100,-100,-100,"0,0,0",1,-2,0,0,0,0,64,66,82,60,100,-5.43,44,28.0,52.0,-1026.0,13:36:20.431046,192.168.0.113
2214,-1,-100,-100,-100,"0,0,0",0,-2,0,0,0,0,64,66,84,60,100,-5.42,44,-24.0,48.0,-1010.0,13:36:20.481963,192.168.0.113
2219,-1,-100,-100,-100,"0,0,0",0,-3,0,0,0,0,64,66,83,60,100,-5.25,44,-11.0,55.0,-971.0,13:36:20.584570,192.168.0.113
2224,-1,-100,-100,-100,"0,0,0",0,-3,0,0,0,0,64,66,84,70,100,-5.36,44,11.0,49.0,-1036.0,13:36:20.685578,192.168.0.113
2229,-1,-100,-100,-100,"0,0,0",0,-3,0,0,0,0,64,66,84,70,100,-5.36,44,-1.0,43.0,-975.0,13:36:20.787813,192.168.0.113
2234,-1,-100,-100,-100,"0,0,0",1,-3,0,0,0,0,64,66,84,70,100,-5.35,44,-5.0,19.0,-967.0,13:36:20.889967,192.168.0.113
2239,-1,-100,-100,-100,"0,0,0",0,-2,-1,0,0,0,64,66,84,70,100,-5.41,44,-28.0,36.0,-1007.0,13:36:20.991525,192.168.0.113
2244,-1,-100,-100,-100,"0,0,0",0,-2,0,0,0,0,64,66,84,70,100,-5.38,44,-26.0,40.0,-1039.0,13:36:21.094034,192.168.0.113
2249,-1,-100,-100,-100,"0,0,0",0,-1,0,0,0,0,64,66,84,70,100,-5.46,44,-12.0,51.0,-990.0,13:36:21.195375,192.168.0.113
2254,-1,-100,-100,-100,"0,0,0",0,-2,0,0,0,0,64,66,84,70,100,-5.24,45,12.0,31.0,-1010.0,13:36:21.298003,192.168.0.113
2259,-1,-100,-100,-100,"0,0,0",0,-2,0,0,0,0,64,66,83,70,100,-5.28,45,-29.0,38.0,-1001.0,13:36:21.400086,192.168.0.113
2265,-1,-100,-100,-100,"0,0,0",0,-2,0,0,0,0,64,66,84,70,100,-5.35,45,-21.0,53.0,-999.0,13:36:21.501791,192.168.0.113
2269,-1,-100,-100,-100,"0,0,0",0,-1,0,0,0,0,64,66,84,70,100,-5.51,45,20.0,58.0,-1021.0,13:36:21.603767,192.168.0.113
2275,-1,-100,-100,-100,"0,0,0",-1,-2,0,0,0,0,64,66,85,70,100,-5.53,45,-10.0,59.0,-985.0,13:36:21.705820,192.168.0.113
2280,-1,-100,-100,-100,"0,0,0",0,-3,0,0,0,0,64,66,85,70,100,-5.44,45,23.0,31.0,-972.0,13:36:21.807678,192.168.0.113
2285,-1,-100,-100,-100,"0,0,0",0,-3,0,0,0,0,64,66,85,70,100,-5.38,45,-4.0,27.0,-974.0,13:36:21.909779,192.168.0.113
2290,-1,-100,-100,-100,"0,0,0",0,-3,0,0,0,0,64,66,85,70,100,-5.35,45,14.0,27.0,-1024.0,13:36:22.011719,192.168.0.113
2295,-1,-100,-100,-100,"0,0,0",0,-2,0,0,0,0,64,66,85,70,100,-5.4,45,24.0,45.0,-999.0,13:36:22.114216,192.168.0.113
2300,-1,-100,-100,-100,"0,0,0",0,-2,0,0,0,0,64,66,85,70,100,-5.46,45,11.0,45.0,-970.0,13:36:22.215799,192.168.0.113
2305,-1,-100,-100,-100,"0,0,0",0,-2,0,0,0,0,64,66,85,70,100,-5.34,46,-30.0,60.0,-999.0,13:36:22.318015,192.168.0.113
2310,-1,-100,-100,-100,"0,0,0",1,-2,0,0,0,0,64,66,85,70,100,-5.31,46,30.0,35.0,-1017.0,13:36:22.419660,192.168.0.113
2315,-1,-100,-100,-100,"0,0,0",0,-2,0,0,0,0,64,66,85,70,100,-5.34,46,30.0,54.0,-944.0,13:36:22.521757,192.168.0.113
2320,-1,-100,-100,-100,"0,0,0",0,-3,0,0,0,0,64,66,84,70,100,-5.43,46,11.0,47.0,-971.0,13:36:22.623813,192.168.0.113
2325,-1,-100,-100,-100,"0,0,0",1,-3,0,0,0,0,64,66,84,70,100,-5.34,46,34.0,40.0,-1034.0,13:36:22.726050,192.168.0.113
2330,-1,-100,-100,-100,"0,0,0",1,-2,0,0,0,0,64,67,84,70,100,-5.42,46,33.0,42.0,-1017.0,13:36:22.828263,192.168.0.113
2335,-1,-100,-100,-100,"0,0,0",2,-2,0,0,0,0,64,67,84,70,100,-5.33,46,10.0,32.0,-1025.0,13:36:22.929494,192.168.0.113
2340,-1,-100,-100,-100,"0,0,0",1,-1,0,0,0,0,64,67,85,70,100,-5.31,46,0.0,48.0,-995.0,13:36:23.031881,192.168.0.113
2345,-1,-100,-100,-100,"0,0,0",1,-2,0,0,0,0,64,67,84,70,100,-5.34,46,12.0,28.0,-1008.0,13:36:23.133717,192.168.0.113
2350,-1,-100,-100,-100,"0,0,0",1,-2,0,0,0,0,64,67,84,70,100,-5.34,46,16.0,49.0,-998.0,13:36:23.240581,192.168.0.113
2355,-1,-100,-100,-100,"0,0,0",1,-1,0,0,0,0,64,67,84,70,100,-5.37,47,25.0,40.0,-982.0,13:36:23.337996,192.168.0.113
2360,-1,-100,-100,-100,"0,0,0",2,-2,0,0,0,0,64,67,85,70,100,-5.31,47,22.0,32.0,-1018.0,13:36:23.439801,192.168.0.113
2365,-1,-100,-100,-100,"0,0,0",2,-2,0,0,0,0,64,67,85,70,100,-5.34,47,17.0,27.0,-995.0,13:36:23.542044,192.168.0.113
2370,-1,-100,-100,-100,"0,0,0",1,-2,0,0,0,0,64,67,84,70,100,-5.3,47,27.0,34.0,-999.0,13:36:23.643947,192.168.0.113
2375,-1,-100,-100,-100,"0,0,0",1,-1,0,0,0,0,64,67,83,70,100,-5.41,47,16.0,23.0,-992.0,13:36:23.745776,192.168.0.113
2380,-1,-100,-100,-100,"0,0,0",1,-1,0,0,0,0,64,66,83,70,100,-5.36,47,21.0,25.0,-1008.0,13:36:23.847770,192.168.0.113
2385,-1,-100,-100,-100,"0,0,0",1,-1,0,0,0,0,64,66,83,70,100,-5.31,47,15.0,17.0,-989.0,13:36:23.949864,192.168.0.113
2390,-1,-100,-100,-100,"0,0,0",1,-1,0,0,0,0,64,66,82,70,100,-5.26,47,21.0,22.0,-981.0,13:36:24.052027,192.168.0.113
2395,-1,-100,-100,-100,"0,0,0",1,-1,0,0,0,0,64,66,82,70,100,-5.4,47,14.0,15.0,-1001.0,13:36:24.153735,192.168.0.113
2400,-1,-100,-100,-100,"0,0,0",1,-1,0,0,0,0,64,66,82,70,100,-5.37,48,34.0,45.0,-1009.0,13:36:24.255865,192.168.0.113
2404,-1,-100,-100,-100,"0,0,0",1,-1,0,0,0,0,64,66,83,60,100,-5.4,48,15.0,32.0,-996.0,13:36:24.306784,192.168.0.113
2409,-1,-100,-100,-100,"0,0,0",1,0,0,0,0,0,64,66,82,60,100,-5.4,48,27.0,8.0,-992.0,13:36:24.408938,192.168.0.113
2414,-1,-100,-100,-100,"0,0,0",1,0,0,0,0,0,64,66,82,60,100,-5.41,48,30.0,30.0,-1009.0,13:36:24.510651,192.168.0.113
2419,-1,-100,-100,-100,"0,0,0",1,0,0,0,0,0,64,66,83,60,100,-5.36,48,18.0,19.0,-985.0,13:36:24.612961,192.168.0.113
2424,-1,-100,-100,-100,"0,0,0",1,0,0,0,0,0,64,66,82,60,100,-5.34,48,23.0,25.0,-978.0,13:36:24.715134,192.168.0.113
2429,-1,-100,-100,-100,"0,0,0",1,-1,0,0,0,0,64,66,82,60,100,-5.37,48,32.0,30.0,-1016.0,13:36:24.816839,192.168.0.113
2434,-1,-100,-100,-100,"0,0,0",1,-1,0,0,0,0,64,66,82,60,100,-5.43,48,5.0,45.0,-1000.0,13:36:24.919100,192.168.0.113
2440,-1,-100,-100,-100,"0,0,0",1,-1,0,0,0,0,64,66,82,60,100,-5.37,48,22.0,19.0,-1011.0,13:36:25.020778,192.168.0.113
2445,-1,-100,-100,-100,"0,0,0",1,-1,0,0,0,0,64,66,81,60,100,-5.43,48,21.0,27.0,-1008.0,13:36:25.122739,192.168.0.113
2450,-1,-100,-100,-100,"0,0,0",1,-1,0,0,0,0,64,66,82,60,100,-5.46,49,15.0,37.0,-1002.0,13:36:25.225029,192.168.0.113
2455,-1,-100,-100,-100,"0,0,0",0,-1,0,0,0,0,64,66,82,60,100,-5.5,49,22.0,39.0,-992.0,13:36:25.327121,192.168.0.113
2460,-1,-100,-100,-100,"0,0,0",0,-1,0,0,0,0,64,66,82,60,100,-5.44,49,11.0,30.0,-1006.0,13:36:25.428882,192.168.0.113
2465,-1,-100,-100,-100,"0,0,0",1,-1,0,0,0,0,64,66,81,60,100,-5.45,49,12.0,37.0,-999.0,13:36:25.531193,192.168.0.113
2470,-1,-100,-100,-100,"0,0,0",1,-1,0,0,0,0,64,66,81,60,100,-5.5,49,-7.0,7.0,-1000.0,13:36:25.632692,192.168.0.113
2475,-1,-100,-100,-100,"0,0,0",1,-1,0,0,0,0,64,66,82,60,100,-5.42,49,23.0,18.0,-989.0,13:36:25.734642,192.168.0.113
2480,-1,-100,-100,-100,"0,0,0",1,-1,0,0,0,0,63,67,81,60,100,-5.46,49,16.0,15.0,-1007.0,13:36:25.836771,192.168.0.113
2485,-1,-100,-100,-100,"0,0,0",0,-1,0,0,0,0,63,67,81,60,100,-5.52,49,-6.0,40.0,-986.0,13:36:25.939084,192.168.0.113
2490,-1,-100,-100,-100,"0,0,0",0,-1,0,0,0,0,63,67,81,60,100,-5.41,49,9.0,10.0,-1000.0,13:36:26.041158,192.168.0.113
2495,-1,-100,-100,-100,"0,0,0",0,-1,0,0,0,0,63,67,80,60,100,-5.44,49,-5.0,26.0,-988.0,13:36:26.142909,192.168.0.113
2500,-1,-100,-100,-100,"0,0,0",0,-1,0,0,0,0,63,67,81,60,100,-5.5,50,16.0,3.0,-1022.0,13:36:26.244966,192.168.0.113
2505,-1,-100,-100,-100,"0,0,0",0,0,0,0,0,0,63,67,81,60,100,-5.51,50,-20.0,39.0,-1018.0,13:36:26.346933,192.168.0.113
2510,-1,-100,-100,-100,"0,0,0",0,0,0,0,0,0,63,67,80,60,100,-5.41,50,18.0,17.0,-954.0,13:36:26.450909,192.168.0.113
2515,-1,-100,-100,-100,"0,0,0",0,0,0,0,0,0,63,67,80,60,100,-5.49,50,21.0,-7.0,-1007.0,13:36:26.551117,192.168.0.113
2520,-1,-100,-100,-100,"0,0,0",0,-1,0,0,0,0,63,67,80,60,100,-5.49,50,4.0,25.0,-1028.0,13:36:26.652995,192.168.0.113
2525,-1,-100,-100,-100,"0,0,0",0,-1,0,0,0,0,63,67,80,60,100,-5.43,50,9.0,9.0,-1017.0,13:36:26.754957,192.168.0.113
2530,-1,-100,-100,-100,"0,0,0",0,-1,0,0,0,0,64,67,80,60,100,-5.37,50,-3.0,16.0,-1011.0,13:36:26.856966,192.168.0.113
2535,-1,-100,-100,-100,"0,0,0",0,-1,0,0,0,0,64,67,80,60,100,-5.36,50,-8.0,37.0,-991.0,13:36:26.958876,192.168.0.113
2540,-1,-100,-100,-100,"0,0,0",0,-1,0,0,0,0,64,67,80,60,100,-5.33,50,5.0,21.0,-1010.0,13:36:27.061007,192.168.0.113
2545,-1,-100,-100,-100,"0,0,0",0,-1,0,0,0,0,64,67,81,60,100,-5.32,50,50.0,-4.0,-966.0,13:36:27.162974,192.168.0.113
2550,-1,-100,-100,-100,"0,0,0",0,0,0,0,0,0,64,67,82,60,100,-5.38,51,33.0,23.0,-1009.0,13:36:27.265252,192.168.0.113
2555,-1,-100,-100,-100,"0,0,0",1,0,0,0,0,0,64,67,82,60,100,-5.44,51,20.0,32.0,-1005.0,13:36:27.367387,192.168.0.113
2560,-1,-100,-100,-100,"0,0,0",1,-1,0,0,0,0,64,67,82,60,100,-5.39,51,23.0,29.0,-982.0,13:36:27.468900,192.168.0.113
2564,-1,-100,-100,-100,"0,0,0",1,-1,0,0,0,0,64,67,82,60,100,-5.34,51,24.0,19.0,-975.0,13:36:27.520003,192.168.0.113
2569,-1,-100,-100,-100,"0,0,0",0,-1,0,0,0,0,64,67,82,60,100,-5.34,51,-5.0,30.0,-989.0,13:36:27.621950,192.168.0.113
2574,-1,-100,-100,-100,"0,0,0",0,-1,0,0,0,0,64,67,82,60,100,-5.28,51,4.0,36.0,-1008.0,13:36:27.724019,192.168.0.113
2580,-1,-100,-100,-100,"0,0,0",0,-1,0,0,0,0,64,66,82,60,100,-5.47,51,3.0,37.0,-1020.0,13:36:27.877091,192.168.0.113
2584,-1,-100,-100,-100,"0,0,0",0,-1,0,0,0,0,64,66,82,60,100,-5.38,51,4.0,39.0,-998.0,13:36:27.927777,192.168.0.113
