,mid,x,y,z,mpry,pitch,roll,yaw,vgx,vgy,vgz,templ,temph,tof,h,bat,baro,time,agx,agy,agz,timestamp,address
3,-1,-100,-100,-100,"0,0,0",0,0,0,0,0,0,60,63,10,0,100,-19.99,0,-2.0,-2.0,-999.0,11:04:29.306655,192.168.0.115
8,-1,-100,-100,-100,"0,0,0",0,0,0,0,0,0,60,63,10,0,100,-19.96,0,-1.0,-3.0,-1002.0,11:04:29.408470,192.168.0.115
13,-1,-100,-100,-100,"0,0,0",0,0,0,0,0,0,60,63,10,0,100,-19.96,0,-12.0,2.0,-1001.0,11:04:29.510595,192.168.0.115
18,-1,-100,-100,-100,"0,0,0",0,0,0,0,0,0,60,63,10,0,100,-19.96,0,0.0,-5.0,-998.0,11:04:29.612624,192.168.0.115
23,-1,-100,-100,-100,"0,0,0",0,0,0,0,0,0,60,63,10,0,100,-19.96,0,12.0,12.0,-1000.0,11:04:29.714256,192.168.0.115
28,-1,-100,-100,-100,"0,0,0",0,0,0,0,0,0,60,63,10,0,100,-19.96,0,4.0,-2.0,-1007.0,11:04:29.816608,192.168.0.115
33,-1,-100,-100,-100,"0,0,0",-1,0,0,0,0,0,60,63,10,0,100,-19.96,0,18.0,9.0,-1153.0,11:04:29.918481,192.168.0.115
38,-1,-100,-100,-100,"0,0,0",-1,0,0,0,0,2,60,63,10,0,100,-19.96,0,-12.0,32.0,-1362.0,11:04:30.020447,192.168.0.115
43,-1,-100,-100,-100,"0,0,0",0,0,0,0,0,5,60,63,10,0,100,-19.96,0,-11.0,12.0,-1283.0,11:04:30.124369,192.168.0.115
48,-1,-100,-100,-100,"0,0,0",1,0,0,0,0,7,60,63,13,0,100,-19.81,0,-14.0,-4.0,-1104.0,11:04:30.224481,192.168.0.115
54,-1,-100,-100,-100,"0,0,0",0,0,0,0,0,7,60,63,21,10,100,-19.73,0,-44.0,0.0,-1061.0,11:04:30.326471,192.168.0.115
59,-1,-100,-100,-100,"0,0,0",0,0,0,0,0,7,60,63,28,10,100,-19.63,1,-18.0,-12.0,-990.0,11:04:30.428398,192.168.0.115
64,-1,-100,-100,-100,"0,0,0",0,1,0,0,0,7,60,63,37,20,100,-19.51,1,-40.0,-1.0,-936.0,11:04:30.530531,192.168.0.115
65,-1,-100,-100,-100,"0,0,0",-1,0,0,1,0,6,60,63,47,20,100,-19.42,1,-58.0,9.0,-897.0,11:04:30.581489,192.168.0.115
70,-1,-100,-100,-100,"0,0,0",-3,0,0,1,0,5,60,63,55,30,100,-19.28,1,-72.0,-11.0,-820.0,11:04:30.683422,192.168.0.115
75,-1,-100,-100,-100,"0,0,0",-4,0,0,1,0,3,61,63,62,30,100,-19.27,1,-58.0,-25.0,-875.0,11:04:30.785528,192.168.0.115
81,-1,-100,-100,-100,"0,0,0",-4,0,0,1,0,2,61,63,68,30,100,-19.33,1,-81.0,-20.0,-960.0,11:04:30.887516,192.168.0.115
86,-1,-100,-100,-100,"0,0,0",-5,2,0,1,0,2,61,63,73,40,100,-19.15,1,-88.0,-3.0,-925.0,11:04:30.989346,192.168.0.115
92,-1,-100,-100,-100,"0,0,0",-4,1,0,1,0,1,61,63,77,40,100,-19.34,1,-63.0,-35.0,-907.0,11:04:31.091456,192.168.0.115
97,-1,-100,-100,-100,"0,0,0",-5,0,0,1,0,0,61,63,81,40,100,-19.37,1,-80.0,3.0,-931.0,11:04:31.193266,192.168.0.115
102,-1,-100,-100,-100,"0,0,0",-5,0,0,1,0,0,61,63,84,40,100,-19.07,1,-103.0,1.0,-961.0,11:04:31.295228,192.168.0.115
107,-1,-100,-100,-100,"0,0,0",-6,0,0,1,0,0,61,63,88,40,100,-19.0,2,-108.0,32.0,-948.0,11:04:31.397126,192.168.0.115
112,-1,-100,-100,-100,"0,0,0",-7,0,0,1,0,0,61,63,90,50,100,-18.98,2,-81.0,13.0,-898.0,11:04:31.499321,192.168.0.115
117,-1,-100,-100,-100,"0,0,0",-6,0,0,0,0,0,61,63,91,50,100,-19.08,2,-41.0,-6.0,-1021.0,11:04:31.601312,192.168.0.115
122,-1,-100,-100,-100,"0,0,0",-5,0,0,0,0,0,61,63,94,50,100,-19.0,2,-42.0,12.0,-956.0,11:04:31.703297,192.168.0.115
128,-1,-100,-100,-100,"0,0,0",-5,0,0,0,0,0,61,64,95,50,100,-19.07,2,-7.0,-13.0,-984.0,11:04:31.805389,192.168.0.115
133,-1,-100,-100,-100,"0,0,0",-4,0,0,0,0,0,61,64,97,50,100,-19.09,2,-21.0,-13.0,-939.0,11:04:31.907205,192.168.0.115
138,-1,-100,-100,-100,"0,0,0",-2,0,0,0,0,0,61,64,97,50,100,-19.06,2,-42.0,-2.0,-990.0,11:04:32.009281,192.168.0.115
143,-1,-100,-100,-100,"0,0,0",-1,0,0,0,0,0,61,64,97,60,100,-19.21,2,-54.0,-11.0,-950.0,11:04:32.111385,192.168.0.115
148,-1,-100,-100,-100,"0,0,0",-1,0,0,0,0,0,61,64,96,60,100,-19.28,2,-83.0,11.0,-1001.0,11:04:32.213018,192.168.0.115
153,-1,-100,-100,-100,"0,0,0",-3,0,0,0,0,0,61,64,97,60,100,-18.99,2,-36.0,-7.0,-911.0,11:04:32.315003,192.168.0.115
158,-1,-100,-100,-100,"0,0,0",-3,0,0,0,0,-1,61,64,96,60,100,-19.03,3,-43.0,-3.0,-934.0,11:04:32.417119,192.168.0.115
163,-1,-100,-100,-100,"0,0,0",-3,0,0,0,0,-1,61,64,95,60,100,-19.17,3,-59.0,-9.0,-1005.0,11:04:32.518987,192.168.0.115
168,-1,-100,-100,-100,"0,0,0",-2,1,0,0,0,-1,61,64,94,60,100,-19.07,3,-69.0,-13.0,-1009.0,11:04:32.620978,192.168.0.115
173,-1,-100,-100,-100,"0,0,0",-2,2,0,0,0,-1,61,64,92,50,100,-19.32,3,-62.0,-23.0,-1016.0,11:04:32.722929,192.168.0.115
178,-1,-100,-100,-100,"0,0,0",-3,1,0,0,0,-1,61,63,92,50,100,-19.1,3,-64.0,33.0,-980.0,11:04:32.825027,192.168.0.115
184,-1,-100,-100,-100,"0,0,0",-3,0,0,0,0,-1,61,63,91,50,100,-19.25,3,-93.0,18.0,-1011.0,11:04:32.927077,192.168.0.115
189,-1,-100,-100,-100,"0,0,0",-4,0,0,0,0,-1,61,63,90,50,100,-19.25,3,-78.0,-20.0,-1036.0,11:04:33.028830,192.168.0.115
194,-1,-100,-100,-100,"0,0,0",-4,0,0,0,0,0,61,63,90,50,100,-19.19,3,-103.0,-2.0,-994.0,11:04:33.131019,192.168.0.115
199,-1,-100,-100,-100,"0,0,0",-4,0,0,0,0,0,61,63,90,50,100,-19.24,3,-74.0,-23.0,-978.0,11:04:33.233930,192.168.0.115
204,-1,-100,-100,-100,"0,0,0",-5,0,0,0,0,0,61,63,88,50,100,-19.33,3,-113.0,1.0,-964.0,11:04:33.334849,192.168.0.115
209,-1,-100,-100,-100,"0,0,0",-4,0,0,0,0,-1,61,63,87,50,100,-19.24,4,-105.0,28.0,-1010.0,11:04:33.436778,192.168.0.115
214,-1,-100,-100,-100,"0,0,0",-5,0,0,0,0,0,61,63,86,50,100,-19.21,4,-80.0,0.0,-1016.0,11:04:33.538968,192.168.0.115
219,-1,-100,-100,-100,"0,0,0",-5,-1,0,0,0,0,61,63,86,50,100,-19.12,4,-102.0,2.0,-964.0,11:04:33.640700,192.168.0.115
224,-1,-100,-100,-100,"0,0,0",-6,-1,0,0,0,0,61,63,85,50,100,-19.32,4,-66.0,-24.0,-943.0,11:04:33.742973,192.168.0.115
229,-1,-100,-100,-100,"0,0,0",-6,0,0,0,0,-1,60,62,83,50,100,-19.32,4,-82.0,-5.0,-991.0,11:04:33.844772,192.168.0.115
232,-1,-100,-100,-100,"0,0,0",-5,0,0,0,0,-1,60,62,82,50,100,-19.24,4,-101.0,0.0,-1003.0,11:04:33.896011,192.168.0.115
237,-1,-100,-100,-100,"0,0,0",-5,0,0,0,0,0,60,62,81,50,100,-19.19,4,-90.0,7.0,-1012.0,11:04:33.997662,192.168.0.115
242,-1,-100,-100,-100,"0,0,0",-5,0,0,0,0,0,60,62,80,50,100,-19.21,4,-61.0,-23.0,-945.0,11:04:34.100224,192.168.0.115
247,-1,-100,-100,-100,"0,0,0",-5,0,0,0,0,-1,60,62,79,50,100,-19.28,4,-94.0,7.0,-1050.0,11:04:34.201731,192.168.0.115
252,-1,-100,-100,-100,"0,0,0",-5,0,0,0,0,0,60,62,77,40,100,-19.34,4,-52.0,2.0,-1010.0,11:04:34.305576,192.168.0.115
258,-1,-100,-100,-100,"0,0,0",-5,0,0,0,0,0,60,62,77,40,100,-19.35,5,-71.0,-8.0,-1015.0,11:04:34.405776,192.168.0.115
263,-1,-100,-100,-100,"0,0,0",-5,-1,0,0,0,0,60,62,76,40,100,-19.34,5,-134.0,5.0,-1014.0,11:04:34.507803,192.168.0.115
268,-1,-100,-100,-100,"0,0,0",-6,0,0,0,0,0,60,62,75,40,100,-19.43,5,-129.0,15.0,-947.0,11:04:34.609688,192.168.0.115
273,-1,-100,-100,-100,"0,0,0",-6,0,0,0,0,0,60,62,74,40,100,-19.48,5,-70.0,-8.0,-999.0,11:04:34.711122,192.168.0.115
278,-1,-100,-100,-100,"0,0,0",-6,0,0,0,0,0,61,63,73,40,100,-19.54,5,-69.0,-15.0,-1040.0,11:04:34.813550,192.168.0.115
283,-1,-100,-100,-100,"0,0,0",-5,0,0,0,0,0,61,63,73,40,100,-19.37,5,-117.0,16.0,-1044.0,11:04:34.915635,192.168.0.115
288,-1,-100,-100,-100,"0,0,0",-4,0,0,0,0,0,61,63,73,40,100,-19.56,5,-106.0,14.0,-984.0,11:04:35.017581,192.168.0.115
293,-1,-100,-100,-100,"0,0,0",-5,0,0,0,0,0,61,63,74,40,100,-19.52,5,-88.0,-17.0,-1008.0,11:04:35.119729,192.168.0.115
298,-1,-100,-100,-100,"0,0,0",-5,0,0,0,0,0,61,63,74,40,100,-19.49,5,-106.0,-21.0,-933.0,11:04:35.221579,192.168.0.115
303,-1,-100,-100,-100,"0,0,0",-5,0,0,0,0,0,61,63,74,40,100,-19.52,5,-70.0,-6.0,-989.0,11:04:35.323575,192.168.0.115
308,-1,-100,-100,-100,"0,0,0",-5,0,0,0,0,0,61,63,73,40,100,-19.44,6,-80.0,-18.0,-1005.0,11:04:35.425341,192.168.0.115
313,-1,-100,-100,-100,"0,0,0",-5,0,0,0,0,0,61,63,73,40,100,-19.41,6,-66.0,-58.0,-1044.0,11:04:35.527432,192.168.0.115
318,-1,-100,-100,-100,"0,0,0",-4,1,0,-1,0,0,61,63,73,40,100,-19.47,6,-75.0,-102.0,-984.0,11:04:35.629508,192.168.0.115
323,-1,-100,-100,-100,"0,0,0",-3,3,0,0,0,0,61,63,73,40,100,-19.58,6,-117.0,-1.0,-1000.0,11:04:35.731374,192.168.0.115
328,-1,-100,-100,-100,"0,0,0",-4,1,0,0,0,0,62,63,73,40,100,-19.52,6,-42.0,-56.0,-1028.0,11:04:35.833397,192.168.0.115
333,-1,-100,-100,-100,"0,0,0",-4,0,0,0,0,0,62,63,73,40,100,-19.48,6,-84.0,-16.0,-1041.0,11:04:35.935416,192.168.0.115
338,-1,-100,-100,-100,"0,0,0",-3,3,0,0,0,0,62,63,74,40,100,-19.49,6,-85.0,-18.0,-1003.0,11:04:36.037252,192.168.0.115
344,-1,-100,-100,-100,"0,0,0",-3,2,0,0,0,0,62,63,74,40,100,-19.55,6,-112.0,-2.0,-998.0,11:04:36.139469,192.168.0.115
349,-1,-100,-100,-100,"0,0,0",-3,1,0,0,0,0,62,63,75,40,100,-19.57,6,-107.0,0.0,-964.0,11:04:36.241335,192.168.0.115
354,-1,-100,-100,-100,"0,0,0",-5,0,0,0,0,0,62,63,76,40,100,-19.48,6,-109.0,16.0,-1000.0,11:04:36.343358,192.168.0.115
359,-1,-100,-100,-100,"0,0,0",-6,0,0,0,0,0,62,63,77,40,100,-19.51,7,-84.0,4.0,-997.0,11:04:36.445209,192.168.0.115
364,-1,-100,-100,-100,"0,0,0",-6,0,0,0,0,0,62,63,77,40,100,-19.59,7,-72.0,-24.0,-995.0,11:04:36.547445,192.168.0.115
369,-1,-100,-100,-100,"0,0,0",-6,0,0,0,0,0,62,63,77,40,100,-19.54,7,-115.0,24.0,-1035.0,11:04:36.649742,192.168.0.115
374,-1,-100,-100,-100,"0,0,0",-5,0,0,0,0,0,62,63,77,40,100,-19.59,7,-74.0,-14.0,-957.0,11:04:36.751312,192.168.0.115
379,-1,-100,-100,-100,"0,0,0",-4,0,0,0,0,0,62,63,77,40,100,-19.48,7,-86.0,6.0,-1027.0,11:04:36.853156,192.168.0.115
384,-1,-100,-100,-100,"0,0,0",-4,0,0,0,0,0,62,63,78,40,100,-19.62,7,-63.0,-20.0,-1004.0,11:04:36.955184,192.168.0.115
389,-1,-100,-100,-100,"0,0,0",-4,0,0,0,0,0,62,63,78,40,100,-19.66,7,-120.0,17.0,-1056.0,11:04:37.057234,192.168.0.115
394,-1,-100,-100,-100,"0,0,0",-4,0,0,0,0,0,62,63,79,40,100,-19.56,7,-77.0,-14.0,-952.0,11:04:37.159290,192.168.0.115
399,-1,-100,-100,-100,"0,0,0",-4,0,0,0,0,0,62,63,80,40,100,-19.48,7,-109.0,-15.0,-939.0,11:04:37.261362,192.168.0.115
404,-1,-100,-100,-100,"0,0,0",-4,0,0,0,0,0,62,63,81,50,100,-19.73,7,-84.0,2.0,-1005.0,11:04:37.363142,192.168.0.115
408,-1,-100,-100,-100,"0,0,0",-4,1,0,0,0,0,62,63,81,50,100,-19.49,8,-74.0,-15.0,-970.0,11:04:37.414199,192.168.0.115
413,-1,-100,-100,-100,"0,0,0",-5,1,0,0,0,0,62,63,81,50,100,-19.48,8,-51.0,-13.0,-966.0,11:04:37.516094,192.168.0.115
417,-1,-100,-100,-100,"0,0,0",-4,0,0,0,0,0,62,63,80,50,100,-19.56,8,-57.0,-17.0,-992.0,11:04:37.618167,192.168.0.115
423,-1,-100,-100,-100,"0,0,0",-4,1,0,0,0,0,62,63,80,50,100,-19.61,8,-65.0,-9.0,-968.0,11:04:37.720361,192.168.0.115
428,-1,-100,-100,-100,"0,0,0",-3,2,0,0,0,0,61,64,80,50,100,-19.46,8,-65.0,-2.0,-991.0,11:04:37.822876,192.168.0.115
433,-1,-100,-100,-100,"0,0,0",-2,1,0,0,0,0,61,64,80,40,100,-19.44,8,-76.0,0.0,-1023.0,11:04:37.924140,192.168.0.115
438,-1,-100,-100,-100,"0,0,0",-2,0,0,0,0,0,61,64,79,40,100,-19.45,8,-44.0,-22.0,-990.0,11:04:38.026207,192.168.0.115
443,-1,-100,-100,-100,"0,0,0",-3,0,0,0,0,0,61,64,79,40,100,-19.51,8,-70.0,1.0,-1007.0,11:04:38.128125,192.168.0.115
448,-1,-100,-100,-100,"0,0,0",-3,-1,0,0,0,0,61,64,79,40,100,-19.44,8,-63.0,-48.0,-957.0,11:04:38.229478,192.168.0.115
453,-1,-100,-100,-100,"0,0,0",-4,0,0,0,0,0,61,64,79,40,100,-19.57,8,-65.0,3.0,-986.0,11:04:38.331976,192.168.0.115
458,-1,-100,-100,-100,"0,0,0",-3,3,0,0,0,0,61,64,78,40,100,-19.58,9,-101.0,15.0,-1001.0,11:04:38.434101,192.168.0.115
463,-1,-100,-100,-100,"0,0,0",-5,1,0,0,0,0,61,64,80,40,100,-19.43,9,-68.0,-10.0,-958.0,11:04:38.535901,192.168.0.115
468,-1,-100,-100,-100,"0,0,0",-6,-1,0,0,0,0,61,64,79,40,100,-19.5,9,-63.0,-5.0,-1004.0,11:04:38.638089,192.168.0.115
473,-1,-100,-100,-100,"0,0,0",-4,0,0,0,0,0,61,64,79,40,100,-19.52,9,-54.0,-3.0,-999.0,11:04:38.740074,192.168.0.115
478,-1,-100,-100,-100,"0,0,0",-3,1,0,0,0,0,62,64,78,40,100,-19.59,9,-50.0,-16.0,-996.0,11:04:38.842012,192.168.0.115
483,-1,-100,-100,-100,"0,0,0",-3,0,0,0,0,0,62,64,79,40,100,-19.64,9,-81.0,13.0,-1005.0,11:04:38.943847,192.168.0.115
488,-1,-100,-100,-100,"0,0,0",-3,0,0,0,0,0,62,64,79,40,100,-19.6,9,-72.0,-1.0,-983.0,11:04:39.045832,192.168.0.115
493,-1,-100,-100,-100,"0,0,0",-4,0,0,0,0,0,62,64,79,40,100,-19.48,9,-99.0,-17.0,-984.0,11:04:39.147892,192.168.0.115
498,-1,-100,-100,-100,"0,0,0",-4,0,0,0,0,0,62,64,79,40,100,-19.48,9,-79.0,-22.0,-979.0,11:04:39.249513,192.168.0.115
503,-1,-100,-100,-100,"0,0,0",-5,0,0,0,0,0,62,64,80,40,100,-19.49,9,-86.0,-40.0,-940.0,11:04:39.351926,192.168.0.115
509,-1,-100,-100,-100,"0,0,0",-6,0,0,0,0,0,62,64,82,40,100,-19.64,10,-109.0,-19.0,-999.0,11:04:39.453857,192.168.0.115
514,-1,-100,-100,-100,"0,0,0",-6,0,0,0,0,0,62,64,81,40,100,-19.6,10,-72.0,0.0,-960.0,11:04:39.556012,192.168.0.115
519,-1,-100,-100,-100,"0,0,0",-6,1,0,0,0,0,62,64,82,40,100,-19.6,10,-113.0,-19.0,-993.0,11:04:39.657883,192.168.0.115
524,-1,-100,-100,-100,"0,0,0",-5,0,0,0,0,0,62,64,81,40,100,-19.58,10,-93.0,16.0,-995.0,11:04:39.760756,192.168.0.115
529,-1,-100,-100,-100,"0,0,0",-6,0,0,0,0,0,61,64,81,40,100,-19.67,10,-116.0,-13.0,-1002.0,11:04:39.861916,192.168.0.115
534,-1,-100,-100,-100,"0,0,0",-6,0,0,0,0,0,61,64,82,50,100,-19.43,10,-97.0,-26.0,-1029.0,11:04:39.964046,192.168.0.115
539,-1,-100,-100,-100,"0,0,0",-6,0,0,0,0,0,61,64,82,50,100,-19.51,10,-92.0,-30.0,-969.0,11:04:40.065723,192.168.0.115
544,-1,-100,-100,-100,"0,0,0",-6,0,0,0,0,0,61,64,82,50,100,-19.49,10,-124.0,44.0,-1008.0,11:04:40.167729,192.168.0.115
549,-1,-100,-100,-100,"0,0,0",-7,0,0,0,0,0,61,64,82,40,100,-19.54,10,-141.0,18.0,-977.0,11:04:40.269552,192.168.0.115
554,-1,-100,-100,-100,"0,0,0",-7,0,0,0,0,0,61,64,82,40,100,-19.55,10,-88.0,6.0,-963.0,11:04:40.371684,192.168.0.115
559,-1,-100,-100,-100,"0,0,0",-6,0,0,0,0,0,61,64,81,40,100,-19.66,11,-71.0,-26.0,-1031.0,11:04:40.473614,192.168.0.115
564,-1,-100,-100,-100,"0,0,0",-6,0,0,0,0,0,61,64,81,40,100,-19.4,11,-76.0,-51.0,-1024.0,11:04:40.575680,192.168.0.115
569,-1,-100,-100,-100,"0,0,0",-5,0,0,0,0,0,61,64,80,40,100,-19.57,11,-124.0,-5.0,-948.0,11:04:40.677854,192.168.0.115
574,-1,-100,-100,-100,"0,0,0",-5,0,0,0,0,0,61,64,80,40,100,-19.59,11,-117.0,-10.0,-1017.0,11:04:40.779823,192.168.0.115
579,-1,-100,-100,-100,"0,0,0",-5,1,0,0,0,0,62,64,80,40,100,-19.66,11,-88.0,-7.0,-1005.0,11:04:40.881704,192.168.0.115
584,-1,-100,-100,-100,"0,0,0",-6,1,0,0,0,0,62,64,79,40,100,-19.68,11,-73.0,-13.0,-1009.0,11:04:40.988597,192.168.0.115
588,-1,-100,-100,-100,"0,0,0",-6,0,0,0,0,0,62,64,79,40,100,-19.79,11,-68.0,-9.0,-973.0,11:04:41.038256,192.168.0.115
593,-1,-100,-100,-100,"0,0,0",-5,1,0,0,0,0,62,64,78,40,100,-19.69,11,-103.0,1.0,-978.0,11:04:41.136618,192.168.0.115
598,-1,-100,-100,-100,"0,0,0",-4,1,0,0,0,0,62,64,78,40,100,-19.62,11,-110.0,5.0,-995.0,11:04:41.238616,192.168.0.115
603,-1,-100,-100,-100,"0,0,0",-4,1,0,0,0,0,62,64,77,40,100,-19.69,11,-56.0,-1.0,-1007.0,11:04:41.340565,192.168.0.115
608,-1,-100,-100,-100,"0,0,0",-5,0,0,0,0,0,62,64,77,40,100,-19.61,12,-51.0,-25.0,-1002.0,11:04:41.442750,192.168.0.115
613,-1,-100,-100,-100,"0,0,0",-4,0,0,0,0,0,62,64,77,40,100,-19.7,12,-106.0,-16.0,-995.0,11:04:41.544529,192.168.0.115
618,-1,-100,-100,-100,"0,0,0",-4,0,0,0,0,0,62,64,76,40,100,-19.69,12,-85.0,-22.0,-1018.0,11:04:41.650197,192.168.0.115
623,-1,-100,-100,-100,"0,0,0",-4,1,0,0,0,0,62,64,76,40,100,-19.61,12,-79.0,-33.0,-978.0,11:04:41.750125,192.168.0.115
628,-1,-100,-100,-100,"0,0,0",-4,1,0,0,0,0,63,63,77,40,100,-19.57,12,-79.0,-25.0,-971.0,11:04:41.850496,192.168.0.115
633,-1,-100,-100,-100,"0,0,0",-5,0,0,0,0,0,63,63,77,40,100,-19.73,12,-93.0,-28.0,-1028.0,11:04:41.952340,192.168.0.115
638,-1,-100,-100,-100,"0,0,0",-5,0,0,0,0,0,63,63,79,40,100,-19.72,12,-78.0,-5.0,-970.0,11:04:42.054509,192.168.0.115
643,-1,-100,-100,-100,"0,0,0",-5,1,0,0,0,0,63,63,79,40,100,-19.66,12,-97.0,-1.0,-968.0,11:04:42.156406,192.168.0.115
648,-1,-100,-100,-100,"0,0,0",-5,1,0,0,0,0,63,63,79,40,100,-19.82,12,-86.0,-18.0,-993.0,11:04:42.258530,192.168.0.115
653,-1,-100,-100,-100,"0,0,0",-6,0,0,0,0,0,63,63,79,40,100,-19.71,12,-56.0,-41.0,-1014.0,11:04:42.360444,192.168.0.115
658,-1,-100,-100,-100,"0,0,0",-5,0,0,0,0,0,63,63,79,40,100,-19.64,13,-67.0,-9.0,-994.0,11:04:42.462489,192.168.0.115
664,-1,-100,-100,-100,"0,0,0",-5,0,0,0,0,0,63,63,79,40,100,-19.67,13,-40.0,-15.0,-995.0,11:04:42.564461,192.168.0.115
669,-1,-100,-100,-100,"0,0,0",-4,1,0,0,0,0,63,63,78,40,100,-19.78,13,-43.0,-22.0,-1005.0,11:04:42.666284,192.168.0.115
674,-1,-100,-100,-100,"0,0,0",-2,1,0,-1,0,0,63,63,79,40,100,-19.73,13,-68.0,1.0,-945.0,11:04:42.768271,192.168.0.115
678,-1,-100,-100,-100,"0,0,0",-2,0,0,0,0,0,62,64,79,40,100,-19.63,13,-88.0,20.0,-997.0,11:04:42.870379,192.168.0.115
684,-1,-100,-100,-100,"0,0,0",-3,0,0,0,0,0,62,64,78,40,100,-19.58,13,-84.0,9.0,-993.0,11:04:42.972328,192.168.0.115
689,-1,-100,-100,-100,"0,0,0",-3,0,0,0,0,0,62,64,79,40,100,-19.71,13,-90.0,29.0,-1024.0,11:04:43.074318,192.168.0.115
694,-1,-100,-100,-100,"0,0,0",-3,0,0,0,0,0,62,64,79,40,100,-19.6,13,-94.0,31.0,-1006.0,11:04:43.176258,192.168.0.115
699,-1,-100,-100,-100,"0,0,0",-4,0,0,0,0,0,62,64,80,40,100,-19.56,13,-69.0,18.0,-987.0,11:04:43.278211,192.168.0.115
704,-1,-100,-100,-100,"0,0,0",-4,-1,0,0,0,0,62,64,80,40,100,-19.64,13,-88.0,-1.0,-984.0,11:04:43.380309,192.168.0.115
709,-1,-100,-100,-100,"0,0,0",-4,-1,0,0,0,0,62,64,80,40,100,-19.67,14,-88.0,6.0,-953.0,11:04:43.482266,192.168.0.115
714,-1,-100,-100,-100,"0,0,0",-5,-1,0,0,0,0,62,64,81,50,100,-19.54,14,-68.0,10.0,-984.0,11:04:43.584446,192.168.0.115
720,-1,-100,-100,-100,"0,0,0",-5,-1,0,0,0,0,62,64,80,40,100,-19.65,14,-83.0,18.0,-981.0,11:04:43.690474,192.168.0.115
725,-1,-100,-100,-100,"0,0,0",-4,-1,0,0,0,0,62,64,80,40,100,-19.68,14,-89.0,24.0,-993.0,11:04:43.788132,192.168.0.115
730,-1,-100,-100,-100,"0,0,0",-4,-1,0,0,0,0,62,64,79,40,100,-19.64,14,-62.0,-14.0,-1027.0,11:04:43.890114,192.168.0.115
735,-1,-100,-100,-100,"0,0,0",-4,-1,0,0,0,0,62,64,79,40,100,-19.66,14,-65.0,7.0,-1022.0,11:04:43.992187,192.168.0.115
740,-1,-100,-100,-100,"0,0,0",-4,0,0,0,0,0,62,64,79,40,100,-19.61,14,-93.0,0.0,-977.0,11:04:44.095006,192.168.0.115
745,-1,-100,-100,-100,"0,0,0",-4,0,0,0,0,0,62,64,78,40,100,-19.61,14,-86.0,1.0,-989.0,11:04:44.196154,192.168.0.115
750,-1,-100,-100,-100,"0,0,0",-4,0,0,0,0,0,62,64,79,40,100,-19.69,14,-81.0,-4.0,-1000.0,11:04:44.298198,192.168.0.115
752,-1,-100,-100,-100,"0,0,0",-4,0,0,0,0,0,62,64,78,40,100,-19.68,14,-56.0,-6.0,-1027.0,11:04:44.349222,192.168.0.115
757,-1,-100,-100,-100,"0,0,0",-4,0,0,0,0,0,62,64,78,40,100,-19.71,15,-77.0,37.0,-1036.0,11:04:44.456572,192.168.0.115
763,-1,-100,-100,-100,"0,0,0",-3,0,0,0,0,0,62,64,78,40,100,-19.68,15,-34.0,-46.0,-990.0,11:04:44.554444,192.168.0.115
767,-1,-100,-100,-100,"0,0,0",-3,0,0,0,0,0,62,64,78,40,100,-19.53,15,-37.0,-31.0,-998.0,11:04:44.657164,192.168.0.115
773,-1,-100,-100,-100,"0,0,0",-2,0,0,0,0,0,62,64,79,40,100,-19.64,15,-57.0,12.0,-1061.0,11:04:44.757084,192.168.0.115
778,-1,-100,-100,-100,"0,0,0",-2,1,0,0,0,0,62,64,78,40,100,-19.62,15,-21.0,-20.0,-993.0,11:04:44.858896,192.168.0.115
783,-1,-100,-100,-100,"0,0,0",-2,0,0,0,0,0,62,64,79,40,100,-19.62,15,-66.0,28.0,-1007.0,11:04:44.961047,192.168.0.115
789,-1,-100,-100,-100,"0,0,0",-3,0,0,0,0,0,62,64,79,40,100,-19.64,15,-76.0,1.0,-995.0,11:04:45.069903,192.168.0.115
793,-1,-100,-100,-100,"0,0,0",-4,0,0,0,0,0,62,64,80,40,100,-19.49,15,-53.0,1.0,-964.0,11:04:45.167900,192.168.0.115
798,-1,-100,-100,-100,"0,0,0",-5,0,0,0,0,0,62,64,79,40,100,-19.55,15,-95.0,-10.0,-1029.0,11:04:45.267001,192.168.0.115
803,-1,-100,-100,-100,"0,0,0",-5,0,0,0,0,0,62,64,79,40,100,-19.65,15,-99.0,-13.0,-943.0,11:04:45.369172,192.168.0.115
808,-1,-100,-100,-100,"0,0,0",-5,0,0,0,0,0,62,64,79,40,100,-19.65,16,-68.0,-14.0,-960.0,11:04:45.471081,192.168.0.115
813,-1,-100,-100,-100,"0,0,0",-5,0,0,0,0,0,62,64,79,40,100,-19.56,16,-44.0,-6.0,-980.0,11:04:45.573000,192.168.0.115
818,-1,-100,-100,-100,"0,0,0",-4,0,0,0,0,0,62,64,79,40,100,-19.6,16,-79.0,11.0,-1001.0,11:04:45.675107,192.168.0.115
823,-1,-100,-100,-100,"0,0,0",-4,0,0,0,0,0,62,64,79,40,100,-19.6,16,-63.0,2.0,-1013.0,11:04:45.776953,192.168.0.115
828,-1,-100,-100,-100,"0,0,0",-4,0,0,0,0,0,62,65,78,40,100,-19.59,16,-75.0,-2.0,-971.0,11:04:45.879072,192.168.0.115
833,-1,-100,-100,-100,"0,0,0",-3,1,0,0,0,0,62,65,78,40,100,-19.73,16,-42.0,-9.0,-1007.0,11:04:45.980542,192.168.0.115
838,-1,-100,-100,-100,"0,0,0",-3,1,0,0,0,0,62,65,78,40,100,-19.59,16,-68.0,-11.0,-1013.0,11:04:46.083019,192.168.0.115
843,-1,-100,-100,-100,"0,0,0",-3,0,0,0,0,0,62,65,77,40,100,-19.59,16,-39.0,-3.0,-975.0,11:04:46.184833,192.168.0.115
848,-1,-100,-100,-100,"0,0,0",-4,1,0,0,0,0,62,65,77,40,100,-19.71,16,-38.0,6.0,-991.0,11:04:46.287162,192.168.0.115
854,-1,-100,-100,-100,"0,0,0",-4,1,0,0,0,0,62,65,77,40,100,-19.6,16,-53.0,-2.0,-944.0,11:04:46.388768,192.168.0.115
859,-1,-100,-100,-100,"0,0,0",-3,0,0,0,0,0,62,65,77,40,100,-19.56,17,-59.0,-23.0,-1004.0,11:04:46.491497,192.168.0.115
864,-1,-100,-100,-100,"0,0,0",-3,0,0,0,0,0,62,65,76,40,100,-19.5,17,-56.0,15.0,-1000.0,11:04:46.592801,192.168.0.115
869,-1,-100,-100,-100,"0,0,0",-3,0,0,0,0,0,62,65,76,40,100,-19.66,17,-72.0,7.0,-1063.0,11:04:46.695392,192.168.0.115
874,-1,-100,-100,-100,"0,0,0",-3,0,0,0,0,0,62,65,76,40,100,-19.67,17,-61.0,9.0,-990.0,11:04:46.796939,192.168.0.115
879,-1,-100,-100,-100,"0,0,0",-3,0,0,0,0,0,62,64,77,40,100,-19.63,17,-69.0,24.0,-953.0,11:04:46.899279,192.168.0.115
884,-1,-100,-100,-100,"0,0,0",-3,0,0,0,0,0,62,64,77,40,100,-19.6,17,-47.0,22.0,-1010.0,11:04:47.000667,192.168.0.115
889,-1,-100,-100,-100,"0,0,0",-3,0,0,0,0,0,62,64,77,40,100,-19.55,17,-77.0,17.0,-968.0,11:04:47.102523,192.168.0.115
894,-1,-100,-100,-100,"0,0,0",-3,0,0,0,0,0,62,64,77,40,100,-19.47,17,-33.0,-3.0,-982.0,11:04:47.205075,192.168.0.115
900,-1,-100,-100,-100,"0,0,0",-3,-1,0,0,0,0,62,64,77,40,100,-19.56,17,-43.0,22.0,-1002.0,11:04:47.306908,192.168.0.115
905,-1,-100,-100,-100,"0,0,0",-2,-1,0,0,0,0,62,64,76,40,100,-19.48,18,-23.0,-6.0,-972.0,11:04:47.409236,192.168.0.115
910,-1,-100,-100,-100,"0,0,0",-2,-1,0,0,0,0,62,64,76,40,100,-19.46,18,-66.0,-12.0,-997.0,11:04:47.511889,192.168.0.115
915,-1,-100,-100,-100,"0,0,0",-2,0,0,0,0,0,62,64,76,40,100,-19.49,18,-38.0,-28.0,-1018.0,11:04:47.612728,192.168.0.115
920,-1,-100,-100,-100,"0,0,0",-3,0,0,0,0,0,62,64,76,40,100,-19.49,18,-78.0,-1.0,-1016.0,11:04:47.718562,192.168.0.115
922,-1,-100,-100,-100,"0,0,0",-3,1,0,0,0,0,62,64,76,40,100,-19.57,18,-72.0,0.0,-993.0,11:04:47.765797,192.168.0.115
927,-1,-100,-100,-100,"0,0,0",-3,0,0,0,0,0,62,65,76,40,100,-19.42,18,-50.0,-20.0,-995.0,11:04:47.867652,192.168.0.115
932,-1,-100,-100,-100,"0,0,0",-3,0,0,0,0,0,62,65,76,40,100,-19.59,18,-81.0,21.0,-985.0,11:04:47.969703,192.168.0.115
937,-1,-100,-100,-100,"0,0,0",-4,0,0,0,0,0,62,65,75,40,100,-19.36,18,-54.0,18.0,-1006.0,11:04:48.071637,192.168.0.115
943,-1,-100,-100,-100,"0,0,0",-4,0,0,0,0,0,62,65,76,40,100,-19.43,18,-50.0,10.0,-1040.0,11:04:48.173414,192.168.0.115
948,-1,-100,-100,-100,"0,0,0",-4,0,0,0,0,0,62,65,76,40,100,-19.48,18,-31.0,-9.0,-965.0,11:04:48.276255,192.168.0.115
953,-1,-100,-100,-100,"0,0,0",-4,0,0,0,0,0,62,65,76,40,100,-19.41,19,-68.0,17.0,-983.0,11:04:48.377520,192.168.0.115
958,-1,-100,-100,-100,"0,0,0",-4,-1,0,0,0,0,62,65,76,40,100,-19.41,19,-55.0,-16.0,-1002.0,11:04:48.479546,192.168.0.115
963,-1,-100,-100,-100,"0,0,0",-3,0,0,0,0,0,62,65,76,40,100,-19.37,19,-47.0,22.0,-1048.0,11:04:48.581649,192.168.0.115
968,-1,-100,-100,-100,"0,0,0",-4,0,0,0,0,0,62,65,76,40,100,-19.34,19,-10.0,29.0,-948.0,11:04:48.683680,192.168.0.115
973,-1,-100,-100,-100,"0,0,0",-2,0,0,0,0,0,62,65,76,40,100,-19.4,19,-21.0,1.0,-1044.0,11:04:48.785702,192.168.0.115
978,-1,-100,-100,-100,"0,0,0",-1,0,0,0,0,0,62,64,75,40,100,-19.4,19,-37.0,-2.0,-996.0,11:04:48.887619,192.168.0.115
983,-1,-100,-100,-100,"0,0,0",-1,0,0,0,0,0,62,64,75,40,100,-19.38,19,-22.0,-6.0,-1039.0,11:04:48.989732,192.168.0.115
988,-1,-100,-100,-100,"0,0,0",-1,0,0,0,0,0,62,64,74,40,100,-19.43,19,-35.0,11.0,-1018.0,11:04:49.091591,192.168.0.115
993,-1,-100,-100,-100,"0,0,0",-1,0,0,0,0,0,62,64,75,40,100,-19.4,19,-28.0,6.0,-1003.0,11:04:49.193599,192.168.0.115
998,-1,-100,-100,-100,"0,0,0",-1,0,0,0,0,0,62,64,75,40,100,-19.46,19,-14.0,-6.0,-1006.0,11:04:49.295953,192.168.0.115
1003,-1,-100,-100,-100,"0,0,0",0,0,0,0,0,0,62,64,75,40,100,-19.43,20,-25.0,4.0,-1032.0,11:04:49.397549,192.168.0.115
1009,-1,-100,-100,-100,"0,0,0",-1,0,0,0,0,0,62,64,76,40,100,-19.34,20,-56.0,23.0,-992.0,11:04:49.499773,192.168.0.115
1014,-1,-100,-100,-100,"0,0,0",-1,0,0,0,0,0,62,64,76,40,100,-19.4,20,-11.0,-5.0,-982.0,11:04:49.601546,192.168.0.115
1019,-1,-100,-100,-100,"0,0,0",0,0,0,0,0,0,62,64,77,40,100,-19.33,20,-43.0,3.0,-997.0,11:04:49.703019,192.168.0.115
1024,-1,-100,-100,-100,"0,0,0",0,0,0,0,0,0,62,64,78,40,100,-19.3,20,-32.0,23.0,-991.0,11:04:49.805341,192.168.0.115
1029,-1,-100,-100,-100,"0,0,0",0,0,0,0,0,0,62,65,78,40,100,-19.29,20,-22.0,-7.0,-986.0,11:04:49.907626,192.168.0.115
1034,-1,-100,-100,-100,"0,0,0",-1,0,0,0,0,0,62,65,78,40,100,-19.28,20,-1.0,7.0,-985.0,11:04:50.009430,192.168.0.115
1039,-1,-100,-100,-100,"0,0,0",-1,0,0,0,0,0,62,65,78,40,100,-19.32,20,-14.0,-6.0,-981.0,11:04:50.111393,192.168.0.115
1044,-1,-100,-100,-100,"0,0,0",0,0,0,0,0,0,62,65,78,40,100,-19.38,20,-46.0,8.0,-999.0,11:04:50.213413,192.168.0.115
1049,-1,-100,-100,-100,"0,0,0",0,0,0,0,0,0,62,65,78,40,100,-19.36,20,-40.0,11.0,-1014.0,11:04:50.315269,192.168.0.115
1054,-1,-100,-100,-100,"0,0,0",-1,0,0,0,0,0,62,65,78,40,100,-19.33,21,-46.0,7.0,-993.0,11:04:50.417318,192.168.0.115
1059,-1,-100,-100,-100,"0,0,0",-1,0,0,0,0,0,62,65,78,40,100,-19.3,21,-57.0,13.0,-993.0,11:04:50.519391,192.168.0.115
1065,-1,-100,-100,-100,"0,0,0",-1,0,0,0,0,0,62,65,78,40,100,-19.4,21,-91.0,2.0,-975.0,11:04:50.621574,192.168.0.115
1070,-1,-100,-100,-100,"0,0,0",-2,0,0,0,0,0,62,65,78,40,100,-19.36,21,-23.0,0.0,-995.0,11:04:50.723389,192.168.0.115
1075,-1,-100,-100,-100,"0,0,0",-3,0,0,0,0,0,62,65,78,40,100,-19.28,21,-53.0,4.0,-982.0,11:04:50.825398,192.168.0.115
1079,-1,-100,-100,-100,"0,0,0",-3,0,0,0,0,0,63,65,78,40,100,-19.5,21,-40.0,-5.0,-1031.0,11:04:50.927334,192.168.0.115
1085,-1,-100,-100,-100,"0,0,0",-3,0,0,0,0,0,63,65,78,40,100,-19.4,21,-48.0,-12.0,-1008.0,11:04:51.029370,192.168.0.115
1090,-1,-100,-100,-100,"0,0,0",-3,0,0,0,0,0,63,65,78,40,100,-19.4,21,-75.0,19.0,-994.0,11:04:51.131241,192.168.0.115
1095,-1,-100,-100,-100,"0,0,0",-4,0,0,0,0,0,63,65,79,40,100,-19.26,21,-52.0,-13.0,-977.0,11:04:51.233384,192.168.0.115
1098,-1,-100,-100,-100,"0,0,0",-4,0,0,0,0,0,63,65,79,40,100,-19.47,21,-81.0,-5.0,-995.0,11:04:51.283765,192.168.0.115
1103,-1,-100,-100,-100,"0,0,0",-4,0,0,0,0,0,63,65,79,40,100,-19.36,22,-76.0,0.0,-968.0,11:04:51.386535,192.168.0.115
1108,-1,-100,-100,-100,"0,0,0",-4,0,0,0,0,0,63,65,79,40,100,-19.22,22,-46.0,-10.0,-997.0,11:04:51.488128,192.168.0.115
1113,-1,-100,-100,-100,"0,0,0",-4,0,0,0,0,0,63,65,78,40,100,-19.27,22,-30.0,-18.0,-987.0,11:04:51.590164,192.168.0.115
1118,-1,-100,-100,-100,"0,0,0",-3,0,0,0,0,0,63,65,77,40,100,-19.37,22,-24.0,-31.0,-1003.0,11:04:51.692251,192.168.0.115
1123,-1,-100,-100,-100,"0,0,0",-2,0,0,0,0,0,63,65,77,40,100,-19.49,22,-56.0,-6.0,-1034.0,11:04:51.794294,192.168.0.115
1128,-1,-100,-100,-100,"0,0,0",-2,1,0,0,0,0,63,65,76,40,100,-19.41,22,-49.0,-26.0,-1034.0,11:04:51.895657,192.168.0.115
1133,-1,-100,-100,-100,"0,0,0",-3,1,0,0,0,0,63,65,77,40,100,-19.59,22,-46.0,9.0,-1021.0,11:04:51.998323,192.168.0.115
1138,-1,-100,-100,-100,"0,0,0",-3,0,0,0,0,0,63,65,77,40,100,-19.41,22,-97.0,7.0,-1019.0,11:04:52.100171,192.168.0.115
1143,-1,-100,-100,-100,"0,0,0",-4,0,0,0,0,0,63,65,78,40,100,-19.3,22,-59.0,-8.0,-985.0,11:04:52.202406,192.168.0.115
1148,-1,-100,-100,-100,"0,0,0",-3,0,0,0,0,0,63,65,78,40,100,-19.52,22,-51.0,-19.0,-1021.0,11:04:52.304653,192.168.0.115
1153,-1,-100,-100,-100,"0,0,0",-3,0,0,0,0,0,63,65,78,40,100,-19.56,23,-52.0,17.0,-985.0,11:04:52.407058,192.168.0.115
1158,-1,-100,-100,-100,"0,0,0",-3,0,0,0,0,0,63,65,77,40,100,-19.49,23,-43.0,1.0,-991.0,11:04:52.509479,192.168.0.115
1163,-1,-100,-100,-100,"0,0,0",-3,0,0,0,0,0,63,65,77,40,100,-19.55,23,-45.0,5.0,-992.0,11:04:52.611869,192.168.0.115
1168,-1,-100,-100,-100,"0,0,0",-3,0,0,0,0,0,63,65,77,40,100,-19.36,23,-47.0,19.0,-989.0,11:04:52.714709,192.168.0.115
1173,-1,-100,-100,-100,"0,0,0",-2,0,0,0,0,0,63,65,77,40,100,-19.49,23,-69.0,10.0,-1009.0,11:04:52.816631,192.168.0.115
1178,-1,-100,-100,-100,"0,0,0",-1,0,0,0,0,0,63,65,76,40,100,-19.6,23,-56.0,5.0,-1001.0,11:04:52.916224,192.168.0.115
1183,-1,-100,-100,-100,"0,0,0",-2,0,0,0,0,0,63,65,77,40,100,-19.55,23,-70.0,-1.0,-1005.0,11:04:53.018253,192.168.0.115
1188,-1,-100,-100,-100,"0,0,0",-3,0,0,0,0,0,63,65,76,40,100,-19.52,23,-44.0,16.0,-969.0,11:04:53.120307,192.168.0.115
1193,-1,-100,-100,-100,"0,0,0",-3,0,0,0,0,0,63,65,76,40,100,-19.36,23,-84.0,10.0,-970.0,11:04:53.222220,192.168.0.115
1199,-1,-100,-100,-100,"0,0,0",-3,-1,0,0,0,0,63,65,76,40,100,-19.41,23,-54.0,13.0,-1013.0,11:04:53.324178,192.168.0.115
1204,-1,-100,-100,-100,"0,0,0",-3,-1,0,0,0,0,63,65,75,40,100,-19.3,24,-22.0,4.0,-988.0,11:04:53.426099,192.168.0.115
1209,-1,-100,-100,-100,"0,0,0",-2,-1,0,0,0,0,63,65,75,40,100,-19.55,24,-28.0,9.0,-985.0,11:04:53.528189,192.168.0.115
1214,-1,-100,-100,-100,"0,0,0",-2,0,0,0,0,0,63,65,75,40,100,-19.63,24,-62.0,-13.0,-1062.0,11:04:53.630786,192.168.0.115
1219,-1,-100,-100,-100,"0,0,0",-3,0,0,0,0,0,63,65,75,40,100,-19.49,24,-61.0,20.0,-984.0,11:04:53.732795,192.168.0.115
1224,-1,-100,-100,-100,"0,0,0",-3,0,0,0,0,0,63,65,74,40,100,-19.34,24,-30.0,6.0,-957.0,11:04:53.834983,192.168.0.115
1229,-1,-100,-100,-100,"0,0,0",-2,-1,0,0,0,0,63,65,74,40,100,-19.42,24,-36.0,-5.0,-1045.0,11:04:53.937084,192.168.0.115
1235,-1,-100,-100,-100,"0,0,0",-1,0,0,0,0,0,63,65,74,40,100,-19.38,24,10.0,-57.0,-966.0,11:04:54.038872,192.168.0.115
1240,-1,-100,-100,-100,"0,0,0",-1,0,0,0,0,0,63,65,74,40,100,-19.42,24,10.0,10.0,-1039.0,11:04:54.141142,192.168.0.115
1245,-1,-100,-100,-100,"0,0,0",0,1,0,0,0,0,63,65,74,40,100,-19.54,24,-53.0,-20.0,-1026.0,11:04:54.243038,192.168.0.115
1250,-1,-100,-100,-100,"0,0,0",-1,0,0,0,0,0,63,65,74,40,100,-19.5,24,-35.0,2.0,-985.0,11:04:54.344979,192.168.0.115
1253,-1,-100,-100,-100,"0,0,0",-2,0,0,0,0,0,63,65,74,40,100,-19.39,25,-43.0,-10.0,-1009.0,11:04:54.395970,192.168.0.115
1258,-1,-100,-100,-100,"0,0,0",-2,0,0,0,0,0,63,65,74,40,100,-19.39,25,-55.0,-7.0,-1013.0,11:04:54.498578,192.168.0.115
1263,-1,-100,-100,-100,"0,0,0",-2,0,0,0,0,0,63,65,75,40,100,-19.63,25,-59.0,-21.0,-1016.0,11:04:54.600364,192.168.0.115
1268,-1,-100,-100,-100,"0,0,0",-2,1,0,0,0,0,63,65,75,40,100,-19.53,25,-45.0,-8.0,-988.0,11:04:54.702013,192.168.0.115
1273,-1,-100,-100,-100,"0,0,0",-2,1,0,0,0,0,63,65,75,40,100,-19.35,25,-95.0,14.0,-993.0,11:04:54.803819,192.168.0.115
1278,-1,-100,-100,-100,"0,0,0",-3,0,0,0,0,0,62,65,76,40,100,-19.57,25,-62.0,-20.0,-988.0,11:04:54.905881,192.168.0.115
1283,-1,-100,-100,-100,"0,0,0",-3,0,0,0,0,0,62,65,76,40,100,-19.62,25,-116.0,11.0,-985.0,11:04:55.008083,192.168.0.115
1288,-1,-100,-100,-100,"0,0,0",-4,1,0,0,0,0,62,65,77,40,100,-19.66,25,-43.0,-12.0,-958.0,11:04:55.109899,192.168.0.115
1293,-1,-100,-100,-100,"0,0,0",-4,1,0,0,0,0,62,65,77,40,100,-19.56,25,-57.0,3.0,-990.0,11:04:55.211880,192.168.0.115
1298,-1,-100,-100,-100,"0,0,0",-4,0,0,0,0,0,62,65,77,40,100,-19.42,25,-82.0,14.0,-1027.0,11:04:55.313935,192.168.0.115
1303,-1,-100,-100,-100,"0,0,0",-4,0,0,0,0,0,62,65,78,40,100,-19.61,26,-43.0,-9.0,-971.0,11:04:55.416068,192.168.0.115
1308,-1,-100,-100,-100,"0,0,0",-4,0,0,0,0,0,62,65,78,40,100,-19.54,26,-69.0,11.0,-997.0,11:04:55.522284,192.168.0.115
1313,-1,-100,-100,-100,"0,0,0",-4,0,0,0,0,0,62,65,78,40,100,-19.52,26,-53.0,8.0,-976.0,11:04:55.619963,192.168.0.115
1318,-1,-100,-100,-100,"0,0,0",-4,0,0,0,0,0,62,65,78,40,100,-19.55,26,-42.0,-11.0,-1051.0,11:04:55.721988,192.168.0.115
1323,-1,-100,-100,-100,"0,0,0",-4,1,0,0,0,0,62,65,78,40,100,-19.47,26,-55.0,3.0,-981.0,11:04:55.823683,192.168.0.115
1328,-1,-100,-100,-100,"0,0,0",-3,0,0,0,0,0,63,65,78,40,100,-19.38,26,-76.0,-1.0,-999.0,11:04:55.925641,192.168.0.115
1333,-1,-100,-100,-100,"0,0,0",-3,0,0,0,0,0,63,65,77,40,100,-19.45,26,-83.0,1.0,-979.0,11:04:56.028070,192.168.0.115
1338,-1,-100,-100,-100,"0,0,0",-2,0,0,0,0,0,63,65,77,40,100,-19.25,26,-22.0,-27.0,-953.0,11:04:56.129788,192.168.0.115
1343,-1,-100,-100,-100,"0,0,0",-3,0,0,0,0,0,63,65,76,40,100,-19.48,26,-45.0,-21.0,-1041.0,11:04:56.231881,192.168.0.115
1348,-1,-100,-100,-100,"0,0,0",-2,1,0,0,0,0,63,65,75,40,100,-19.49,26,-24.0,-31.0,-1051.0,11:04:56.333796,192.168.0.115
1353,-1,-100,-100,-100,"0,0,0",-2,1,0,0,0,0,63,65,75,40,100,-19.6,27,-67.0,-12.0,-1004.0,11:04:56.435924,192.168.0.115
1358,-1,-100,-100,-100,"0,0,0",-2,1,0,0,0,0,63,65,75,40,100,-19.62,27,-36.0,-31.0,-1064.0,11:04:56.537751,192.168.0.115
1363,-1,-100,-100,-100,"0,0,0",-1,1,0,0,0,0,63,65,75,40,100,-19.49,27,-53.0,-12.0,-1007.0,11:04:56.639904,192.168.0.115
1369,-1,-100,-100,-100,"0,0,0",-1,1,0,0,0,0,63,65,76,40,100,-19.39,27,-70.0,-6.0,-960.0,11:04:56.741887,192.168.0.115
1374,-1,-100,-100,-100,"0,0,0",-2,0,0,0,0,0,63,65,76,40,100,-19.42,27,-51.0,-11.0,-987.0,11:04:56.843625,192.168.0.115
1378,-1,-100,-100,-100,"0,0,0",-2,0,0,0,0,0,63,66,76,40,100,-19.44,27,-49.0,-10.0,-1013.0,11:04:56.946007,192.168.0.115
1384,-1,-100,-100,-100,"0,0,0",-3,0,0,0,0,0,63,66,77,40,100,-19.45,27,-68.0,35.0,-1011.0,11:04:57.047481,192.168.0.115
1389,-1,-100,-100,-100,"0,0,0",-3,0,0,0,0,0,63,66,77,40,100,-19.43,27,-69.0,-2.0,-986.0,11:04:57.149897,192.168.0.115
1394,-1,-100,-100,-100,"0,0,0",-3,0,0,0,0,0,63,66,78,40,100,-19.51,27,-70.0,-21.0,-986.0,11:04:57.251829,192.168.0.115
1399,-1,-100,-100,-100,"0,0,0",-4,0,0,0,0,0,63,66,78,40,100,-19.43,27,-61.0,-17.0,-998.0,11:04:57.353203,192.168.0.115
1404,-1,-100,-100,-100,"0,0,0",-4,1,0,0,0,0,63,66,78,40,100,-19.46,28,-81.0,4.0,-1003.0,11:04:57.455676,192.168.0.115
1410,-1,-100,-100,-100,"0,0,0",-4,1,0,0,0,0,63,66,78,40,100,-19.42,28,-51.0,6.0,-949.0,11:04:57.557808,192.168.0.115
1415,-1,-100,-100,-100,"0,0,0",-4,0,0,0,0,0,63,66,78,40,100,-19.4,28,-71.0,-10.0,-997.0,11:04:57.659701,192.168.0.115
1420,-1,-100,-100,-100,"0,0,0",-3,-1,0,0,0,0,63,66,78,40,100,-19.39,28,-36.0,-11.0,-1045.0,11:04:57.761702,192.168.0.115
1422,-1,-100,-100,-100,"0,0,0",-3,0,0,0,0,0,63,66,78,40,100,-19.67,28,-75.0,7.0,-1014.0,11:04:57.812535,192.168.0.115
1429,-1,-100,-100,-100,"0,0,0",-3,0,0,0,0,0,63,66,78,40,100,-19.57,28,-90.0,-14.0,-1014.0,11:04:57.965614,192.168.0.115
1432,-1,-100,-100,-100,"0,0,0",-3,1,0,0,0,0,63,66,78,40,100,-19.5,28,-76.0,-9.0,-960.0,11:04:58.017090,192.168.0.115
1438,-1,-100,-100,-100,"0,0,0",-4,0,0,0,0,0,63,66,79,40,100,-19.46,28,-82.0,5.0,-1006.0,11:04:58.119197,192.168.0.115
1443,-1,-100,-100,-100,"0,0,0",-5,0,0,0,0,0,63,66,79,40,100,-19.47,28,-73.0,3.0,-988.0,11:04:58.220815,192.168.0.115
1448,-1,-100,-100,-100,"0,0,0",-4,0,0,0,0,0,63,66,79,40,100,-19.55,28,-75.0,7.0,-1029.0,11:04:58.322676,192.168.0.115
1453,-1,-100,-100,-100,"0,0,0",-4,0,0,0,0,0,63,66,79,40,100,-19.57,29,-67.0,-9.0,-1031.0,11:04:58.424583,192.168.0.115
1458,-1,-100,-100,-100,"0,0,0",-4,0,0,0,0,0,63,66,79,40,100,-19.66,29,-90.0,7.0,-951.0,11:04:58.526645,192.168.0.115
1463,-1,-100,-100,-100,"0,0,0",-4,-1,0,0,0,0,63,66,79,40,100,-19.56,29,-86.0,1.0,-1013.0,11:04:58.628691,192.168.0.115
1468,-1,-100,-100,-100,"0,0,0",-5,0,0,0,0,0,63,66,79,40,100,-19.52,29,-76.0,12.0,-994.0,11:04:58.730575,192.168.0.115
1473,-1,-100,-100,-100,"0,0,0",-5,0,0,0,0,0,63,66,80,40,100,-19.58,29,-58.0,-12.0,-1009.0,11:04:58.832656,192.168.0.115
1478,-1,-100,-100,-100,"0,0,0",-4,0,0,0,0,0,63,65,79,40,100,-19.61,29,-93.0,-11.0,-1020.0,11:04:58.934595,192.168.0.115
1483,-1,-100,-100,-100,"0,0,0",-4,0,0,0,0,0,63,65,79,40,100,-19.53,29,-62.0,-6.0,-977.0,11:04:59.036511,192.168.0.115
1488,-1,-100,-100,-100,"0,0,0",-4,0,0,0,0,0,63,65,79,40,100,-19.67,29,-54.0,-30.0,-1014.0,11:04:59.138694,192.168.0.115
1493,-1,-100,-100,-100,"0,0,0",-4,0,0,0,0,0,63,65,79,40,100,-19.69,29,-64.0,-16.0,-973.0,11:04:59.241438,192.168.0.115
1498,-1,-100,-100,-100,"0,0,0",-4,0,0,0,0,0,63,65,78,40,100,-19.58,29,-113.0,7.0,-1004.0,11:04:59.343552,192.168.0.115
1503,-1,-100,-100,-100,"0,0,0",-3,0,0,0,0,0,63,65,77,40,100,-19.52,30,-99.0,-18.0,-1059.0,11:04:59.445512,192.168.0.115
1508,-1,-100,-100,-100,"0,0,0",-4,0,0,0,0,0,63,65,77,40,100,-19.67,30,-70.0,-11.0,-971.0,11:04:59.547574,192.168.0.115
1513,-1,-100,-100,-100,"0,0,0",-5,1,0,0,0,0,63,65,77,40,100,-19.54,30,-120.0,19.0,-1004.0,11:04:59.649552,192.168.0.115
1518,-1,-100,-100,-100,"0,0,0",-5,0,0,0,0,0,63,65,78,40,100,-19.63,30,-130.0,-23.0,-1014.0,11:04:59.751029,192.168.0.115
1523,-1,-100,-100,-100,"0,0,0",-6,0,0,0,0,0,63,65,78,40,100,-19.58,30,-108.0,-4.0,-957.0,11:04:59.853534,192.168.0.115
1528,-1,-100,-100,-100,"0,0,0",-6,0,0,0,0,0,63,66,78,40,100,-19.64,30,-81.0,-13.0,-1046.0,11:04:59.955287,192.168.0.115
1533,-1,-100,-100,-100,"0,0,0",-6,1,0,0,0,0,63,66,78,40,100,-19.61,30,-90.0,-11.0,-1016.0,11:05:00.057604,192.168.0.115
1539,-1,-100,-100,-100,"0,0,0",-5,1,0,0,0,0,63,66,77,40,100,-19.37,30,-55.0,-7.0,-1012.0,11:05:00.159559,192.168.0.115
1544,-1,-100,-100,-100,"0,0,0",-4,1,0,0,0,0,63,66,77,40,100,-19.6,30,-99.0,-13.0,-961.0,11:05:00.261496,192.168.0.115
1549,-1,-100,-100,-100,"0,0,0",-5,0,0,0,0,0,63,66,77,40,100,-19.51,30,-74.0,-33.0,-981.0,11:05:00.364597,192.168.0.115
1554,-1,-100,-100,-100,"0,0,0",-5,2,0,0,0,0,63,66,77,40,100,-19.68,31,-82.0,10.0,-986.0,11:05:00.465399,192.168.0.115
1559,-1,-100,-100,-100,"0,0,0",-4,2,0,0,0,0,63,66,77,40,100,-19.5,31,-62.0,-12.0,-1009.0,11:05:00.567407,192.168.0.115
1564,-1,-100,-100,-100,"0,0,0",-4,0,0,0,0,0,63,66,76,40,100,-19.39,31,-61.0,3.0,-975.0,11:05:00.669470,192.168.0.115
1569,-1,-100,-100,-100,"0,0,0",-4,0,0,0,0,0,63,66,76,40,100,-19.49,31,-75.0,-30.0,-1037.0,11:05:00.772648,192.168.0.115
1575,-1,-100,-100,-100,"0,0,0",-4,0,0,0,0,0,63,66,76,40,100,-19.59,31,-67.0,-28.0,-978.0,11:05:00.874141,192.168.0.115
1579,-1,-100,-100,-100,"0,0,0",-4,1,0,0,0,0,64,66,76,40,100,-19.74,31,-61.0,-45.0,-1020.0,11:05:00.975426,192.168.0.115
1585,-1,-100,-100,-100,"0,0,0",-4,1,0,0,0,0,64,66,76,40,100,-19.67,31,-94.0,-12.0,-977.0,11:05:01.077409,192.168.0.115
1590,-1,-100,-100,-100,"0,0,0",-4,1,0,0,0,0,64,66,77,40,100,-19.47,31,-103.0,3.0,-995.0,11:05:01.179415,192.168.0.115
1595,-1,-100,-100,-100,"0,0,0",-4,1,0,0,0,0,64,66,77,40,100,-19.52,31,-65.0,24.0,-945.0,11:05:01.281299,192.168.0.115
1598,-1,-100,-100,-100,"0,0,0",-4,0,0,0,0,0,64,66,77,40,100,-19.57,31,-95.0,-13.0,-1004.0,11:05:01.332626,192.168.0.115
1603,-1,-100,-100,-100,"0,0,0",-4,0,0,0,0,0,64,66,77,40,100,-19.62,32,-121.0,-4.0,-1020.0,11:05:01.434260,192.168.0.115
1608,-1,-100,-100,-100,"0,0,0",-5,0,0,0,0,0,64,66,77,40,100,-19.47,32,-42.0,-49.0,-947.0,11:05:01.536087,192.168.0.115
1613,-1,-100,-100,-100,"0,0,0",-5,0,0,0,0,0,64,66,78,40,100,-19.59,32,-88.0,-7.0,-1016.0,11:05:01.638229,192.168.0.115
1618,-1,-100,-100,-100,"0,0,0",-4,1,0,0,0,0,64,66,78,40,100,-19.68,32,-76.0,-23.0,-997.0,11:05:01.740348,192.168.0.115
1623,-1,-100,-100,-100,"0,0,0",-4,0,0,0,0,0,64,66,78,40,100,-19.42,32,-75.0,-5.0,-1036.0,11:05:01.842433,192.168.0.115
1628,-1,-100,-100,-100,"0,0,0",-4,0,0,0,0,0,63,65,77,40,100,-19.72,32,-59.0,12.0,-975.0,11:05:01.954723,192.168.0.115
1633,-1,-100,-100,-100,"0,0,0",-3,1,0,0,0,0,63,65,77,40,100,-19.83,32,-69.0,-5.0,-1011.0,11:05:02.046200,192.168.0.115
1638,-1,-100,-100,-100,"0,0,0",-4,0,0,0,0,0,63,65,78,40,100,-19.6,32,-88.0,-37.0,-1005.0,11:05:02.148298,192.168.0.115
1643,-1,-100,-100,-100,"0,0,0",-4,0,0,0,0,0,63,65,78,40,100,-19.46,32,-54.0,-1.0,-962.0,11:05:02.249889,192.168.0.115
1648,-1,-100,-100,-100,"0,0,0",-4,0,0,0,0,0,63,65,78,40,100,-19.59,32,-65.0,-24.0,-959.0,11:05:02.352451,192.168.0.115
1653,-1,-100,-100,-100,"0,0,0",-3,0,0,0,0,0,63,65,78,40,100,-19.83,33,-74.0,-18.0,-1002.0,11:05:02.454123,192.168.0.115
1658,-1,-100,-100,-100,"0,0,0",-3,0,0,0,0,0,63,65,78,40,100,-19.7,33,-77.0,-12.0,-994.0,11:05:02.556295,192.168.0.115
1663,-1,-100,-100,-100,"0,0,0",-4,0,0,0,0,0,63,65,79,40,100,-19.58,33,-114.0,14.0,-965.0,11:05:02.658365,192.168.0.115
1668,-1,-100,-100,-100,"0,0,0",-4,1,0,0,0,0,63,65,79,40,100,-19.71,33,-93.0,18.0,-1045.0,11:05:02.763288,192.168.0.115
1673,-1,-100,-100,-100,"0,0,0",-4,0,0,0,0,0,63,65,80,40,100,-19.54,33,-106.0,19.0,-1003.0,11:05:02.861921,192.168.0.115
1678,-1,-100,-100,-100,"0,0,0",-5,0,0,0,0,0,63,65,81,40,100,-19.49,33,-47.0,-33.0,-948.0,11:05:02.964240,192.168.0.115
1683,-1,-100,-100,-100,"0,0,0",-5,0,0,0,0,0,63,65,81,40,100,-19.56,33,-47.0,-33.0,-916.0,11:05:03.066191,192.168.0.115
1688,-1,-100,-100,-100,"0,0,0",-5,0,0,0,0,0,63,65,80,40,100,-19.55,33,-82.0,-17.0,-986.0,11:05:03.168324,192.168.0.115
1693,-1,-100,-100,-100,"0,0,0",-4,0,0,0,0,0,63,65,79,40,100,-19.61,33,-43.0,-72.0,-952.0,11:05:03.273290,192.168.0.115
1698,-1,-100,-100,-100,"0,0,0",-3,0,0,0,0,0,63,65,78,40,100,-19.56,33,-82.0,-55.0,-1034.0,11:05:03.372195,192.168.0.115
1704,-1,-100,-100,-100,"0,0,0",-3,1,0,0,0,0,63,65,78,40,100,-19.58,34,-115.0,9.0,-1026.0,11:05:03.474144,192.168.0.115
1709,-1,-100,-100,-100,"0,0,0",-4,1,0,0,0,0,63,65,77,40,100,-19.53,34,-86.0,17.0,-1005.0,11:05:03.576144,192.168.0.115
1714,-1,-100,-100,-100,"0,0,0",-4,1,0,0,0,0,63,65,78,40,100,-19.68,34,-58.0,-14.0,-1040.0,11:05:03.677984,192.168.0.115
1719,-1,-100,-100,-100,"0,0,0",-4,0,0,0,0,0,63,65,78,40,100,-19.72,34,-29.0,-28.0,-974.0,11:05:03.780197,192.168.0.115
1724,-1,-100,-100,-100,"0,0,0",-4,0,0,0,0,0,63,65,78,40,100,-19.59,34,-29.0,-8.0,-999.0,11:05:03.881986,192.168.0.115
1729,-1,-100,-100,-100,"0,0,0",-3,0,0,0,0,0,64,66,77,40,100,-19.65,34,-41.0,-22.0,-1006.0,11:05:03.984147,192.168.0.115
1734,-1,-100,-100,-100,"0,0,0",-2,0,0,0,0,0,64,66,77,40,100,-19.72,34,-70.0,-6.0,-1010.0,11:05:04.086090,192.168.0.115
1740,-1,-100,-100,-100,"0,0,0",-2,1,0,0,0,0,64,66,78,40,100,-19.67,34,-84.0,3.0,-1030.0,11:05:04.188107,192.168.0.115
1745,-1,-100,-100,-100,"0,0,0",-2,0,0,0,0,0,64,66,78,40,100,-19.65,34,-108.0,-7.0,-1014.0,11:05:04.290196,192.168.0.115
1750,-1,-100,-100,-100,"0,0,0",-3,0,0,0,0,0,64,66,79,40,100,-19.69,34,-78.0,0.0,-946.0,11:05:04.392065,192.168.0.115
1755,-1,-100,-100,-100,"0,0,0",-4,0,0,0,0,0,64,66,78,40,100,-19.59,35,-71.0,-6.0,-996.0,11:05:04.494137,192.168.0.115
1760,-1,-100,-100,-100,"0,0,0",-4,0,0,0,0,0,64,66,78,40,100,-19.71,35,-51.0,-12.0,-1005.0,11:05:04.596111,192.168.0.115
1762,-1,-100,-100,-100,"0,0,0",-4,0,0,0,0,0,64,66,79,40,100,-19.64,35,-98.0,24.0,-1014.0,11:05:04.647058,192.168.0.115
1767,-1,-100,-100,-100,"0,0,0",-3,0,0,0,0,0,64,66,79,40,100,-19.54,35,-67.0,19.0,-980.0,11:05:04.748586,192.168.0.115
1772,-1,-100,-100,-100,"0,0,0",-4,0,0,0,0,0,64,66,78,40,100,-19.45,35,-56.0,-8.0,-919.0,11:05:04.850551,192.168.0.115
1777,-1,-100,-100,-100,"0,0,0",-4,-1,0,0,0,0,65,66,77,40,100,-19.66,35,-20.0,-14.0,-945.0,11:05:04.952476,192.168.0.115
1783,-1,-100,-100,-100,"0,0,0",-3,0,0,0,0,0,65,66,78,40,100,-19.6,35,-32.0,-11.0,-984.0,11:05:05.054943,192.168.0.115
1788,-1,-100,-100,-100,"0,0,0",-2,0,0,0,0,0,65,66,77,40,100,-19.65,35,-22.0,-11.0,-1011.0,11:05:05.157032,192.168.0.115
1793,-1,-100,-100,-100,"0,0,0",-3,0,0,0,0,0,65,66,78,40,100,-19.77,35,-53.0,-21.0,-1048.0,11:05:05.258961,192.168.0.115
1798,-1,-100,-100,-100,"0,0,0",-3,0,0,0,0,0,65,66,78,40,100,-19.72,35,-82.0,17.0,-995.0,11:05:05.361833,192.168.0.115
1803,-1,-100,-100,-100,"0,0,0",-4,0,0,0,0,0,65,66,78,40,100,-19.44,36,-66.0,3.0,-1013.0,11:05:05.463366,192.168.0.115
1808,-1,-100,-100,-100,"0,0,0",-3,-1,0,0,0,0,65,66,78,40,100,-19.46,36,-50.0,11.0,-922.0,11:05:05.565985,192.168.0.115
1813,-1,-100,-100,-100,"0,0,0",-3,0,0,0,0,0,65,66,78,40,100,-19.57,36,-55.0,6.0,-1010.0,11:05:05.668271,192.168.0.115
1818,-1,-100,-100,-100,"0,0,0",-3,0,0,0,0,0,65,66,78,40,100,-19.79,36,-19.0,11.0,-974.0,11:05:05.770684,192.168.0.115
1823,-1,-100,-100,-100,"0,0,0",-1,0,0,0,0,0,65,66,78,40,100,-19.7,36,-4.0,0.0,-970.0,11:05:05.870970,192.168.0.115
1828,-1,-100,-100,-100,"0,0,0",-1,0,0,0,0,0,64,66,78,40,100,-19.58,36,-90.0,0.0,-1041.0,11:05:05.972823,192.168.0.115
1833,-1,-100,-100,-100,"0,0,0",-2,0,0,0,0,0,64,66,78,40,100,-19.72,36,-95.0,5.0,-997.0,11:05:06.074779,192.168.0.115
1838,-1,-100,-100,-100,"0,0,0",-3,0,0,0,0,0,64,66,79,40,100,-19.56,36,-65.0,4.0,-984.0,11:05:06.176972,192.168.0.115
1843,-1,-100,-100,-100,"0,0,0",-3,0,0,0,0,0,64,66,79,40,100,-19.69,36,-39.0,4.0,-996.0,11:05:06.279048,192.168.0.115
1848,-1,-100,-100,-100,"0,0,0",-3,0,0,0,0,0,64,66,78,40,100,-19.68,36,-77.0,23.0,-945.0,11:05:06.381058,192.168.0.115
1853,-1,-100,-100,-100,"0,0,0",-3,0,0,0,0,0,64,66,78,40,100,-19.6,37,-70.0,32.0,-1018.0,11:05:06.487122,192.168.0.115
1858,-1,-100,-100,-100,"0,0,0",-2,0,0,0,0,0,64,66,78,40,100,-19.42,37,-78.0,12.0,-996.0,11:05:06.584942,192.168.0.115
1863,-1,-100,-100,-100,"0,0,0",-3,0,0,0,0,0,64,66,78,40,100,-19.6,37,-49.0,6.0,-975.0,11:05:06.686976,192.168.0.115
1868,-1,-100,-100,-100,"0,0,0",-3,0,0,0,0,0,64,66,77,40,100,-19.38,37,-78.0,21.0,-975.0,11:05:06.788949,192.168.0.115
1874,-1,-100,-100,-100,"0,0,0",-2,0,0,0,0,0,64,66,77,40,100,-19.53,37,-59.0,11.0,-1024.0,11:05:06.891629,192.168.0.115
1878,-1,-100,-100,-100,"0,0,0",-2,0,0,0,0,0,64,66,76,40,100,-19.71,37,-44.0,-11.0,-1008.0,11:05:06.992664,192.168.0.115
1884,-1,-100,-100,-100,"0,0,0",-2,-1,0,0,0,0,64,66,76,40,100,-19.54,37,-35.0,33.0,-970.0,11:05:07.094878,192.168.0.115
1889,-1,-100,-100,-100,"0,0,0",-2,0,0,0,0,0,64,66,76,40,100,-19.44,37,-54.0,51.0,-997.0,11:05:07.196961,192.168.0.115
1894,-1,-100,-100,-100,"0,0,0",-2,0,0,0,0,0,64,66,75,40,100,-19.48,37,-23.0,13.0,-1030.0,11:05:07.298678,192.168.0.115
1899,-1,-100,-100,-100,"0,0,0",-2,-2,0,0,0,0,64,66,76,40,100,-19.68,37,-51.0,7.0,-1039.0,11:05:07.400823,192.168.0.115
1904,-1,-100,-100,-100,"0,0,0",-1,-2,0,0,0,0,64,66,75,40,100,-19.57,38,-62.0,5.0,-990.0,11:05:07.502817,192.168.0.115
1909,-1,-100,-100,-100,"0,0,0",-1,-1,0,0,0,0,64,66,76,40,100,-19.55,38,-34.0,18.0,-960.0,11:05:07.604864,192.168.0.115
1915,-1,-100,-100,-100,"0,0,0",-2,0,0,0,0,0,64,66,77,40,100,-19.51,38,-40.0,13.0,-990.0,11:05:07.706872,192.168.0.115
1920,-1,-100,-100,-100,"0,0,0",-2,0,0,0,0,0,64,66,76,40,100,-19.76,38,-83.0,26.0,-1029.0,11:05:07.808859,192.168.0.115
1922,-1,-100,-100,-100,"0,0,0",-2,0,0,0,0,0,64,66,77,40,100,-19.75,38,-31.0,-4.0,-1002.0,11:05:07.859898,192.168.0.115
1930,-1,-100,-100,-100,"0,0,0",-3,0,0,0,0,0,64,65,77,40,100,-19.63,38,-69.0,-2.0,-1017.0,11:05:08.012965,192.168.0.115
1932,-1,-100,-100,-100,"0,0,0",-3,0,0,0,0,0,64,65,76,40,100,-19.61,38,-107.0,36.0,-962.0,11:05:08.063731,192.168.0.115
1937,-1,-100,-100,-100,"0,0,0",-4,0,0,0,0,0,64,65,77,40,100,-19.68,38,-94.0,18.0,-995.0,11:05:08.165746,192.168.0.115
1942,-1,-100,-100,-100,"0,0,0",-4,0,0,0,0,0,64,65,77,40,100,-19.65,38,-71.0,-11.0,-1006.0,11:05:08.267877,192.168.0.115
1947,-1,-100,-100,-100,"0,0,0",-4,0,0,0,0,0,64,65,77,40,100,-19.6,39,-111.0,4.0,-970.0,11:05:08.369845,192.168.0.115
1953,-1,-100,-100,-100,"0,0,0",-5,0,0,0,0,0,64,65,77,40,100,-19.49,39,-74.0,12.0,-993.0,11:05:08.471861,192.168.0.115
1958,-1,-100,-100,-100,"0,0,0",-4,0,0,0,0,0,64,65,78,40,100,-19.36,39,-80.0,42.0,-948.0,11:05:08.573869,192.168.0.115
1963,-1,-100,-100,-100,"0,0,0",-5,0,0,0,0,0,64,65,77,40,100,-19.64,39,-73.0,22.0,-976.0,11:05:08.675871,192.168.0.115
1968,-1,-100,-100,-100,"0,0,0",-5,-1,0,0,0,0,64,65,77,40,100,-19.62,39,-44.0,-2.0,-1003.0,11:05:08.777841,192.168.0.115
1973,-1,-100,-100,-100,"0,0,0",-4,-1,0,0,0,0,64,65,76,40,100,-19.72,39,-87.0,-5.0,-1020.0,11:05:08.880305,192.168.0.115
1978,-1,-100,-100,-100,"0,0,0",-4,0,0,0,0,0,64,66,76,40,100,-19.58,39,-38.0,1.0,-1005.0,11:05:08.981698,192.168.0.115
1983,-1,-100,-100,-100,"0,0,0",-3,0,0,0,0,0,64,66,75,40,100,-19.61,39,-48.0,6.0,-1021.0,11:05:09.083914,192.168.0.115
1988,-1,-100,-100,-100,"0,0,0",-3,0,0,0,0,0,64,66,75,40,100,-19.58,39,-45.0,9.0,-982.0,11:05:09.185727,192.168.0.115
1993,-1,-100,-100,-100,"0,0,0",-3,0,0,0,0,0,64,66,75,40,100,-19.53,39,-32.0,35.0,-1020.0,11:05:09.287621,192.168.0.115
1998,-1,-100,-100,-100,"0,0,0",-1,0,0,-1,0,0,64,66,75,40,100,-19.52,40,-5.0,15.0,-985.0,11:05:09.389756,192.168.0.115
2003,-1,-100,-100,-100,"0,0,0",0,0,0,-1,0,0,64,66,75,40,100,-19.63,40,-9.0,-1.0,-1030.0,11:05:09.491637,192.168.0.115
2008,-1,-100,-100,-100,"0,0,0",0,0,0,-1,0,0,64,66,75,40,100,-19.53,40,-15.0,8.0,-1008.0,11:05:09.593732,192.168.0.115
2013,-1,-100,-100,-100,"0,0,0",0,0,0,0,0,0,64,66,75,40,100,-19.72,40,-45.0,15.0,-957.0,11:05:09.695240,192.168.0.115
2018,-1,-100,-100,-100,"0,0,0",0,0,0,0,0,0,64,66,75,40,100,-19.77,40,-42.0,12.0,-1016.0,11:05:09.797426,192.168.0.115
2024,-1,-100,-100,-100,"0,0,0",-2,0,0,0,0,0,64,66,75,40,100,-19.62,40,-16.0,23.0,-974.0,11:05:09.899130,192.168.0.115
2028,-1,-100,-100,-100,"0,0,0",-1,-1,0,0,0,0,64,66,75,40,100,-19.6,40,-29.0,4.0,-1027.0,11:05:10.001801,192.168.0.115
2033,-1,-100,-100,-100,"0,0,0",-1,-1,0,0,0,0,64,66,76,40,100,-19.67,40,-47.0,8.0,-1028.0,11:05:10.103706,192.168.0.115
2038,-1,-100,-100,-100,"0,0,0",-1,0,0,0,0,0,64,66,76,40,100,-19.63,40,-35.0,-4.0,-995.0,11:05:10.205634,192.168.0.115
2044,-1,-100,-100,-100,"0,0,0",-1,0,0,0,0,0,64,66,77,40,100,-19.67,40,-42.0,29.0,-1011.0,11:05:10.307674,192.168.0.115
2049,-1,-100,-100,-100,"0,0,0",-1,0,0,0,0,0,64,66,77,40,100,-19.54,41,-26.0,12.0,-956.0,11:05:10.409571,192.168.0.115
2054,-1,-100,-100,-100,"0,0,0",-2,0,0,0,0,0,64,66,77,40,100,-19.55,41,-28.0,12.0,-966.0,11:05:10.511499,192.168.0.115
2059,-1,-100,-100,-100,"0,0,0",-1,0,0,0,0,0,64,66,77,40,100,-19.57,41,-18.0,6.0,-1005.0,11:05:10.613650,192.168.0.115
2064,-1,-100,-100,-100,"0,0,0",-1,0,0,0,0,0,64,66,77,40,100,-19.64,41,-26.0,26.0,-996.0,11:05:10.715658,192.168.0.115
2069,-1,-100,-100,-100,"0,0,0",0,0,0,0,0,0,64,66,77,40,100,-19.58,41,-49.0,10.0,-994.0,11:05:10.819304,192.168.0.115
2074,-1,-100,-100,-100,"0,0,0",0,0,0,0,0,0,64,66,78,40,100,-19.59,41,-32.0,-7.0,-1019.0,11:05:10.919719,192.168.0.115
2079,-1,-100,-100,-100,"0,0,0",-1,0,0,0,0,0,64,66,78,40,100,-19.5,41,-54.0,11.0,-989.0,11:05:11.021656,192.168.0.115
2084,-1,-100,-100,-100,"0,0,0",-1,0,0,0,0,0,64,66,78,40,100,-19.41,41,-54.0,8.0,-946.0,11:05:11.123594,192.168.0.115
2089,-1,-100,-100,-100,"0,0,0",-2,0,0,0,0,0,64,66,79,40,100,-19.62,41,-53.0,4.0,-991.0,11:05:11.225549,192.168.0.115
2092,-1,-100,-100,-100,"0,0,0",-1,0,0,0,0,0,64,66,78,40,100,-19.54,41,-57.0,12.0,-1018.0,11:05:11.276413,192.168.0.115
2097,-1,-100,-100,-100,"0,0,0",-2,0,0,0,0,0,64,66,78,40,100,-19.49,42,-80.0,19.0,-976.0,11:05:11.378418,192.168.0.115
2103,-1,-100,-100,-100,"0,0,0",-2,0,0,0,0,0,64,66,79,40,100,-19.43,42,-70.0,-3.0,-976.0,11:05:11.480382,192.168.0.115
2108,-1,-100,-100,-100,"0,0,0",-2,0,0,0,0,0,64,66,79,40,100,-19.55,42,-72.0,10.0,-1032.0,11:05:11.582548,192.168.0.115
2113,-1,-100,-100,-100,"0,0,0",-3,0,0,0,0,0,64,66,78,40,100,-19.45,42,-69.0,30.0,-974.0,11:05:11.684444,192.168.0.115
2118,-1,-100,-100,-100,"0,0,0",-4,0,0,0,0,0,64,66,79,40,100,-19.34,42,-62.0,19.0,-982.0,11:05:11.786649,192.168.0.115
2123,-1,-100,-100,-100,"0,0,0",-3,-1,0,0,0,0,64,66,78,40,100,-19.41,42,-37.0,8.0,-978.0,11:05:11.888636,192.168.0.115
2128,-1,-100,-100,-100,"0,0,0",-4,-1,0,0,0,0,64,66,79,40,100,-19.5,42,-49.0,19.0,-1000.0,11:05:11.990461,192.168.0.115
2133,-1,-100,-100,-100,"0,0,0",-4,-1,0,0,0,0,64,66,78,40,100,-19.38,42,-83.0,28.0,-988.0,11:05:12.092448,192.168.0.115
2138,-1,-100,-100,-100,"0,0,0",-3,-2,0,0,0,0,64,66,78,40,100,-19.52,42,-97.0,2.0,-1041.0,11:05:12.194552,192.168.0.115
2143,-1,-100,-100,-100,"0,0,0",-3,-1,0,0,0,0,64,66,78,40,100,-19.37,42,-65.0,30.0,-962.0,11:05:12.296379,192.168.0.115
2148,-1,-100,-100,-100,"0,0,0",-3,0,0,0,0,0,64,66,77,40,100,-19.57,43,-46.0,6.0,-1020.0,11:05:12.398522,192.168.0.115
2153,-1,-100,-100,-100,"0,0,0",-4,-1,0,0,0,0,64,66,77,40,100,-19.49,43,-70.0,8.0,-1009.0,11:05:12.500465,192.168.0.115
2158,-1,-100,-100,-100,"0,0,0",-3,0,0,0,0,0,64,66,77,40,100,-19.64,43,-96.0,29.0,-1033.0,11:05:12.602554,192.168.0.115
2163,-1,-100,-100,-100,"0,0,0",-3,0,0,0,0,0,64,66,77,40,100,-19.58,43,-53.0,23.0,-967.0,11:05:12.704652,192.168.0.115
2168,-1,-100,-100,-100,"0,0,0",-3,-1,0,0,0,0,64,66,77,40,100,-19.57,43,-72.0,0.0,-1005.0,11:05:12.806531,192.168.0.115
2173,-1,-100,-100,-100,"0,0,0",-4,-1,0,0,0,0,64,66,78,40,100,-19.57,43,-54.0,-9.0,-945.0,11:05:12.909225,192.168.0.115
2178,-1,-100,-100,-100,"0,0,0",-4,-1,0,0,0,0,63,66,77,40,100,-19.47,43,-71.0,0.0,-982.0,11:05:13.010446,192.168.0.115
2183,-1,-100,-100,-100,"0,0,0",-4,0,0,0,0,0,63,66,77,40,100,-19.67,43,-49.0,-1.0,-965.0,11:05:13.112437,192.168.0.115
2188,-1,-100,-100,-100,"0,0,0",-4,0,0,0,0,0,63,66,77,40,100,-19.66,43,-57.0,9.0,-1045.0,11:05:13.214653,192.168.0.115
2193,-1,-100,-100,-100,"0,0,0",-4,0,0,0,0,0,63,66,77,40,100,-19.63,43,-65.0,2.0,-1010.0,11:05:13.316295,192.168.0.115
2198,-1,-100,-100,-100,"0,0,0",-4,0,0,0,0,0,63,66,77,40,100,-19.69,44,-69.0,18.0,-978.0,11:05:13.418504,192.168.0.115
2203,-1,-100,-100,-100,"0,0,0",-3,0,0,0,0,0,63,66,77,40,100,-19.75,44,-114.0,20.0,-1023.0,11:05:13.520539,192.168.0.115
2209,-1,-100,-100,-100,"0,0,0",-4,0,0,0,0,0,63,66,77,40,100,-19.43,44,-56.0,16.0,-979.0,11:05:13.622838,192.168.0.115
2214,-1,-100,-100,-100,"0,0,0",-3,0,0,0,0,0,63,66,78,40,100,-19.6,44,-46.0,5.0,-998.0,11:05:13.724346,192.168.0.115
2219,-1,-100,-100,-100,"0,0,0",-2,0,0,0,0,0,63,66,77,40,100,-19.62,44,-71.0,11.0,-1021.0,11:05:13.826768,192.168.0.115
2224,-1,-100,-100,-100,"0,0,0",-3,0,0,0,0,0,63,66,77,40,100,-19.61,44,-68.0,9.0,-985.0,11:05:13.928370,192.168.0.115
2229,-1,-100,-100,-100,"0,0,0",-2,0,0,0,0,0,64,66,77,40,100,-19.63,44,-55.0,3.0,-980.0,11:05:14.030470,192.168.0.115
2234,-1,-100,-100,-100,"0,0,0",-3,0,0,0,0,0,64,66,77,40,100,-19.58,44,-61.0,26.0,-971.0,11:05:14.132460,192.168.0.115
2239,-1,-100,-100,-100,"0,0,0",-3,0,0,0,0,0,64,66,77,40,100,-19.52,44,-45.0,17.0,-1001.0,11:05:14.234434,192.168.0.115
2245,-1,-100,-100,-100,"0,0,0",-3,-1,0,0,0,0,64,66,77,40,100,-19.65,44,-45.0,6.0,-1035.0,11:05:14.336780,192.168.0.115
2250,-1,-100,-100,-100,"0,0,0",-2,-1,0,0,0,0,64,66,77,40,100,-19.66,45,-48.0,-6.0,-1006.0,11:05:14.438382,192.168.0.115
2255,-1,-100,-100,-100,"0,0,0",-2,0,0,0,0,0,64,66,76,40,100,-19.59,45,-59.0,-9.0,-982.0,11:05:14.540683,192.168.0.115
2257,-1,-100,-100,-100,"0,0,0",-2,0,0,0,0,0,64,66,76,40,100,-19.53,45,-46.0,6.0,-1010.0,11:05:14.593686,192.168.0.115
2262,-1,-100,-100,-100,"0,0,0",-1,0,0,0,0,0,64,66,76,40,100,-19.63,45,-64.0,7.0,-1033.0,11:05:14.693712,192.168.0.115
2267,-1,-100,-100,-100,"0,0,0",-2,0,0,0,0,0,64,66,76,40,100,-19.63,45,-38.0,-7.0,-993.0,11:05:14.794946,192.168.0.115
2272,-1,-100,-100,-100,"0,0,0",-2,0,0,0,0,0,64,66,77,40,100,-19.62,45,-74.0,18.0,-992.0,11:05:14.896852,192.168.0.115
2277,-1,-100,-100,-100,"0,0,0",-2,0,0,0,0,0,64,67,76,40,100,-19.69,45,-33.0,22.0,-986.0,11:05:14.999307,192.168.0.115
2283,-1,-100,-100,-100,"0,0,0",-2,0,0,0,0,0,64,67,77,40,100,-19.73,45,-60.0,29.0,-1009.0,11:05:15.101375,192.168.0.115
2288,-1,-100,-100,-100,"0,0,0",-2,0,0,0,0,0,64,67,77,40,100,-19.6,45,-71.0,27.0,-992.0,11:05:15.203161,192.168.0.115
2293,-1,-100,-100,-100,"0,0,0",-2,0,0,0,0,0,64,67,78,40,100,-19.58,45,-46.0,8.0,-1007.0,11:05:15.305136,192.168.0.115
2298,-1,-100,-100,-100,"0,0,0",-2,0,0,0,0,0,64,67,78,40,100,-19.65,46,-79.0,14.0,-993.0,11:05:15.407421,192.168.0.115
2303,-1,-100,-100,-100,"0,0,0",-2,0,0,0,0,0,64,67,77,40,100,-19.52,46,-76.0,58.0,-992.0,11:05:15.509275,192.168.0.115
2308,-1,-100,-100,-100,"0,0,0",-3,-1,0,0,0,0,64,67,78,40,100,-19.48,46,-17.0,26.0,-990.0,11:05:15.611277,192.168.0.115
2313,-1,-100,-100,-100,"0,0,0",-2,-2,0,0,0,0,64,67,78,40,100,-19.6,46,-30.0,13.0,-1002.0,11:05:15.713680,192.168.0.115
2318,-1,-100,-100,-100,"0,0,0",-1,-1,0,0,0,0,64,67,78,40,100,-19.69,46,-15.0,-17.0,-991.0,11:05:15.815388,192.168.0.115
2323,-1,-100,-100,-100,"0,0,0",0,0,0,0,0,0,64,67,77,40,100,-19.71,46,-62.0,31.0,-1016.0,11:05:15.917045,192.168.0.115
2328,-1,-100,-100,-100,"0,0,0",-1,0,0,0,0,0,64,66,78,40,100,-19.6,46,-33.0,6.0,-983.0,11:05:16.019276,192.168.0.115
2333,-1,-100,-100,-100,"0,0,0",-2,0,0,0,0,0,64,66,78,40,100,-19.7,46,-65.0,25.0,-1022.0,11:05:16.121496,192.168.0.115
2338,-1,-100,-100,-100,"0,0,0",-2,0,0,0,0,0,64,66,78,40,100,-19.58,46,-64.0,26.0,-972.0,11:05:16.223318,192.168.0.115
2343,-1,-100,-100,-100,"0,0,0",-2,0,0,0,0,0,64,66,78,40,100,-19.53,46,-20.0,-2.0,-997.0,11:05:16.325352,192.168.0.115
2348,-1,-100,-100,-100,"0,0,0",-1,0,0,0,0,0,64,66,78,40,100,-19.53,47,-32.0,31.0,-1016.0,11:05:16.427371,192.168.0.115
2353,-1,-100,-100,-100,"0,0,0",-1,0,0,0,0,0,64,66,78,40,100,-19.52,47,-22.0,0.0,-985.0,11:05:16.529336,192.168.0.115
2358,-1,-100,-100,-100,"0,0,0",-1,0,0,0,0,0,64,66,78,40,100,-19.5,47,-12.0,-11.0,-995.0,11:05:16.631286,192.168.0.115
2363,-1,-100,-100,-100,"0,0,0",-1,0,0,0,0,0,64,66,78,40,100,-19.34,47,-21.0,5.0,-981.0,11:05:16.733544,192.168.0.115
2368,-1,-100,-100,-100,"0,0,0",-1,0,0,0,0,0,64,66,78,40,100,-19.42,47,-32.0,8.0,-968.0,11:05:16.837458,192.168.0.115
2374,-1,-100,-100,-100,"0,0,0",0,0,0,0,0,0,64,66,78,40,100,-19.35,47,-18.0,4.0,-990.0,11:05:16.936890,192.168.0.115
2378,-1,-100,-100,-100,"0,0,0",0,0,0,0,0,0,65,66,78,40,100,-19.38,47,-40.0,43.0,-940.0,11:05:17.039227,192.168.0.115
2384,-1,-100,-100,-100,"0,0,0",0,0,0,0,0,0,65,66,78,40,100,-19.36,47,-28.0,51.0,-985.0,11:05:17.141308,192.168.0.115
2389,-1,-100,-100,-100,"0,0,0",0,0,0,0,0,0,65,66,78,40,100,-19.37,47,-12.0,-29.0,-1013.0,11:05:17.243241,192.168.0.115
2394,-1,-100,-100,-100,"0,0,0",-1,-1,0,0,0,0,65,66,77,40,100,-19.39,47,-51.0,48.0,-1027.0,11:05:17.345305,192.168.0.115
2399,-1,-100,-100,-100,"0,0,0",-2,-2,0,0,0,0,65,66,77,40,100,-19.59,48,-42.0,-5.0,-1004.0,11:05:17.447122,192.168.0.115
2404,-1,-100,-100,-100,"0,0,0",-2,-2,0,0,0,0,65,66,76,40,100,-19.36,48,1.0,-35.0,-1036.0,11:05:17.549056,192.168.0.115
2410,-1,-100,-100,-100,"0,0,0",-2,-1,0,0,0,0,65,66,76,40,100,-19.61,48,-62.0,21.0,-997.0,11:05:17.651302,192.168.0.115
2415,-1,-100,-100,-100,"0,0,0",-2,0,0,0,0,0,65,66,76,40,100,-19.47,48,-53.0,23.0,-980.0,11:05:17.753300,192.168.0.115
2420,-1,-100,-100,-100,"0,0,0",-2,0,0,0,0,0,65,66,76,40,100,-19.48,48,-93.0,76.0,-977.0,11:05:17.855241,192.168.0.115
2425,-1,-100,-100,-100,"0,0,0",-1,0,0,0,0,0,65,66,76,40,100,-19.48,48,-49.0,-14.0,-1073.0,11:05:17.957108,192.168.0.115
2430,-1,-100,-100,-100,"0,0,0",-2,-1,0,0,0,0,63,66,75,40,100,-19.55,48,-94.0,-3.0,-1076.0,11:05:18.059258,192.168.0.115
2435,-1,-100,-100,-100,"0,0,0",-3,0,0,0,0,0,63,66,76,40,100,-19.58,48,-83.0,21.0,-1000.0,11:05:18.161262,192.168.0.115
2437,-1,-100,-100,-100,"0,0,0",-3,0,0,0,0,0,63,66,76,40,100,-19.57,48,-57.0,13.0,-1020.0,11:05:18.213021,192.168.0.115
2442,-1,-100,-100,-100,"0,0,0",-4,0,0,0,0,0,63,66,76,40,100,-19.47,48,-47.0,-19.0,-1038.0,11:05:18.314353,192.168.0.115
2447,-1,-100,-100,-100,"0,0,0",-3,-1,0,0,0,0,63,66,76,40,100,-19.45,49,-41.0,-7.0,-1013.0,11:05:18.416470,192.168.0.115
2452,-1,-100,-100,-100,"0,0,0",-2,0,0,0,0,0,63,66,77,40,100,-19.58,49,-34.0,-27.0,-998.0,11:05:18.518730,192.168.0.115
2458,-1,-100,-100,-100,"0,0,0",-2,0,0,0,0,0,63,66,77,40,100,-19.6,49,-57.0,-14.0,-997.0,11:05:18.623656,192.168.0.115
2463,-1,-100,-100,-100,"0,0,0",-2,1,0,0,0,0,63,66,78,40,100,-19.64,49,-78.0,2.0,-1008.0,11:05:18.723840,192.168.0.115
2468,-1,-100,-100,-100,"0,0,0",-3,1,0,0,0,0,63,66,78,40,100,-19.57,49,-57.0,-2.0,-981.0,11:05:18.826291,192.168.0.115
2473,-1,-100,-100,-100,"0,0,0",-3,0,0,0,0,0,63,66,78,40,100,-19.58,49,-49.0,-2.0,-973.0,11:05:18.928612,192.168.0.115
2478,-1,-100,-100,-100,"0,0,0",-3,0,0,0,0,0,64,66,79,40,100,-19.61,49,-45.0,-47.0,-991.0,11:05:19.031200,192.168.0.115
2483,-1,-100,-100,-100,"0,0,0",-3,0,0,0,0,0,64,66,78,40,100,-19.68,49,-79.0,-3.0,-970.0,11:05:19.133371,192.168.0.115
2488,-1,-100,-100,-100,"0,0,0",-2,1,0,0,0,0,64,66,78,40,100,-19.58,49,-31.0,1.0,-961.0,11:05:19.233134,192.168.0.115
2493,-1,-100,-100,-100,"0,0,0",-3,1,0,0,0,0,64,66,78,40,100,-19.68,49,-50.0,-28.0,-1004.0,11:05:19.334823,192.168.0.115
2498,-1,-100,-100,-100,"0,0,0",-1,0,0,0,0,0,64,66,78,40,100,-19.74,50,-67.0,-14.0,-1047.0,11:05:19.436917,192.168.0.115
2503,-1,-100,-100,-100,"0,0,0",-2,1,0,0,0,0,64,66,78,40,100,-19.68,50,-74.0,0.0,-978.0,11:05:19.538978,192.168.0.115
2508,-1,-100,-100,-100,"0,0,0",-3,0,0,0,0,0,64,66,78,40,100,-19.78,50,-77.0,-38.0,-1014.0,11:05:19.641334,192.168.0.115
2513,-1,-100,-100,-100,"0,0,0",-3,0,0,0,0,0,64,66,78,40,100,-19.61,50,-61.0,0.0,-986.0,11:05:19.742632,192.168.0.115
2518,-1,-100,-100,-100,"0,0,0",-4,0,0,0,0,0,64,66,78,40,100,-19.6,50,-68.0,12.0,-989.0,11:05:19.845012,192.168.0.115
2523,-1,-100,-100,-100,"0,0,0",-3,0,0,0,0,0,64,66,78,40,100,-19.51,50,-73.0,15.0,-989.0,11:05:19.947220,192.168.0.115
2528,-1,-100,-100,-100,"0,0,0",-2,0,0,0,0,0,64,67,78,40,100,-19.53,50,-39.0,-6.0,-993.0,11:05:20.051123,192.168.0.115
2533,-1,-100,-100,-100,"0,0,0",-2,0,0,0,0,0,64,67,77,40,100,-19.79,50,-67.0,34.0,-988.0,11:05:20.151276,192.168.0.115
2538,-1,-100,-100,-100,"0,0,0",-2,0,0,0,0,0,64,67,77,40,100,-19.78,50,-69.0,28.0,-996.0,11:05:20.253795,192.168.0.115
