,mid,x,y,z,mpry,pitch,roll,yaw,vgx,vgy,vgz,templ,temph,tof,h,bat,baro,time,agx,agy,agz,timestamp,address
1,-1,-100,-100,-100,"0,0,0",0,0,162,0,0,0,65,66,10,0,100,-20.45,0,-5.0,-5.0,-1000.0,11:04:29.292609,192.168.0.114
6,-1,-100,-100,-100,"0,0,0",0,0,162,0,0,0,65,66,10,0,100,-20.47,0,-4.0,-6.0,-995.0,11:04:29.394511,192.168.0.114
11,-1,-100,-100,-100,"0,0,0",0,0,162,0,0,0,65,66,10,0,100,-20.47,0,1.0,-8.0,-1003.0,11:04:29.496668,192.168.0.114
16,-1,-100,-100,-100,"0,0,0",0,0,162,0,0,0,65,66,10,0,100,-20.47,0,-13.0,-6.0,-1003.0,11:04:29.598668,192.168.0.114
21,-1,-100,-100,-100,"0,0,0",0,0,162,0,0,0,65,66,10,0,100,-20.47,0,-49.0,-8.0,-1002.0,11:04:29.700453,192.168.0.114
26,-1,-100,-100,-100,"0,0,0",0,0,162,0,0,0,65,66,10,0,100,-20.47,0,-9.0,4.0,-1002.0,11:04:29.802549,192.168.0.114
31,-1,-100,-100,-100,"0,0,0",0,0,162,0,0,0,65,66,10,0,100,-20.47,0,-7.0,-4.0,-1204.0,11:04:29.904717,192.168.0.114
36,-1,-100,-100,-100,"0,0,0",0,0,163,0,0,1,65,66,10,0,100,-20.47,0,-18.0,-11.0,-1428.0,11:04:30.006781,192.168.0.114
41,-1,-100,-100,-100,"0,0,0",0,0,163,0,0,4,65,66,11,0,100,-20.47,0,-44.0,-39.0,-1255.0,11:04:30.108863,192.168.0.114
46,-1,-100,-100,-100,"0,0,0",-1,0,163,0,0,7,65,66,19,0,100,-20.17,0,-42.0,2.0,-1073.0,11:04:30.210686,192.168.0.114
52,-1,-100,-100,-100,"0,0,0",-1,1,163,0,0,8,65,66,29,10,100,-20.17,0,-47.0,-12.0,-1029.0,11:04:30.312715,192.168.0.114
57,-1,-100,-100,-100,"0,0,0",-2,0,163,0,0,8,65,67,36,10,100,-20.15,0,-49.0,1.0,-960.0,11:04:30.414677,192.168.0.114
62,-1,-100,-100,-100,"0,0,0",-2,0,163,0,0,7,65,67,44,20,100,-19.85,1,-58.0,8.0,-898.0,11:04:30.516727,192.168.0.114
68,-1,-100,-100,-100,"0,0,0",-3,0,163,-1,0,6,65,67,52,20,100,-19.89,1,-34.0,-21.0,-874.0,11:04:30.618517,192.168.0.114
73,-1,-100,-100,-100,"0,0,0",-3,0,163,-1,0,5,65,67,59,30,100,-19.96,1,-61.0,-3.0,-922.0,11:04:30.720851,192.168.0.114
79,-1,-100,-100,-100,"0,0,0",-4,0,162,-1,0,4,65,67,65,30,100,-19.86,1,-55.0,3.0,-885.0,11:04:30.824665,192.168.0.114
84,-1,-100,-100,-100,"0,0,0",-5,0,162,-1,0,3,65,67,69,40,100,-19.77,1,-59.0,27.0,-895.0,11:04:30.925021,192.168.0.114
89,-1,-100,-100,-100,"0,0,0",-5,0,162,0,0,2,65,67,73,40,100,-19.69,1,-68.0,-4.0,-953.0,11:04:31.029373,192.168.0.114
90,-1,-100,-100,-100,"0,0,0",-4,0,162,0,0,1,65,67,77,40,100,-19.68,1,-105.0,3.0,-961.0,11:04:31.077641,192.168.0.114
95,-1,-100,-100,-100,"0,0,0",-4,0,163,0,0,1,65,67,80,40,100,-19.59,1,-90.0,21.0,-943.0,11:04:31.179342,192.168.0.114
100,-1,-100,-100,-100,"0,0,0",-5,0,163,0,0,1,65,67,82,50,100,-19.68,1,-50.0,27.0,-951.0,11:04:31.281627,192.168.0.114
105,-1,-100,-100,-100,"0,0,0",-6,0,163,0,0,0,65,67,85,50,100,-19.54,1,-20.0,-24.0,-975.0,11:04:31.383484,192.168.0.114
110,-1,-100,-100,-100,"0,0,0",-5,-2,163,0,0,0,65,67,87,50,100,-19.53,2,-37.0,2.0,-988.0,11:04:31.485456,192.168.0.114
115,-1,-100,-100,-100,"0,0,0",-4,-1,163,0,0,0,65,67,88,50,100,-19.46,2,-55.0,10.0,-951.0,11:04:31.587505,192.168.0.114
120,-1,-100,-100,-100,"0,0,0",-4,0,162,0,0,0,65,67,89,50,100,-19.41,2,-17.0,-1.0,-964.0,11:04:31.689330,192.168.0.114
126,-1,-100,-100,-100,"0,0,0",-2,0,162,0,0,0,65,67,90,50,100,-19.42,2,-26.0,-1.0,-968.0,11:04:31.791532,192.168.0.114
131,-1,-100,-100,-100,"0,0,0",-2,0,162,0,0,0,65,67,91,60,100,-19.45,2,-19.0,-1.0,-967.0,11:04:31.893296,192.168.0.114
136,-1,-100,-100,-100,"0,0,0",-1,0,162,0,0,0,65,67,91,60,100,-19.41,2,4.0,-21.0,-972.0,11:04:31.995279,192.168.0.114
141,-1,-100,-100,-100,"0,0,0",-1,0,162,0,0,0,65,67,92,60,100,-19.41,2,-18.0,-13.0,-972.0,11:04:32.097647,192.168.0.114
146,-1,-100,-100,-100,"0,0,0",0,1,162,0,-1,0,65,67,91,60,100,-19.44,2,-11.0,-15.0,-993.0,11:04:32.199305,192.168.0.114
151,-1,-100,-100,-100,"0,0,0",0,1,162,0,-1,0,65,67,92,60,100,-19.45,2,-10.0,-17.0,-1013.0,11:04:32.301092,192.168.0.114
156,-1,-100,-100,-100,"0,0,0",0,1,162,0,0,0,65,67,91,60,100,-19.47,2,-20.0,-17.0,-989.0,11:04:32.403317,192.168.0.114
162,-1,-100,-100,-100,"0,0,0",0,1,163,0,0,0,65,67,91,60,100,-19.5,3,-16.0,-18.0,-984.0,11:04:32.507164,192.168.0.114
166,-1,-100,-100,-100,"0,0,0",0,1,163,0,0,0,65,67,90,60,100,-19.51,3,-35.0,-4.0,-996.0,11:04:32.607134,192.168.0.114
171,-1,-100,-100,-100,"0,0,0",0,1,163,0,0,0,65,67,89,60,100,-19.52,3,-28.0,-16.0,-980.0,11:04:32.709220,192.168.0.114
176,-1,-100,-100,-100,"0,0,0",0,1,163,0,0,0,65,67,89,60,100,-19.43,3,-33.0,-12.0,-997.0,11:04:32.811115,192.168.0.114
182,-1,-100,-100,-100,"0,0,0",0,1,163,0,0,0,65,67,89,60,100,-19.49,3,-18.0,-20.0,-999.0,11:04:32.913116,192.168.0.114
187,-1,-100,-100,-100,"0,0,0",0,1,163,0,0,0,65,67,88,60,100,-19.53,3,-30.0,12.0,-978.0,11:04:33.015043,192.168.0.114
192,-1,-100,-100,-100,"0,0,0",-1,0,163,0,0,0,65,67,87,60,100,-19.44,3,-26.0,-2.0,-995.0,11:04:33.117543,192.168.0.114
197,-1,-100,-100,-100,"0,0,0",0,0,163,0,0,0,65,67,86,60,100,-19.44,3,-11.0,-37.0,-1010.0,11:04:33.219490,192.168.0.114
202,-1,-100,-100,-100,"0,0,0",0,0,163,0,0,0,65,67,86,60,100,-19.52,3,-27.0,-9.0,-1016.0,11:04:33.321135,192.168.0.114
208,-1,-100,-100,-100,"0,0,0",0,0,163,0,0,0,65,66,85,60,100,-19.49,3,-7.0,-14.0,-1000.0,11:04:33.422916,192.168.0.114
213,-1,-100,-100,-100,"0,0,0",0,0,163,0,0,0,65,66,84,50,100,-19.56,4,-9.0,-2.0,-1010.0,11:04:33.525107,192.168.0.114
218,-1,-100,-100,-100,"0,0,0",-1,0,163,0,0,0,65,66,84,50,100,-19.57,4,-14.0,0.0,-999.0,11:04:33.627296,192.168.0.114
220,-1,-100,-100,-100,"0,0,0",0,0,163,0,0,0,65,66,83,50,100,-19.58,4,-23.0,-25.0,-1002.0,11:04:33.678001,192.168.0.114
225,-1,-100,-100,-100,"0,0,0",0,0,163,0,0,0,65,66,82,50,100,-19.7,4,-21.0,-19.0,-975.0,11:04:33.779948,192.168.0.114
230,-1,-100,-100,-100,"0,0,0",-1,0,163,0,0,0,65,66,82,50,100,-19.5,4,-40.0,17.0,-1009.0,11:04:33.881955,192.168.0.114
235,-1,-100,-100,-100,"0,0,0",-1,0,163,0,0,0,65,66,81,50,100,-19.51,4,-5.0,1.0,-999.0,11:04:33.985189,192.168.0.114
240,-1,-100,-100,-100,"0,0,0",-1,0,163,0,0,0,65,66,80,50,100,-19.56,4,-26.0,-10.0,-967.0,11:04:34.085850,192.168.0.114
245,-1,-100,-100,-100,"0,0,0",-1,0,163,0,0,0,65,66,80,50,100,-19.57,4,-13.0,3.0,-1004.0,11:04:34.187999,192.168.0.114
250,-1,-100,-100,-100,"0,0,0",-1,0,163,0,0,0,65,66,79,50,100,-19.52,4,-42.0,19.0,-983.0,11:04:34.289990,192.168.0.114
256,-1,-100,-100,-100,"0,0,0",-1,0,163,0,0,0,65,67,78,50,100,-19.69,4,-20.0,0.0,-1031.0,11:04:34.391949,192.168.0.114
261,-1,-100,-100,-100,"0,0,0",-1,0,163,0,0,0,65,67,78,50,100,-19.78,5,-82.0,20.0,-1065.0,11:04:34.493793,192.168.0.114
266,-1,-100,-100,-100,"0,0,0",-2,0,163,0,0,0,65,67,78,50,100,-19.79,5,-82.0,22.0,-1015.0,11:04:34.596029,192.168.0.114
271,-1,-100,-100,-100,"0,0,0",-3,0,163,0,0,0,65,67,78,50,100,-19.68,5,-28.0,7.0,-997.0,11:04:34.697330,192.168.0.114
276,-1,-100,-100,-100,"0,0,0",-3,-1,162,0,0,0,65,67,79,50,100,-19.7,5,-15.0,-21.0,-980.0,11:04:34.799803,192.168.0.114
281,-1,-100,-100,-100,"0,0,0",-3,-1,162,0,0,0,65,67,79,50,100,-19.76,5,-74.0,9.0,-1014.0,11:04:34.901655,192.168.0.114
286,-1,-100,-100,-100,"0,0,0",-3,-1,162,0,0,0,65,67,79,50,100,-19.71,5,-35.0,-12.0,-979.0,11:04:35.003725,192.168.0.114
291,-1,-100,-100,-100,"0,0,0",-2,0,162,0,0,0,65,67,79,50,100,-19.78,5,-62.0,-4.0,-998.0,11:04:35.105870,192.168.0.114
296,-1,-100,-100,-100,"0,0,0",-3,0,162,0,0,0,65,67,80,50,100,-19.79,5,-19.0,-13.0,-984.0,11:04:35.207795,192.168.0.114
301,-1,-100,-100,-100,"0,0,0",-3,0,162,0,0,0,65,67,79,50,100,-19.77,5,-60.0,12.0,-1006.0,11:04:35.309693,192.168.0.114
306,-1,-100,-100,-100,"0,0,0",-3,0,162,0,0,0,65,67,79,50,100,-19.72,5,-46.0,-8.0,-945.0,11:04:35.411807,192.168.0.114
311,-1,-100,-100,-100,"0,0,0",-3,-1,162,0,0,0,65,67,80,50,100,-19.66,6,-14.0,-38.0,-1008.0,11:04:35.514116,192.168.0.114
316,-1,-100,-100,-100,"0,0,0",-2,0,162,0,0,0,65,67,79,50,100,-19.71,6,-59.0,-1.0,-1034.0,11:04:35.615559,192.168.0.114
321,-1,-100,-100,-100,"0,0,0",-2,0,162,0,0,0,65,67,79,50,100,-19.86,6,-103.0,20.0,-1038.0,11:04:35.717528,192.168.0.114
326,-1,-100,-100,-100,"0,0,0",-3,0,162,0,0,0,65,67,79,50,100,-19.75,6,-31.0,-17.0,-975.0,11:04:35.819837,192.168.0.114
331,-1,-100,-100,-100,"0,0,0",-3,0,162,0,0,0,65,67,79,50,100,-19.69,6,-43.0,-4.0,-1019.0,11:04:35.922153,192.168.0.114
337,-1,-100,-100,-100,"0,0,0",-2,1,163,0,0,0,65,67,79,50,100,-19.81,6,-53.0,-5.0,-1008.0,11:04:36.024402,192.168.0.114
343,-1,-100,-100,-100,"0,0,0",-2,0,163,0,0,0,65,67,78,50,100,-19.78,6,-53.0,11.0,-990.0,11:04:36.126831,192.168.0.114
345,-1,-100,-100,-100,"0,0,0",-3,0,163,0,0,0,65,67,78,50,100,-19.74,6,-51.0,-7.0,-1025.0,11:04:36.176623,192.168.0.114
350,-1,-100,-100,-100,"0,0,0",-3,0,163,0,0,0,65,67,78,50,100,-19.93,6,-66.0,23.0,-1018.0,11:04:36.278512,192.168.0.114
355,-1,-100,-100,-100,"0,0,0",-3,0,163,0,0,0,65,67,78,50,100,-19.88,6,-69.0,9.0,-997.0,11:04:36.380547,192.168.0.114
360,-1,-100,-100,-100,"0,0,0",-3,0,163,0,0,0,65,67,78,50,100,-19.7,7,-66.0,27.0,-994.0,11:04:36.482504,192.168.0.114
365,-1,-100,-100,-100,"0,0,0",-4,0,163,0,0,0,65,67,79,50,100,-19.86,7,-58.0,-5.0,-984.0,11:04:36.584266,192.168.0.114
370,-1,-100,-100,-100,"0,0,0",-3,0,162,0,0,0,65,67,78,50,100,-19.82,7,-49.0,-4.0,-976.0,11:04:36.686535,192.168.0.114
375,-1,-100,-100,-100,"0,0,0",-3,0,162,0,0,0,65,67,78,50,100,-19.81,7,-26.0,-17.0,-1008.0,11:04:36.788474,192.168.0.114
380,-1,-100,-100,-100,"0,0,0",-3,0,162,0,0,0,65,67,78,50,100,-19.78,7,-27.0,-15.0,-1011.0,11:04:36.890432,192.168.0.114
385,-1,-100,-100,-100,"0,0,0",-3,0,162,0,0,0,65,67,78,50,100,-19.69,7,-46.0,-3.0,-1018.0,11:04:36.992607,192.168.0.114
390,-1,-100,-100,-100,"0,0,0",-2,0,162,0,0,0,65,67,77,50,100,-19.68,7,-28.0,-29.0,-996.0,11:04:37.094353,192.168.0.114
395,-1,-100,-100,-100,"0,0,0",-2,0,163,0,0,0,65,67,78,50,100,-19.74,7,-49.0,-10.0,-1005.0,11:04:37.196458,192.168.0.114
400,-1,-100,-100,-100,"0,0,0",-1,1,163,0,0,0,65,67,78,50,100,-19.74,7,-27.0,-9.0,-1030.0,11:04:37.298342,192.168.0.114
406,-1,-100,-100,-100,"0,0,0",-2,1,163,0,0,0,65,67,78,50,100,-19.74,7,-47.0,0.0,-983.0,11:04:37.400349,192.168.0.114
411,-1,-100,-100,-100,"0,0,0",-2,0,163,0,0,0,65,67,79,50,100,-19.66,8,-18.0,-24.0,-1002.0,11:04:37.502222,192.168.0.114
415,-1,-100,-100,-100,"0,0,0",-2,0,162,0,0,0,65,67,79,50,100,-19.69,8,-56.0,-10.0,-998.0,11:04:37.604514,192.168.0.114
421,-1,-100,-100,-100,"0,0,0",-2,0,162,0,0,0,65,67,79,50,100,-19.71,8,-29.0,-18.0,-974.0,11:04:37.706292,192.168.0.114
426,-1,-100,-100,-100,"0,0,0",-2,1,162,0,0,0,65,67,79,50,100,-19.74,8,-43.0,-5.0,-1008.0,11:04:37.808328,192.168.0.114
431,-1,-100,-100,-100,"0,0,0",-2,1,162,0,0,0,65,67,80,50,100,-19.68,8,-46.0,-6.0,-1015.0,11:04:37.910133,192.168.0.114
436,-1,-100,-100,-100,"0,0,0",-2,0,163,0,0,0,65,67,80,50,100,-19.65,8,-17.0,-8.0,-984.0,11:04:38.012318,192.168.0.114
441,-1,-100,-100,-100,"0,0,0",-2,1,163,0,0,0,65,67,79,50,100,-19.7,8,-34.0,-13.0,-969.0,11:04:38.114363,192.168.0.114
446,-1,-100,-100,-100,"0,0,0",-1,0,163,0,0,0,65,67,80,50,100,-19.69,8,-13.0,-22.0,-1011.0,11:04:38.215553,192.168.0.114
452,-1,-100,-100,-100,"0,0,0",-1,0,163,0,0,0,65,67,79,50,100,-19.72,8,-8.0,-31.0,-994.0,11:04:38.320214,192.168.0.114
456,-1,-100,-100,-100,"0,0,0",-1,1,163,0,0,0,65,67,80,50,100,-19.66,8,-35.0,-28.0,-977.0,11:04:38.421252,192.168.0.114
461,-1,-100,-100,-100,"0,0,0",-1,1,163,0,0,0,65,67,80,50,100,-19.79,9,-49.0,-8.0,-1021.0,11:04:38.522299,192.168.0.114
467,-1,-100,-100,-100,"0,0,0",-2,1,163,0,0,0,65,67,80,50,100,-19.86,9,-58.0,-11.0,-970.0,11:04:38.625139,192.168.0.114
472,-1,-100,-100,-100,"0,0,0",-1,1,163,0,0,0,65,67,81,50,100,-19.82,9,-49.0,6.0,-987.0,11:04:38.726081,192.168.0.114
476,-1,-100,-100,-100,"0,0,0",-2,1,163,0,0,0,65,67,80,50,100,-19.73,9,-39.0,25.0,-997.0,11:04:38.779062,192.168.0.114
480,-1,-100,-100,-100,"0,0,0",-2,0,163,0,0,0,65,67,81,50,100,-19.71,9,-25.0,11.0,-1006.0,11:04:38.879158,192.168.0.114
485,-1,-100,-100,-100,"0,0,0",-2,0,163,0,0,0,65,67,81,50,100,-19.73,9,-6.0,-34.0,-990.0,11:04:38.981194,192.168.0.114
490,-1,-100,-100,-100,"0,0,0",-1,0,163,0,0,0,65,67,81,50,100,-19.7,9,-8.0,-21.0,-1001.0,11:04:39.083156,192.168.0.114
495,-1,-100,-100,-100,"0,0,0",-1,0,163,0,0,0,65,67,81,50,100,-19.69,9,-15.0,-21.0,-999.0,11:04:39.185125,192.168.0.114
500,-1,-100,-100,-100,"0,0,0",-1,1,163,0,0,0,65,67,81,50,100,-19.68,9,-20.0,-12.0,-1003.0,11:04:39.286996,192.168.0.114
505,-1,-100,-100,-100,"0,0,0",-1,1,163,0,0,0,65,67,81,50,100,-19.65,9,-14.0,-18.0,-991.0,11:04:39.388975,192.168.0.114
510,-1,-100,-100,-100,"0,0,0",-1,1,163,0,0,0,65,67,81,50,100,-19.65,10,-17.0,-12.0,-980.0,11:04:39.491318,192.168.0.114
515,-1,-100,-100,-100,"0,0,0",0,1,163,0,0,0,65,67,81,50,100,-19.7,10,-10.0,-18.0,-1016.0,11:04:39.593087,192.168.0.114
520,-1,-100,-100,-100,"0,0,0",0,0,163,0,0,0,65,67,80,50,100,-19.7,10,-35.0,-17.0,-992.0,11:04:39.694533,192.168.0.114
525,-1,-100,-100,-100,"0,0,0",0,0,163,0,0,0,65,67,81,50,100,-19.68,10,-48.0,8.0,-993.0,11:04:39.797073,192.168.0.114
530,-1,-100,-100,-100,"0,0,0",0,0,163,0,0,0,65,67,80,50,100,-19.75,10,-30.0,0.0,-1009.0,11:04:39.899167,192.168.0.114
535,-1,-100,-100,-100,"0,0,0",-1,0,163,0,0,0,65,67,79,50,100,-19.68,10,7.0,19.0,-997.0,11:04:40.000942,192.168.0.114
540,-1,-100,-100,-100,"0,0,0",-1,0,163,0,0,0,65,67,80,50,100,-19.73,10,12.0,-7.0,-1003.0,11:04:40.102894,192.168.0.114
545,-1,-100,-100,-100,"0,0,0",-1,-1,163,0,0,0,65,67,79,50,100,-19.6,10,-40.0,17.0,-1017.0,11:04:40.204946,192.168.0.114
550,-1,-100,-100,-100,"0,0,0",-1,0,163,0,0,0,65,67,79,50,100,-19.56,10,-23.0,12.0,-1028.0,11:04:40.306720,192.168.0.114
555,-1,-100,-100,-100,"0,0,0",0,0,163,0,0,0,65,68,79,50,100,-19.75,10,-24.0,21.0,-982.0,11:04:40.408618,192.168.0.114
560,-1,-100,-100,-100,"0,0,0",0,0,163,0,0,0,65,68,78,50,100,-19.71,11,-15.0,13.0,-1014.0,11:04:40.511186,192.168.0.114
565,-1,-100,-100,-100,"0,0,0",-1,0,163,0,0,0,65,68,78,50,100,-19.63,11,-15.0,15.0,-1015.0,11:04:40.612896,192.168.0.114
571,-1,-100,-100,-100,"0,0,0",-1,0,163,0,0,0,65,68,78,50,100,-19.67,11,-28.0,32.0,-1000.0,11:04:40.717868,192.168.0.114
575,-1,-100,-100,-100,"0,0,0",-1,-1,163,0,0,0,65,68,78,50,100,-19.61,11,-22.0,36.0,-993.0,11:04:40.816712,192.168.0.114
580,-1,-100,-100,-100,"0,0,0",-1,-1,163,0,0,0,65,68,78,50,100,-19.79,11,-28.0,10.0,-1025.0,11:04:40.918825,192.168.0.114
586,-1,-100,-100,-100,"0,0,0",0,-1,163,0,0,0,65,68,78,50,100,-19.9,11,-70.0,56.0,-1019.0,11:04:41.021453,192.168.0.114
592,-1,-100,-100,-100,"0,0,0",-1,-1,163,0,0,0,65,68,78,50,100,-19.77,11,-10.0,29.0,-972.0,11:04:41.122813,192.168.0.114
597,-1,-100,-100,-100,"0,0,0",-1,-1,163,0,0,0,65,68,79,50,100,-19.85,11,-39.0,0.0,-1027.0,11:04:41.224490,192.168.0.114
602,-1,-100,-100,-100,"0,0,0",-2,-1,162,0,0,0,65,68,80,50,100,-19.72,11,-30.0,34.0,-993.0,11:04:41.326799,192.168.0.114
607,-1,-100,-100,-100,"0,0,0",-2,-1,162,0,0,0,66,67,80,50,100,-19.76,11,-13.0,12.0,-986.0,11:04:41.428466,192.168.0.114
612,-1,-100,-100,-100,"0,0,0",-2,-2,162,0,0,0,66,67,81,50,100,-19.78,12,-57.0,27.0,-999.0,11:04:41.530639,192.168.0.114
617,-1,-100,-100,-100,"0,0,0",-1,-2,162,0,0,0,66,67,81,50,100,-19.83,12,-38.0,7.0,-1003.0,11:04:41.632916,192.168.0.114
622,-1,-100,-100,-100,"0,0,0",-1,-1,162,0,0,0,66,67,82,50,100,-19.7,12,4.0,9.0,-978.0,11:04:41.734765,192.168.0.114
625,-1,-100,-100,-100,"0,0,0",-1,-1,162,0,0,0,66,67,82,50,100,-19.68,12,-35.0,1.0,-969.0,11:04:41.785701,192.168.0.114
630,-1,-100,-100,-100,"0,0,0",-1,0,162,0,0,0,66,67,83,50,100,-19.73,12,-38.0,36.0,-993.0,11:04:41.887681,192.168.0.114
635,-1,-100,-100,-100,"0,0,0",-1,-1,162,0,0,0,66,67,83,50,100,-19.76,12,-27.0,35.0,-993.0,11:04:41.989662,192.168.0.114
640,-1,-100,-100,-100,"0,0,0",-2,-1,162,0,0,0,66,67,82,50,100,-19.78,12,-31.0,7.0,-976.0,11:04:42.091622,192.168.0.114
645,-1,-100,-100,-100,"0,0,0",-1,-1,162,0,0,0,66,67,82,50,100,-19.79,12,-24.0,7.0,-1045.0,11:04:42.193769,192.168.0.114
650,-1,-100,-100,-100,"0,0,0",-2,-1,162,0,0,0,66,67,82,50,100,-19.79,12,-67.0,-3.0,-981.0,11:04:42.295661,192.168.0.114
655,-1,-100,-100,-100,"0,0,0",-2,-1,162,0,0,0,65,67,82,50,100,-19.8,12,-62.0,9.0,-970.0,11:04:42.397617,192.168.0.114
660,-1,-100,-100,-100,"0,0,0",-3,0,162,0,0,0,65,67,82,50,100,-19.78,13,-81.0,25.0,-1050.0,11:04:42.501393,192.168.0.114
665,-1,-100,-100,-100,"0,0,0",-3,-1,162,0,0,0,65,67,83,50,100,-19.78,13,-80.0,41.0,-1031.0,11:04:42.601617,192.168.0.114
670,-1,-100,-100,-100,"0,0,0",-3,0,163,0,0,0,65,67,83,50,100,-19.74,13,-69.0,-1.0,-1008.0,11:04:42.703529,192.168.0.114
675,-1,-100,-100,-100,"0,0,0",-3,0,163,0,0,0,65,67,84,50,100,-19.84,13,-58.0,2.0,-978.0,11:04:42.805610,192.168.0.114
680,-1,-100,-100,-100,"0,0,0",-3,0,163,0,0,0,65,67,84,50,100,-19.9,13,-41.0,4.0,-988.0,11:04:42.907557,192.168.0.114
685,-1,-100,-100,-100,"0,0,0",-3,-1,163,0,0,0,65,67,84,50,100,-19.88,13,-35.0,10.0,-962.0,11:04:43.009599,192.168.0.114
690,-1,-100,-100,-100,"0,0,0",-3,-1,163,0,0,0,65,67,84,50,100,-19.86,13,-39.0,20.0,-987.0,11:04:43.111466,192.168.0.114
695,-1,-100,-100,-100,"0,0,0",-2,0,163,0,0,0,65,67,84,50,100,-19.8,13,-30.0,12.0,-990.0,11:04:43.213515,192.168.0.114
700,-1,-100,-100,-100,"0,0,0",-2,0,163,0,0,0,65,67,83,50,100,-19.88,13,-47.0,7.0,-998.0,11:04:43.316018,192.168.0.114
705,-1,-100,-100,-100,"0,0,0",-2,0,163,0,0,0,66,67,83,50,100,-19.96,13,-49.0,9.0,-1023.0,11:04:43.417705,192.168.0.114
710,-1,-100,-100,-100,"0,0,0",-2,-1,163,0,0,0,66,67,83,50,100,-19.83,14,-53.0,26.0,-1022.0,11:04:43.520193,192.168.0.114
715,-1,-100,-100,-100,"0,0,0",-2,0,163,0,0,0,66,67,82,50,100,-19.89,14,-60.0,10.0,-964.0,11:04:43.621797,192.168.0.114
721,-1,-100,-100,-100,"0,0,0",-2,0,163,0,0,0,66,67,82,50,100,-19.78,14,-53.0,19.0,-1001.0,11:04:43.723230,192.168.0.114
726,-1,-100,-100,-100,"0,0,0",-2,0,163,0,0,0,66,67,82,50,100,-19.76,14,-40.0,1.0,-992.0,11:04:43.825943,192.168.0.114
731,-1,-100,-100,-100,"0,0,0",-2,0,162,0,0,0,66,67,80,50,100,-19.78,14,-51.0,4.0,-995.0,11:04:43.927491,192.168.0.114
736,-1,-100,-100,-100,"0,0,0",-2,0,162,0,0,0,66,67,80,50,100,-19.74,14,-17.0,10.0,-1002.0,11:04:44.029473,192.168.0.114
741,-1,-100,-100,-100,"0,0,0",-1,0,162,0,0,0,66,67,79,50,100,-19.82,14,-51.0,20.0,-990.0,11:04:44.131784,192.168.0.114
746,-1,-100,-100,-100,"0,0,0",-1,0,163,0,0,0,66,67,78,50,100,-19.86,14,-21.0,15.0,-1035.0,11:04:44.233483,192.168.0.114
751,-1,-100,-100,-100,"0,0,0",-1,0,163,0,0,0,66,67,78,50,100,-19.83,14,-26.0,3.0,-1009.0,11:04:44.335317,192.168.0.114
756,-1,-100,-100,-100,"0,0,0",0,0,163,0,0,0,66,68,78,50,100,-19.79,14,0.0,-4.0,-1034.0,11:04:44.437574,192.168.0.114
762,-1,-100,-100,-100,"0,0,0",0,0,163,0,0,0,66,68,78,50,100,-19.76,15,-40.0,18.0,-995.0,11:04:44.539392,192.168.0.114
766,-1,-100,-100,-100,"0,0,0",-1,0,162,0,0,0,66,68,78,50,100,-19.63,15,-24.0,-4.0,-1010.0,11:04:44.641416,192.168.0.114
772,-1,-100,-100,-100,"0,0,0",0,0,162,0,0,0,66,68,78,50,100,-19.87,15,-44.0,13.0,-1024.0,11:04:44.742889,192.168.0.114
777,-1,-100,-100,-100,"0,0,0",0,0,162,0,0,0,66,68,78,50,100,-19.93,15,-42.0,13.0,-987.0,11:04:44.845118,192.168.0.114
782,-1,-100,-100,-100,"0,0,0",0,0,162,0,0,0,66,68,79,50,100,-19.78,15,-34.0,-13.0,-964.0,11:04:44.947252,192.168.0.114
785,-1,-100,-100,-100,"0,0,0",-1,0,162,0,0,0,66,68,79,50,100,-19.72,15,-42.0,-16.0,-998.0,11:04:44.998816,192.168.0.114
790,-1,-100,-100,-100,"0,0,0",-1,0,162,0,0,0,66,68,78,50,100,-19.88,15,-33.0,-6.0,-1003.0,11:04:45.100301,192.168.0.114
795,-1,-100,-100,-100,"0,0,0",-1,1,162,0,0,0,66,68,78,50,100,-19.79,15,-43.0,-7.0,-1002.0,11:04:45.202284,192.168.0.114
800,-1,-100,-100,-100,"0,0,0",-1,0,162,0,0,0,66,68,78,50,100,-19.86,15,-34.0,16.0,-978.0,11:04:45.304358,192.168.0.114
805,-1,-100,-100,-100,"0,0,0",-2,0,162,0,0,0,65,67,78,50,100,-19.7,16,-28.0,-11.0,-1025.0,11:04:45.406324,192.168.0.114
810,-1,-100,-100,-100,"0,0,0",-2,0,162,0,0,0,65,67,78,50,100,-19.85,16,2.0,-11.0,-1023.0,11:04:45.509664,192.168.0.114
815,-1,-100,-100,-100,"0,0,0",-1,0,162,0,0,0,65,67,78,50,100,-19.8,16,-7.0,-8.0,-982.0,11:04:45.610343,192.168.0.114
820,-1,-100,-100,-100,"0,0,0",-1,0,163,0,0,0,65,67,78,50,100,-19.76,16,-42.0,3.0,-1014.0,11:04:45.712330,192.168.0.114
825,-1,-100,-100,-100,"0,0,0",-2,0,163,0,0,0,65,67,78,50,100,-19.73,16,-15.0,-14.0,-986.0,11:04:45.814193,192.168.0.114
830,-1,-100,-100,-100,"0,0,0",-2,0,163,0,0,0,65,67,78,50,100,-19.79,16,-36.0,0.0,-1003.0,11:04:45.916264,192.168.0.114
835,-1,-100,-100,-100,"0,0,0",-1,0,163,0,0,0,65,67,79,50,100,-19.67,16,-23.0,-4.0,-986.0,11:04:46.017848,192.168.0.114
840,-1,-100,-100,-100,"0,0,0",-1,0,163,0,0,0,65,67,79,50,100,-19.7,16,-27.0,-2.0,-988.0,11:04:46.120317,192.168.0.114
845,-1,-100,-100,-100,"0,0,0",-1,0,163,0,0,0,65,67,79,50,100,-19.75,16,-10.0,0.0,-1004.0,11:04:46.222190,192.168.0.114
850,-1,-100,-100,-100,"0,0,0",-1,0,163,0,0,0,65,67,79,50,100,-19.77,16,0.0,-10.0,-994.0,11:04:46.323928,192.168.0.114
855,-1,-100,-100,-100,"0,0,0",-1,0,163,0,0,0,66,68,79,50,100,-19.75,17,-20.0,-1.0,-994.0,11:04:46.427361,192.168.0.114
860,-1,-100,-100,-100,"0,0,0",-1,0,163,0,0,0,66,68,79,50,100,-19.79,17,-32.0,2.0,-1018.0,11:04:46.528010,192.168.0.114
865,-1,-100,-100,-100,"0,0,0",0,0,163,0,0,0,66,68,79,50,100,-19.75,17,-17.0,-8.0,-1003.0,11:04:46.630085,192.168.0.114
870,-1,-100,-100,-100,"0,0,0",-1,0,163,0,0,0,66,68,78,50,100,-19.72,17,-24.0,0.0,-993.0,11:04:46.732140,192.168.0.114
875,-1,-100,-100,-100,"0,0,0",0,0,163,0,0,0,66,68,79,50,100,-19.76,17,-4.0,-19.0,-994.0,11:04:46.834193,192.168.0.114
880,-1,-100,-100,-100,"0,0,0",0,0,163,0,0,0,66,68,79,50,100,-19.7,17,-26.0,17.0,-983.0,11:04:46.936210,192.168.0.114
885,-1,-100,-100,-100,"0,0,0",0,0,163,0,0,0,66,68,79,50,100,-19.72,17,-5.0,-26.0,-1009.0,11:04:47.037887,192.168.0.114
890,-1,-100,-100,-100,"0,0,0",0,0,163,0,0,0,66,68,78,50,100,-19.75,17,-12.0,0.0,-1022.0,11:04:47.139981,192.168.0.114
895,-1,-100,-100,-100,"0,0,0",0,0,163,0,0,0,66,68,79,50,100,-19.74,17,0.0,-12.0,-990.0,11:04:47.241995,192.168.0.114
901,-1,-100,-100,-100,"0,0,0",0,0,163,0,0,0,66,68,79,50,100,-19.76,17,-14.0,19.0,-1001.0,11:04:47.343974,192.168.0.114
906,-1,-100,-100,-100,"0,0,0",0,0,163,0,0,0,65,67,79,50,100,-19.81,18,-9.0,-5.0,-1019.0,11:04:47.447082,192.168.0.114
911,-1,-100,-100,-100,"0,0,0",0,0,163,0,0,0,65,67,79,50,100,-19.84,18,-23.0,-4.0,-994.0,11:04:47.548174,192.168.0.114
916,-1,-100,-100,-100,"0,0,0",-1,0,163,0,0,0,65,67,79,50,100,-19.8,18,-34.0,-15.0,-1000.0,11:04:47.650140,192.168.0.114
921,-1,-100,-100,-100,"0,0,0",0,0,163,0,0,0,65,67,79,50,100,-19.81,18,-32.0,-5.0,-992.0,11:04:47.752016,192.168.0.114
926,-1,-100,-100,-100,"0,0,0",0,0,163,0,0,0,65,67,79,50,100,-19.69,18,-27.0,1.0,-992.0,11:04:47.863541,192.168.0.114
931,-1,-100,-100,-100,"0,0,0",0,0,163,0,0,0,65,67,79,50,100,-19.76,18,-39.0,23.0,-979.0,11:04:47.957713,192.168.0.114
936,-1,-100,-100,-100,"0,0,0",0,0,163,0,0,0,65,67,79,50,100,-19.71,18,-1.0,-1.0,-1006.0,11:04:48.058434,192.168.0.114
942,-1,-100,-100,-100,"0,0,0",0,0,163,0,0,0,65,67,79,50,100,-19.66,18,-10.0,25.0,-996.0,11:04:48.170780,192.168.0.114
947,-1,-100,-100,-100,"0,0,0",-1,0,163,0,0,0,65,67,78,50,100,-19.71,18,-15.0,3.0,-1001.0,11:04:48.261995,192.168.0.114
951,-1,-100,-100,-100,"0,0,0",-1,0,163,0,0,0,65,67,77,50,100,-19.74,18,6.0,-7.0,-1007.0,11:04:48.314981,192.168.0.114
957,-1,-100,-100,-100,"0,0,0",0,0,163,0,0,0,65,67,78,50,100,-19.75,19,-21.0,8.0,-1042.0,11:04:48.468318,192.168.0.114
962,-1,-100,-100,-100,"0,0,0",-1,-1,163,0,0,0,65,67,77,50,100,-19.63,19,-2.0,7.0,-1016.0,11:04:48.569101,192.168.0.114
965,-1,-100,-100,-100,"0,0,0",-1,0,163,0,0,0,65,67,77,50,100,-19.67,19,-26.0,1.0,-1011.0,11:04:48.618736,192.168.0.114
970,-1,-100,-100,-100,"0,0,0",-1,0,163,0,0,0,65,67,77,50,100,-19.7,19,-14.0,0.0,-1004.0,11:04:48.721036,192.168.0.114
975,-1,-100,-100,-100,"0,0,0",0,0,163,0,0,0,65,67,77,50,100,-19.66,19,-13.0,0.0,-994.0,11:04:48.823375,192.168.0.114
980,-1,-100,-100,-100,"0,0,0",0,0,163,0,0,0,65,67,77,50,100,-19.53,19,1.0,13.0,-1003.0,11:04:48.925747,192.168.0.114
985,-1,-100,-100,-100,"0,0,0",0,0,163,0,0,0,65,67,77,50,100,-19.63,19,-8.0,-2.0,-994.0,11:04:49.028654,192.168.0.114
991,-1,-100,-100,-100,"0,0,0",0,0,163,0,0,0,65,67,77,50,100,-19.8,19,-17.0,13.0,-1000.0,11:04:49.131294,192.168.0.114
996,-1,-100,-100,-100,"0,0,0",0,0,163,0,0,0,65,67,77,50,100,-19.63,19,-7.0,20.0,-1005.0,11:04:49.233108,192.168.0.114
1001,-1,-100,-100,-100,"0,0,0",0,0,163,0,0,0,65,67,77,50,100,-19.69,19,-11.0,9.0,-1010.0,11:04:49.335928,192.168.0.114
1005,-1,-100,-100,-100,"0,0,0",0,0,163,0,0,0,66,67,78,50,100,-19.76,20,-19.0,7.0,-997.0,11:04:49.434883,192.168.0.114
1010,-1,-100,-100,-100,"0,0,0",0,0,163,0,0,0,66,67,78,50,100,-19.55,20,-1.0,8.0,-1016.0,11:04:49.536677,192.168.0.114
1015,-1,-100,-100,-100,"0,0,0",0,0,163,0,0,0,66,67,78,50,100,-19.46,20,0.0,20.0,-994.0,11:04:49.639954,192.168.0.114
1020,-1,-100,-100,-100,"0,0,0",0,0,163,0,0,0,66,67,78,50,100,-19.61,20,-5.0,30.0,-990.0,11:04:49.740278,192.168.0.114
1025,-1,-100,-100,-100,"0,0,0",0,0,163,0,0,0,66,67,78,50,100,-19.57,20,-22.0,15.0,-1017.0,11:04:49.842816,192.168.0.114
1030,-1,-100,-100,-100,"0,0,0",0,0,162,0,0,0,66,67,78,50,100,-19.51,20,4.0,24.0,-999.0,11:04:49.944724,192.168.0.114
1035,-1,-100,-100,-100,"0,0,0",0,-1,162,0,0,0,66,67,78,50,100,-19.63,20,2.0,36.0,-998.0,11:04:50.046674,192.168.0.114
1041,-1,-100,-100,-100,"0,0,0",0,-1,163,0,0,0,66,67,79,50,100,-19.6,20,3.0,28.0,-976.0,11:04:50.150517,192.168.0.114
1045,-1,-100,-100,-100,"0,0,0",0,-2,163,0,0,0,66,67,77,50,100,-19.5,20,27.0,32.0,-1002.0,11:04:50.250811,192.168.0.114
1050,-1,-100,-100,-100,"0,0,0",0,-2,163,0,0,0,66,67,78,50,100,-19.5,20,12.0,22.0,-974.0,11:04:50.352585,192.168.0.114
1055,-1,-100,-100,-100,"0,0,0",0,-2,162,0,0,0,66,68,78,50,100,-19.51,21,28.0,44.0,-1029.0,11:04:50.454663,192.168.0.114
1060,-1,-100,-100,-100,"0,0,0",1,-2,162,0,0,0,66,68,78,50,100,-19.66,21,21.0,43.0,-1019.0,11:04:50.556675,192.168.0.114
1066,-1,-100,-100,-100,"0,0,0",1,-2,162,0,0,0,66,68,78,50,100,-19.58,21,16.0,22.0,-978.0,11:04:50.658767,192.168.0.114
1071,-1,-100,-100,-100,"0,0,0",2,-2,162,0,0,0,66,68,79,50,100,-19.54,21,28.0,11.0,-974.0,11:04:50.760218,192.168.0.114
1076,-1,-100,-100,-100,"0,0,0",2,-2,162,0,0,0,66,68,79,50,100,-19.59,21,25.0,8.0,-995.0,11:04:50.862814,192.168.0.114
1080,-1,-100,-100,-100,"0,0,0",2,-1,162,0,0,0,66,68,79,50,100,-19.52,21,8.0,17.0,-1006.0,11:04:50.964491,192.168.0.114
1086,-1,-100,-100,-100,"0,0,0",2,-1,162,0,0,0,66,68,79,50,100,-19.58,21,28.0,-18.0,-987.0,11:04:51.066637,192.168.0.114
1092,-1,-100,-100,-100,"0,0,0",2,0,162,0,0,0,66,68,80,50,100,-19.56,21,41.0,-17.0,-1004.0,11:04:51.168611,192.168.0.114
1097,-1,-100,-100,-100,"0,0,0",2,1,162,0,0,0,66,68,79,50,100,-19.64,21,37.0,22.0,-1007.0,11:04:51.270615,192.168.0.114
1102,-1,-100,-100,-100,"0,0,0",2,1,163,0,0,0,66,68,79,50,100,-19.7,21,30.0,6.0,-1002.0,11:04:51.372291,192.168.0.114
1107,-1,-100,-100,-100,"0,0,0",2,0,163,0,0,0,66,67,80,50,100,-19.62,22,21.0,-1.0,-991.0,11:04:51.474296,192.168.0.114
1112,-1,-100,-100,-100,"0,0,0",1,0,163,0,0,0,66,67,79,50,100,-19.64,22,30.0,-22.0,-998.0,11:04:51.576472,192.168.0.114
1117,-1,-100,-100,-100,"0,0,0",2,0,163,0,0,0,66,67,80,50,100,-19.56,22,15.0,7.0,-1015.0,11:04:51.678606,192.168.0.114
1122,-1,-100,-100,-100,"0,0,0",1,1,163,0,0,0,66,67,80,50,100,-19.63,22,48.0,-20.0,-1009.0,11:04:51.780493,192.168.0.114
1127,-1,-100,-100,-100,"0,0,0",1,0,163,0,0,0,66,67,80,50,100,-19.65,22,17.0,0.0,-995.0,11:04:51.882550,192.168.0.114
1130,-1,-100,-100,-100,"0,0,0",1,0,163,0,0,0,66,67,79,50,100,-19.67,22,14.0,-24.0,-1004.0,11:04:51.933416,192.168.0.114
1135,-1,-100,-100,-100,"0,0,0",0,0,163,0,0,0,66,67,79,50,100,-19.67,22,2.0,-13.0,-1013.0,11:04:52.035364,192.168.0.114
1140,-1,-100,-100,-100,"0,0,0",0,0,163,0,0,0,66,67,79,50,100,-19.64,22,27.0,-10.0,-1021.0,11:04:52.137419,192.168.0.114
1145,-1,-100,-100,-100,"0,0,0",0,1,163,0,0,0,66,67,79,50,100,-19.66,22,18.0,-22.0,-993.0,11:04:52.239364,192.168.0.114
1150,-1,-100,-100,-100,"0,0,0",0,1,163,0,0,0,66,67,79,50,100,-19.74,22,-2.0,-3.0,-988.0,11:04:52.341413,192.168.0.114
1155,-1,-100,-100,-100,"0,0,0",0,1,163,0,0,0,65,68,79,50,100,-19.69,23,21.0,-10.0,-1022.0,11:04:52.443400,192.168.0.114
1160,-1,-100,-100,-100,"0,0,0",0,0,163,0,0,0,65,68,80,50,100,-19.74,23,15.0,0.0,-1001.0,11:04:52.545336,192.168.0.114
1165,-1,-100,-100,-100,"0,0,0",0,0,163,0,0,0,65,68,80,50,100,-19.71,23,22.0,12.0,-1027.0,11:04:52.647323,192.168.0.114
1170,-1,-100,-100,-100,"0,0,0",0,0,162,0,0,0,65,68,80,50,100,-19.64,23,35.0,-10.0,-988.0,11:04:52.749376,192.168.0.114
1175,-1,-100,-100,-100,"0,0,0",1,0,162,0,0,0,65,68,80,50,100,-19.73,23,23.0,14.0,-993.0,11:04:52.852182,192.168.0.114
1180,-1,-100,-100,-100,"0,0,0",1,0,162,0,0,0,65,68,80,50,100,-19.67,23,11.0,14.0,-1008.0,11:04:52.953391,192.168.0.114
1185,-1,-100,-100,-100,"0,0,0",1,0,162,0,0,0,65,68,80,50,100,-19.62,23,9.0,-9.0,-979.0,11:04:53.055507,192.168.0.114
1190,-1,-100,-100,-100,"0,0,0",1,0,162,0,0,0,65,68,80,50,100,-19.67,23,14.0,-9.0,-980.0,11:04:53.157374,192.168.0.114
1195,-1,-100,-100,-100,"0,0,0",1,0,162,0,0,0,65,68,80,50,100,-19.67,23,28.0,16.0,-1020.0,11:04:53.259609,192.168.0.114
1201,-1,-100,-100,-100,"0,0,0",1,0,163,0,0,0,65,68,80,50,100,-19.69,23,40.0,-1.0,-1015.0,11:04:53.363343,192.168.0.114
1205,-1,-100,-100,-100,"0,0,0",1,0,163,0,0,0,66,67,80,50,100,-19.74,24,16.0,10.0,-1000.0,11:04:53.463321,192.168.0.114
1210,-1,-100,-100,-100,"0,0,0",1,0,163,0,0,0,66,67,80,50,100,-19.74,24,1.0,1.0,-980.0,11:04:53.565422,192.168.0.114
1215,-1,-100,-100,-100,"0,0,0",0,0,163,0,0,0,66,67,80,50,100,-19.68,24,15.0,16.0,-1021.0,11:04:53.667171,192.168.0.114
1220,-1,-100,-100,-100,"0,0,0",0,0,163,0,0,0,66,67,80,50,100,-19.73,24,14.0,-1.0,-998.0,11:04:53.769163,192.168.0.114
1226,-1,-100,-100,-100,"0,0,0",0,0,163,0,0,0,66,67,79,50,100,-19.73,24,12.0,-6.0,-994.0,11:04:53.873120,192.168.0.114
1230,-1,-100,-100,-100,"0,0,0",0,0,163,0,0,0,66,67,80,50,100,-19.69,24,9.0,10.0,-988.0,11:04:53.973345,192.168.0.114
1236,-1,-100,-100,-100,"0,0,0",0,0,163,0,0,0,66,67,79,50,100,-19.66,24,14.0,6.0,-1004.0,11:04:54.075244,192.168.0.114
1241,-1,-100,-100,-100,"0,0,0",0,0,162,0,0,0,66,67,79,50,100,-19.59,24,3.0,-3.0,-993.0,11:04:54.177280,192.168.0.114
1246,-1,-100,-100,-100,"0,0,0",0,0,162,0,0,0,66,67,79,50,100,-19.81,24,2.0,-6.0,-997.0,11:04:54.279248,192.168.0.114
1252,-1,-100,-100,-100,"0,0,0",0,0,163,0,0,0,66,67,78,50,100,-19.68,24,-4.0,0.0,-1005.0,11:04:54.382783,192.168.0.114
1257,-1,-100,-100,-100,"0,0,0",0,0,163,0,0,0,66,67,79,50,100,-19.64,25,23.0,-4.0,-1011.0,11:04:54.483293,192.168.0.114
1262,-1,-100,-100,-100,"0,0,0",0,0,162,0,0,0,66,67,79,50,100,-19.73,25,2.0,8.0,-1021.0,11:04:54.585230,192.168.0.114
1267,-1,-100,-100,-100,"0,0,0",0,0,162,0,0,0,66,67,78,50,100,-19.69,25,17.0,18.0,-1012.0,11:04:54.686679,192.168.0.114
1272,-1,-100,-100,-100,"0,0,0",0,0,162,0,0,0,66,67,78,50,100,-19.67,25,3.0,2.0,-1001.0,11:04:54.789056,192.168.0.114
1277,-1,-100,-100,-100,"0,0,0",0,0,162,0,0,0,66,67,78,50,100,-19.65,25,-14.0,20.0,-987.0,11:04:54.891130,192.168.0.114
1282,-1,-100,-100,-100,"0,0,0",0,0,162,0,0,0,66,67,78,50,100,-19.71,25,-2.0,10.0,-1002.0,11:04:54.996951,192.168.0.114
1287,-1,-100,-100,-100,"0,0,0",0,0,162,0,0,0,66,67,78,50,100,-19.69,25,0.0,-14.0,-1000.0,11:04:55.095240,192.168.0.114
1292,-1,-100,-100,-100,"0,0,0",0,0,162,0,0,0,66,67,77,50,100,-19.75,25,6.0,6.0,-1030.0,11:04:55.197477,192.168.0.114
1297,-1,-100,-100,-100,"0,0,0",0,0,162,0,0,0,66,67,78,50,100,-19.7,25,28.0,-13.0,-1016.0,11:04:55.299979,192.168.0.114
1301,-1,-100,-100,-100,"0,0,0",0,0,162,0,0,0,66,67,78,50,100,-19.67,25,8.0,-17.0,-1005.0,11:04:55.351832,192.168.0.114
1307,-1,-100,-100,-100,"0,0,0",0,0,163,0,0,0,66,68,78,50,100,-19.8,26,-9.0,-13.0,-998.0,11:04:55.503447,192.168.0.114
1311,-1,-100,-100,-100,"0,0,0",0,0,163,0,0,0,66,68,79,50,100,-19.73,26,12.0,-21.0,-1007.0,11:04:55.555890,192.168.0.114
1315,-1,-100,-100,-100,"0,0,0",0,0,163,0,0,0,66,68,79,50,100,-19.74,26,-7.0,-9.0,-1001.0,11:04:55.656201,192.168.0.114
1320,-1,-100,-100,-100,"0,0,0",0,0,163,0,0,0,66,68,78,50,100,-19.74,26,-20.0,0.0,-991.0,11:04:55.758033,192.168.0.114
1325,-1,-100,-100,-100,"0,0,0",0,1,163,0,0,0,66,68,78,50,100,-19.72,26,-3.0,-29.0,-981.0,11:04:55.860154,192.168.0.114
1330,-1,-100,-100,-100,"0,0,0",0,1,163,0,0,0,66,68,78,50,100,-19.72,26,-15.0,10.0,-983.0,11:04:55.961801,192.168.0.114
1335,-1,-100,-100,-100,"0,0,0",0,1,163,0,0,0,66,68,78,50,100,-19.66,26,13.0,-17.0,-1018.0,11:04:56.064274,192.168.0.114
1340,-1,-100,-100,-100,"0,0,0",0,1,163,0,0,0,66,68,78,50,100,-19.69,26,18.0,-9.0,-1016.0,11:04:56.166015,192.168.0.114
1345,-1,-100,-100,-100,"0,0,0",0,1,163,0,0,0,66,68,77,50,100,-19.77,26,-4.0,24.0,-1004.0,11:04:56.268419,192.168.0.114
1350,-1,-100,-100,-100,"0,0,0",0,1,163,0,0,0,66,68,77,50,100,-19.74,26,-3.0,-27.0,-983.0,11:04:56.370024,192.168.0.114
1355,-1,-100,-100,-100,"0,0,0",0,0,162,0,0,0,66,68,77,50,100,-19.71,27,-4.0,-1.0,-988.0,11:04:56.471902,192.168.0.114
1360,-1,-100,-100,-100,"0,0,0",0,0,163,0,0,0,66,68,76,50,100,-19.69,27,3.0,-9.0,-1002.0,11:04:56.573969,192.168.0.114
1365,-1,-100,-100,-100,"0,0,0",0,0,163,0,0,0,66,68,76,50,100,-19.73,27,-13.0,4.0,-984.0,11:04:56.676117,192.168.0.114
1370,-1,-100,-100,-100,"0,0,0",0,0,163,0,0,0,66,68,76,50,100,-19.71,27,-8.0,-26.0,-993.0,11:04:56.777919,192.168.0.114
1375,-1,-100,-100,-100,"0,0,0",0,0,163,0,0,0,66,68,76,50,100,-19.74,27,-17.0,4.0,-989.0,11:04:56.880086,192.168.0.114
1380,-1,-100,-100,-100,"0,0,0",0,0,163,0,0,0,66,68,76,50,100,-19.68,27,-2.0,-3.0,-1005.0,11:04:56.981443,192.168.0.114
1386,-1,-100,-100,-100,"0,0,0",0,0,163,0,0,0,66,68,75,50,100,-19.7,27,-5.0,-18.0,-1006.0,11:04:57.085841,192.168.0.114
1390,-1,-100,-100,-100,"0,0,0",0,0,163,0,0,0,66,68,75,50,100,-19.72,27,-4.0,0.0,-997.0,11:04:57.186045,192.168.0.114
1395,-1,-100,-100,-100,"0,0,0",0,0,163,0,0,0,66,68,75,50,100,-19.72,27,-1.0,-20.0,-1012.0,11:04:57.287932,192.168.0.114
1400,-1,-100,-100,-100,"0,0,0",0,0,163,0,0,0,66,68,75,50,100,-19.76,27,-7.0,-3.0,-1016.0,11:04:57.389830,192.168.0.114
1405,-1,-100,-100,-100,"0,0,0",0,0,163,0,0,0,66,68,75,50,100,-19.74,28,3.0,-7.0,-1007.0,11:04:57.492651,192.168.0.114
1411,-1,-100,-100,-100,"0,0,0",0,0,162,0,0,0,66,68,75,50,100,-19.68,28,8.0,-9.0,-984.0,11:04:57.593852,192.168.0.114
1416,-1,-100,-100,-100,"0,0,0",0,0,162,0,0,0,66,68,75,50,100,-19.7,28,-3.0,-13.0,-1007.0,11:04:57.698010,192.168.0.114
1421,-1,-100,-100,-100,"0,0,0",0,0,162,0,0,0,66,68,75,50,100,-19.68,28,6.0,-1.0,-1005.0,11:04:57.797963,192.168.0.114
1426,-1,-100,-100,-100,"0,0,0",0,0,162,0,0,0,66,68,75,50,100,-19.64,28,-2.0,-14.0,-1014.0,11:04:57.899996,192.168.0.114
1430,-1,-100,-100,-100,"0,0,0",0,0,162,0,0,0,66,68,76,50,100,-19.72,28,8.0,0.0,-1008.0,11:04:58.001914,192.168.0.114
1437,-1,-100,-100,-100,"0,0,0",0,0,163,0,0,0,66,68,76,50,100,-19.66,28,-11.0,19.0,-1016.0,11:04:58.104044,192.168.0.114
1442,-1,-100,-100,-100,"0,0,0",0,0,163,0,0,0,66,68,76,50,100,-19.65,28,14.0,5.0,-983.0,11:04:58.205853,192.168.0.114
1447,-1,-100,-100,-100,"0,0,0",0,0,163,0,0,0,66,68,76,50,100,-19.64,28,13.0,-3.0,-969.0,11:04:58.308022,192.168.0.114
1452,-1,-100,-100,-100,"0,0,0",0,0,163,0,0,0,66,68,76,50,100,-19.73,28,6.0,-6.0,-988.0,11:04:58.409863,192.168.0.114
1457,-1,-100,-100,-100,"0,0,0",0,0,163,0,0,0,66,68,76,50,100,-19.67,29,5.0,17.0,-982.0,11:04:58.511898,192.168.0.114
1462,-1,-100,-100,-100,"0,0,0",0,0,163,0,0,0,66,68,76,50,100,-19.66,29,-4.0,7.0,-1003.0,11:04:58.613793,192.168.0.114
1467,-1,-100,-100,-100,"0,0,0",0,0,163,0,0,0,66,68,76,50,100,-19.72,29,-7.0,20.0,-1013.0,11:04:58.715893,192.168.0.114
1472,-1,-100,-100,-100,"0,0,0",0,0,163,0,0,0,66,68,76,50,100,-19.76,29,-25.0,31.0,-985.0,11:04:58.817827,192.168.0.114
1475,-1,-100,-100,-100,"0,0,0",0,0,163,0,0,0,66,68,76,50,100,-19.73,29,4.0,3.0,-1012.0,11:04:58.868921,192.168.0.114
1480,-1,-100,-100,-100,"0,0,0",0,0,163,0,0,0,66,68,76,50,100,-19.64,29,-16.0,21.0,-980.0,11:04:58.971175,192.168.0.114
1485,-1,-100,-100,-100,"0,0,0",0,0,163,0,0,0,66,68,77,50,100,-19.69,29,-4.0,35.0,-947.0,11:04:59.072911,192.168.0.114
1490,-1,-100,-100,-100,"0,0,0",0,0,163,0,0,0,66,68,76,50,100,-19.59,29,10.0,26.0,-970.0,11:04:59.174990,192.168.0.114
1495,-1,-100,-100,-100,"0,0,0",0,0,163,0,0,0,66,68,76,50,100,-19.67,29,1.0,24.0,-1034.0,11:04:59.276522,192.168.0.114
1500,-1,-100,-100,-100,"0,0,0",0,-2,163,0,0,0,66,68,76,50,100,-19.72,29,-19.0,7.0,-1060.0,11:04:59.378557,192.168.0.114
1505,-1,-100,-100,-100,"0,0,0",0,-2,163,0,0,0,66,68,76,50,100,-19.72,30,-4.0,0.0,-995.0,11:04:59.480874,192.168.0.114
1510,-1,-100,-100,-100,"0,0,0",0,-1,163,0,0,0,66,68,76,50,100,-19.74,30,1.0,-10.0,-1018.0,11:04:59.582771,192.168.0.114
1515,-1,-100,-100,-100,"0,0,0",-1,-1,163,0,0,0,66,68,77,50,100,-19.72,30,-10.0,1.0,-981.0,11:04:59.684723,192.168.0.114
1520,-1,-100,-100,-100,"0,0,0",0,0,163,0,0,0,66,68,77,50,100,-19.72,30,-17.0,1.0,-987.0,11:04:59.786750,192.168.0.114
1525,-1,-100,-100,-100,"0,0,0",-1,0,163,0,0,0,66,68,77,50,100,-19.83,30,-5.0,4.0,-1015.0,11:04:59.888972,192.168.0.114
1530,-1,-100,-100,-100,"0,0,0",-1,0,163,0,0,0,66,68,78,50,100,-19.69,30,-20.0,2.0,-1008.0,11:04:59.990878,192.168.0.114
1535,-1,-100,-100,-100,"0,0,0",0,0,163,0,0,0,66,68,78,50,100,-19.7,30,-6.0,0.0,-988.0,11:05:00.092589,192.168.0.114
1540,-1,-100,-100,-100,"0,0,0",0,0,163,0,0,0,66,68,78,50,100,-19.6,30,-50.0,37.0,-944.0,11:05:00.194631,192.168.0.114
1545,-1,-100,-100,-100,"0,0,0",0,0,163,0,0,0,66,68,79,50,100,-19.5,30,-11.0,8.0,-1005.0,11:05:00.296391,192.168.0.114
1550,-1,-100,-100,-100,"0,0,0",0,0,163,0,0,0,66,68,79,50,100,-19.72,30,-24.0,27.0,-1021.0,11:05:00.398575,192.168.0.114
1555,-1,-100,-100,-100,"0,0,0",-1,0,162,0,0,0,66,68,80,50,100,-19.62,31,-14.0,28.0,-1018.0,11:05:00.500617,192.168.0.114
1560,-1,-100,-100,-100,"0,0,0",-1,-1,162,0,0,0,66,68,80,50,100,-19.59,31,-3.0,2.0,-1007.0,11:05:00.602522,192.168.0.114
1565,-1,-100,-100,-100,"0,0,0",-1,-1,162,0,0,0,66,68,81,50,100,-19.59,31,16.0,45.0,-997.0,11:05:00.704649,192.168.0.114
1570,-1,-100,-100,-100,"0,0,0",-1,-1,162,0,0,0,66,68,81,50,100,-19.64,31,4.0,30.0,-991.0,11:05:00.806580,192.168.0.114
1576,-1,-100,-100,-100,"0,0,0",0,0,162,0,0,0,66,68,81,50,100,-19.58,31,-23.0,23.0,-966.0,11:05:00.908689,192.168.0.114
1580,-1,-100,-100,-100,"0,0,0",0,0,162,0,0,0,66,68,81,50,100,-19.61,31,1.0,15.0,-988.0,11:05:01.010640,192.168.0.114
1586,-1,-100,-100,-100,"0,0,0",0,-1,162,0,0,0,66,68,80,50,100,-19.56,31,5.0,7.0,-999.0,11:05:01.112696,192.168.0.114
1591,-1,-100,-100,-100,"0,0,0",0,-1,162,0,0,0,66,68,80,50,100,-19.65,31,-36.0,38.0,-986.0,11:05:01.214681,192.168.0.114
1597,-1,-100,-100,-100,"0,0,0",0,-1,162,0,0,0,66,68,80,50,100,-19.6,31,-14.0,23.0,-988.0,11:05:01.316375,192.168.0.114
1602,-1,-100,-100,-100,"0,0,0",0,-1,162,0,0,0,66,68,79,50,100,-19.63,31,-10.0,16.0,-1004.0,11:05:01.418638,192.168.0.114
1607,-1,-100,-100,-100,"0,0,0",0,0,162,0,0,0,66,69,80,50,100,-19.66,32,2.0,-4.0,-1003.0,11:05:01.520302,192.168.0.114
1612,-1,-100,-100,-100,"0,0,0",0,0,163,0,0,0,66,69,79,50,100,-19.64,32,11.0,18.0,-1022.0,11:05:01.622713,192.168.0.114
1617,-1,-100,-100,-100,"0,0,0",0,0,163,0,0,0,66,69,79,50,100,-19.6,32,3.0,16.0,-991.0,11:05:01.725225,192.168.0.114
1622,-1,-100,-100,-100,"0,0,0",0,0,162,0,0,0,66,69,79,50,100,-19.67,32,-11.0,25.0,-1000.0,11:05:01.828623,192.168.0.114
1627,-1,-100,-100,-100,"0,0,0",0,0,162,0,0,0,66,69,79,50,100,-19.61,32,-13.0,23.0,-1015.0,11:05:01.929860,192.168.0.114
1632,-1,-100,-100,-100,"0,0,0",0,0,162,0,0,0,66,69,78,50,100,-19.6,32,-6.0,10.0,-990.0,11:05:02.032199,192.168.0.114
1637,-1,-100,-100,-100,"0,0,0",0,0,162,0,0,0,66,69,79,50,100,-19.62,32,-2.0,0.0,-1011.0,11:05:02.134792,192.168.0.114
1640,-1,-100,-100,-100,"0,0,0",0,0,162,0,0,0,66,69,78,50,100,-19.66,32,4.0,23.0,-1005.0,11:05:02.183505,192.168.0.114
1645,-1,-100,-100,-100,"0,0,0",0,0,162,0,0,0,66,69,78,50,100,-19.67,32,32.0,-4.0,-999.0,11:05:02.285386,192.168.0.114
1650,-1,-100,-100,-100,"0,0,0",0,0,163,0,0,0,66,69,78,50,100,-19.61,32,25.0,-3.0,-1023.0,11:05:02.387575,192.168.0.114
1655,-1,-100,-100,-100,"0,0,0",0,0,163,0,0,0,66,68,78,50,100,-19.63,33,17.0,4.0,-989.0,11:05:02.489547,192.168.0.114
1660,-1,-100,-100,-100,"0,0,0",0,0,163,0,0,0,66,68,78,50,100,-19.67,33,31.0,2.0,-1001.0,11:05:02.591386,192.168.0.114
1666,-1,-100,-100,-100,"0,0,0",0,0,163,0,0,0,66,68,78,50,100,-19.69,33,3.0,0.0,-981.0,11:05:02.698163,192.168.0.114
1670,-1,-100,-100,-100,"0,0,0",0,0,163,0,0,0,66,68,78,50,100,-19.67,33,7.0,-1.0,-1005.0,11:05:02.795458,192.168.0.114
1675,-1,-100,-100,-100,"0,0,0",0,0,163,0,0,0,66,68,78,50,100,-19.73,33,-4.0,15.0,-993.0,11:05:02.897394,192.168.0.114
1680,-1,-100,-100,-100,"0,0,0",0,0,163,0,0,0,66,68,78,50,100,-19.69,33,-12.0,15.0,-999.0,11:05:02.999311,192.168.0.114
1685,-1,-100,-100,-100,"0,0,0",0,0,163,0,0,0,66,68,78,50,100,-19.66,33,-10.0,12.0,-982.0,11:05:03.101465,192.168.0.114
1690,-1,-100,-100,-100,"0,0,0",0,0,163,0,0,0,66,68,78,50,100,-19.79,33,5.0,9.0,-1000.0,11:05:03.204805,192.168.0.114
1695,-1,-100,-100,-100,"0,0,0",0,0,163,0,0,0,66,68,78,50,100,-19.69,33,-2.0,16.0,-1004.0,11:05:03.305999,192.168.0.114
1700,-1,-100,-100,-100,"0,0,0",0,0,163,0,0,0,66,68,78,50,100,-19.7,33,-35.0,28.0,-997.0,11:05:03.407462,192.168.0.114
1705,-1,-100,-100,-100,"0,0,0",0,0,163,0,0,0,66,68,78,50,100,-19.71,34,14.0,13.0,-1006.0,11:05:03.509779,192.168.0.114
1710,-1,-100,-100,-100,"0,0,0",0,0,163,0,0,0,66,68,79,50,100,-19.66,34,17.0,13.0,-1020.0,11:05:03.612110,192.168.0.114
1715,-1,-100,-100,-100,"0,0,0",0,0,163,0,0,0,66,68,78,50,100,-19.68,34,-8.0,7.0,-1015.0,11:05:03.714206,192.168.0.114
1720,-1,-100,-100,-100,"0,0,0",0,0,163,0,0,0,66,68,79,50,100,-19.64,34,-24.0,26.0,-985.0,11:05:03.816404,192.168.0.114
1725,-1,-100,-100,-100,"0,0,0",0,0,163,0,0,0,66,68,79,50,100,-19.65,34,6.0,-10.0,-999.0,11:05:03.918440,192.168.0.114
1730,-1,-100,-100,-100,"0,0,0",0,0,163,0,0,0,66,68,79,50,100,-19.71,34,-19.0,2.0,-978.0,11:05:04.020127,192.168.0.114
1735,-1,-100,-100,-100,"0,0,0",0,0,163,0,0,0,66,68,78,50,100,-19.8,34,-5.0,12.0,-999.0,11:05:04.122305,192.168.0.114
1741,-1,-100,-100,-100,"0,0,0",0,0,163,0,0,0,66,68,78,50,100,-19.68,34,4.0,1.0,-978.0,11:05:04.224478,192.168.0.114
1746,-1,-100,-100,-100,"0,0,0",0,0,163,0,0,0,66,68,78,50,100,-19.72,34,0.0,-19.0,-977.0,11:05:04.326221,192.168.0.114
1751,-1,-100,-100,-100,"0,0,0",0,0,163,0,0,0,66,68,78,50,100,-19.74,34,17.0,-6.0,-991.0,11:05:04.428519,192.168.0.114
1756,-1,-100,-100,-100,"0,0,0",0,0,163,0,0,0,67,68,79,50,100,-19.71,35,-2.0,4.0,-1014.0,11:05:04.530555,192.168.0.114
1761,-1,-100,-100,-100,"0,0,0",0,0,163,0,0,0,67,68,78,50,100,-19.7,35,-6.0,-8.0,-972.0,11:05:04.632334,192.168.0.114
1766,-1,-100,-100,-100,"0,0,0",0,0,163,0,0,0,67,68,78,50,100,-19.69,35,13.0,-15.0,-1018.0,11:05:04.733815,192.168.0.114
1771,-1,-100,-100,-100,"0,0,0",0,0,163,0,0,0,67,68,78,50,100,-19.71,35,0.0,-1.0,-1020.0,11:05:04.835834,192.168.0.114
1776,-1,-100,-100,-100,"0,0,0",0,0,163,0,0,0,67,68,78,50,100,-19.66,35,3.0,-5.0,-1013.0,11:05:04.937704,192.168.0.114
1782,-1,-100,-100,-100,"0,0,0",0,0,163,0,0,0,67,68,78,50,100,-19.73,35,9.0,0.0,-1003.0,11:05:05.040214,192.168.0.114
1787,-1,-100,-100,-100,"0,0,0",0,0,163,0,0,0,67,68,78,50,100,-19.7,35,0.0,-9.0,-988.0,11:05:05.141962,192.168.0.114
1792,-1,-100,-100,-100,"0,0,0",0,0,163,0,0,0,67,68,78,50,100,-19.73,35,11.0,21.0,-1030.0,11:05:05.244199,192.168.0.114
1797,-1,-100,-100,-100,"0,0,0",0,0,163,0,0,0,67,68,78,50,100,-19.71,35,1.0,14.0,-1000.0,11:05:05.346335,192.168.0.114
1800,-1,-100,-100,-100,"0,0,0",0,0,163,0,0,0,67,68,78,50,100,-19.65,35,1.0,18.0,-994.0,11:05:05.397358,192.168.0.114
1807,-1,-100,-100,-100,"0,0,0",0,0,163,0,0,0,67,68,78,50,100,-19.75,36,-11.0,20.0,-1004.0,11:05:05.550388,192.168.0.114
1812,-1,-100,-100,-100,"0,0,0",0,0,163,0,0,0,67,68,78,50,100,-19.73,36,11.0,5.0,-1023.0,11:05:05.652270,192.168.0.114
1815,-1,-100,-100,-100,"0,0,0",0,0,163,0,0,0,67,68,78,50,100,-19.84,36,5.0,10.0,-995.0,11:05:05.703296,192.168.0.114
1820,-1,-100,-100,-100,"0,0,0",0,0,163,0,0,0,67,68,78,50,100,-19.75,36,10.0,2.0,-993.0,11:05:05.805109,192.168.0.114
1825,-1,-100,-100,-100,"0,0,0",0,0,163,0,0,0,67,68,78,50,100,-19.75,36,-2.0,27.0,-987.0,11:05:05.908267,192.168.0.114
1830,-1,-100,-100,-100,"0,0,0",0,0,163,0,0,0,67,68,78,50,100,-19.74,36,18.0,12.0,-995.0,11:05:06.009182,192.168.0.114
1835,-1,-100,-100,-100,"0,0,0",1,0,163,0,0,0,67,68,78,50,100,-19.74,36,3.0,18.0,-1000.0,11:05:06.111222,192.168.0.114
1840,-1,-100,-100,-100,"0,0,0",1,0,163,0,0,0,67,68,78,50,100,-19.72,36,17.0,6.0,-991.0,11:05:06.213240,192.168.0.114
1845,-1,-100,-100,-100,"0,0,0",1,0,162,0,0,0,67,68,78,50,100,-19.77,36,0.0,9.0,-987.0,11:05:06.315348,192.168.0.114
1851,-1,-100,-100,-100,"0,0,0",1,0,162,0,0,0,67,68,78,50,100,-19.77,37,27.0,-1.0,-1013.0,11:05:06.418843,192.168.0.114
1855,-1,-100,-100,-100,"0,0,0",0,0,162,0,0,0,67,69,79,50,100,-19.8,37,-25.0,19.0,-1002.0,11:05:06.519185,192.168.0.114
1860,-1,-100,-100,-100,"0,0,0",0,0,162,0,0,0,67,69,79,50,100,-19.76,37,-8.0,-11.0,-993.0,11:05:06.621181,192.168.0.114
1865,-1,-100,-100,-100,"0,0,0",0,0,162,0,0,0,67,69,79,50,100,-19.83,37,9.0,-2.0,-998.0,11:05:06.723131,192.168.0.114
1870,-1,-100,-100,-100,"0,0,0",0,0,162,0,0,0,67,69,80,50,100,-19.77,37,0.0,2.0,-994.0,11:05:06.825249,192.168.0.114
1875,-1,-100,-100,-100,"0,0,0",0,0,162,0,0,0,67,69,79,50,100,-19.75,37,-19.0,13.0,-980.0,11:05:06.927426,192.168.0.114
1880,-1,-100,-100,-100,"0,0,0",0,0,162,0,0,0,67,69,80,50,100,-19.82,37,11.0,28.0,-1014.0,11:05:07.029105,192.168.0.114
1885,-1,-100,-100,-100,"0,0,0",0,0,162,0,0,0,67,69,80,50,100,-19.79,37,2.0,13.0,-991.0,11:05:07.131163,192.168.0.114
1890,-1,-100,-100,-100,"0,0,0",0,0,162,0,0,0,67,69,80,50,100,-19.76,37,-18.0,5.0,-988.0,11:05:07.233299,192.168.0.114
1895,-1,-100,-100,-100,"0,0,0",0,0,163,0,0,0,67,69,80,50,100,-19.72,37,-9.0,-14.0,-969.0,11:05:07.335152,192.168.0.114
1900,-1,-100,-100,-100,"0,0,0",0,0,163,0,0,0,67,69,80,50,100,-19.74,38,-21.0,14.0,-974.0,11:05:07.437237,192.168.0.114
1905,-1,-100,-100,-100,"0,0,0",0,0,163,0,0,0,67,68,79,50,100,-19.75,38,8.0,0.0,-1011.0,11:05:07.539215,192.168.0.114
1910,-1,-100,-100,-100,"0,0,0",0,0,163,0,0,0,67,68,80,50,100,-19.76,38,-11.0,-10.0,-990.0,11:05:07.641149,192.168.0.114
1916,-1,-100,-100,-100,"0,0,0",0,0,163,0,0,0,67,68,79,50,100,-19.74,38,-16.0,0.0,-1000.0,11:05:07.751693,192.168.0.114
1921,-1,-100,-100,-100,"0,0,0",0,0,163,0,0,0,67,68,78,50,100,-19.76,38,-12.0,-4.0,-1006.0,11:05:07.845072,192.168.0.114
1926,-1,-100,-100,-100,"0,0,0",0,0,162,0,0,0,67,68,79,50,100,-19.67,38,5.0,-4.0,-1008.0,11:05:07.948578,192.168.0.114
1931,-1,-100,-100,-100,"0,0,0",0,1,162,0,0,0,67,68,79,50,100,-19.66,38,9.0,18.0,-996.0,11:05:08.049258,192.168.0.114
1936,-1,-100,-100,-100,"0,0,0",0,0,162,0,0,0,67,68,78,50,100,-19.61,38,-1.0,-6.0,-988.0,11:05:08.151066,192.168.0.114
1941,-1,-100,-100,-100,"0,0,0",0,0,162,0,0,0,67,68,78,50,100,-19.68,38,6.0,25.0,-1021.0,11:05:08.254875,192.168.0.114
1946,-1,-100,-100,-100,"0,0,0",0,0,162,0,0,0,67,68,79,50,100,-19.62,38,5.0,-9.0,-995.0,11:05:08.355228,192.168.0.114
1952,-1,-100,-100,-100,"0,0,0",0,0,162,0,0,0,67,68,77,50,100,-19.65,39,4.0,4.0,-1018.0,11:05:08.456929,192.168.0.114
1957,-1,-100,-100,-100,"0,0,0",0,0,162,0,0,0,66,69,78,50,100,-19.75,39,14.0,-21.0,-1003.0,11:05:08.559099,192.168.0.114
1962,-1,-100,-100,-100,"0,0,0",0,0,163,0,0,0,66,69,77,50,100,-19.8,39,2.0,6.0,-1026.0,11:05:08.660864,192.168.0.114
1967,-1,-100,-100,-100,"0,0,0",0,0,163,0,0,0,66,69,78,50,100,-19.75,39,3.0,26.0,-995.0,11:05:08.767350,192.168.0.114
1972,-1,-100,-100,-100,"0,0,0",0,0,163,0,0,0,66,69,78,50,100,-19.78,39,7.0,15.0,-984.0,11:05:08.865055,192.168.0.114
1977,-1,-100,-100,-100,"0,0,0",0,-1,163,0,0,0,66,69,79,50,100,-19.79,39,16.0,23.0,-1007.0,11:05:08.967059,192.168.0.114
1982,-1,-100,-100,-100,"0,0,0",0,-1,163,0,0,0,66,69,79,50,100,-19.76,39,3.0,7.0,-974.0,11:05:09.069066,192.168.0.114
1985,-1,-100,-100,-100,"0,0,0",0,-1,163,0,0,0,66,69,80,50,100,-19.77,39,20.0,-14.0,-994.0,11:05:09.120294,192.168.0.114
1990,-1,-100,-100,-100,"0,0,0",0,-1,163,0,0,0,66,69,80,50,100,-19.81,39,-4.0,2.0,-1021.0,11:05:09.222793,192.168.0.114
1995,-1,-100,-100,-100,"0,0,0",0,-1,163,0,0,0,66,69,80,50,100,-19.78,39,19.0,-3.0,-1029.0,11:05:09.324856,192.168.0.114
2000,-1,-100,-100,-100,"0,0,0",0,0,163,0,0,0,66,69,80,50,100,-19.77,40,-7.0,27.0,-1023.0,11:05:09.427950,192.168.0.114
2005,-1,-100,-100,-100,"0,0,0",0,0,162,0,0,0,67,69,80,50,100,-19.79,40,1.0,20.0,-988.0,11:05:09.529303,192.168.0.114
2010,-1,-100,-100,-100,"0,0,0",0,0,162,0,0,0,67,69,80,50,100,-19.75,40,20.0,21.0,-1003.0,11:05:09.630886,192.168.0.114
2015,-1,-100,-100,-100,"0,0,0",0,0,162,0,0,0,67,69,80,50,100,-19.73,40,-17.0,48.0,-1014.0,11:05:09.732693,192.168.0.114
2020,-1,-100,-100,-100,"0,0,0",0,0,162,0,0,0,67,69,80,50,100,-19.77,40,4.0,41.0,-1005.0,11:05:09.835085,192.168.0.114
2025,-1,-100,-100,-100,"0,0,0",0,-1,162,0,0,0,67,69,80,50,100,-19.76,40,-46.0,45.0,-1004.0,11:05:09.936904,192.168.0.114
2030,-1,-100,-100,-100,"0,0,0",0,-1,162,0,0,0,67,69,80,50,100,-19.83,40,-7.0,29.0,-996.0,11:05:10.040062,192.168.0.114
2035,-1,-100,-100,-100,"0,0,0",0,-1,162,0,0,0,67,69,79,50,100,-19.79,40,6.0,17.0,-978.0,11:05:10.141596,192.168.0.114
2041,-1,-100,-100,-100,"0,0,0",0,-1,162,0,0,0,67,69,79,50,100,-19.86,40,-33.0,50.0,-1009.0,11:05:10.245760,192.168.0.114
2045,-1,-100,-100,-100,"0,0,0",0,-1,162,0,0,0,67,69,79,50,100,-19.81,40,-11.0,30.0,-1015.0,11:05:10.344762,192.168.0.114
2050,-1,-100,-100,-100,"0,0,0",0,-1,162,0,0,0,67,69,79,50,100,-19.79,41,-6.0,6.0,-1012.0,11:05:10.446983,192.168.0.114
2055,-1,-100,-100,-100,"0,0,0",0,-1,162,0,0,0,67,69,78,50,100,-19.82,41,-12.0,9.0,-1005.0,11:05:10.548994,192.168.0.114
2060,-1,-100,-100,-100,"0,0,0",-1,-1,162,0,0,0,67,69,78,50,100,-19.87,41,-22.0,19.0,-1000.0,11:05:10.651001,192.168.0.114
2065,-1,-100,-100,-100,"0,0,0",-1,-1,162,0,0,0,67,69,79,50,100,-19.87,41,-19.0,25.0,-1010.0,11:05:10.752800,192.168.0.114
2070,-1,-100,-100,-100,"0,0,0",-1,0,163,0,0,0,67,69,79,50,100,-19.85,41,-35.0,32.0,-996.0,11:05:10.855053,192.168.0.114
2075,-1,-100,-100,-100,"0,0,0",-1,-1,163,0,0,0,67,69,78,50,100,-19.82,41,-26.0,37.0,-1003.0,11:05:10.956781,192.168.0.114
2080,-1,-100,-100,-100,"0,0,0",-1,-1,163,0,0,0,67,69,79,50,100,-19.8,41,-1.0,31.0,-988.0,11:05:11.058993,192.168.0.114
2085,-1,-100,-100,-100,"0,0,0",-1,-2,163,0,0,0,67,69,79,50,100,-19.8,41,12.0,12.0,-1004.0,11:05:11.160893,192.168.0.114
2090,-1,-100,-100,-100,"0,0,0",0,-1,163,0,0,0,67,69,80,50,100,-19.84,41,5.0,21.0,-973.0,11:05:11.262823,192.168.0.114
2096,-1,-100,-100,-100,"0,0,0",0,-1,163,0,0,0,67,69,80,50,100,-19.8,41,8.0,21.0,-992.0,11:05:11.365139,192.168.0.114
2102,-1,-100,-100,-100,"0,0,0",0,-1,163,0,0,0,67,69,80,50,100,-19.75,42,12.0,37.0,-990.0,11:05:11.466615,192.168.0.114
2107,-1,-100,-100,-100,"0,0,0",0,-1,163,0,0,0,67,69,80,50,100,-19.72,42,17.0,30.0,-977.0,11:05:11.568885,192.168.0.114
2112,-1,-100,-100,-100,"0,0,0",0,-1,163,0,0,0,67,69,79,50,100,-19.77,42,23.0,4.0,-1019.0,11:05:11.670813,192.168.0.114
2117,-1,-100,-100,-100,"0,0,0",0,0,163,0,0,0,67,69,79,50,100,-19.75,42,17.0,18.0,-1023.0,11:05:11.774639,192.168.0.114
2122,-1,-100,-100,-100,"0,0,0",1,0,163,0,0,0,67,69,80,50,100,-19.83,42,3.0,33.0,-1008.0,11:05:11.876861,192.168.0.114
2127,-1,-100,-100,-100,"0,0,0",1,0,163,0,0,0,67,69,80,50,100,-19.81,42,15.0,-11.0,-987.0,11:05:11.976562,192.168.0.114
2132,-1,-100,-100,-100,"0,0,0",0,0,163,0,0,0,67,69,79,50,100,-19.76,42,-10.0,0.0,-983.0,11:05:12.079307,192.168.0.114
2137,-1,-100,-100,-100,"0,0,0",0,0,163,0,0,0,67,69,79,50,100,-19.82,42,3.0,0.0,-1011.0,11:05:12.180859,192.168.0.114
2140,-1,-100,-100,-100,"0,0,0",0,0,163,0,0,0,67,69,80,50,100,-19.76,42,0.0,7.0,-1018.0,11:05:12.231927,192.168.0.114
2146,-1,-100,-100,-100,"0,0,0",0,0,163,0,0,0,67,69,80,50,100,-19.82,42,1.0,1.0,-1007.0,11:05:12.337011,192.168.0.114
2150,-1,-100,-100,-100,"0,0,0",0,0,163,0,0,0,67,69,80,50,100,-19.89,43,-23.0,-11.0,-977.0,11:05:12.435262,192.168.0.114
2155,-1,-100,-100,-100,"0,0,0",0,0,163,0,0,0,67,69,80,50,100,-19.78,43,-4.0,12.0,-1012.0,11:05:12.547546,192.168.0.114
2160,-1,-100,-100,-100,"0,0,0",0,0,163,0,0,0,67,69,81,50,100,-19.8,43,-5.0,3.0,-996.0,11:05:12.640269,192.168.0.114
2165,-1,-100,-100,-100,"0,0,0",0,0,163,0,0,0,67,69,81,50,100,-19.86,43,0.0,-3.0,-1018.0,11:05:12.742268,192.168.0.114
2170,-1,-100,-100,-100,"0,0,0",0,0,163,0,0,0,67,69,81,50,100,-19.75,43,5.0,-19.0,-1001.0,11:05:12.843809,192.168.0.114
2176,-1,-100,-100,-100,"0,0,0",0,0,163,0,0,0,67,69,81,50,100,-19.68,43,-16.0,3.0,-1004.0,11:05:12.947541,192.168.0.114
2180,-1,-100,-100,-100,"0,0,0",-1,0,162,0,0,0,67,69,81,50,100,-19.8,43,2.0,-2.0,-994.0,11:05:13.047955,192.168.0.114
2185,-1,-100,-100,-100,"0,0,0",0,0,162,0,0,0,67,69,81,50,100,-19.74,43,-11.0,-7.0,-990.0,11:05:13.149857,192.168.0.114
2190,-1,-100,-100,-100,"0,0,0",-1,0,162,0,0,0,67,69,81,50,100,-19.79,43,2.0,-27.0,-980.0,11:05:13.251779,192.168.0.114
2195,-1,-100,-100,-100,"0,0,0",-1,0,163,0,0,0,67,69,80,50,100,-19.74,43,-29.0,-18.0,-1007.0,11:05:13.353735,192.168.0.114
2200,-1,-100,-100,-100,"0,0,0",-1,0,163,0,0,0,67,69,80,50,100,-19.71,44,-8.0,0.0,-980.0,11:05:13.456050,192.168.0.114
2206,-1,-100,-100,-100,"0,0,0",-1,0,163,0,0,0,67,68,80,50,100,-19.81,44,-11.0,-15.0,-1012.0,11:05:13.559293,192.168.0.114
2210,-1,-100,-100,-100,"0,0,0",-1,0,163,0,0,0,67,68,80,50,100,-19.85,44,-22.0,2.0,-1004.0,11:05:13.659588,192.168.0.114
2215,-1,-100,-100,-100,"0,0,0",-1,0,163,0,0,0,67,68,80,50,100,-19.79,44,-26.0,4.0,-1001.0,11:05:13.761830,192.168.0.114
2220,-1,-100,-100,-100,"0,0,0",-1,0,163,0,0,0,67,68,80,50,100,-19.76,44,-4.0,19.0,-995.0,11:05:13.863730,192.168.0.114
2225,-1,-100,-100,-100,"0,0,0",-1,0,163,0,0,0,67,68,80,50,100,-19.81,44,-3.0,10.0,-987.0,11:05:13.965593,192.168.0.114
2230,-1,-100,-100,-100,"0,0,0",-1,0,163,0,0,0,67,68,81,50,100,-19.78,44,10.0,9.0,-991.0,11:05:14.067919,192.168.0.114
2235,-1,-100,-100,-100,"0,0,0",0,0,163,0,0,0,67,68,80,50,100,-19.72,44,6.0,10.0,-977.0,11:05:14.169770,192.168.0.114
2240,-1,-100,-100,-100,"0,0,0",0,-1,163,0,0,0,67,68,81,50,100,-19.8,44,8.0,1.0,-1009.0,11:05:14.271715,192.168.0.114
2246,-1,-100,-100,-100,"0,0,0",0,-1,162,0,0,0,67,68,80,50,100,-19.78,44,10.0,24.0,-1005.0,11:05:14.373651,192.168.0.114
2251,-1,-100,-100,-100,"0,0,0",0,-1,162,0,0,0,67,68,80,50,100,-19.84,45,-6.0,15.0,-1016.0,11:05:14.475658,192.168.0.114
2256,-1,-100,-100,-100,"0,0,0",0,-1,162,0,0,0,67,69,80,50,100,-19.84,45,1.0,6.0,-1008.0,11:05:14.577648,192.168.0.114
2261,-1,-100,-100,-100,"0,0,0",0,-1,162,0,0,0,67,69,80,50,100,-19.83,45,-15.0,10.0,-995.0,11:05:14.679239,192.168.0.114
2266,-1,-100,-100,-100,"0,0,0",0,-1,162,0,0,0,67,69,80,50,100,-19.94,45,-25.0,29.0,-993.0,11:05:14.782107,192.168.0.114
2271,-1,-100,-100,-100,"0,0,0",0,0,162,0,0,0,67,69,79,50,100,-19.91,45,-5.0,14.0,-994.0,11:05:14.884018,192.168.0.114
2276,-1,-100,-100,-100,"0,0,0",0,-1,162,0,0,0,67,69,79,50,100,-19.93,45,-1.0,-6.0,-1007.0,11:05:14.986564,192.168.0.114
2282,-1,-100,-100,-100,"0,0,0",0,-1,162,0,0,0,67,69,80,50,100,-19.84,45,0.0,-11.0,-995.0,11:05:15.088678,192.168.0.114
2287,-1,-100,-100,-100,"0,0,0",0,0,162,0,0,0,67,69,79,50,100,-19.78,45,-6.0,17.0,-1017.0,11:05:15.195851,192.168.0.114
2292,-1,-100,-100,-100,"0,0,0",0,0,162,0,0,0,67,69,78,50,100,-19.74,45,3.0,-20.0,-1032.0,11:05:15.292557,192.168.0.114
2297,-1,-100,-100,-100,"0,0,0",0,0,162,0,0,0,67,69,78,50,100,-19.83,45,4.0,-27.0,-1013.0,11:05:15.394628,192.168.0.114
2302,-1,-100,-100,-100,"0,0,0",0,0,163,0,0,0,67,69,78,50,100,-19.76,46,-23.0,5.0,-1009.0,11:05:15.496528,192.168.0.114
2307,-1,-100,-100,-100,"0,0,0",0,1,163,0,0,0,67,69,78,50,100,-19.74,46,-1.0,0.0,-998.0,11:05:15.598705,192.168.0.114
2312,-1,-100,-100,-100,"0,0,0",0,1,163,0,0,0,67,69,78,50,100,-19.81,46,-14.0,6.0,-1015.0,11:05:15.701152,192.168.0.114
2317,-1,-100,-100,-100,"0,0,0",0,1,163,0,0,0,67,69,78,50,100,-19.76,46,7.0,3.0,-1008.0,11:05:15.802589,192.168.0.114
2320,-1,-100,-100,-100,"0,0,0",0,0,163,0,0,0,67,69,78,50,100,-19.82,46,-3.0,16.0,-1034.0,11:05:15.856421,192.168.0.114
2325,-1,-100,-100,-100,"0,0,0",0,0,163,0,0,0,67,69,78,50,100,-19.92,46,4.0,-1.0,-996.0,11:05:15.955632,192.168.0.114
2330,-1,-100,-100,-100,"0,0,0",0,0,162,0,0,0,67,69,79,50,100,-19.83,46,11.0,-9.0,-978.0,11:05:16.070831,192.168.0.114
2335,-1,-100,-100,-100,"0,0,0",0,0,162,0,0,0,67,69,79,50,100,-19.86,46,-6.0,0.0,-1002.0,11:05:16.159598,192.168.0.114
2340,-1,-100,-100,-100,"0,0,0",0,1,162,0,0,0,67,69,79,50,100,-19.85,46,4.0,-3.0,-1025.0,11:05:16.262023,192.168.0.114
2345,-1,-100,-100,-100,"0,0,0",0,0,162,0,0,0,67,69,79,50,100,-19.82,46,-25.0,12.0,-1014.0,11:05:16.363554,192.168.0.114
2350,-1,-100,-100,-100,"0,0,0",0,0,162,0,0,0,67,69,78,50,100,-19.77,47,25.0,-17.0,-991.0,11:05:16.465755,192.168.0.114
2355,-1,-100,-100,-100,"0,0,0",0,1,162,0,0,0,67,70,79,50,100,-19.74,47,0.0,19.0,-980.0,11:05:16.568065,192.168.0.114
2360,-1,-100,-100,-100,"0,0,0",0,1,162,0,0,0,67,70,78,50,100,-19.76,47,12.0,16.0,-1009.0,11:05:16.669613,192.168.0.114
2365,-1,-100,-100,-100,"0,0,0",0,0,162,0,0,0,67,70,78,50,100,-19.73,47,16.0,-19.0,-1035.0,11:05:16.771667,192.168.0.114
2370,-1,-100,-100,-100,"0,0,0",1,0,163,0,0,0,67,70,78,50,100,-19.7,47,11.0,-15.0,-1035.0,11:05:16.873055,192.168.0.114
2375,-1,-100,-100,-100,"0,0,0",1,0,163,0,0,0,67,70,78,50,100,-19.81,47,0.0,-1.0,-1004.0,11:05:16.975330,192.168.0.114
2380,-1,-100,-100,-100,"0,0,0",1,0,163,0,0,0,67,70,78,50,100,-19.8,47,-10.0,0.0,-1031.0,11:05:17.077783,192.168.0.114
2385,-1,-100,-100,-100,"0,0,0",0,0,163,0,0,0,67,70,78,50,100,-19.87,47,-15.0,-36.0,-1005.0,11:05:17.179470,192.168.0.114
2390,-1,-100,-100,-100,"0,0,0",0,0,163,0,0,0,67,70,78,50,100,-19.74,47,17.0,-23.0,-975.0,11:05:17.281636,192.168.0.114
2395,-1,-100,-100,-100,"0,0,0",0,1,163,0,0,0,67,70,78,50,100,-19.83,47,12.0,-28.0,-1026.0,11:05:17.383713,192.168.0.114
2400,-1,-100,-100,-100,"0,0,0",0,1,163,0,0,0,67,70,78,50,100,-19.73,48,-3.0,-6.0,-994.0,11:05:17.485507,192.168.0.114
2405,-1,-100,-100,-100,"0,0,0",0,1,163,0,0,0,68,70,79,50,100,-19.75,48,0.0,-34.0,-991.0,11:05:17.587653,192.168.0.114
2411,-1,-100,-100,-100,"0,0,0",0,0,163,0,0,0,68,70,78,50,100,-19.83,48,6.0,10.0,-1006.0,11:05:17.689439,192.168.0.114
2416,-1,-100,-100,-100,"0,0,0",0,0,163,0,0,0,68,70,78,50,100,-19.76,48,-8.0,-11.0,-983.0,11:05:17.791496,192.168.0.114
2421,-1,-100,-100,-100,"0,0,0",0,0,163,0,0,0,68,70,78,50,100,-19.84,48,-9.0,-3.0,-995.0,11:05:17.895668,192.168.0.114
2426,-1,-100,-100,-100,"0,0,0",0,0,163,0,0,0,68,70,77,50,100,-19.76,48,1.0,-23.0,-1004.0,11:05:17.995098,192.168.0.114
2431,-1,-100,-100,-100,"0,0,0",0,0,163,0,0,0,68,70,78,50,100,-19.87,48,-14.0,-22.0,-1020.0,11:05:18.097337,192.168.0.114
2436,-1,-100,-100,-100,"0,0,0",-1,0,163,0,0,0,68,70,77,50,100,-19.93,48,-4.0,-29.0,-987.0,11:05:18.199780,192.168.0.114
2441,-1,-100,-100,-100,"0,0,0",-1,0,163,0,0,0,68,70,77,50,100,-19.82,48,-24.0,-3.0,-984.0,11:05:18.301844,192.168.0.114
2446,-1,-100,-100,-100,"0,0,0",0,1,163,0,0,0,68,70,77,50,100,-19.78,48,22.0,-6.0,-1009.0,11:05:18.409567,192.168.0.114
2451,-1,-100,-100,-100,"0,0,0",0,1,163,0,0,0,68,70,77,50,100,-19.88,49,-5.0,6.0,-988.0,11:05:18.505698,192.168.0.114
2457,-1,-100,-100,-100,"0,0,0",0,0,163,0,0,0,67,70,76,50,100,-19.9,49,2.0,7.0,-1022.0,11:05:18.607975,192.168.0.114
2462,-1,-100,-100,-100,"0,0,0",0,0,163,0,0,0,67,70,76,50,100,-19.99,49,10.0,3.0,-1008.0,11:05:18.710002,192.168.0.114
2467,-1,-100,-100,-100,"0,0,0",0,0,163,0,0,0,67,70,77,50,100,-19.9,49,0.0,23.0,-1026.0,11:05:18.811997,192.168.0.114
2472,-1,-100,-100,-100,"0,0,0",0,0,163,0,0,0,67,70,77,50,100,-20.05,49,21.0,8.0,-1022.0,11:05:18.914157,192.168.0.114
2477,-1,-100,-100,-100,"0,0,0",0,0,163,0,0,0,67,70,77,50,100,-20.0,49,-10.0,15.0,-1001.0,11:05:19.016070,192.168.0.114
2482,-1,-100,-100,-100,"0,0,0",0,-1,163,0,0,0,67,70,78,50,100,-19.9,49,-5.0,6.0,-992.0,11:05:19.117825,192.168.0.114
2485,-1,-100,-100,-100,"0,0,0",0,-1,163,0,0,0,67,70,78,50,100,-19.9,49,-17.0,3.0,-999.0,11:05:19.169120,192.168.0.114
2490,-1,-100,-100,-100,"0,0,0",0,-1,163,0,0,0,67,70,78,50,100,-19.99,49,-7.0,7.0,-1000.0,11:05:19.271142,192.168.0.114
2495,-1,-100,-100,-100,"0,0,0",0,0,163,0,0,0,67,70,79,50,100,-19.94,49,-14.0,23.0,-982.0,11:05:19.372993,192.168.0.114
2500,-1,-100,-100,-100,"0,0,0",0,0,163,0,0,0,67,70,79,50,100,-19.97,50,19.0,7.0,-983.0,11:05:19.475275,192.168.0.114
2505,-1,-100,-100,-100,"0,0,0",0,0,163,0,0,0,67,70,79,50,100,-19.93,50,-7.0,23.0,-990.0,11:05:19.577733,192.168.0.114
2510,-1,-100,-100,-100,"0,0,0",0,-1,163,0,0,0,67,70,79,50,100,-20.0,50,-17.0,19.0,-996.0,11:05:19.679335,192.168.0.114
2515,-1,-100,-100,-100,"0,0,0",0,-1,162,0,0,0,67,70,79,50,100,-19.98,50,4.0,11.0,-995.0,11:05:19.781314,192.168.0.114
2520,-1,-100,-100,-100,"0,0,0",0,-1,162,0,0,0,67,70,78,50,100,-19.98,50,-16.0,18.0,-1010.0,11:05:19.883505,192.168.0.114
