,mid,x,y,z,mpry,pitch,roll,yaw,vgx,vgy,vgz,templ,temph,tof,h,bat,baro,time,agx,agy,agz,timestamp,address
4,-1,-100,-100,-100,"0,0,0",0,0,-24,0,0,0,54,57,10,0,100,-20.12,0,6.0,-8.0,-998.0,11:04:29.312152,192.168.0.111
9,-1,-100,-100,-100,"0,0,0",0,0,-24,0,0,0,54,57,10,0,100,-20.15,0,6.0,-8.0,-998.0,11:04:29.413878,192.168.0.111
14,-1,-100,-100,-100,"0,0,0",0,0,-24,0,0,0,54,57,10,0,100,-20.15,0,7.0,-7.0,-997.0,11:04:29.515924,192.168.0.111
19,-1,-100,-100,-100,"0,0,0",0,0,-24,0,0,0,54,57,10,0,100,-20.15,0,5.0,-8.0,-1000.0,11:04:29.617901,192.168.0.111
24,-1,-100,-100,-100,"0,0,0",0,0,-24,0,0,0,54,57,10,0,100,-20.15,0,5.0,-6.0,-995.0,11:04:29.719526,192.168.0.111
29,-1,-100,-100,-100,"0,0,0",0,0,-24,0,0,0,54,57,10,0,100,-20.15,0,3.0,-14.0,-1002.0,11:04:29.821869,192.168.0.111
34,-1,-100,-100,-100,"0,0,0",0,0,-24,0,0,0,54,57,10,0,100,-20.15,0,4.0,-12.0,-993.0,11:04:29.923828,192.168.0.111
39,-1,-100,-100,-100,"0,0,0",0,0,-24,0,0,2,54,57,10,0,100,-20.15,0,5.0,-12.0,-1058.0,11:04:30.025867,192.168.0.111
44,-1,-100,-100,-100,"0,0,0",0,0,-24,0,0,6,54,57,10,0,100,-20.15,0,0.0,-4.0,-1230.0,11:04:30.127901,192.168.0.111
49,-1,-100,-100,-100,"0,0,0",0,0,-24,0,0,8,54,57,20,10,100,-19.76,0,5.0,-6.0,-1044.0,11:04:30.229810,192.168.0.111
50,-1,-100,-100,-100,"0,0,0",0,0,-24,0,0,8,54,57,28,20,100,-19.68,0,9.0,-16.0,-980.0,11:04:30.280666,192.168.0.111
55,-1,-100,-100,-100,"0,0,0",1,0,-24,0,0,8,54,57,34,20,100,-19.62,0,-3.0,-7.0,-924.0,11:04:30.383304,192.168.0.111
60,-1,-100,-100,-100,"0,0,0",0,0,-24,0,0,7,54,57,42,30,100,-19.6,1,1.0,-1.0,-898.0,11:04:30.484802,192.168.0.111
66,-1,-100,-100,-100,"0,0,0",0,0,-24,0,0,6,54,57,49,40,100,-19.5,1,0.0,-1.0,-878.0,11:04:30.586793,192.168.0.111
71,-1,-100,-100,-100,"0,0,0",0,0,-24,0,0,5,54,57,55,40,100,-19.41,1,15.0,-8.0,-883.0,11:04:30.688696,192.168.0.111
76,-1,-100,-100,-100,"0,0,0",0,0,-24,0,0,4,54,57,60,50,100,-19.41,1,5.0,-10.0,-908.0,11:04:30.790728,192.168.0.111
82,-1,-100,-100,-100,"0,0,0",1,0,-24,0,0,3,54,57,64,50,100,-19.36,1,12.0,-9.0,-921.0,11:04:30.892587,192.168.0.111
87,-1,-100,-100,-100,"0,0,0",1,0,-24,0,0,2,54,57,67,50,100,-19.28,1,18.0,-13.0,-942.0,11:04:30.994695,192.168.0.111
93,-1,-100,-100,-100,"0,0,0",1,0,-24,0,0,1,54,57,69,50,100,-19.29,1,5.0,-6.0,-966.0,11:04:31.096698,192.168.0.111
98,3,0,-4,62,"-2,0,-178",1,0,-24,0,0,1,54,57,71,60,100,-19.32,1,3.0,0.0,-991.0,11:04:31.198574,192.168.0.111
103,3,0,-4,62,"-2,0,-178",1,0,-24,0,0,1,54,57,73,60,100,-19.29,1,12.0,-2.0,-985.0,11:04:31.301285,192.168.0.111
108,3,0,-4,62,"-2,0,-178",1,0,-24,0,0,1,54,57,75,60,100,-19.23,1,12.0,-5.0,-991.0,11:04:31.402701,192.168.0.111
113,3,2,-5,73,"-2,0,-179",1,0,-24,0,0,0,54,57,77,60,100,-19.18,2,7.0,-6.0,-987.0,11:04:31.504668,192.168.0.111
118,3,2,-5,73,"-2,0,-179",1,0,-24,0,0,0,54,57,78,60,100,-19.22,2,20.0,-6.0,-985.0,11:04:31.606658,192.168.0.111
123,3,2,-5,73,"-2,0,-179",1,0,-24,0,0,0,54,57,79,60,100,-19.2,2,24.0,-8.0,-990.0,11:04:31.708510,192.168.0.111
129,3,2,-5,73,"-2,0,-179",1,0,-24,0,0,0,55,57,81,60,100,-19.23,2,11.0,0.0,-980.0,11:04:31.810511,192.168.0.111
134,3,4,-8,79,"-3,0,-178",1,0,-24,0,0,0,55,57,82,70,100,-19.23,2,10.0,-2.0,-990.0,11:04:31.912649,192.168.0.111
139,3,4,-8,79,"-3,0,-178",1,0,-24,0,0,0,55,57,83,70,100,-19.2,2,10.0,1.0,-985.0,11:04:32.014503,192.168.0.111
144,3,4,-8,79,"-3,0,-178",1,0,-24,0,0,0,55,57,83,70,100,-19.13,2,15.0,0.0,-971.0,11:04:32.116777,192.168.0.111
149,3,4,-8,79,"-3,0,-178",1,0,-24,0,0,0,55,57,83,70,100,-19.2,2,35.0,-12.0,-989.0,11:04:32.218571,192.168.0.111
154,3,2,-8,84,"-4,0,-178",1,0,-24,0,0,0,55,57,84,70,100,-19.17,2,24.0,-10.0,-982.0,11:04:32.320231,192.168.0.111
159,3,2,-8,84,"-4,0,-178",1,0,-24,0,0,0,55,57,84,70,100,-19.24,2,31.0,-7.0,-990.0,11:04:32.422372,192.168.0.111
164,3,2,-8,84,"-4,0,-178",1,0,-24,0,0,0,55,57,84,70,100,-19.19,3,19.0,3.0,-1000.0,11:04:32.524380,192.168.0.111
169,3,2,-8,84,"-4,0,-178",1,0,-24,0,0,0,55,57,83,70,100,-19.16,3,24.0,-1.0,-998.0,11:04:32.626509,192.168.0.111
174,3,4,-6,87,"-3,0,180",1,0,-24,0,0,0,55,57,83,70,100,-19.22,3,24.0,1.0,-990.0,11:04:32.728297,192.168.0.111
179,3,4,-6,87,"-3,0,180",2,0,-24,0,0,0,55,58,84,70,100,-19.14,3,32.0,-9.0,-1007.0,11:04:32.830322,192.168.0.111
180,3,4,-6,87,"-3,0,180",2,0,-24,0,0,0,55,58,83,70,100,-19.18,3,17.0,-3.0,-1006.0,11:04:32.881267,192.168.0.111
185,3,3,-8,87,"-5,0,-177",2,0,-24,0,0,0,55,58,84,70,100,-19.18,3,24.0,-5.0,-996.0,11:04:32.983356,192.168.0.111
190,3,3,-8,87,"-5,0,-177",2,0,-24,0,0,0,55,58,84,70,100,-19.15,3,20.0,-1.0,-1002.0,11:04:33.085386,192.168.0.111
195,3,3,-8,87,"-5,0,-177",1,0,-24,0,0,0,55,58,84,70,100,-19.15,3,13.0,-5.0,-993.0,11:04:33.187136,192.168.0.111
200,3,3,-8,87,"-5,0,-177",1,0,-24,0,0,0,55,58,84,70,100,-19.17,3,33.0,-5.0,-995.0,11:04:33.289216,192.168.0.111
206,3,4,-7,87,"-5,0,-178",1,0,-24,0,0,0,55,58,84,70,100,-19.15,3,29.0,-14.0,-999.0,11:04:33.391188,192.168.0.111
211,3,4,-7,87,"-5,0,-178",1,0,-24,0,0,0,55,58,84,70,100,-19.09,4,26.0,-1.0,-995.0,11:04:33.493109,192.168.0.111
216,3,4,-7,87,"-5,0,-178",2,0,-24,0,0,0,55,58,84,70,100,-19.1,4,22.0,-5.0,-1005.0,11:04:33.595289,192.168.0.111
222,3,4,-7,87,"-5,0,-178",2,0,-24,0,0,0,55,58,84,70,100,-19.15,4,34.0,-17.0,-990.0,11:04:33.697051,192.168.0.111
227,3,5,-6,87,"-4,0,-178",2,0,-24,0,0,0,56,58,84,70,100,-19.15,4,25.0,-10.0,-998.0,11:04:33.799122,192.168.0.111
233,3,5,-6,87,"-4,0,-178",2,0,-24,0,0,0,56,58,83,70,100,-19.15,4,35.0,-8.0,-999.0,11:04:33.901026,192.168.0.111
238,3,5,-6,87,"-4,0,-178",2,0,-24,0,0,0,56,58,83,70,100,-19.12,4,32.0,-9.0,-999.0,11:04:34.003041,192.168.0.111
243,3,3,-5,87,"-6,0,-178",2,0,-24,0,0,0,56,58,84,70,100,-19.18,4,19.0,-8.0,-998.0,11:04:34.105135,192.168.0.111
248,3,3,-5,87,"-6,0,-178",2,0,-24,0,0,0,56,58,84,70,100,-19.14,4,18.0,-8.0,-982.0,11:04:34.206864,192.168.0.111
253,3,3,-5,87,"-6,0,-178",2,0,-24,0,0,0,56,58,84,70,100,-19.22,4,35.0,-25.0,-998.0,11:04:34.308922,192.168.0.111
259,3,3,-5,87,"-6,0,-178",1,0,-24,0,0,0,56,58,84,70,100,-19.22,4,32.0,-10.0,-997.0,11:04:34.411061,192.168.0.111
264,3,4,-5,87,"-5,0,-178",2,0,-24,0,0,0,56,58,83,70,100,-19.23,5,26.0,-23.0,-1004.0,11:04:34.512888,192.168.0.111
269,3,4,-5,87,"-5,0,-178",2,0,-24,0,0,0,56,58,83,70,100,-19.17,5,32.0,-19.0,-1007.0,11:04:34.615069,192.168.0.111
274,3,4,-5,87,"-5,0,-178",2,0,-24,0,0,0,56,58,83,70,100,-19.22,5,22.0,-16.0,-1006.0,11:04:34.716285,192.168.0.111
279,3,4,-5,87,"-5,0,-178",1,0,-24,0,0,0,55,59,83,70,100,-19.24,5,36.0,-7.0,-999.0,11:04:34.818960,192.168.0.111
284,3,2,-5,87,"-6,0,-177",1,0,-24,0,0,0,55,59,84,70,100,-19.33,5,34.0,-1.0,-1015.0,11:04:34.920785,192.168.0.111
289,3,2,-5,87,"-6,0,-177",1,0,-24,0,0,0,55,59,84,70,100,-19.28,5,34.0,-11.0,-989.0,11:04:35.022953,192.168.0.111
294,3,2,-5,87,"-6,0,-177",1,0,-24,0,0,0,55,59,83,70,100,-19.11,5,44.0,-20.0,-1002.0,11:04:35.124941,192.168.0.111
299,3,2,-5,87,"-6,0,-177",1,0,-24,0,0,0,55,59,84,70,100,-19.25,5,41.0,-20.0,-997.0,11:04:35.226902,192.168.0.111
304,3,2,-8,87,"-5,0,-175",2,0,-24,0,0,0,55,59,84,70,100,-19.2,5,24.0,-14.0,-997.0,11:04:35.328910,192.168.0.111
309,3,2,-8,87,"-5,0,-175",1,0,-24,0,0,0,55,59,84,70,100,-19.26,5,29.0,-11.0,-1006.0,11:04:35.430962,192.168.0.111
314,3,2,-8,87,"-5,0,-175",1,0,-24,0,0,0,55,59,83,70,100,-19.16,6,23.0,-7.0,-985.0,11:04:35.532637,192.168.0.111
319,3,3,-8,87,"-4,0,-176",1,0,-24,0,0,0,55,59,83,70,100,-19.23,6,12.0,-6.0,-1009.0,11:04:35.635371,192.168.0.111
324,3,3,-8,87,"-4,0,-176",1,0,-24,0,0,0,55,59,83,70,100,-19.22,6,14.0,-7.0,-1009.0,11:04:35.736353,192.168.0.111
329,3,3,-8,87,"-4,0,-176",1,0,-24,0,0,0,55,58,83,70,100,-19.28,6,24.0,-14.0,-991.0,11:04:35.839330,192.168.0.111
334,3,3,-8,87,"-4,0,-176",1,0,-24,0,0,0,55,58,83,70,100,-19.17,6,5.0,-13.0,-1009.0,11:04:35.940673,192.168.0.111
339,3,-7,-11,86,"-10,-1,-173",1,0,-24,0,0,0,55,58,83,70,100,-19.18,6,19.0,-9.0,-994.0,11:04:36.043180,192.168.0.111
341,3,-7,-11,86,"-10,-1,-173",1,0,-24,0,0,0,55,58,83,70,100,-19.28,6,34.0,-19.0,-1001.0,11:04:36.093795,192.168.0.111
347,3,-7,-11,86,"-10,-1,-173",1,0,-24,0,0,0,55,58,84,70,100,-19.21,6,7.0,-10.0,-987.0,11:04:36.200110,192.168.0.111
352,3,-7,-11,86,"-10,-1,-173",0,0,-24,0,0,0,55,58,83,70,100,-19.22,6,17.0,-9.0,-998.0,11:04:36.297799,192.168.0.111
357,3,-14,-18,82,"-13,-1,-169",0,0,-24,0,0,0,55,58,84,70,100,-19.3,6,14.0,-1.0,-991.0,11:04:36.400772,192.168.0.111
362,3,-14,-18,82,"-13,-1,-169",0,0,-24,0,0,0,55,58,84,70,100,-19.24,7,26.0,-8.0,-1006.0,11:04:36.503269,192.168.0.111
367,3,-14,-18,82,"-13,-1,-169",0,0,-24,0,0,0,55,58,84,70,100,-19.24,7,21.0,-2.0,-1001.0,11:04:36.603555,192.168.0.111
372,3,-14,-18,82,"-13,-1,-169",0,0,-24,0,0,0,55,58,84,70,100,-19.21,7,19.0,-7.0,-985.0,11:04:36.705566,192.168.0.111
377,3,2,-6,87,"-1,0,-178",0,0,-24,0,0,0,55,58,85,70,100,-19.22,7,2.0,-12.0,-979.0,11:04:36.807647,192.168.0.111
382,3,2,-6,87,"-1,0,-178",0,0,-24,0,0,0,55,58,85,70,100,-19.26,7,13.0,-9.0,-996.0,11:04:36.909616,192.168.0.111
387,3,2,-6,87,"-1,0,-178",0,0,-24,0,0,0,55,58,85,70,100,-19.26,7,16.0,3.0,-981.0,11:04:37.012633,192.168.0.111
392,3,1,-6,88,"-1,0,-179",0,0,-24,0,0,0,55,58,84,70,100,-19.21,7,6.0,-4.0,-993.0,11:04:37.117287,192.168.0.111
397,3,1,-6,88,"-1,0,-179",0,0,-24,0,0,0,55,58,85,70,100,-19.23,7,8.0,-2.0,-1001.0,11:04:37.215523,192.168.0.111
402,3,1,-6,88,"-1,0,-179",0,0,-24,0,0,0,55,58,85,70,100,-19.25,7,14.0,0.0,-1003.0,11:04:37.317728,192.168.0.111
409,3,1,-6,88,"-1,0,-179",0,0,-24,0,0,0,55,58,85,70,100,-19.23,7,15.0,-7.0,-984.0,11:04:37.422636,192.168.0.111
414,3,0,-4,88,"-1,0,179",0,0,-24,0,0,0,55,58,85,70,100,-19.22,8,14.0,-6.0,-1000.0,11:04:37.521434,192.168.0.111
418,3,0,-4,88,"-1,0,179",0,0,-24,0,0,0,55,58,85,70,100,-19.2,8,20.0,-6.0,-991.0,11:04:37.623680,192.168.0.111
424,3,0,-4,88,"-1,0,179",1,0,-24,0,0,0,55,58,85,70,100,-19.25,8,18.0,-4.0,-988.0,11:04:37.725517,192.168.0.111
429,3,0,-4,88,"-1,0,179",1,0,-24,0,0,0,56,59,85,70,100,-19.15,8,17.0,-2.0,-982.0,11:04:37.827466,192.168.0.111
434,3,2,-6,88,"0,0,-178",0,0,-24,0,0,0,56,59,86,70,100,-19.23,8,20.0,-10.0,-986.0,11:04:37.929313,192.168.0.111
439,3,2,-6,88,"0,0,-178",0,0,-24,0,0,0,56,59,85,70,100,-19.21,8,21.0,1.0,-986.0,11:04:38.031612,192.168.0.111
444,3,2,-6,88,"0,0,-178",1,0,-24,0,0,0,56,59,85,70,100,-19.3,8,19.0,1.0,-992.0,11:04:38.133413,192.168.0.111
449,3,2,-6,88,"0,0,-178",1,0,-24,0,0,0,56,59,85,70,100,-19.28,8,17.0,0.0,-986.0,11:04:38.234842,192.168.0.111
454,3,0,-4,89,"-1,0,179",1,0,-24,0,0,0,56,59,85,70,100,-19.3,8,29.0,-8.0,-990.0,11:04:38.337227,192.168.0.111
459,3,0,-4,89,"-1,0,179",1,0,-24,0,0,0,56,59,85,70,100,-19.26,8,10.0,-2.0,-977.0,11:04:38.439238,192.168.0.111
464,3,0,-4,89,"-1,0,179",1,0,-24,0,0,0,56,59,85,70,100,-19.27,9,25.0,-14.0,-990.0,11:04:38.541145,192.168.0.111
469,3,0,-4,89,"-1,0,179",1,0,-24,0,0,0,56,59,84,70,100,-19.23,9,18.0,-12.0,-987.0,11:04:38.643464,192.168.0.111
474,3,2,-8,88,"-1,0,-178",1,0,-24,0,0,0,56,59,84,70,100,-19.18,9,17.0,-12.0,-1002.0,11:04:38.745283,192.168.0.111
479,3,2,-8,88,"-1,0,-178",1,0,-24,0,0,0,56,59,84,70,100,-19.27,9,23.0,-16.0,-990.0,11:04:38.847316,192.168.0.111
484,3,2,-8,88,"-1,0,-178",1,0,-24,0,0,0,56,59,84,70,100,-19.26,9,29.0,-13.0,-1002.0,11:04:38.949212,192.168.0.111
489,3,1,-7,88,"-2,0,-177",1,0,-24,0,0,0,56,59,84,70,100,-19.24,9,21.0,-12.0,-994.0,11:04:39.052321,192.168.0.111
494,3,1,-7,88,"-2,0,-177",1,0,-24,0,0,0,56,59,84,70,100,-19.25,9,14.0,-3.0,-1004.0,11:04:39.153204,192.168.0.111
499,3,1,-7,88,"-2,0,-177",1,0,-24,0,0,0,56,59,84,70,100,-19.24,9,30.0,-20.0,-1000.0,11:04:39.255154,192.168.0.111
504,3,1,-7,88,"-2,0,-177",1,0,-24,0,0,0,56,59,84,70,100,-19.27,9,31.0,-10.0,-1012.0,11:04:39.357243,192.168.0.111
507,3,0,-5,88,"-3,0,-178",1,0,-24,0,0,0,56,59,84,70,100,-19.34,9,32.0,-24.0,-999.0,11:04:39.408246,192.168.0.111
512,3,0,-5,88,"-3,0,-178",1,0,-24,0,0,0,56,59,84,70,100,-19.33,10,27.0,-10.0,-1009.0,11:04:39.510233,192.168.0.111
517,3,0,-5,88,"-3,0,-178",1,0,-24,0,0,0,56,59,85,70,100,-19.31,10,30.0,-2.0,-1000.0,11:04:39.612223,192.168.0.111
522,3,0,-5,88,"-3,0,-178",1,0,-24,0,0,0,56,59,84,70,100,-19.26,10,25.0,-11.0,-983.0,11:04:39.713749,192.168.0.111
527,3,0,-5,88,"-4,0,-177",1,0,-24,0,0,0,56,58,83,70,100,-19.35,10,14.0,-4.0,-1005.0,11:04:39.816149,192.168.0.111
532,3,0,-5,88,"-4,0,-177",1,0,-24,0,0,0,56,58,84,70,100,-19.4,10,10.0,0.0,-997.0,11:04:39.918104,192.168.0.111
537,3,0,-5,88,"-4,0,-177",1,0,-24,0,0,0,56,58,85,70,100,-19.38,10,19.0,-7.0,-997.0,11:04:40.020041,192.168.0.111
542,3,0,-5,88,"-4,0,-177",0,0,-24,0,0,0,56,58,84,70,100,-19.33,10,28.0,-1.0,-998.0,11:04:40.122191,192.168.0.111
547,3,0,-4,88,"-4,0,-179",1,0,-24,0,0,0,56,58,84,70,100,-19.31,10,18.0,-5.0,-1011.0,11:04:40.230335,192.168.0.111
552,3,0,-4,88,"-4,0,-179",1,0,-24,0,0,0,56,58,85,70,100,-19.4,10,32.0,-7.0,-993.0,11:04:40.326442,192.168.0.111
557,3,0,-4,88,"-4,0,-179",1,0,-24,0,0,0,56,58,84,70,100,-19.28,10,25.0,3.0,-1015.0,11:04:40.427788,192.168.0.111
562,3,1,-4,88,"-2,0,179",1,0,-24,0,0,0,56,58,85,70,100,-19.42,11,19.0,2.0,-994.0,11:04:40.530096,192.168.0.111
567,3,1,-4,88,"-2,0,179",1,0,-24,0,0,0,56,58,85,70,100,-19.31,11,21.0,2.0,-994.0,11:04:40.632372,192.168.0.111
572,3,1,-4,88,"-2,0,179",1,0,-24,0,0,0,56,58,84,70,100,-19.29,11,22.0,0.0,-992.0,11:04:40.734427,192.168.0.111
577,3,1,-4,88,"-2,0,179",1,0,-24,0,0,0,56,59,85,70,100,-19.18,11,33.0,4.0,-1005.0,11:04:40.836710,192.168.0.111
582,3,0,-7,88,"-2,0,180",1,0,-24,0,0,0,56,59,85,70,100,-19.28,11,25.0,4.0,-998.0,11:04:40.939233,192.168.0.111
589,3,0,-7,88,"-2,0,180",1,0,-24,0,0,0,56,59,85,70,100,-19.28,11,15.0,7.0,-1002.0,11:04:41.041411,192.168.0.111
594,3,0,-7,88,"-2,0,180",1,0,-24,0,0,0,56,59,85,70,100,-19.25,11,20.0,4.0,-996.0,11:04:41.143931,192.168.0.111
599,3,0,-7,88,"-2,0,180",1,0,-24,0,0,0,56,59,85,70,100,-19.2,11,20.0,2.0,-1007.0,11:04:41.246174,192.168.0.111
604,3,-2,-9,88,"-4,0,180",1,0,-24,0,0,0,56,59,85,70,100,-19.26,11,26.0,0.0,-988.0,11:04:41.345965,192.168.0.111
609,3,-2,-9,88,"-4,0,180",1,0,-24,0,0,0,56,59,85,70,100,-19.27,11,22.0,6.0,-983.0,11:04:41.450970,192.168.0.111
614,3,-2,-9,88,"-4,0,180",1,0,-24,0,0,0,56,59,85,70,100,-19.29,12,30.0,4.0,-998.0,11:04:41.549615,192.168.0.111
619,3,-2,-9,88,"-4,0,180",1,0,-24,0,0,0,56,59,85,70,100,-19.31,12,27.0,11.0,-1007.0,11:04:41.651961,192.168.0.111
624,3,2,-9,88,"-2,0,179",1,0,-24,0,0,0,56,59,85,70,100,-19.31,12,23.0,6.0,-989.0,11:04:41.753827,192.168.0.111
629,3,2,-9,88,"-2,0,179",1,0,-24,0,0,0,57,59,86,70,100,-19.27,12,15.0,11.0,-988.0,11:04:41.855864,192.168.0.111
634,3,2,-9,88,"-2,0,179",1,0,-24,0,0,0,57,59,85,70,100,-19.32,12,13.0,12.0,-1003.0,11:04:41.970156,192.168.0.111
639,3,0,-12,87,"-3,0,-178",1,0,-24,0,0,0,57,59,86,70,100,-19.38,12,12.0,4.0,-1005.0,11:04:42.059854,192.168.0.111
644,3,0,-12,87,"-3,0,-178",1,0,-24,0,0,0,57,59,86,70,100,-19.31,12,23.0,-1.0,-980.0,11:04:42.161716,192.168.0.111
649,3,0,-12,87,"-3,0,-178",1,0,-24,0,0,0,57,59,86,70,100,-19.22,12,27.0,5.0,-988.0,11:04:42.270251,192.168.0.111
654,3,0,-12,87,"-3,0,-178",1,0,-24,0,0,0,57,59,86,70,100,-19.25,12,18.0,7.0,-993.0,11:04:42.365813,192.168.0.111
659,3,1,-7,89,"-2,0,177",1,0,-24,0,0,0,57,59,86,70,100,-19.19,12,28.0,5.0,-977.0,11:04:42.467715,192.168.0.111
662,3,1,-7,89,"-2,0,177",1,0,-24,0,0,0,57,59,86,70,100,-19.28,13,25.0,7.0,-1007.0,11:04:42.519147,192.168.0.111
667,3,1,-7,89,"-2,0,177",1,0,-24,0,0,0,57,59,86,70,100,-19.29,13,21.0,11.0,-998.0,11:04:42.621530,192.168.0.111
672,3,1,-7,89,"-2,0,177",1,0,-24,0,0,0,57,59,86,70,100,-19.27,13,33.0,-4.0,-998.0,11:04:42.723649,192.168.0.111
679,3,0,-6,89,"-2,0,177",1,0,-24,0,0,0,56,58,86,70,100,-19.16,13,24.0,-4.0,-989.0,11:04:42.876700,192.168.0.111
682,3,0,-6,89,"-2,0,177",1,0,-24,0,0,0,56,58,86,70,100,-19.25,13,28.0,7.0,-990.0,11:04:42.927674,192.168.0.111
687,3,0,-6,89,"-2,0,177",1,0,-24,0,0,0,56,58,85,70,100,-19.26,13,27.0,6.0,-1010.0,11:04:43.029617,192.168.0.111
692,3,1,-10,88,"-2,0,179",1,0,-24,0,0,0,56,58,84,70,100,-19.28,13,34.0,7.0,-1007.0,11:04:43.131724,192.168.0.111
697,3,1,-10,88,"-2,0,179",2,0,-24,0,0,0,56,58,85,70,100,-19.28,13,28.0,3.0,-990.0,11:04:43.233616,192.168.0.111
702,3,1,-10,88,"-2,0,179",2,0,-24,0,0,0,56,58,85,70,100,-19.28,13,35.0,5.0,-1007.0,11:04:43.336872,192.168.0.111
707,3,1,-10,88,"-2,0,179",2,0,-24,0,0,0,56,58,85,70,100,-19.3,14,36.0,6.0,-1005.0,11:04:43.437776,192.168.0.111
712,3,0,-8,88,"-4,0,179",2,0,-24,0,0,0,56,58,85,70,100,-19.26,14,36.0,0.0,-987.0,11:04:43.539615,192.168.0.111
717,3,0,-8,88,"-4,0,179",2,0,-24,0,0,0,56,58,85,70,100,-19.25,14,40.0,0.0,-991.0,11:04:43.641708,192.168.0.111
722,3,0,-8,88,"-4,0,179",2,0,-24,0,0,0,56,58,85,70,100,-19.28,14,41.0,5.0,-998.0,11:04:43.743349,192.168.0.111
727,3,0,-8,88,"-4,0,179",2,0,-24,0,0,0,56,59,85,70,100,-19.34,14,39.0,-9.0,-992.0,11:04:43.845450,192.168.0.111
732,3,1,-7,88,"-3,0,179",2,0,-24,0,0,0,56,59,84,70,100,-19.29,14,32.0,5.0,-998.0,11:04:43.947548,192.168.0.111
737,3,1,-7,88,"-3,0,179",2,0,-24,0,0,0,56,59,85,70,100,-19.27,14,48.0,-9.0,-994.0,11:04:44.049498,192.168.0.111
742,3,1,-7,88,"-3,0,179",2,0,-24,0,0,0,56,59,85,70,100,-19.28,14,36.0,4.0,-1012.0,11:04:44.151877,192.168.0.111
747,3,1,-7,88,"-3,0,179",2,0,-24,0,0,0,56,59,85,70,100,-19.28,14,33.0,1.0,-1011.0,11:04:44.253506,192.168.0.111
753,3,3,-7,88,"-3,0,179",2,0,-24,0,0,0,56,59,86,70,100,-19.3,14,36.0,2.0,-999.0,11:04:44.355682,192.168.0.111
758,3,3,-7,88,"-3,0,179",2,0,-24,0,0,0,56,59,85,70,100,-19.29,15,33.0,0.0,-995.0,11:04:44.457308,192.168.0.111
764,3,3,-7,88,"-3,0,179",2,0,-24,0,0,0,56,59,85,70,100,-19.25,15,39.0,-7.0,-998.0,11:04:44.559566,192.168.0.111
768,3,2,-8,87,"-4,0,-178",2,0,-24,0,0,0,56,59,85,70,100,-19.33,15,32.0,7.0,-1002.0,11:04:44.661471,192.168.0.111
774,3,2,-8,87,"-4,0,-178",2,0,-24,0,0,0,56,59,86,70,100,-19.34,15,42.0,0.0,-998.0,11:04:44.763541,192.168.0.111
779,3,2,-8,87,"-4,0,-178",2,0,-24,0,0,0,56,59,85,70,100,-19.28,15,34.0,-9.0,-994.0,11:04:44.865176,192.168.0.111
784,3,2,-8,87,"-4,0,-178",2,0,-24,0,0,0,56,59,85,70,100,-19.28,15,25.0,3.0,-992.0,11:04:44.967488,192.168.0.111
788,3,1,-10,87,"-4,0,-177",1,0,-24,0,0,0,56,59,85,70,100,-19.34,15,40.0,-1.0,-999.0,11:04:45.069632,192.168.0.111
794,3,1,-10,87,"-4,0,-177",1,0,-24,0,0,0,56,59,85,70,100,-19.38,15,32.0,-4.0,-993.0,11:04:45.171347,192.168.0.111
799,3,1,-10,87,"-4,0,-177",1,0,-24,0,0,0,56,59,86,70,100,-19.44,15,24.0,6.0,-990.0,11:04:45.273468,192.168.0.111
804,3,1,-10,87,"-4,0,-177",1,0,-24,0,0,0,56,59,86,70,100,-19.35,15,26.0,3.0,-987.0,11:04:45.375291,192.168.0.111
809,3,2,-5,89,"-3,0,179",1,0,-24,0,0,0,56,59,85,70,100,-19.24,16,36.0,1.0,-987.0,11:04:45.477368,192.168.0.111
814,3,2,-5,89,"-3,0,179",1,0,-24,0,0,0,56,59,86,70,100,-19.25,16,29.0,4.0,-997.0,11:04:45.579361,192.168.0.111
819,3,2,-5,89,"-3,0,179",1,0,-24,0,0,0,56,59,86,70,100,-19.32,16,24.0,2.0,-1000.0,11:04:45.681344,192.168.0.111
824,3,2,-5,89,"-3,0,179",1,0,-24,0,0,0,56,59,85,70,100,-19.33,16,25.0,8.0,-996.0,11:04:45.783142,192.168.0.111
829,3,1,-5,89,"-3,0,179",1,0,-24,0,0,0,57,60,85,70,100,-19.29,16,27.0,10.0,-1006.0,11:04:45.885178,192.168.0.111
834,3,1,-5,89,"-3,0,179",1,0,-24,0,0,0,57,60,85,70,100,-19.29,16,28.0,1.0,-1011.0,11:04:45.987719,192.168.0.111
839,3,1,-5,89,"-3,0,179",1,0,-24,0,0,0,57,60,85,70,100,-19.29,16,29.0,8.0,-1006.0,11:04:46.089152,192.168.0.111
844,3,-3,-9,88,"-5,0,-178",1,0,-24,0,0,0,57,60,85,70,100,-19.27,16,25.0,6.0,-1003.0,11:04:46.191278,192.168.0.111
849,3,-3,-9,88,"-5,0,-178",1,0,-24,0,0,0,57,60,84,70,100,-19.29,16,26.0,-5.0,-1002.0,11:04:46.293196,192.168.0.111
852,3,-3,-9,88,"-5,0,-178",1,0,-24,0,0,0,57,60,84,70,100,-19.32,16,24.0,-9.0,-996.0,11:04:46.344413,192.168.0.111
857,3,-3,-9,88,"-5,0,-178",1,0,-24,0,0,0,57,60,84,70,100,-19.38,17,25.0,-8.0,-999.0,11:04:46.446170,192.168.0.111
862,3,0,-9,87,"-2,0,-179",1,0,-24,0,0,0,57,60,84,70,100,-19.3,17,24.0,-6.0,-1001.0,11:04:46.548259,192.168.0.111
867,3,0,-9,87,"-2,0,-179",1,0,-24,0,0,0,57,60,84,70,100,-19.26,17,28.0,-1.0,-1022.0,11:04:46.649992,192.168.0.111
872,3,0,-9,87,"-2,0,-179",1,0,-24,0,0,0,57,60,84,70,100,-19.35,17,31.0,-13.0,-1001.0,11:04:46.752256,192.168.0.111
877,3,0,-9,87,"-2,0,-179",1,0,-24,0,0,0,57,59,84,70,100,-19.41,17,21.0,-4.0,-1003.0,11:04:46.854370,192.168.0.111
882,3,0,-9,86,"-1,0,-178",1,0,-24,0,0,0,57,59,83,70,100,-19.34,17,18.0,-9.0,-997.0,11:04:46.956164,192.168.0.111
887,3,0,-9,86,"-1,0,-178",1,0,-24,0,0,0,57,59,84,70,100,-19.38,17,26.0,-8.0,-998.0,11:04:47.058098,192.168.0.111
892,3,0,-9,86,"-1,0,-178",1,0,-24,0,0,0,57,59,84,70,100,-19.35,17,33.0,-13.0,-1006.0,11:04:47.160036,192.168.0.111
897,3,1,-7,86,"-1,0,-179",1,0,-24,0,0,0,57,59,84,70,100,-19.36,17,22.0,-7.0,-996.0,11:04:47.262220,192.168.0.111
902,3,1,-7,86,"-1,0,-179",1,0,-24,0,0,0,57,59,84,70,100,-19.3,17,20.0,-3.0,-1003.0,11:04:47.363961,192.168.0.111
907,3,1,-7,86,"-1,0,-179",1,0,-24,0,0,0,57,59,83,70,100,-19.4,18,22.0,-9.0,-988.0,11:04:47.466082,192.168.0.111
912,3,1,-7,86,"-1,0,-179",1,0,-24,0,0,0,57,59,83,70,100,-19.33,18,28.0,-11.0,-1004.0,11:04:47.568167,192.168.0.111
917,3,0,-7,86,"-1,0,-178",1,0,-24,0,0,0,57,59,84,70,100,-19.35,18,24.0,-18.0,-993.0,11:04:47.670020,192.168.0.111
923,3,0,-7,86,"-1,0,-178",1,0,-24,0,0,0,57,59,83,70,100,-19.34,18,29.0,-17.0,-995.0,11:04:47.772100,192.168.0.111
928,3,0,-7,86,"-1,0,-178",1,0,-24,0,0,0,57,59,83,70,100,-19.29,18,31.0,-9.0,-999.0,11:04:47.874263,192.168.0.111
933,3,0,-7,86,"-1,0,-178",1,0,-24,0,0,0,57,59,83,70,100,-19.31,18,21.0,-11.0,-993.0,11:04:47.976406,192.168.0.111
938,3,0,-6,86,"-1,0,-178",1,0,-24,0,0,0,57,59,84,70,100,-19.3,18,22.0,-7.0,-997.0,11:04:48.080608,192.168.0.111
944,3,0,-6,86,"-1,0,-178",1,0,-24,0,0,0,57,59,84,70,100,-19.29,18,25.0,-9.0,-1002.0,11:04:48.183297,192.168.0.111
949,3,0,-6,86,"-1,0,-178",1,0,-24,0,0,0,57,59,83,70,100,-19.33,18,22.0,-17.0,-981.0,11:04:48.283048,192.168.0.111
954,3,0,-6,86,"-1,0,-178",1,0,-24,0,0,0,57,59,84,70,100,-19.22,18,27.0,-17.0,-989.0,11:04:48.384923,192.168.0.111
959,3,0,-6,86,"-2,0,-178",1,0,-24,0,0,0,57,59,84,70,100,-19.26,19,27.0,-9.0,-1000.0,11:04:48.486956,192.168.0.111
964,3,0,-6,86,"-2,0,-178",1,0,-24,0,0,0,57,59,84,70,100,-19.28,19,31.0,-7.0,-1010.0,11:04:48.588852,192.168.0.111
969,3,0,-6,86,"-2,0,-178",1,0,-24,0,0,0,57,59,83,70,100,-19.21,19,32.0,-25.0,-1000.0,11:04:48.690970,192.168.0.111
974,3,0,-6,86,"-1,0,-178",1,0,-24,0,0,0,57,59,84,70,100,-19.23,19,36.0,-13.0,-993.0,11:04:48.793029,192.168.0.111
979,3,0,-6,86,"-1,0,-178",1,0,-24,0,0,0,57,60,84,70,100,-19.25,19,33.0,-17.0,-992.0,11:04:48.895031,192.168.0.111
984,3,0,-6,86,"-1,0,-178",1,0,-24,0,0,0,57,60,84,70,100,-19.23,19,36.0,-18.0,-1006.0,11:04:48.997222,192.168.0.111
989,3,0,-6,86,"-1,0,-178",1,0,-24,0,0,0,57,60,83,70,100,-19.27,19,26.0,-18.0,-1007.0,11:04:49.098948,192.168.0.111
994,3,0,-7,86,"-1,0,-178",1,0,-24,0,0,0,57,60,82,70,100,-19.25,19,31.0,-14.0,-1003.0,11:04:49.200992,192.168.0.111
999,3,0,-7,86,"-1,0,-178",1,0,-24,0,0,0,57,60,83,70,100,-19.25,19,33.0,-11.0,-1013.0,11:04:49.302965,192.168.0.111
1004,3,0,-7,86,"-1,0,-178",2,0,-24,0,0,0,57,60,82,70,100,-19.26,19,36.0,-8.0,-1003.0,11:04:49.404974,192.168.0.111
1007,3,0,-7,86,"-1,0,-178",2,0,-24,0,0,0,57,60,83,70,100,-19.21,20,35.0,-19.0,-1008.0,11:04:49.456397,192.168.0.111
1012,3,0,-6,86,"-3,0,-177",2,0,-24,0,0,0,57,60,83,70,100,-19.27,20,34.0,-13.0,-990.0,11:04:49.560855,192.168.0.111
1017,3,0,-6,86,"-3,0,-177",2,0,-24,0,0,0,57,60,83,70,100,-19.21,20,37.0,-12.0,-1013.0,11:04:49.659720,192.168.0.111
1022,3,0,-6,86,"-3,0,-177",2,0,-24,0,0,0,57,60,82,70,100,-19.27,20,32.0,-12.0,-1001.0,11:04:49.761761,192.168.0.111
1027,3,0,-6,86,"-3,0,-177",2,0,-24,0,0,0,58,60,82,70,100,-19.35,20,28.0,-5.0,-999.0,11:04:49.864015,192.168.0.111
1032,3,0,-8,85,"-3,0,-176",1,0,-24,0,0,0,58,60,83,70,100,-19.26,20,34.0,-14.0,-997.0,11:04:49.965765,192.168.0.111
1037,3,0,-8,85,"-3,0,-176",1,0,-24,0,0,0,58,60,83,70,100,-19.25,20,27.0,-15.0,-1005.0,11:04:50.068913,192.168.0.111
1042,3,0,-8,85,"-3,0,-176",1,0,-24,0,0,0,58,60,82,70,100,-19.26,20,35.0,-17.0,-993.0,11:04:50.169955,192.168.0.111
1047,3,0,-7,86,"-3,0,-177",1,0,-24,0,0,0,58,60,82,70,100,-19.31,20,27.0,-21.0,-997.0,11:04:50.271560,192.168.0.111
1052,3,0,-7,86,"-3,0,-177",1,0,-24,0,0,0,58,60,83,70,100,-19.23,20,30.0,-17.0,-996.0,11:04:50.373572,192.168.0.111
1057,3,0,-7,86,"-3,0,-177",1,1,-24,0,0,0,58,60,83,70,100,-19.22,21,32.0,-24.0,-1009.0,11:04:50.476203,192.168.0.111
1062,3,0,-7,86,"-3,0,-177",1,0,-24,0,0,0,58,60,82,70,100,-19.25,21,27.0,-20.0,-1000.0,11:04:50.577790,192.168.0.111
1067,3,0,-8,86,"-3,0,-176",1,0,-24,0,0,0,58,60,82,70,100,-19.19,21,38.0,-11.0,-999.0,11:04:50.680085,192.168.0.111
1072,3,0,-8,86,"-3,0,-176",1,0,-24,0,0,0,58,60,83,70,100,-19.21,21,28.0,-17.0,-998.0,11:04:50.781697,192.168.0.111
1077,3,0,-8,86,"-3,0,-176",1,0,-24,0,0,0,58,60,83,70,100,-19.23,21,25.0,-20.0,-993.0,11:04:50.883826,192.168.0.111
1082,3,0,-8,86,"-3,0,-176",1,0,-24,0,0,0,58,60,83,70,100,-19.23,21,25.0,-20.0,-997.0,11:04:50.985617,192.168.0.111
1087,3,0,-6,86,"-2,0,-177",1,0,-24,0,0,0,58,60,82,70,100,-19.2,21,23.0,-19.0,-1005.0,11:04:51.087646,192.168.0.111
1093,3,0,-6,86,"-2,0,-177",1,0,-24,0,0,0,58,60,82,70,100,-19.31,21,23.0,-19.0,-991.0,11:04:51.189504,192.168.0.111
1099,3,0,-6,86,"-2,0,-177",1,0,-24,0,0,0,58,60,82,70,100,-19.26,21,22.0,-13.0,-992.0,11:04:51.291203,192.168.0.111
1104,3,0,-6,86,"-2,0,-177",1,0,-24,0,0,0,58,60,82,70,100,-19.26,21,23.0,-14.0,-1007.0,11:04:51.393902,192.168.0.111
1109,3,0,-6,86,"-2,0,-178",1,0,-24,0,0,0,58,60,82,70,100,-19.26,22,24.0,-11.0,-1002.0,11:04:51.495509,192.168.0.111
1114,3,0,-6,86,"-2,0,-178",1,0,-24,0,0,0,58,60,82,70,100,-19.33,22,13.0,-34.0,-996.0,11:04:51.597655,192.168.0.111
1119,3,0,-6,86,"-2,0,-178",1,0,-24,0,0,0,58,60,82,70,100,-19.29,22,12.0,-17.0,-996.0,11:04:51.700392,192.168.0.111
1124,3,1,-6,86,"-2,0,-177",1,0,-24,0,0,0,58,60,82,70,100,-19.28,22,21.0,-21.0,-1000.0,11:04:51.801739,192.168.0.111
1129,3,1,-6,86,"-2,0,-177",0,0,-24,0,0,0,57,61,82,70,100,-19.25,22,11.0,-14.0,-987.0,11:04:51.903035,192.168.0.111
1134,3,1,-6,86,"-2,0,-177",0,0,-24,0,0,0,57,61,82,70,100,-19.23,22,18.0,-14.0,-998.0,11:04:52.005568,192.168.0.111
1139,3,1,-6,86,"-2,0,-177",0,0,-24,0,0,0,57,61,83,70,100,-19.35,22,23.0,-24.0,-994.0,11:04:52.107665,192.168.0.111
1144,3,1,-9,85,"0,0,-176",0,0,-24,0,0,0,57,61,82,70,100,-19.35,22,31.0,-1.0,-982.0,11:04:52.209548,192.168.0.111
1149,3,1,-9,85,"0,0,-176",0,0,-24,0,0,0,57,61,83,70,100,-19.37,22,21.0,1.0,-997.0,11:04:52.311596,192.168.0.111
1154,3,1,-9,85,"0,0,-176",0,0,-24,0,0,0,57,61,82,70,100,-19.34,22,19.0,2.0,-1005.0,11:04:52.413535,192.168.0.111
1159,3,1,-9,85,"0,0,-176",1,0,-24,0,0,0,57,61,83,70,100,-19.44,23,19.0,2.0,-1015.0,11:04:52.515374,192.168.0.111
1164,3,0,-5,86,"0,0,-179",1,0,-24,0,0,0,57,61,83,70,100,-19.37,23,26.0,-4.0,-1003.0,11:04:52.617228,192.168.0.111
1169,3,0,-5,86,"0,0,-179",1,0,-24,0,0,0,57,61,82,70,100,-19.34,23,27.0,2.0,-1011.0,11:04:52.719403,192.168.0.111
1174,3,0,-5,86,"0,0,-179",1,0,-24,0,0,0,57,61,82,70,100,-19.29,23,26.0,-7.0,-1001.0,11:04:52.821624,192.168.0.111
1179,3,-1,-7,85,"-2,0,-179",1,0,-24,0,0,0,58,61,82,70,100,-19.3,23,33.0,-2.0,-1002.0,11:04:52.923712,192.168.0.111
1184,3,-1,-7,85,"-2,0,-179",1,0,-24,0,0,0,58,61,82,70,100,-19.32,23,29.0,-9.0,-1011.0,11:04:53.025502,192.168.0.111
1189,3,-1,-7,85,"-2,0,-179",1,0,-24,0,0,0,58,61,82,70,100,-19.25,23,21.0,-7.0,-996.0,11:04:53.127614,192.168.0.111
1194,3,-1,-7,85,"-2,0,-179",1,0,-24,0,0,0,58,61,82,70,100,-19.33,23,24.0,-9.0,-1017.0,11:04:53.230287,192.168.0.111
1197,3,2,-7,85,"0,0,178",1,0,-24,0,0,0,58,61,82,70,100,-19.28,23,25.0,-12.0,-1009.0,11:04:53.280514,192.168.0.111
1202,3,2,-7,85,"0,0,178",1,0,-24,0,0,0,58,61,82,70,100,-19.39,23,21.0,-8.0,-995.0,11:04:53.382569,192.168.0.111
1207,3,2,-7,85,"0,0,178",1,0,-24,0,0,0,58,61,82,70,100,-19.28,24,10.0,-7.0,-1007.0,11:04:53.484484,192.168.0.111
1212,3,2,-7,85,"0,0,178",1,0,-24,0,0,0,58,61,82,70,100,-19.29,24,9.0,-10.0,-1009.0,11:04:53.586980,192.168.0.111
1217,3,-13,-24,78,"-12,0,-169",0,0,-24,0,0,0,58,61,82,70,100,-19.35,24,11.0,-11.0,-994.0,11:04:53.688277,192.168.0.111
1222,3,-13,-24,78,"-12,0,-169",0,0,-24,0,0,0,58,61,82,70,100,-19.3,24,16.0,-5.0,-995.0,11:04:53.790243,192.168.0.111
1227,3,-13,-24,78,"-12,0,-169",0,0,-24,0,0,0,57,61,83,70,100,-19.27,24,28.0,0.0,-998.0,11:04:53.892388,192.168.0.111
1232,3,0,-8,85,"-1,0,180",0,0,-24,0,0,0,57,61,82,70,100,-19.3,24,37.0,-12.0,-987.0,11:04:53.994506,192.168.0.111
1237,3,0,-8,85,"-1,0,180",1,0,-24,0,0,0,57,61,82,70,100,-19.32,24,26.0,-4.0,-1008.0,11:04:54.096402,192.168.0.111
1242,3,0,-8,85,"-1,0,180",1,0,-24,0,0,0,57,61,82,70,100,-19.28,24,30.0,-14.0,-1005.0,11:04:54.198321,192.168.0.111
1247,3,0,-8,85,"-1,0,180",1,0,-24,0,0,0,57,61,81,70,100,-19.27,24,27.0,-5.0,-1008.0,11:04:54.300262,192.168.0.111
1254,3,0,-7,85,"0,0,179",1,0,-24,0,0,0,57,61,81,70,100,-19.38,24,32.0,-12.0,-1010.0,11:04:54.402288,192.168.0.111
1259,3,0,-7,85,"0,0,179",1,0,-24,0,0,0,57,61,81,70,100,-19.33,25,30.0,-11.0,-996.0,11:04:54.504440,192.168.0.111
1264,3,0,-7,85,"0,0,179",1,0,-24,0,0,0,57,61,82,70,100,-19.32,25,35.0,-16.0,-1017.0,11:04:54.606586,192.168.0.111
1269,3,0,-7,85,"0,0,179",2,0,-24,0,0,0,57,61,81,70,100,-19.38,25,37.0,-14.0,-1001.0,11:04:54.707746,192.168.0.111
1274,3,0,-9,84,"-2,0,-178",2,0,-24,0,0,0,57,61,82,70,100,-19.3,25,27.0,-17.0,-1004.0,11:04:54.810410,192.168.0.111
1279,3,0,-9,84,"-2,0,-178",2,0,-24,0,0,0,58,61,81,70,100,-19.34,25,31.0,-13.0,-1000.0,11:04:54.912367,192.168.0.111
1284,3,0,-9,84,"-2,0,-178",2,0,-24,0,0,0,58,61,82,70,100,-19.35,25,30.0,-11.0,-1007.0,11:04:55.014421,192.168.0.111
1289,3,0,-9,84,"-2,0,-178",2,0,-24,0,0,0,58,61,82,70,100,-19.41,25,34.0,-19.0,-1007.0,11:04:55.116385,192.168.0.111
1294,3,0,-7,85,"-3,0,180",2,0,-24,0,0,0,58,61,82,70,100,-19.36,25,36.0,-15.0,-996.0,11:04:55.218359,192.168.0.111
1299,3,0,-7,85,"-3,0,180",2,0,-24,0,0,0,58,61,81,70,100,-19.35,25,33.0,-15.0,-1000.0,11:04:55.320236,192.168.0.111
1304,3,0,-7,85,"-3,0,180",2,0,-24,0,0,0,58,61,82,70,100,-19.31,25,30.0,-13.0,-989.0,11:04:55.422339,192.168.0.111
1309,3,0,-7,85,"-3,0,180",2,0,-24,0,0,0,58,61,82,70,100,-19.35,26,15.0,-25.0,-983.0,11:04:55.524337,192.168.0.111
1314,3,2,-8,85,"-3,0,-178",1,0,-24,0,0,0,58,61,82,70,100,-19.29,26,24.0,-3.0,-1015.0,11:04:55.626354,192.168.0.111
1319,3,2,-8,85,"-3,0,-178",1,0,-24,0,0,0,58,61,82,70,100,-19.26,26,33.0,-16.0,-1003.0,11:04:55.728212,192.168.0.111
1324,3,2,-8,85,"-3,0,-178",1,0,-24,0,0,0,58,61,83,70,100,-19.31,26,24.0,-21.0,-994.0,11:04:55.830027,192.168.0.111
1329,3,0,-7,85,"-4,0,-179",1,0,-24,0,0,0,59,60,82,70,100,-19.34,26,32.0,-12.0,-991.0,11:04:55.932258,192.168.0.111
1334,3,0,-7,85,"-4,0,-179",1,0,-24,0,0,0,59,60,82,70,100,-19.31,26,31.0,-11.0,-1005.0,11:04:56.034094,192.168.0.111
1339,3,0,-7,85,"-4,0,-179",1,0,-24,0,0,0,59,60,82,70,100,-19.27,26,28.0,-12.0,-988.0,11:04:56.136201,192.168.0.111
1344,3,0,-7,85,"-4,0,-179",1,0,-24,0,0,0,59,60,82,70,100,-19.3,26,27.0,-9.0,-1001.0,11:04:56.238216,192.168.0.111
1349,3,1,-6,86,"-2,0,180",1,1,-24,0,0,0,59,60,82,70,100,-19.29,26,20.0,-5.0,-989.0,11:04:56.340824,192.168.0.111
1354,3,1,-6,86,"-2,0,180",1,0,-24,0,0,0,59,60,82,70,100,-19.27,26,25.0,-3.0,-1007.0,11:04:56.442146,192.168.0.111
1359,3,1,-6,86,"-2,0,180",1,0,-24,0,0,0,59,60,82,70,100,-19.29,27,29.0,-7.0,-1006.0,11:04:56.544207,192.168.0.111
1364,3,1,-6,86,"-2,0,180",1,0,-24,0,0,0,59,60,83,70,100,-19.29,27,30.0,-9.0,-1007.0,11:04:56.646156,192.168.0.111
1367,3,1,-7,85,"-2,0,-178",1,0,-24,0,0,0,59,60,83,70,100,-19.31,27,36.0,-3.0,-1010.0,11:04:56.696969,192.168.0.111
1372,3,1,-7,85,"-2,0,-178",1,0,-24,0,0,0,59,60,82,70,100,-19.29,27,19.0,-6.0,-1008.0,11:04:56.799095,192.168.0.111
1379,3,1,-7,85,"-2,0,-178",1,0,-24,0,0,0,58,61,83,70,100,-19.34,27,24.0,-6.0,-997.0,11:04:56.951868,192.168.0.111
1382,3,1,-7,85,"-2,0,-178",1,0,-24,0,0,0,58,61,83,70,100,-19.33,27,16.0,-7.0,-995.0,11:04:57.002948,192.168.0.111
1387,3,0,-6,86,"-3,0,180",1,0,-24,0,0,0,58,61,83,70,100,-19.29,27,28.0,-10.0,-998.0,11:04:57.105044,192.168.0.111
1392,3,0,-6,86,"-3,0,180",1,0,-24,0,0,0,58,61,83,70,100,-19.29,27,28.0,-1.0,-1006.0,11:04:57.207185,192.168.0.111
1397,3,0,-6,86,"-3,0,180",1,0,-24,0,0,0,58,61,83,70,100,-19.26,27,29.0,3.0,-1007.0,11:04:57.309051,192.168.0.111
1402,3,0,-8,86,"-3,0,-179",1,0,-24,0,0,0,58,61,83,70,100,-19.24,27,34.0,-2.0,-999.0,11:04:57.410968,192.168.0.111
1407,3,0,-8,86,"-3,0,-179",1,0,-24,0,0,0,58,61,83,70,100,-19.29,28,19.0,5.0,-995.0,11:04:57.513025,192.168.0.111
1412,3,0,-8,86,"-3,0,-179",1,0,-24,0,0,0,58,61,84,70,100,-19.28,28,27.0,-1.0,-998.0,11:04:57.615080,192.168.0.111
1417,3,0,-8,86,"-3,0,-179",1,0,-24,0,0,0,58,61,83,70,100,-19.36,28,23.0,-5.0,-995.0,11:04:57.717062,192.168.0.111
1423,3,2,-7,86,"-2,0,179",1,0,-24,0,0,0,58,61,83,70,100,-19.16,28,18.0,-1.0,-1002.0,11:04:57.819143,192.168.0.111
1427,3,2,-7,86,"-2,0,179",1,0,-24,0,0,0,58,61,83,70,100,-19.25,28,28.0,-21.0,-1007.0,11:04:57.921197,192.168.0.111
1433,3,2,-7,86,"-2,0,179",1,0,-24,0,0,0,58,61,83,70,100,-19.36,28,29.0,-11.0,-1005.0,11:04:58.022708,192.168.0.111
1439,3,2,-7,86,"-2,0,179",1,0,-24,0,0,0,58,61,83,70,100,-19.34,28,26.0,-16.0,-992.0,11:04:58.127530,192.168.0.111
1444,3,2,-10,86,"-1,0,-179",1,0,-24,0,0,0,58,61,83,70,100,-19.36,28,19.0,-2.0,-1006.0,11:04:58.226992,192.168.0.111
1449,3,2,-10,86,"-1,0,-179",1,0,-24,0,0,0,58,61,83,70,100,-19.4,28,34.0,-12.0,-1001.0,11:04:58.329128,192.168.0.111
1454,3,2,-10,86,"-1,0,-179",1,0,-24,0,0,0,58,61,83,70,100,-19.29,28,31.0,-14.0,-1002.0,11:04:58.430999,192.168.0.111
1459,3,1,-8,86,"-2,0,180",1,0,-24,0,0,0,58,61,83,70,100,-19.4,29,28.0,-2.0,-1009.0,11:04:58.533127,192.168.0.111
1464,3,1,-8,86,"-2,0,180",1,0,-24,0,0,0,58,61,83,70,100,-19.26,29,34.0,-18.0,-1000.0,11:04:58.634985,192.168.0.111
1469,3,1,-8,86,"-2,0,180",1,0,-24,0,0,0,58,61,83,70,100,-19.3,29,40.0,-13.0,-994.0,11:04:58.736928,192.168.0.111
1474,3,1,-8,86,"-2,0,180",1,0,-24,0,0,0,58,61,83,70,100,-19.31,29,31.0,-13.0,-1001.0,11:04:58.838807,192.168.0.111
1479,3,0,-8,86,"-2,0,180",1,0,-24,0,0,0,58,61,83,70,100,-19.31,29,33.0,-12.0,-996.0,11:04:58.941139,192.168.0.111
1484,3,0,-8,86,"-2,0,180",1,0,-24,0,0,0,58,61,83,70,100,-19.27,29,26.0,-9.0,-996.0,11:04:59.042883,192.168.0.111
1489,3,0,-8,86,"-2,0,180",1,0,-24,0,0,0,58,61,83,70,100,-19.32,29,26.0,-14.0,-994.0,11:04:59.144430,192.168.0.111
1494,3,0,-8,86,"-2,0,180",1,0,-24,0,0,0,58,61,83,70,100,-19.26,29,23.0,-10.0,-991.0,11:04:59.247845,192.168.0.111
1499,3,0,-7,86,"-2,0,-179",1,0,-24,0,0,0,58,61,82,70,100,-19.28,29,23.0,-11.0,-991.0,11:04:59.349859,192.168.0.111
1504,3,0,-7,86,"-2,0,-179",1,0,-24,0,0,0,58,61,83,70,100,-19.35,29,21.0,-12.0,-1007.0,11:04:59.452029,192.168.0.111
1509,3,0,-7,86,"-2,0,-179",1,0,-24,0,0,0,58,61,83,70,100,-19.28,30,12.0,-6.0,-1016.0,11:04:59.553883,192.168.0.111
1514,3,0,-7,86,"-2,0,-179",1,0,-24,0,0,0,58,61,82,70,100,-19.32,30,24.0,-15.0,-1017.0,11:04:59.656668,192.168.0.111
1519,3,1,-8,86,"-1,0,-178",1,0,-24,0,0,0,58,61,83,70,100,-19.28,30,30.0,-4.0,-997.0,11:04:59.757411,192.168.0.111
1524,3,1,-8,86,"-1,0,-178",1,0,-24,0,0,0,58,61,82,70,100,-19.29,30,36.0,-6.0,-996.0,11:04:59.860045,192.168.0.111
1529,3,1,-8,86,"-1,0,-178",1,0,-24,0,0,0,59,62,83,70,100,-19.28,30,26.0,-11.0,-998.0,11:04:59.961881,192.168.0.111
1534,3,1,-8,86,"-1,0,-178",1,0,-24,0,0,0,59,62,83,70,100,-19.29,30,33.0,-16.0,-1000.0,11:05:00.063984,192.168.0.111
1537,3,0,-6,85,"-1,0,-179",1,0,-24,0,0,0,59,62,83,70,100,-19.26,30,32.0,-13.0,-1006.0,11:05:00.114733,192.168.0.111
1542,3,0,-6,85,"-1,0,-179",1,0,-24,0,0,0,59,62,83,70,100,-19.34,30,32.0,-11.0,-995.0,11:05:00.216866,192.168.0.111
1547,3,0,-6,85,"-1,0,-179",1,0,-24,0,0,0,59,62,83,70,100,-19.33,30,41.0,-19.0,-1002.0,11:05:00.318822,192.168.0.111
1552,3,-1,-5,86,"-1,0,179",1,0,-24,0,0,0,59,62,83,70,100,-19.31,30,37.0,-14.0,-993.0,11:05:00.420871,192.168.0.111
1557,3,-1,-5,86,"-1,0,179",1,0,-24,0,0,0,59,62,83,70,100,-19.27,31,23.0,-16.0,-1002.0,11:05:00.522757,192.168.0.111
1562,3,-1,-5,86,"-1,0,179",1,0,-24,0,0,0,59,62,83,70,100,-19.26,31,31.0,-14.0,-998.0,11:05:00.624651,192.168.0.111
1567,3,-1,-5,86,"-1,0,179",1,0,-24,0,0,0,59,62,83,70,100,-19.29,31,28.0,-14.0,-993.0,11:05:00.726788,192.168.0.111
1572,3,0,-7,86,"-1,0,-178",1,0,-24,0,0,0,59,62,83,70,100,-19.29,31,27.0,-27.0,-1009.0,11:05:00.828575,192.168.0.111
1577,3,0,-7,86,"-1,0,-178",1,0,-24,0,0,0,59,61,84,70,100,-19.35,31,23.0,-21.0,-994.0,11:05:00.930870,192.168.0.111
1582,3,0,-7,86,"-1,0,-178",1,0,-24,0,0,0,59,61,83,70,100,-19.28,31,23.0,-11.0,-998.0,11:05:01.032691,192.168.0.111
1587,3,0,-7,86,"-1,0,-178",1,1,-24,0,0,0,59,61,83,70,100,-19.26,31,20.0,-10.0,-998.0,11:05:01.134926,192.168.0.111
1592,3,0,-7,86,"-2,0,-178",1,0,-24,0,0,0,59,61,83,70,100,-19.3,31,27.0,-15.0,-1009.0,11:05:01.237391,192.168.0.111
1599,3,0,-7,86,"-2,0,-178",1,0,-24,0,0,0,59,61,83,70,100,-19.28,31,17.0,-3.0,-1008.0,11:05:01.338736,192.168.0.111
1604,3,0,-7,86,"-2,0,-178",1,0,-24,0,0,0,59,61,84,70,100,-19.3,31,23.0,-7.0,-997.0,11:05:01.440762,192.168.0.111
1609,3,0,-7,86,"-1,0,-177",1,0,-24,0,0,0,59,61,84,70,100,-19.27,32,20.0,-9.0,-1001.0,11:05:01.542551,192.168.0.111
1614,3,0,-7,86,"-1,0,-177",1,0,-24,0,0,0,59,61,83,70,100,-19.37,32,28.0,-16.0,-993.0,11:05:01.645858,192.168.0.111
1619,3,0,-7,86,"-1,0,-177",1,0,-24,0,0,0,59,61,84,70,100,-19.26,32,29.0,-23.0,-989.0,11:05:01.746676,192.168.0.111
1624,3,0,-7,86,"-1,0,-177",1,0,-24,0,0,0,59,61,84,70,100,-19.31,32,22.0,-12.0,-995.0,11:05:01.848802,192.168.0.111
1629,3,0,-6,86,"0,0,-179",1,0,-24,0,0,0,59,62,84,70,100,-19.28,32,27.0,-13.0,-1000.0,11:05:01.954975,192.168.0.111
1634,3,0,-6,86,"0,0,-179",1,0,-24,0,0,0,59,62,83,70,100,-19.46,32,26.0,-16.0,-985.0,11:05:02.052479,192.168.0.111
1639,3,0,-6,86,"0,0,-179",1,0,-24,0,0,0,59,62,84,70,100,-19.38,32,20.0,-12.0,-995.0,11:05:02.154935,192.168.0.111
1644,3,0,-6,86,"0,0,-179",1,0,-24,0,0,0,59,62,83,70,100,-19.24,32,18.0,-12.0,-995.0,11:05:02.256261,192.168.0.111
1649,3,-2,-5,86,"-2,0,180",1,0,-24,0,0,0,59,62,84,70,100,-19.33,32,21.0,-3.0,-1011.0,11:05:02.359426,192.168.0.111
1654,3,-2,-5,86,"-2,0,180",1,0,-24,0,0,0,59,62,83,70,100,-19.38,33,15.0,-11.0,-1001.0,11:05:02.461536,192.168.0.111
1659,3,-2,-5,86,"-2,0,180",1,0,-24,0,0,0,59,62,83,70,100,-19.23,33,16.0,-4.0,-1016.0,11:05:02.562551,192.168.0.111
1664,3,-2,-5,86,"-2,0,180",0,0,-24,0,0,0,59,62,83,70,100,-19.34,33,24.0,-14.0,-986.0,11:05:02.664933,192.168.0.111
1669,3,-1,-6,86,"-2,0,-179",1,0,-24,0,0,0,59,62,83,70,100,-19.33,33,26.0,-17.0,-1002.0,11:05:02.770578,192.168.0.111
1674,3,-1,-6,86,"-2,0,-179",1,0,-24,0,0,0,59,62,83,70,100,-19.35,33,12.0,-11.0,-1005.0,11:05:02.868587,192.168.0.111
1679,3,-1,-6,86,"-2,0,-179",1,0,-24,0,0,0,59,62,83,70,100,-19.38,33,18.0,-13.0,-1005.0,11:05:02.971851,192.168.0.111
1684,3,0,-7,86,"-1,0,-179",1,0,-24,0,0,0,59,62,83,70,100,-19.33,33,27.0,-9.0,-1000.0,11:05:03.072620,192.168.0.111
1689,3,0,-7,86,"-1,0,-179",1,0,-24,0,0,0,59,62,83,70,100,-19.28,33,21.0,0.0,-994.0,11:05:03.174606,192.168.0.111
1694,3,0,-7,86,"-1,0,-179",1,0,-24,0,0,0,59,62,84,70,100,-19.28,33,28.0,-13.0,-994.0,11:05:03.276610,192.168.0.111
1699,3,0,-7,86,"-1,0,-179",1,0,-24,0,0,0,59,62,83,70,100,-19.28,33,24.0,-16.0,-985.0,11:05:03.378510,192.168.0.111
1702,3,0,-4,86,"-1,0,178",1,0,-24,0,0,0,59,62,84,70,100,-19.35,34,26.0,-13.0,-995.0,11:05:03.429526,192.168.0.111
1707,3,0,-4,86,"-1,0,178",1,0,-24,0,0,0,59,62,83,70,100,-19.29,34,20.0,-8.0,-995.0,11:05:03.532762,192.168.0.111
1712,3,0,-4,86,"-1,0,178",1,0,-24,0,0,0,59,62,83,70,100,-19.32,34,32.0,-16.0,-996.0,11:05:03.633410,192.168.0.111
1717,3,0,-4,86,"-1,0,178",1,0,-24,0,0,0,59,62,83,70,100,-19.38,34,34.0,-5.0,-997.0,11:05:03.735506,192.168.0.111
1722,3,0,-8,86,"0,0,-178",1,0,-24,0,0,0,59,62,83,70,100,-19.24,34,23.0,-6.0,-1015.0,11:05:03.837562,192.168.0.111
1727,3,0,-8,86,"0,0,-178",1,0,-24,0,0,0,59,62,83,70,100,-19.36,34,24.0,-7.0,-1001.0,11:05:03.939557,192.168.0.111
1732,3,0,-8,86,"0,0,-178",1,0,-24,0,0,0,59,62,83,70,100,-19.3,34,27.0,-2.0,-1013.0,11:05:04.041586,192.168.0.111
1737,3,0,-7,85,"-1,0,-179",1,0,-24,0,0,0,59,62,82,70,100,-19.36,34,36.0,-16.0,-999.0,11:05:04.145076,192.168.0.111
1742,3,0,-7,85,"-1,0,-179",1,0,-23,0,0,0,59,62,83,70,100,-19.36,34,26.0,-1.0,-998.0,11:05:04.245590,192.168.0.111
1747,3,0,-7,85,"-1,0,-179",1,0,-23,0,0,0,59,62,82,70,100,-19.31,34,21.0,0.0,-974.0,11:05:04.347627,192.168.0.111
1752,3,0,-7,85,"-1,0,-179",1,0,-23,0,0,0,59,62,82,70,100,-19.28,35,31.0,-7.0,-1008.0,11:05:04.449563,192.168.0.111
1757,3,0,-7,85,"-2,0,-179",1,0,-23,0,0,0,59,62,83,70,100,-19.29,35,33.0,8.0,-994.0,11:05:04.551601,192.168.0.111
1763,3,0,-7,85,"-2,0,-179",1,0,-24,0,0,0,59,62,82,70,100,-19.3,35,34.0,12.0,-960.0,11:05:04.653437,192.168.0.111
1768,3,0,-7,85,"-2,0,-179",2,0,-24,0,0,0,59,62,82,70,100,-19.39,35,31.0,7.0,-1003.0,11:05:04.754936,192.168.0.111
1773,3,0,-7,85,"-2,0,-179",2,0,-24,0,0,0,59,62,82,70,100,-19.31,35,24.0,14.0,-1017.0,11:05:04.856951,192.168.0.111
1778,3,0,-6,85,"-2,0,179",1,0,-24,0,0,0,59,62,82,70,100,-19.42,35,33.0,1.0,-1015.0,11:05:04.958815,192.168.0.111
1784,3,0,-6,85,"-2,0,179",1,-1,-24,0,0,0,59,62,82,70,100,-19.35,35,20.0,4.0,-1017.0,11:05:05.061370,192.168.0.111
1789,3,0,-6,85,"-2,0,179",1,-1,-24,0,0,0,59,62,83,70,100,-19.44,35,33.0,5.0,-995.0,11:05:05.163640,192.168.0.111
1794,3,0,-6,85,"-2,0,179",0,0,-24,0,0,0,59,62,83,70,100,-19.43,35,10.0,15.0,-1006.0,11:05:05.265506,192.168.0.111
1799,3,-14,-23,77,"-12,0,-169",1,0,-24,0,0,0,59,62,83,70,100,-19.34,35,25.0,11.0,-989.0,11:05:05.367480,192.168.0.111
1804,3,-14,-23,77,"-12,0,-169",1,0,-24,0,0,0,59,62,84,70,100,-19.32,36,25.0,12.0,-993.0,11:05:05.469668,192.168.0.111
1809,3,-14,-23,77,"-12,0,-169",0,-1,-24,0,0,0,59,62,84,70,100,-19.41,36,16.0,10.0,-978.0,11:05:05.571466,192.168.0.111
1814,3,0,-5,86,"-1,0,176",0,-1,-24,0,0,0,59,62,84,70,100,-19.33,36,17.0,1.0,-984.0,11:05:05.673425,192.168.0.111
1819,3,0,-5,86,"-1,0,176",0,-1,-24,0,0,0,59,62,84,70,100,-19.38,36,17.0,6.0,-999.0,11:05:05.775379,192.168.0.111
1824,3,0,-5,86,"-1,0,176",1,0,-24,0,0,0,59,62,84,70,100,-19.35,36,32.0,11.0,-993.0,11:05:05.877343,192.168.0.111
1829,3,0,-5,86,"-1,0,176",1,0,-24,0,0,0,59,61,84,70,100,-19.4,36,19.0,15.0,-1000.0,11:05:05.979267,192.168.0.111
1834,3,0,-8,86,"0,0,177",1,0,-24,0,0,0,59,61,84,70,100,-19.43,36,19.0,11.0,-996.0,11:05:06.081338,192.168.0.111
1839,3,0,-8,86,"0,0,177",1,-1,-24,0,0,0,59,61,84,70,100,-19.38,36,21.0,19.0,-987.0,11:05:06.183355,192.168.0.111
1844,3,0,-8,86,"0,0,177",0,-1,-24,0,0,0,59,61,84,70,100,-19.26,36,9.0,8.0,-994.0,11:05:06.285353,192.168.0.111
1849,3,0,-8,86,"0,0,177",0,-1,-24,0,0,0,59,61,84,70,100,-19.33,36,12.0,10.0,-995.0,11:05:06.387515,192.168.0.111
1854,3,0,-8,86,"0,0,178",0,-1,-24,0,0,0,59,61,84,70,100,-19.35,37,9.0,5.0,-993.0,11:05:06.489136,192.168.0.111
1859,3,0,-8,86,"0,0,178",0,0,-24,0,0,0,59,61,84,70,100,-19.38,37,9.0,11.0,-990.0,11:05:06.591326,192.168.0.111
1864,3,0,-8,86,"0,0,178",0,0,-24,0,0,0,59,61,84,70,100,-19.38,37,10.0,3.0,-1015.0,11:05:06.694896,192.168.0.111
1869,3,0,-6,86,"0,0,176",0,0,-24,0,0,0,59,61,84,70,100,-19.38,37,11.0,-3.0,-991.0,11:05:06.795374,192.168.0.111
1872,3,0,-6,86,"0,0,176",0,0,-24,0,0,0,59,61,83,70,100,-19.38,37,9.0,4.0,-1000.0,11:05:06.846292,192.168.0.111
1879,3,0,-6,86,"0,0,176",0,0,-24,0,0,0,59,62,83,70,100,-19.32,37,9.0,3.0,-1002.0,11:05:06.999251,192.168.0.111
1882,3,0,-6,86,"0,0,176",0,0,-24,0,0,0,59,62,83,70,100,-19.29,37,14.0,-4.0,-996.0,11:05:07.050239,192.168.0.111
1887,3,0,-8,86,"0,0,179",0,0,-24,0,0,0,59,62,84,70,100,-19.34,37,15.0,-2.0,-1001.0,11:05:07.152416,192.168.0.111
1892,3,0,-8,86,"0,0,179",0,0,-24,0,0,0,59,62,84,70,100,-19.31,37,13.0,-1.0,-982.0,11:05:07.254609,192.168.0.111
1897,3,0,-8,86,"0,0,179",0,0,-24,0,0,0,59,62,83,70,100,-19.49,37,0.0,-2.0,-1014.0,11:05:07.357040,192.168.0.111
1902,3,0,-8,86,"0,0,179",0,0,-24,0,0,0,59,62,83,70,100,-19.41,38,22.0,-6.0,-998.0,11:05:07.459449,192.168.0.111
1907,3,0,-9,86,"0,0,-178",0,0,-24,0,0,0,59,62,84,70,100,-19.32,38,23.0,-16.0,-991.0,11:05:07.561962,192.168.0.111
1912,3,0,-9,86,"0,0,-178",0,0,-24,0,0,0,59,62,83,70,100,-19.39,38,18.0,-7.0,-997.0,11:05:07.664117,192.168.0.111
1917,3,0,-9,86,"0,0,-178",1,0,-24,0,0,0,59,62,83,70,100,-19.4,38,18.0,-9.0,-990.0,11:05:07.766543,192.168.0.111
1923,3,-1,-6,86,"0,0,179",1,0,-24,0,0,0,59,62,84,70,100,-19.4,38,14.0,-6.0,-998.0,11:05:07.866248,192.168.0.111
1927,3,-1,-6,86,"0,0,179",1,0,-24,0,0,0,60,62,83,70,100,-19.4,38,15.0,-12.0,-1001.0,11:05:07.967894,192.168.0.111
1933,3,-1,-6,86,"0,0,179",1,0,-24,0,0,0,60,62,84,70,100,-19.41,38,21.0,-7.0,-1008.0,11:05:08.070129,192.168.0.111
1938,3,-1,-6,86,"0,0,179",1,0,-24,0,0,0,60,62,84,70,100,-19.39,38,30.0,-17.0,-1004.0,11:05:08.172279,192.168.0.111
1943,3,-3,-6,86,"-2,0,-178",1,0,-24,0,0,0,60,62,84,70,100,-19.35,38,23.0,-18.0,-1000.0,11:05:08.274179,192.168.0.111
1948,3,-3,-6,86,"-2,0,-178",1,0,-24,0,0,0,60,62,84,70,100,-19.41,38,26.0,-12.0,-998.0,11:05:08.376213,192.168.0.111
1954,3,-3,-6,86,"-2,0,-178",1,0,-24,0,0,0,60,62,83,70,100,-19.43,39,18.0,-7.0,-1003.0,11:05:08.478126,192.168.0.111
1959,3,-3,-6,86,"-2,0,-178",1,0,-24,0,0,0,60,62,83,70,100,-19.41,39,21.0,-14.0,-995.0,11:05:08.580236,192.168.0.111
1964,3,-1,-5,86,"-2,0,-179",1,0,-24,0,0,0,60,62,83,70,100,-19.37,39,34.0,-10.0,-985.0,11:05:08.682214,192.168.0.111
1969,3,-1,-5,86,"-2,0,-179",1,0,-24,0,0,0,60,62,83,70,100,-19.31,39,33.0,-12.0,-997.0,11:05:08.784195,192.168.0.111
1974,3,-1,-5,86,"-2,0,-179",1,0,-24,0,0,0,60,62,82,70,100,-19.39,39,25.0,-11.0,-1001.0,11:05:08.886082,192.168.0.111
1979,3,-1,-5,86,"-2,0,-179",1,0,-24,0,0,0,59,62,82,70,100,-19.34,39,15.0,-10.0,-1006.0,11:05:08.988029,192.168.0.111
1984,3,-1,-5,86,"-2,0,-179",1,0,-24,0,0,0,59,62,83,70,100,-19.34,39,23.0,-15.0,-999.0,11:05:09.090131,192.168.0.111
1989,3,-1,-5,86,"-2,0,-179",1,0,-24,0,0,0,59,62,82,70,100,-19.33,39,22.0,-1.0,-1001.0,11:05:09.192232,192.168.0.111
1994,3,-1,-5,86,"-2,0,-179",1,0,-24,0,0,0,59,62,83,70,100,-19.45,39,20.0,0.0,-1000.0,11:05:09.294005,192.168.0.111
1999,3,-1,-6,86,"-2,0,-178",1,0,-24,0,0,0,59,62,83,70,100,-19.44,39,13.0,3.0,-1003.0,11:05:09.396351,192.168.0.111
2004,3,-1,-6,86,"-2,0,-178",1,0,-24,0,0,0,59,62,83,70,100,-19.42,40,20.0,0.0,-1012.0,11:05:09.498054,192.168.0.111
2009,3,-1,-6,86,"-2,0,-178",1,0,-24,0,0,0,59,62,83,70,100,-19.37,40,26.0,2.0,-996.0,11:05:09.600304,192.168.0.111
2014,3,-1,-6,86,"-2,0,-178",1,0,-24,0,0,0,59,62,83,70,100,-19.42,40,21.0,5.0,-994.0,11:05:09.701418,192.168.0.111
2019,3,-1,-5,86,"-2,0,180",1,0,-24,0,0,0,59,62,83,70,100,-19.44,40,25.0,4.0,-995.0,11:05:09.804067,192.168.0.111
2022,3,-1,-5,86,"-2,0,180",1,0,-24,0,0,0,59,62,83,70,100,-19.36,40,26.0,3.0,-996.0,11:05:09.855972,192.168.0.111
2029,3,-1,-5,86,"-2,0,180",1,0,-24,0,0,0,60,62,83,70,100,-19.4,40,23.0,2.0,-998.0,11:05:10.008109,192.168.0.111
2034,3,-1,-5,86,"-2,0,180",1,0,-24,0,0,0,60,62,84,70,100,-19.41,40,19.0,4.0,-1000.0,11:05:10.110072,192.168.0.111
2039,3,0,-7,86,"-1,0,-179",1,0,-24,0,0,0,60,62,84,70,100,-19.44,40,25.0,6.0,-991.0,11:05:10.213563,192.168.0.111
2042,3,0,-7,86,"-1,0,-179",1,0,-24,0,0,0,60,62,83,70,100,-19.41,40,12.0,4.0,-1007.0,11:05:10.263326,192.168.0.111
2047,3,0,-7,86,"-1,0,-179",1,0,-24,0,0,0,60,62,83,70,100,-19.4,40,25.0,-1.0,-1003.0,11:05:10.364804,192.168.0.111
2052,3,-1,-6,86,"-1,0,178",1,0,-24,0,0,0,60,62,83,70,100,-19.38,41,21.0,4.0,-1000.0,11:05:10.466926,192.168.0.111
2057,3,-1,-6,86,"-1,0,178",1,0,-24,0,0,0,60,62,83,70,100,-19.39,41,25.0,7.0,-993.0,11:05:10.569069,192.168.0.111
2062,3,-1,-6,86,"-1,0,178",1,0,-24,0,0,0,60,62,84,70,100,-19.41,41,20.0,2.0,-1001.0,11:05:10.671010,192.168.0.111
2067,3,-1,-6,86,"-1,0,178",1,0,-24,0,0,0,60,62,84,70,100,-19.41,41,23.0,6.0,-1002.0,11:05:10.772896,192.168.0.111
2072,3,-1,-7,86,"-1,0,179",1,0,-24,0,0,0,60,62,84,70,100,-19.51,41,31.0,0.0,-990.0,11:05:10.875184,192.168.0.111
2077,3,-1,-7,86,"-1,0,179",1,0,-24,0,0,0,60,62,83,70,100,-19.48,41,16.0,2.0,-999.0,11:05:10.976941,192.168.0.111
2082,3,-1,-7,86,"-1,0,179",1,0,-24,0,0,0,60,62,84,70,100,-19.44,41,26.0,-3.0,-1009.0,11:05:11.079031,192.168.0.111
2087,3,-1,-7,86,"-1,0,179",1,0,-24,0,0,0,60,62,84,70,100,-19.41,41,13.0,4.0,-1008.0,11:05:11.181101,192.168.0.111
2093,3,-1,-5,86,"-2,0,178",1,0,-24,0,0,0,60,62,83,70,100,-19.46,41,26.0,-3.0,-998.0,11:05:11.282948,192.168.0.111
2098,3,-1,-5,86,"-2,0,178",1,0,-24,0,0,0,60,62,83,70,100,-19.44,41,17.0,-6.0,-997.0,11:05:11.384814,192.168.0.111
2104,3,-1,-5,86,"-2,0,178",0,0,-24,0,0,0,60,62,83,70,100,-19.43,42,18.0,0.0,-1003.0,11:05:11.486800,192.168.0.111
2109,3,0,-8,86,"-1,0,180",0,0,-24,0,0,0,60,62,83,70,100,-19.34,42,24.0,1.0,-1011.0,11:05:11.588871,192.168.0.111
2114,3,0,-8,86,"-1,0,180",1,0,-24,0,0,0,60,62,83,70,100,-19.39,42,17.0,0.0,-1004.0,11:05:11.691048,192.168.0.111
2119,3,0,-8,86,"-1,0,180",1,0,-24,0,0,0,60,62,83,70,100,-19.39,42,20.0,1.0,-1001.0,11:05:11.793112,192.168.0.111
2124,3,0,-8,86,"-1,0,180",1,0,-24,0,0,0,60,62,83,70,100,-19.46,42,22.0,1.0,-1001.0,11:05:11.895064,192.168.0.111
2129,3,0,-5,87,"-1,0,178",1,0,-24,0,0,0,60,63,83,70,100,-19.44,42,11.0,-6.0,-997.0,11:05:11.996897,192.168.0.111
2134,3,0,-5,87,"-1,0,178",1,0,-24,0,0,0,60,63,83,70,100,-19.41,42,16.0,-4.0,-1002.0,11:05:12.098913,192.168.0.111
2139,3,0,-5,87,"-1,0,178",1,0,-24,0,0,0,60,63,83,70,100,-19.4,42,13.0,2.0,-1010.0,11:05:12.201018,192.168.0.111
2144,3,0,-5,87,"-1,0,178",0,0,-24,0,0,0,60,63,83,70,100,-19.41,42,21.0,-7.0,-1000.0,11:05:12.303068,192.168.0.111
2149,3,-1,-6,86,"-1,0,179",0,0,-24,0,0,0,60,63,83,70,100,-19.4,42,22.0,-4.0,-999.0,11:05:12.404929,192.168.0.111
2154,3,-1,-6,86,"-1,0,179",0,0,-24,0,0,0,60,63,83,70,100,-19.36,43,26.0,-1.0,-995.0,11:05:12.506836,192.168.0.111
2159,3,-1,-6,86,"-1,0,179",0,0,-24,0,0,0,60,63,83,70,100,-19.38,43,17.0,-11.0,-991.0,11:05:12.608885,192.168.0.111
2164,3,-1,-6,86,"-1,0,179",1,0,-24,0,0,0,60,63,83,70,100,-19.41,43,16.0,-1.0,-1003.0,11:05:12.710793,192.168.0.111
2169,3,-1,-6,86,"-1,0,179",1,0,-24,0,0,0,60,63,83,70,100,-19.35,43,25.0,2.0,-994.0,11:05:12.813009,192.168.0.111
2174,3,-1,-6,86,"-1,0,179",0,0,-24,0,0,0,60,63,83,70,100,-19.37,43,17.0,3.0,-1003.0,11:05:12.914906,192.168.0.111
2179,3,-1,-6,86,"-1,0,179",0,0,-24,0,0,0,59,63,83,70,100,-19.3,43,17.0,-3.0,-998.0,11:05:13.016948,192.168.0.111
2184,3,-1,-6,86,"-1,0,179",0,0,-24,0,0,0,59,63,83,70,100,-19.37,43,20.0,-3.0,-995.0,11:05:13.118902,192.168.0.111
2189,3,-1,-6,86,"-1,0,179",0,0,-24,0,0,0,59,63,82,70,100,-19.37,43,16.0,-1.0,-1005.0,11:05:13.220867,192.168.0.111
2194,3,-1,-6,86,"-1,0,179",0,0,-24,0,0,0,59,63,83,70,100,-19.38,43,19.0,-3.0,-994.0,11:05:13.322787,192.168.0.111
2199,3,-1,-6,86,"-1,0,179",1,0,-24,0,0,0,59,63,82,70,100,-19.4,43,20.0,-12.0,-1000.0,11:05:13.425030,192.168.0.111
2204,3,0,-5,86,"0,0,179",1,0,-24,0,0,0,59,63,82,70,100,-19.37,44,24.0,-7.0,-1003.0,11:05:13.526897,192.168.0.111
2207,3,0,-5,86,"0,0,179",1,0,-24,0,0,0,59,63,82,70,100,-19.36,44,33.0,-14.0,-1005.0,11:05:13.578069,192.168.0.111
2212,3,0,-5,86,"0,0,179",1,0,-24,0,0,0,59,63,83,70,100,-19.36,44,23.0,-13.0,-997.0,11:05:13.679841,192.168.0.111
2217,3,0,-5,86,"0,0,179",1,0,-24,0,0,0,59,63,82,70,100,-19.37,44,17.0,-7.0,-1006.0,11:05:13.781752,192.168.0.111
2222,3,-1,-5,86,"-1,0,-179",1,0,-24,0,0,0,59,63,82,70,100,-19.36,44,19.0,-9.0,-993.0,11:05:13.883886,192.168.0.111
2227,3,-1,-5,86,"-1,0,-179",1,0,-24,0,0,0,60,63,82,70,100,-19.42,44,29.0,-18.0,-986.0,11:05:13.985856,192.168.0.111
2232,3,-1,-5,86,"-1,0,-179",1,0,-24,0,0,0,60,63,82,70,100,-19.38,44,25.0,-20.0,-994.0,11:05:14.087867,192.168.0.111
2237,3,-1,-5,86,"-1,0,-178",1,0,-24,0,0,0,60,63,82,70,100,-19.37,44,23.0,-13.0,-1013.0,11:05:14.189743,192.168.0.111
2242,3,-1,-5,86,"-1,0,-178",1,0,-24,0,0,0,60,63,82,70,100,-19.43,44,25.0,-15.0,-1006.0,11:05:14.291668,192.168.0.111
2247,3,-1,-5,86,"-1,0,-178",1,0,-24,0,0,0,60,63,82,70,100,-19.48,44,31.0,-23.0,-994.0,11:05:14.393735,192.168.0.111
2252,3,-1,-5,86,"-1,0,-178",1,0,-24,0,0,0,60,63,82,70,100,-19.47,45,22.0,-11.0,-1020.0,11:05:14.495907,192.168.0.111
2258,3,-2,-5,85,"-2,0,-178",0,0,-24,0,0,0,60,63,81,70,100,-19.48,45,6.0,-16.0,-986.0,11:05:14.597805,192.168.0.111
2263,3,-2,-5,85,"-2,0,-178",0,0,-24,0,0,0,60,63,81,70,100,-19.48,45,23.0,-7.0,-984.0,11:05:14.700307,192.168.0.111
2268,3,-2,-5,85,"-2,0,-178",0,0,-24,0,0,0,60,63,82,70,100,-19.44,45,22.0,-2.0,-1019.0,11:05:14.802228,192.168.0.111
2273,3,-2,-5,85,"-2,0,-178",0,0,-24,0,0,0,60,63,81,70,100,-19.49,45,20.0,-13.0,-988.0,11:05:14.904192,192.168.0.111
2278,3,-3,-4,85,"-2,0,-178",0,0,-24,0,0,0,61,63,82,70,100,-19.46,45,28.0,-7.0,-1002.0,11:05:15.006699,192.168.0.111
2284,3,-3,-4,85,"-2,0,-178",0,0,-24,0,0,0,61,63,82,70,100,-19.5,45,21.0,-10.0,-1013.0,11:05:15.108913,192.168.0.111
2289,3,-3,-4,85,"-2,0,-178",0,0,-24,0,0,0,61,63,82,70,100,-19.46,45,18.0,0.0,-1009.0,11:05:15.210772,192.168.0.111
2294,3,-3,-4,85,"-1,0,-179",0,0,-24,0,0,0,61,63,82,70,100,-19.47,45,18.0,1.0,-1000.0,11:05:15.312657,192.168.0.111
2299,3,-3,-4,85,"-1,0,-179",0,0,-24,0,0,0,61,63,83,70,100,-19.41,45,24.0,-15.0,-992.0,11:05:15.414797,192.168.0.111
2304,3,-3,-4,85,"-1,0,-179",0,0,-24,0,0,0,61,63,82,70,100,-19.48,46,22.0,-9.0,-987.0,11:05:15.516571,192.168.0.111
2309,3,-3,-4,85,"-1,0,-179",0,0,-24,0,0,0,61,63,83,70,100,-19.42,46,21.0,0.0,-1002.0,11:05:15.618893,192.168.0.111
2314,3,-2,-5,85,"0,0,180",1,0,-24,0,0,0,61,63,82,70,100,-19.48,46,19.0,-5.0,-1009.0,11:05:15.720716,192.168.0.111
2319,3,-2,-5,85,"0,0,180",1,0,-24,0,0,0,61,63,82,70,100,-19.42,46,22.0,-7.0,-996.0,11:05:15.822724,192.168.0.111
2324,3,-2,-5,85,"0,0,180",1,0,-24,0,0,0,61,63,83,70,100,-19.42,46,24.0,-9.0,-1004.0,11:05:15.924728,192.168.0.111
2329,3,-2,-5,85,"0,0,180",1,0,-24,0,0,0,61,62,82,70,100,-19.41,46,16.0,-2.0,-1000.0,11:05:16.030685,192.168.0.111
2334,3,-3,-4,85,"-1,0,179",1,0,-24,0,0,0,61,62,82,70,100,-19.41,46,18.0,-2.0,-997.0,11:05:16.128707,192.168.0.111
2339,3,-3,-4,85,"-1,0,179",1,0,-24,0,0,0,61,62,82,70,100,-19.41,46,19.0,0.0,-997.0,11:05:16.230712,192.168.0.111
2344,3,-3,-4,85,"-1,0,179",1,0,-24,0,0,0,61,62,83,70,100,-19.4,46,21.0,-8.0,-1004.0,11:05:16.332704,192.168.0.111
2349,3,-3,-4,85,"-1,0,179",1,0,-24,0,0,0,61,62,83,70,100,-19.4,46,14.0,-8.0,-1006.0,11:05:16.434859,192.168.0.111
2354,3,-2,-6,86,"-2,0,-179",1,0,-24,0,0,0,61,62,83,70,100,-19.44,47,21.0,0.0,-1008.0,11:05:16.536837,192.168.0.111
2359,3,-2,-6,86,"-2,0,-179",0,0,-24,0,0,0,61,62,83,70,100,-19.44,47,16.0,-7.0,-1001.0,11:05:16.638477,192.168.0.111
2364,3,-2,-6,86,"-2,0,-179",0,0,-24,0,0,0,61,62,83,70,100,-19.4,47,14.0,-2.0,-993.0,11:05:16.740741,192.168.0.111
2369,3,-3,-7,86,"-2,0,-179",0,0,-24,0,0,0,61,62,84,70,100,-19.43,47,13.0,-1.0,-995.0,11:05:16.842687,192.168.0.111
2372,3,-3,-7,86,"-2,0,-179",0,0,-24,0,0,0,61,62,84,70,100,-19.43,47,19.0,0.0,-1008.0,11:05:16.893598,192.168.0.111
2379,3,-3,-7,86,"-2,0,-179",0,0,-24,0,0,0,61,63,84,70,100,-19.35,47,21.0,2.0,-1004.0,11:05:17.046624,192.168.0.111
2382,3,-3,-7,86,"-2,0,-179",0,0,-24,0,0,0,61,63,84,70,100,-19.43,47,18.0,0.0,-1006.0,11:05:17.097608,192.168.0.111
2387,3,-1,-6,87,"0,0,180",0,0,-24,0,0,0,61,63,84,70,100,-19.49,47,18.0,3.0,-996.0,11:05:17.199832,192.168.0.111
2392,3,-1,-6,87,"0,0,180",0,0,-24,0,0,0,61,63,84,70,100,-19.39,47,14.0,0.0,-985.0,11:05:17.301617,192.168.0.111
2397,3,-1,-6,87,"0,0,180",0,0,-24,0,0,0,61,63,84,70,100,-19.4,47,13.0,0.0,-994.0,11:05:17.403795,192.168.0.111
2402,3,-1,-6,87,"0,0,180",0,0,-24,0,0,0,61,63,84,70,100,-19.42,48,12.0,6.0,-987.0,11:05:17.505655,192.168.0.111
2407,3,-1,-7,87,"0,1,179",0,0,-24,0,0,0,61,63,84,70,100,-19.37,48,12.0,-1.0,-1009.0,11:05:17.607609,192.168.0.111
2412,3,-1,-7,87,"0,1,179",0,0,-24,0,0,0,61,63,84,70,100,-19.35,48,31.0,-7.0,-1006.0,11:05:17.712580,192.168.0.111
2417,3,-1,-7,87,"0,1,179",0,0,-24,0,0,0,61,63,84,70,100,-19.35,48,16.0,-2.0,-1015.0,11:05:17.811626,192.168.0.111
2422,3,-3,-7,87,"0,0,179",0,0,-24,0,0,0,61,63,84,70,100,-19.42,48,10.0,-1.0,-996.0,11:05:17.913722,192.168.0.111
2427,3,-3,-7,87,"0,0,179",0,0,-24,0,0,0,61,63,83,70,100,-19.43,48,21.0,-4.0,-1000.0,11:05:18.015851,192.168.0.111
2432,3,-3,-7,87,"0,0,179",0,0,-24,0,0,0,61,63,83,70,100,-19.43,48,12.0,-10.0,-985.0,11:05:18.118586,192.168.0.111
2438,3,-3,-7,87,"0,0,179",0,0,-24,0,0,0,61,63,83,70,100,-19.16,48,15.0,0.0,-979.0,11:05:18.221161,192.168.0.111
2443,3,-2,-7,86,"0,0,179",0,0,-24,0,0,0,61,63,83,70,100,-19.35,48,22.0,14.0,-997.0,11:05:18.321879,192.168.0.111
2448,3,-2,-7,86,"0,0,179",0,0,-24,0,0,0,61,63,83,70,100,-19.45,48,17.0,7.0,-1035.0,11:05:18.423976,192.168.0.111
2453,3,-2,-7,86,"0,0,179",0,0,-24,0,0,0,61,63,83,70,100,-19.44,49,19.0,-2.0,-1005.0,11:05:18.525932,192.168.0.111
2459,3,-2,-7,86,"0,0,179",0,0,-24,0,0,0,61,63,83,70,100,-19.53,49,4.0,6.0,-1023.0,11:05:18.629025,192.168.0.111
2464,3,-3,-7,86,"0,0,180",0,0,-24,0,0,0,61,63,83,70,100,-19.42,49,10.0,-2.0,-995.0,11:05:18.730066,192.168.0.111
2469,3,-3,-7,86,"0,0,180",0,0,-24,0,0,0,61,63,82,70,100,-19.29,49,12.0,-7.0,-975.0,11:05:18.832160,192.168.0.111
2474,3,-3,-7,86,"0,0,180",0,0,-25,0,0,0,61,63,83,70,100,-19.38,49,11.0,-11.0,-996.0,11:05:18.934146,192.168.0.111
2479,3,-3,-3,86,"-1,1,175",1,0,-25,0,0,0,61,63,83,70,100,-19.47,49,8.0,-20.0,-987.0,11:05:19.036247,192.168.0.111
2484,3,-3,-3,86,"-1,1,175",0,0,-25,0,0,0,61,63,83,70,100,-19.42,49,5.0,-25.0,-995.0,11:05:19.137787,192.168.0.111
2489,3,-3,-3,86,"-1,1,175",0,0,-25,0,0,0,61,63,83,70,100,-19.35,49,5.0,2.0,-984.0,11:05:19.240118,192.168.0.111
2494,3,-3,-3,86,"-1,1,175",0,0,-25,0,0,0,61,63,82,70,100,-19.58,49,4.0,-18.0,-1013.0,11:05:19.342393,192.168.0.111
2499,3,-3,-3,86,"-1,1,175",0,1,-25,0,0,0,61,63,83,70,100,-19.56,49,-5.0,-35.0,-1025.0,11:05:19.444330,192.168.0.111
2504,3,-3,-3,86,"-1,1,175",0,1,-25,0,0,0,61,63,82,70,100,-19.54,50,2.0,-7.0,-1018.0,11:05:19.546425,192.168.0.111
2509,3,-3,-3,86,"-1,1,175",0,0,-24,0,0,0,61,63,83,70,100,-19.48,50,1.0,-13.0,-1025.0,11:05:19.648585,192.168.0.111
2514,3,-3,-3,86,"-1,1,175",0,1,-24,0,0,0,61,63,83,70,100,-19.5,50,11.0,-17.0,-1033.0,11:05:19.750037,192.168.0.111
2519,3,-3,-6,85,"0,1,-178",0,1,-24,0,0,0,61,63,84,70,100,-19.6,50,26.0,-26.0,-1019.0,11:05:19.852582,192.168.0.111
2524,3,-3,-6,85,"0,1,-178",0,1,-24,0,0,0,61,63,84,70,100,-19.58,50,14.0,-29.0,-1022.0,11:05:19.954724,192.168.0.111
2529,3,-3,-6,85,"0,1,-178",0,1,-23,0,0,0,61,63,84,70,100,-19.61,50,-13.0,-16.0,-983.0,11:05:20.056923,192.168.0.111
2534,3,-3,-6,85,"0,1,-178",0,1,-23,0,0,0,61,63,86,70,100,-19.4,50,-12.0,-16.0,-999.0,11:05:20.158775,192.168.0.111
2539,3,-3,-5,86,"0,0,-177",0,0,-24,0,0,0,61,63,86,70,100,-19.51,50,-3.0,-15.0,-971.0,11:05:20.260422,192.168.0.111
2544,3,-3,-5,86,"0,0,-177",0,1,-24,0,0,0,61,63,86,70,100,-19.58,50,-7.0,-13.0,-984.0,11:05:20.362578,192.168.0.111
2549,3,-3,-5,86,"0,0,-177",0,1,-24,0,0,0,61,63,86,70,100,-19.66,50,-2.0,-13.0,-985.0,11:05:20.465372,192.168.0.111
2554,3,-3,-4,89,"0,0,-178",0,0,-24,0,0,0,61,63,86,70,100,-19.64,51,-1.0,-9.0,-987.0,11:05:20.567960,192.168.0.111
2557,3,-3,-4,89,"0,0,-178",0,0,-24,0,0,0,61,63,87,70,100,-19.61,51,-3.0,-4.0,-987.0,11:05:20.617987,192.168.0.111
2562,3,-3,-4,89,"0,0,-178",0,0,-24,0,0,0,61,63,86,70,100,-19.59,51,18.0,-22.0,-983.0,11:05:20.720004,192.168.0.111
2567,3,-3,-4,89,"0,0,-178",0,0,-24,0,0,0,61,63,85,70,100,-19.63,51,0.0,-13.0,-978.0,11:05:20.823676,192.168.0.111
2572,3,-3,-2,90,"2,0,179",0,0,-24,0,0,0,61,63,85,70,100,-19.56,51,18.0,-36.0,-982.0,11:05:20.924129,192.168.0.111
2577,3,-3,-2,90,"2,0,179",0,0,-24,0,0,0,61,64,84,70,100,-19.7,51,5.0,-33.0,-1009.0,11:05:21.026065,192.168.0.111
2582,3,-3,-2,90,"2,0,179",0,1,-24,0,0,0,61,64,84,70,100,-19.61,51,-10.0,-32.0,-1011.0,11:05:21.128325,192.168.0.111
2587,3,-3,-2,90,"2,0,179",0,1,-24,0,0,0,61,64,84,70,100,-19.63,51,10.0,-24.0,-992.0,11:05:21.230609,192.168.0.111
2592,3,-3,-5,88,"1,1,-178",0,1,-23,0,0,0,61,64,83,70,100,-19.55,51,2.0,-24.0,-997.0,11:05:21.332131,192.168.0.111
2597,3,-3,-5,88,"1,1,-178",0,1,-23,0,0,0,61,64,83,70,100,-19.61,52,1.0,-31.0,-999.0,11:05:21.434037,192.168.0.111
2602,3,-3,-5,88,"1,1,-178",0,1,-23,0,0,0,61,64,82,70,100,-19.52,52,14.0,-43.0,-1014.0,11:05:21.539854,192.168.0.111
2608,3,-3,-5,88,"1,1,-178",0,2,-24,0,0,0,61,64,83,70,100,-19.43,52,11.0,-36.0,-992.0,11:05:21.638416,192.168.0.111
2613,3,-3,-5,86,"0,0,-176",0,2,-24,0,0,0,61,64,83,70,100,-19.56,52,18.0,-29.0,-1006.0,11:05:21.740484,192.168.0.111
2618,3,-3,-5,86,"0,0,-176",0,2,-24,0,0,0,61,64,83,70,100,-19.62,52,8.0,-29.0,-1003.0,11:05:21.842557,192.168.0.111
2624,3,-3,-5,86,"0,0,-176",1,2,-24,0,0,0,61,64,83,70,100,-19.47,52,14.0,-37.0,-1000.0,11:05:21.944427,192.168.0.111
2629,3,-2,-4,86,"0,0,-176",1,2,-24,0,0,0,61,64,84,70,100,-19.62,52,24.0,-31.0,-994.0,11:05:22.047881,192.168.0.111
