,mid,x,y,z,mpry,pitch,roll,yaw,vgx,vgy,vgz,templ,temph,tof,h,bat,baro,time,agx,agy,agz,timestamp,address
0,-1,-100,-100,-100,"0,0,0",0,0,0,0,0,0,54,57,10,0,100,-20.01,0,0.0,-3.0,-998.0,11:04:29.280292,192.168.0.112
5,-1,-100,-100,-100,"0,0,0",0,0,0,0,0,0,54,57,10,0,100,-19.99,0,1.0,-3.0,-998.0,11:04:29.389616,192.168.0.112
10,-1,-100,-100,-100,"0,0,0",0,0,0,0,0,0,54,57,10,0,100,-20.02,0,0.0,-4.0,-1000.0,11:04:29.484436,192.168.0.112
15,-1,-100,-100,-100,"0,0,0",0,0,0,0,0,0,54,57,10,0,100,-20.02,0,0.0,-8.0,-998.0,11:04:29.586377,192.168.0.112
20,-1,-100,-100,-100,"0,0,0",0,0,0,0,0,0,54,57,10,0,100,-20.02,0,17.0,-4.0,-990.0,11:04:29.687999,192.168.0.112
25,-1,-100,-100,-100,"0,0,0",0,0,0,0,0,0,54,57,10,0,100,-20.02,0,-7.0,3.0,-1087.0,11:04:29.790297,192.168.0.112
30,-1,-100,-100,-100,"0,0,0",0,0,1,0,0,0,54,57,10,0,100,-20.02,0,-1.0,-16.0,-1217.0,11:04:29.892353,192.168.0.112
35,-1,-100,-100,-100,"0,0,0",0,0,1,0,0,1,54,57,10,0,100,-20.02,0,-26.0,-31.0,-1316.0,11:04:29.994471,192.168.0.112
40,-1,-100,-100,-100,"0,0,0",0,0,1,0,0,4,54,57,12,0,100,-20.02,0,-20.0,-28.0,-1156.0,11:04:30.096671,192.168.0.112
45,-1,-100,-100,-100,"0,0,0",0,0,1,0,0,6,54,57,19,0,100,-19.58,0,6.0,-28.0,-1011.0,11:04:30.198437,192.168.0.112
51,-1,-100,-100,-100,"0,0,0",0,1,1,0,0,7,54,57,23,10,100,-19.51,0,-2.0,-21.0,-1009.0,11:04:30.300298,192.168.0.112
56,-1,-100,-100,-100,"0,0,0",0,1,1,0,0,7,54,57,32,10,100,-19.46,0,29.0,-43.0,-951.0,11:04:30.402353,192.168.0.112
61,-1,-100,-100,-100,"0,0,0",0,1,1,0,0,7,54,57,42,20,100,-19.42,1,13.0,-30.0,-912.0,11:04:30.504213,192.168.0.112
67,-1,-100,-100,-100,"0,0,0",0,1,1,0,0,6,54,57,50,30,100,-19.29,1,4.0,-18.0,-891.0,11:04:30.606271,192.168.0.112
72,-1,-100,-100,-100,"0,0,0",0,2,1,0,0,5,54,57,56,30,100,-19.2,1,14.0,-26.0,-891.0,11:04:30.708287,192.168.0.112
77,-1,-100,-100,-100,"0,0,0",0,1,1,0,0,4,54,57,61,40,100,-19.2,1,-13.0,-13.0,-914.0,11:04:30.810193,192.168.0.112
83,-1,-100,-100,-100,"0,0,0",0,1,1,0,0,3,54,57,66,40,100,-19.19,1,2.0,-3.0,-897.0,11:04:30.912289,192.168.0.112
88,-1,-100,-100,-100,"0,0,0",-1,1,1,0,0,2,54,57,69,40,100,-19.14,1,-14.0,-5.0,-937.0,11:04:31.014363,192.168.0.112
94,-1,-100,-100,-100,"0,0,0",-1,1,1,0,0,1,54,57,72,50,100,-19.11,1,-8.0,-13.0,-965.0,11:04:31.116364,192.168.0.112
99,-1,-100,-100,-100,"0,0,0",-1,1,1,0,0,1,54,57,75,50,100,-18.95,1,-13.0,-5.0,-969.0,11:04:31.218220,192.168.0.112
104,-1,-100,-100,-100,"0,0,0",-2,0,1,0,0,1,54,57,76,50,100,-18.93,1,10.0,-17.0,-993.0,11:04:31.320101,192.168.0.112
109,-1,-100,-100,-100,"0,0,0",-2,0,1,0,0,0,54,57,78,50,100,-19.01,1,-9.0,-2.0,-978.0,11:04:31.422160,192.168.0.112
114,-1,-100,-100,-100,"0,0,0",-2,0,1,0,0,0,54,57,80,50,100,-18.98,2,-11.0,-5.0,-985.0,11:04:31.524238,192.168.0.112
119,-1,-100,-100,-100,"0,0,0",-2,0,1,0,0,0,54,57,82,50,100,-19.04,2,-16.0,-6.0,-986.0,11:04:31.626078,192.168.0.112
124,-1,-100,-100,-100,"0,0,0",-2,0,1,0,0,0,54,57,83,60,100,-19.05,2,-8.0,-16.0,-994.0,11:04:31.728084,192.168.0.112
125,-1,-100,-100,-100,"0,0,0",-2,0,1,0,0,0,54,57,84,60,100,-19.03,2,-9.0,-5.0,-992.0,11:04:31.779129,192.168.0.112
130,-1,-100,-100,-100,"0,0,0",-2,0,1,0,0,0,54,57,86,60,100,-19.1,2,-14.0,-18.0,-979.0,11:04:31.880673,192.168.0.112
135,-1,-100,-100,-100,"0,0,0",-2,0,1,0,0,0,54,57,87,60,100,-19.1,2,-15.0,-3.0,-990.0,11:04:31.983071,192.168.0.112
140,-1,-100,-100,-100,"0,0,0",-2,0,1,0,0,0,54,57,88,60,100,-19.07,2,-18.0,-5.0,-971.0,11:04:32.088652,192.168.0.112
145,-1,-100,-100,-100,"0,0,0",-2,0,1,0,0,0,54,57,88,60,100,-19.11,2,-9.0,-11.0,-991.0,11:04:32.186886,192.168.0.112
150,-1,-100,-100,-100,"0,0,0",-1,0,1,0,0,0,54,57,89,60,100,-18.99,2,-26.0,-13.0,-961.0,11:04:32.289393,192.168.0.112
155,-1,-100,-100,-100,"0,0,0",-2,0,1,0,0,0,54,57,90,60,100,-18.94,2,-7.0,-9.0,-988.0,11:04:32.390968,192.168.0.112
160,-1,-100,-100,-100,"0,0,0",-2,0,1,0,0,0,54,57,90,60,100,-19.07,3,-23.0,-7.0,-983.0,11:04:32.492822,192.168.0.112
165,-1,-100,-100,-100,"0,0,0",-1,0,1,0,0,0,54,57,90,60,100,-18.95,3,-21.0,-6.0,-976.0,11:04:32.594902,192.168.0.112
170,-1,-100,-100,-100,"0,0,0",-1,0,1,0,0,0,54,57,90,60,100,-18.92,3,-11.0,-6.0,-986.0,11:04:32.696819,192.168.0.112
175,-1,-100,-100,-100,"0,0,0",-1,0,1,0,0,0,54,57,89,60,100,-18.91,3,-9.0,-16.0,-981.0,11:04:32.799400,192.168.0.112
181,-1,-100,-100,-100,"0,0,0",-1,0,1,0,0,0,54,57,90,60,100,-18.92,3,-10.0,1.0,-997.0,11:04:32.900876,192.168.0.112
186,-1,-100,-100,-100,"0,0,0",-1,0,1,0,0,0,54,57,89,60,100,-18.93,3,0.0,-15.0,-1000.0,11:04:33.002808,192.168.0.112
191,-1,-100,-100,-100,"0,0,0",-1,0,1,0,0,0,54,57,89,60,100,-18.83,3,-3.0,-15.0,-995.0,11:04:33.104921,192.168.0.112
196,-1,-100,-100,-100,"0,0,0",0,0,1,0,0,0,54,57,89,60,100,-18.9,3,0.0,-6.0,-993.0,11:04:33.206544,192.168.0.112
201,-1,-100,-100,-100,"0,0,0",0,0,1,0,0,0,54,57,87,60,100,-18.89,3,-2.0,-12.0,-995.0,11:04:33.308810,192.168.0.112
207,-1,-100,-100,-100,"0,0,0",0,0,1,0,0,0,54,57,86,60,100,-18.94,3,2.0,-12.0,-1015.0,11:04:33.411313,192.168.0.112
212,-1,-100,-100,-100,"0,0,0",0,0,1,0,0,0,54,57,86,60,100,-18.99,4,3.0,-12.0,-1000.0,11:04:33.512580,192.168.0.112
217,-1,-100,-100,-100,"0,0,0",0,0,1,0,0,0,54,58,86,60,100,-18.94,4,14.0,-23.0,-992.0,11:04:33.614668,192.168.0.112
223,-1,-100,-100,-100,"0,0,0",0,0,1,0,0,0,54,58,85,60,100,-18.97,4,-5.0,-6.0,-1000.0,11:04:33.716672,192.168.0.112
228,-1,-100,-100,-100,"0,0,0",0,0,1,0,0,0,54,58,85,60,100,-18.85,4,9.0,-22.0,-998.0,11:04:33.819012,192.168.0.112
234,-1,-100,-100,-100,"0,0,0",0,1,1,0,0,0,54,58,84,60,100,-18.92,4,12.0,-31.0,-995.0,11:04:33.920553,192.168.0.112
239,-1,-100,-100,-100,"0,0,0",0,1,1,0,0,0,54,58,84,60,100,-18.92,4,9.0,-14.0,-994.0,11:04:34.022545,192.168.0.112
244,-1,-100,-100,-100,"0,0,0",0,1,1,0,0,0,54,58,84,60,100,-18.96,4,42.0,-38.0,-1012.0,11:04:34.124712,192.168.0.112
249,-1,-100,-100,-100,"0,0,0",0,1,1,0,0,0,54,58,83,60,100,-18.93,4,22.0,-21.0,-1000.0,11:04:34.226708,192.168.0.112
254,-1,-100,-100,-100,"0,0,0",0,1,1,0,0,0,54,58,83,60,100,-18.92,4,28.0,-24.0,-1003.0,11:04:34.328619,192.168.0.112
255,-1,-100,-100,-100,"0,0,0",0,1,1,0,0,0,54,58,83,60,100,-18.89,4,24.0,-13.0,-1002.0,11:04:34.379579,192.168.0.112
260,-1,-100,-100,-100,"0,0,0",0,1,1,0,0,0,54,58,83,60,100,-18.99,5,35.0,-14.0,-993.0,11:04:34.481557,192.168.0.112
265,-1,-100,-100,-100,"0,0,0",1,1,1,0,0,0,54,58,82,60,100,-18.98,5,13.0,-12.0,-1017.0,11:04:34.583673,192.168.0.112
270,-1,-100,-100,-100,"0,0,0",0,0,1,0,0,0,54,58,82,60,100,-18.94,5,18.0,-16.0,-1002.0,11:04:34.685045,192.168.0.112
275,-1,-100,-100,-100,"0,0,0",0,0,1,0,0,0,54,58,82,60,100,-18.99,5,15.0,-8.0,-995.0,11:04:34.787457,192.168.0.112
280,-1,-100,-100,-100,"0,0,0",0,0,2,0,0,0,54,58,82,60,100,-18.93,5,3.0,5.0,-984.0,11:04:34.889373,192.168.0.112
285,-1,-100,-100,-100,"0,0,0",0,0,2,0,0,0,54,58,82,60,100,-18.99,5,1.0,0.0,-991.0,11:04:34.991478,192.168.0.112
290,-1,-100,-100,-100,"0,0,0",0,0,2,0,0,0,54,58,82,60,100,-18.97,5,5.0,1.0,-1000.0,11:04:35.093651,192.168.0.112
295,-1,-100,-100,-100,"0,0,0",0,0,2,0,0,0,54,58,82,60,100,-18.94,5,5.0,6.0,-989.0,11:04:35.195576,192.168.0.112
300,-1,-100,-100,-100,"0,0,0",0,0,2,0,0,0,54,58,81,60,100,-18.95,5,0.0,5.0,-992.0,11:04:35.297392,192.168.0.112
305,-1,-100,-100,-100,"0,0,0",0,0,1,0,0,0,54,58,81,60,100,-18.9,5,8.0,0.0,-993.0,11:04:35.399357,192.168.0.112
310,-1,-100,-100,-100,"0,0,0",0,0,1,0,0,0,54,58,82,60,100,-19.11,6,16.0,4.0,-1009.0,11:04:35.503208,192.168.0.112
315,-1,-100,-100,-100,"0,0,0",0,0,1,0,0,0,55,57,81,60,100,-19.01,6,-2.0,19.0,-1005.0,11:04:35.603364,192.168.0.112
320,-1,-100,-100,-100,"0,0,0",0,0,1,0,0,0,55,57,82,60,100,-19.03,6,-3.0,30.0,-1005.0,11:04:35.705789,192.168.0.112
325,-1,-100,-100,-100,"0,0,0",0,-1,1,0,0,0,55,57,82,60,100,-18.99,6,-11.0,15.0,-979.0,11:04:35.809077,192.168.0.112
330,-1,-100,-100,-100,"0,0,0",0,-1,1,0,0,0,55,57,82,60,100,-18.92,6,-2.0,5.0,-995.0,11:04:35.909688,192.168.0.112
336,-1,-100,-100,-100,"0,0,0",0,-1,2,0,0,0,55,57,82,60,100,-18.96,6,1.0,10.0,-999.0,11:04:36.011339,192.168.0.112
342,-1,-100,-100,-100,"0,0,0",0,0,2,0,0,0,55,57,82,60,100,-18.96,6,3.0,-2.0,-981.0,11:04:36.113414,192.168.0.112
348,-1,-100,-100,-100,"0,0,0",0,0,2,0,0,0,55,57,82,60,100,-18.99,6,12.0,2.0,-993.0,11:04:36.215356,192.168.0.112
353,-1,-100,-100,-100,"0,0,0",0,0,2,0,0,0,55,57,82,60,100,-18.95,6,-2.0,16.0,-964.0,11:04:36.317163,192.168.0.112
358,-1,-100,-100,-100,"0,0,0",0,0,2,0,0,0,55,57,82,60,100,-18.89,7,-3.0,17.0,-1018.0,11:04:36.419208,192.168.0.112
363,-1,-100,-100,-100,"0,0,0",0,0,2,0,0,0,55,57,82,60,100,-18.95,7,-10.0,14.0,-983.0,11:04:36.525118,192.168.0.112
368,-1,-100,-100,-100,"0,0,0",0,0,2,0,0,0,55,58,82,60,100,-18.97,7,6.0,8.0,-1014.0,11:04:36.623128,192.168.0.112
373,-1,-100,-100,-100,"0,0,0",0,0,2,0,0,0,55,58,81,60,100,-18.99,7,7.0,7.0,-1018.0,11:04:36.725032,192.168.0.112
378,-1,-100,-100,-100,"0,0,0",0,0,1,0,0,0,55,58,81,60,100,-19.04,7,6.0,5.0,-1012.0,11:04:36.827049,192.168.0.112
383,-1,-100,-100,-100,"0,0,0",0,0,1,0,0,0,55,58,82,60,100,-18.99,7,14.0,3.0,-1016.0,11:04:36.929128,192.168.0.112
388,-1,-100,-100,-100,"0,0,0",0,0,1,0,0,0,55,58,82,60,100,-18.98,7,-3.0,4.0,-1009.0,11:04:37.032025,192.168.0.112
393,-1,-100,-100,-100,"0,0,0",0,0,1,0,0,0,55,58,83,60,100,-19.15,7,28.0,-6.0,-988.0,11:04:37.133308,192.168.0.112
398,-1,-100,-100,-100,"0,0,0",0,0,1,0,0,0,55,58,83,60,100,-18.98,7,1.0,-9.0,-992.0,11:04:37.235078,192.168.0.112
403,-1,-100,-100,-100,"0,0,0",0,0,1,0,0,0,55,58,84,60,100,-18.87,7,-13.0,2.0,-998.0,11:04:37.336958,192.168.0.112
405,-1,-100,-100,-100,"0,0,0",0,0,1,0,0,0,55,58,84,60,100,-19.12,8,-17.0,16.0,-1013.0,11:04:37.388098,192.168.0.112
410,-1,-100,-100,-100,"0,0,0",-1,0,1,0,0,0,55,58,84,60,100,-19.05,8,-7.0,-2.0,-989.0,11:04:37.489988,192.168.0.112
419,-1,-100,-100,-100,"0,0,0",-1,0,1,0,0,0,55,58,85,60,100,-19.06,8,10.0,0.0,-978.0,11:04:37.643038,192.168.0.112
420,-1,-100,-100,-100,"0,0,0",-1,0,1,0,0,0,55,58,84,60,100,-19.01,8,-2.0,3.0,-969.0,11:04:37.694028,192.168.0.112
425,-1,-100,-100,-100,"0,0,0",0,0,1,0,0,0,55,58,85,60,100,-19.02,8,3.0,18.0,-996.0,11:04:37.796031,192.168.0.112
430,-1,-100,-100,-100,"0,0,0",0,0,1,0,0,0,55,58,84,60,100,-19.12,8,3.0,22.0,-999.0,11:04:37.897416,192.168.0.112
435,-1,-100,-100,-100,"0,0,0",0,0,1,0,0,0,55,58,84,60,100,-19.0,8,5.0,12.0,-1004.0,11:04:38.000152,192.168.0.112
440,-1,-100,-100,-100,"0,0,0",0,0,1,0,0,0,55,58,85,60,100,-19.04,8,0.0,10.0,-988.0,11:04:38.101977,192.168.0.112
445,-1,-100,-100,-100,"0,0,0",0,0,1,0,0,0,55,58,84,60,100,-18.97,8,22.0,8.0,-996.0,11:04:38.203654,192.168.0.112
450,-1,-100,-100,-100,"0,0,0",0,0,1,0,0,0,55,58,84,60,100,-19.0,8,-6.0,-3.0,-995.0,11:04:38.305738,192.168.0.112
455,-1,-100,-100,-100,"0,0,0",0,0,1,0,0,0,55,58,84,60,100,-19.14,9,15.0,-9.0,-990.0,11:04:38.407878,192.168.0.112
460,-1,-100,-100,-100,"0,0,0",0,0,1,0,0,0,55,58,84,60,100,-19.0,9,3.0,11.0,-1000.0,11:04:38.509899,192.168.0.112
466,-1,-100,-100,-100,"0,0,0",0,0,1,0,0,0,55,58,84,60,100,-18.95,9,22.0,2.0,-1011.0,11:04:38.611912,192.168.0.112
471,-1,-100,-100,-100,"0,0,0",0,0,1,0,0,0,55,58,83,60,100,-19.01,9,15.0,5.0,-991.0,11:04:38.713872,192.168.0.112
477,-1,-100,-100,-100,"0,0,0",0,0,1,0,0,0,55,58,83,60,100,-18.93,9,3.0,10.0,-1010.0,11:04:38.815787,192.168.0.112
482,-1,-100,-100,-100,"0,0,0",0,0,1,0,0,0,55,58,82,60,100,-19.07,9,-3.0,4.0,-991.0,11:04:38.917935,192.168.0.112
487,-1,-100,-100,-100,"0,0,0",0,0,1,0,0,0,55,58,82,60,100,-19.06,9,-6.0,19.0,-1003.0,11:04:39.019960,192.168.0.112
492,-1,-100,-100,-100,"0,0,0",-1,-1,1,0,0,0,55,58,83,60,100,-19.01,9,5.0,15.0,-1003.0,11:04:39.121634,192.168.0.112
497,-1,-100,-100,-100,"0,0,0",0,-1,1,0,0,0,55,58,83,60,100,-19.11,9,25.0,-10.0,-1002.0,11:04:39.226960,192.168.0.112
502,-1,-100,-100,-100,"0,0,0",0,0,1,0,0,0,55,58,83,60,100,-19.04,9,-3.0,9.0,-985.0,11:04:39.325516,192.168.0.112
508,-1,-100,-100,-100,"0,0,0",0,0,1,0,0,0,55,58,82,60,100,-19.07,10,6.0,19.0,-988.0,11:04:39.428178,192.168.0.112
513,-1,-100,-100,-100,"0,0,0",0,0,1,0,0,0,55,58,82,60,100,-19.04,10,9.0,8.0,-1000.0,11:04:39.530803,192.168.0.112
518,-1,-100,-100,-100,"0,0,0",0,0,1,0,0,0,56,58,82,60,100,-19.06,10,0.0,13.0,-1012.0,11:04:39.631849,192.168.0.112
523,-1,-100,-100,-100,"0,0,0",0,0,1,0,0,0,56,58,82,60,100,-19.05,10,8.0,7.0,-1006.0,11:04:39.733195,192.168.0.112
528,-1,-100,-100,-100,"0,0,0",0,0,1,0,0,0,56,58,81,60,100,-19.07,10,7.0,12.0,-991.0,11:04:39.835922,192.168.0.112
533,-1,-100,-100,-100,"0,0,0",0,0,1,0,0,0,56,58,81,60,100,-19.02,10,7.0,-2.0,-1009.0,11:04:39.937739,192.168.0.112
538,-1,-100,-100,-100,"0,0,0",0,0,1,0,0,0,56,58,81,60,100,-19.06,10,8.0,-8.0,-1005.0,11:04:40.039838,192.168.0.112
543,-1,-100,-100,-100,"0,0,0",0,0,1,0,0,0,56,58,81,60,100,-19.07,10,-12.0,17.0,-1026.0,11:04:40.141651,192.168.0.112
548,-1,-100,-100,-100,"0,0,0",0,0,1,0,0,0,56,58,82,60,100,-19.06,10,-6.0,8.0,-1019.0,11:04:40.243625,192.168.0.112
553,-1,-100,-100,-100,"0,0,0",0,0,1,0,0,0,56,58,81,60,100,-19.08,10,-4.0,4.0,-997.0,11:04:40.347412,192.168.0.112
558,-1,-100,-100,-100,"0,0,0",0,0,1,0,0,0,56,58,82,60,100,-19.15,11,6.0,0.0,-1015.0,11:04:40.447604,192.168.0.112
563,-1,-100,-100,-100,"0,0,0",0,0,1,0,0,0,56,58,82,60,100,-19.16,11,-2.0,9.0,-1004.0,11:04:40.549521,192.168.0.112
568,-1,-100,-100,-100,"0,0,0",0,0,1,0,0,0,55,58,82,60,100,-19.11,11,-12.0,14.0,-983.0,11:04:40.651648,192.168.0.112
573,-1,-100,-100,-100,"0,0,0",-1,0,1,0,0,0,55,58,82,60,100,-19.1,11,-1.0,3.0,-1000.0,11:04:40.756496,192.168.0.112
578,-1,-100,-100,-100,"0,0,0",-1,0,1,0,0,0,55,58,82,60,100,-19.11,11,-14.0,4.0,-996.0,11:04:40.856221,192.168.0.112
583,-1,-100,-100,-100,"0,0,0",-1,0,1,0,0,0,55,58,82,60,100,-19.15,11,2.0,-2.0,-1018.0,11:04:40.957471,192.168.0.112
585,-1,-100,-100,-100,"0,0,0",-1,0,1,0,0,0,55,58,82,60,100,-19.1,11,16.0,-10.0,-1006.0,11:04:41.008462,192.168.0.112
591,-1,-100,-100,-100,"0,0,0",0,0,1,0,0,0,55,58,83,60,100,-19.01,11,13.0,1.0,-990.0,11:04:41.110664,192.168.0.112
596,-1,-100,-100,-100,"0,0,0",0,0,1,0,0,0,55,58,82,60,100,-19.04,11,15.0,1.0,-985.0,11:04:41.212555,192.168.0.112
601,-1,-100,-100,-100,"0,0,0",0,0,1,0,0,0,55,58,82,60,100,-19.02,11,5.0,-7.0,-1009.0,11:04:41.314516,192.168.0.112
606,-1,-100,-100,-100,"0,0,0",0,0,1,0,0,0,55,58,82,60,100,-19.02,12,10.0,-12.0,-1006.0,11:04:41.416851,192.168.0.112
611,-1,-100,-100,-100,"0,0,0",0,0,1,0,0,0,55,58,82,60,100,-19.08,12,1.0,7.0,-1004.0,11:04:41.518258,192.168.0.112
616,-1,-100,-100,-100,"0,0,0",0,0,1,0,0,0,56,59,82,60,100,-19.1,12,-2.0,-5.0,-1006.0,11:04:41.620692,192.168.0.112
621,-1,-100,-100,-100,"0,0,0",0,0,1,0,0,0,56,59,82,60,100,-19.04,12,-5.0,-5.0,-1018.0,11:04:41.722408,192.168.0.112
627,-1,-100,-100,-100,"0,0,0",0,0,1,0,0,0,56,59,82,60,100,-19.05,12,18.0,-18.0,-997.0,11:04:41.824349,192.168.0.112
632,-1,-100,-100,-100,"0,0,0",0,0,1,0,0,0,56,59,82,60,100,-19.12,12,14.0,-10.0,-987.0,11:04:41.926434,192.168.0.112
637,-1,-100,-100,-100,"0,0,0",0,0,1,0,0,0,56,59,82,60,100,-19.0,12,8.0,-9.0,-985.0,11:04:42.028334,192.168.0.112
642,-1,-100,-100,-100,"0,0,0",0,0,1,0,0,0,56,59,82,60,100,-19.02,12,16.0,-12.0,-999.0,11:04:42.130348,192.168.0.112
647,-1,-100,-100,-100,"0,0,0",0,0,1,0,0,0,56,59,82,60,100,-19.04,12,3.0,-13.0,-999.0,11:04:42.232274,192.168.0.112
652,-1,-100,-100,-100,"0,0,0",0,0,1,0,0,0,56,59,82,60,100,-19.04,12,0.0,-4.0,-998.0,11:04:42.334278,192.168.0.112
657,-1,-100,-100,-100,"0,0,0",0,0,1,0,0,0,56,59,82,60,100,-19.02,13,5.0,1.0,-1013.0,11:04:42.436430,192.168.0.112
663,-1,-100,-100,-100,"0,0,0",0,0,1,0,0,0,56,59,82,60,100,-19.06,13,-17.0,12.0,-1016.0,11:04:42.538384,192.168.0.112
668,-1,-100,-100,-100,"0,0,0",0,0,1,0,0,0,56,59,82,60,100,-19.11,13,-10.0,8.0,-994.0,11:04:42.640211,192.168.0.112
673,-1,-100,-100,-100,"0,0,0",0,0,1,0,0,0,56,59,82,60,100,-19.04,13,-4.0,-1.0,-997.0,11:04:42.742291,192.168.0.112
677,-1,-100,-100,-100,"0,0,0",0,0,1,0,0,0,56,59,82,60,100,-19.06,13,2.0,1.0,-994.0,11:04:42.844331,192.168.0.112
683,-1,-100,-100,-100,"0,0,0",0,0,1,0,0,0,56,59,82,60,100,-19.08,13,15.0,-4.0,-1013.0,11:04:42.946395,192.168.0.112
688,-1,-100,-100,-100,"0,0,0",0,0,1,0,0,0,56,59,81,60,100,-19.16,13,15.0,-2.0,-1011.0,11:04:43.048289,192.168.0.112
693,-1,-100,-100,-100,"0,0,0",0,0,1,0,0,0,56,59,82,60,100,-19.13,13,7.0,-11.0,-1000.0,11:04:43.150183,192.168.0.112
698,-1,-100,-100,-100,"0,0,0",0,0,1,0,0,0,56,59,82,60,100,-19.05,13,0.0,-10.0,-982.0,11:04:43.255621,192.168.0.112
703,-1,-100,-100,-100,"0,0,0",0,0,1,0,0,0,56,59,82,60,100,-19.04,13,12.0,-12.0,-1000.0,11:04:43.354176,192.168.0.112
708,-1,-100,-100,-100,"0,0,0",0,0,1,0,0,0,56,59,82,60,100,-19.09,14,9.0,-9.0,-988.0,11:04:43.456367,192.168.0.112
713,-1,-100,-100,-100,"0,0,0",0,0,1,0,0,0,56,59,82,60,100,-19.04,14,14.0,-6.0,-997.0,11:04:43.558104,192.168.0.112
718,-1,-100,-100,-100,"0,0,0",0,0,1,0,0,0,56,59,82,60,100,-19.03,14,10.0,2.0,-990.0,11:04:43.660288,192.168.0.112
723,-1,-100,-100,-100,"0,0,0",0,0,1,0,0,0,56,59,81,60,100,-19.01,14,4.0,-1.0,-1000.0,11:04:43.762078,192.168.0.112
728,-1,-100,-100,-100,"0,0,0",0,0,1,0,0,0,56,59,81,60,100,-19.07,14,3.0,0.0,-1011.0,11:04:43.864182,192.168.0.112
733,-1,-100,-100,-100,"0,0,0",0,0,1,0,0,0,56,59,81,60,100,-19.02,14,4.0,4.0,-993.0,11:04:43.967338,192.168.0.112
738,-1,-100,-100,-100,"0,0,0",-1,0,1,0,0,0,56,59,80,60,100,-19.02,14,2.0,8.0,-985.0,11:04:44.068193,192.168.0.112
743,-1,-100,-100,-100,"0,0,0",0,0,1,0,0,0,56,59,81,60,100,-19.05,14,-6.0,15.0,-987.0,11:04:44.170134,192.168.0.112
748,-1,-100,-100,-100,"0,0,0",0,0,1,0,0,0,56,59,81,60,100,-19.09,14,17.0,-7.0,-1001.0,11:04:44.272148,192.168.0.112
754,-1,-100,-100,-100,"0,0,0",-1,0,1,0,0,0,56,59,81,60,100,-19.19,14,10.0,-1.0,-1013.0,11:04:44.374126,192.168.0.112
759,-1,-100,-100,-100,"0,0,0",-1,0,1,0,0,0,56,59,80,60,100,-19.09,15,-3.0,-2.0,-998.0,11:04:44.482607,192.168.0.112
761,-1,-100,-100,-100,"0,0,0",0,0,1,0,0,0,56,59,81,60,100,-19.17,15,-6.0,2.0,-1001.0,11:04:44.527127,192.168.0.112
769,-1,-100,-100,-100,"0,0,0",0,0,1,0,0,0,56,60,81,60,100,-19.1,15,-7.0,-2.0,-1000.0,11:04:44.680100,192.168.0.112
771,-1,-100,-100,-100,"0,0,0",-1,0,1,0,0,0,56,60,81,60,100,-19.14,15,-1.0,1.0,-981.0,11:04:44.730801,192.168.0.112
776,-1,-100,-100,-100,"0,0,0",-1,0,1,0,0,0,56,60,80,60,100,-19.18,15,2.0,-12.0,-998.0,11:04:44.834459,192.168.0.112
781,-1,-100,-100,-100,"0,0,0",-1,0,1,0,0,0,56,60,80,60,100,-19.08,15,7.0,-1.0,-1016.0,11:04:44.935041,192.168.0.112
787,-1,-100,-100,-100,"0,0,0",-1,0,1,0,0,0,56,60,80,60,100,-19.11,15,18.0,0.0,-1007.0,11:04:45.036916,192.168.0.112
792,-1,-100,-100,-100,"0,0,0",-1,0,1,0,0,0,56,60,80,60,100,-19.1,15,-13.0,-4.0,-981.0,11:04:45.139009,192.168.0.112
797,-1,-100,-100,-100,"0,0,0",-1,0,1,0,0,0,56,60,80,60,100,-19.09,15,-4.0,-2.0,-998.0,11:04:45.240927,192.168.0.112
802,-1,-100,-100,-100,"0,0,0",-1,0,1,0,0,0,56,60,80,60,100,-19.08,15,-2.0,0.0,-1022.0,11:04:45.343035,192.168.0.112
807,-1,-100,-100,-100,"0,0,0",-1,0,1,0,0,0,56,60,80,60,100,-19.05,16,0.0,-6.0,-988.0,11:04:45.445040,192.168.0.112
812,-1,-100,-100,-100,"0,0,0",-1,0,1,0,0,0,56,60,80,60,100,-19.1,16,5.0,-7.0,-1010.0,11:04:45.546851,192.168.0.112
817,-1,-100,-100,-100,"0,0,0",-1,0,1,0,0,0,57,59,80,60,100,-19.03,16,-4.0,-18.0,-979.0,11:04:45.649286,192.168.0.112
822,-1,-100,-100,-100,"0,0,0",-1,0,1,0,0,0,57,59,80,60,100,-19.03,16,2.0,-16.0,-1006.0,11:04:45.751282,192.168.0.112
827,-1,-100,-100,-100,"0,0,0",0,0,1,0,0,0,57,59,80,60,100,-19.09,16,7.0,-11.0,-1014.0,11:04:45.853863,192.168.0.112
832,-1,-100,-100,-100,"0,0,0",-1,1,1,0,0,0,57,59,79,60,100,-19.04,16,11.0,-21.0,-1014.0,11:04:45.956703,192.168.0.112
837,-1,-100,-100,-100,"0,0,0",0,0,1,0,0,0,57,59,80,60,100,-19.05,16,-2.0,2.0,-988.0,11:04:46.058598,192.168.0.112
842,-1,-100,-100,-100,"0,0,0",0,1,1,0,0,0,57,59,80,60,100,-19.09,16,17.0,-12.0,-1003.0,11:04:46.161060,192.168.0.112
847,-1,-100,-100,-100,"0,0,0",0,0,1,0,0,0,57,59,80,60,100,-19.15,16,21.0,-16.0,-997.0,11:04:46.260740,192.168.0.112
853,-1,-100,-100,-100,"0,0,0",0,0,1,0,0,0,57,59,80,60,100,-19.11,16,17.0,-22.0,-1007.0,11:04:46.362698,192.168.0.112
858,-1,-100,-100,-100,"0,0,0",0,0,1,0,0,0,57,59,81,60,100,-19.12,17,-2.0,5.0,-978.0,11:04:46.464545,192.168.0.112
863,-1,-100,-100,-100,"0,0,0",0,0,2,0,0,0,57,59,81,60,100,-19.06,17,14.0,-10.0,-979.0,11:04:46.566729,192.168.0.112
868,-1,-100,-100,-100,"0,0,0",0,0,1,0,0,0,57,59,81,60,100,-19.05,17,33.0,-13.0,-988.0,11:04:46.668622,192.168.0.112
873,-1,-100,-100,-100,"0,0,0",0,0,1,0,0,0,57,59,81,60,100,-19.04,17,20.0,7.0,-978.0,11:04:46.770815,192.168.0.112
878,-1,-100,-100,-100,"0,0,0",0,0,1,0,0,0,57,59,81,60,100,-19.07,17,36.0,-10.0,-1017.0,11:04:46.872646,192.168.0.112
883,-1,-100,-100,-100,"0,0,0",0,0,1,0,0,0,57,59,81,60,100,-19.13,17,17.0,-8.0,-1013.0,11:04:46.974619,192.168.0.112
888,-1,-100,-100,-100,"0,0,0",0,0,1,0,0,0,57,59,81,60,100,-19.07,17,16.0,-5.0,-985.0,11:04:47.076531,192.168.0.112
893,-1,-100,-100,-100,"0,0,0",0,0,1,0,0,0,57,59,81,60,100,-19.06,17,10.0,0.0,-1000.0,11:04:47.178404,192.168.0.112
898,-1,-100,-100,-100,"0,0,0",0,0,1,0,0,0,57,59,81,60,100,-19.07,17,25.0,-11.0,-1005.0,11:04:47.280473,192.168.0.112
903,-1,-100,-100,-100,"0,0,0",0,0,1,0,0,0,57,59,81,60,100,-19.07,17,24.0,-11.0,-992.0,11:04:47.383082,192.168.0.112
908,-1,-100,-100,-100,"0,0,0",0,0,2,0,0,0,57,59,82,60,100,-19.05,18,20.0,-7.0,-1000.0,11:04:47.484695,192.168.0.112
913,-1,-100,-100,-100,"0,0,0",0,0,1,0,0,0,57,59,81,60,100,-19.12,18,11.0,5.0,-1006.0,11:04:47.586736,192.168.0.112
918,-1,-100,-100,-100,"0,0,0",0,0,1,0,0,0,57,60,81,60,100,-19.01,18,23.0,2.0,-985.0,11:04:47.689167,192.168.0.112
924,-1,-100,-100,-100,"0,0,0",0,0,1,0,0,0,57,60,81,60,100,-18.99,18,23.0,-6.0,-993.0,11:04:47.790643,192.168.0.112
929,-1,-100,-100,-100,"0,0,0",0,0,1,0,0,0,57,60,82,60,100,-19.08,18,10.0,12.0,-1006.0,11:04:47.892454,192.168.0.112
934,-1,-100,-100,-100,"0,0,0",0,0,1,0,0,0,57,60,81,60,100,-19.04,18,27.0,-8.0,-1006.0,11:04:47.994542,192.168.0.112
939,-1,-100,-100,-100,"0,0,0",0,0,1,0,0,0,57,60,82,60,100,-19.02,18,25.0,-6.0,-995.0,11:04:48.096353,192.168.0.112
941,-1,-100,-100,-100,"0,0,0",0,0,1,0,0,0,57,60,81,60,100,-19.09,18,17.0,0.0,-999.0,11:04:48.147338,192.168.0.112
946,-1,-100,-100,-100,"0,0,0",0,0,1,0,0,0,57,60,82,60,100,-18.99,18,11.0,13.0,-998.0,11:04:48.249611,192.168.0.112
952,-1,-100,-100,-100,"0,0,0",0,0,1,0,0,0,57,60,82,60,100,-18.96,18,14.0,-15.0,-980.0,11:04:48.351597,192.168.0.112
956,-1,-100,-100,-100,"0,0,0",0,0,1,0,0,0,57,60,82,60,100,-18.98,19,19.0,1.0,-1003.0,11:04:48.453410,192.168.0.112
961,-1,-100,-100,-100,"0,0,0",0,0,1,0,0,0,57,60,81,60,100,-18.99,19,24.0,6.0,-998.0,11:04:48.555567,192.168.0.112
967,-1,-100,-100,-100,"0,0,0",0,0,1,0,0,0,57,60,81,60,100,-19.07,19,16.0,7.0,-995.0,11:04:48.657465,192.168.0.112
972,-1,-100,-100,-100,"0,0,0",0,0,1,0,0,0,57,60,82,60,100,-19.01,19,27.0,6.0,-995.0,11:04:48.759811,192.168.0.112
977,-1,-100,-100,-100,"0,0,0",0,0,1,0,0,0,57,60,81,60,100,-18.92,19,24.0,5.0,-1002.0,11:04:48.861447,192.168.0.112
982,-1,-100,-100,-100,"0,0,0",0,0,1,0,0,0,57,60,81,60,100,-18.98,19,8.0,9.0,-1001.0,11:04:48.963707,192.168.0.112
987,-1,-100,-100,-100,"0,0,0",0,0,1,0,0,0,57,60,81,60,100,-18.98,19,13.0,11.0,-1002.0,11:04:49.065391,192.168.0.112
992,-1,-100,-100,-100,"0,0,0",0,0,1,0,0,0,57,60,81,60,100,-18.99,19,17.0,4.0,-1003.0,11:04:49.166887,192.168.0.112
997,-1,-100,-100,-100,"0,0,0",0,0,1,0,0,0,57,60,81,60,100,-19.0,19,13.0,6.0,-996.0,11:04:49.269229,192.168.0.112
1002,-1,-100,-100,-100,"0,0,0",0,0,1,0,0,0,57,60,81,60,100,-18.99,19,18.0,2.0,-1003.0,11:04:49.371425,192.168.0.112
1008,-1,-100,-100,-100,"0,0,0",0,0,1,0,0,0,57,60,81,60,100,-19.04,20,26.0,16.0,-1001.0,11:04:49.474218,192.168.0.112
1013,-1,-100,-100,-100,"0,0,0",0,0,1,0,0,0,57,60,81,60,100,-18.99,20,24.0,-1.0,-998.0,11:04:49.575423,192.168.0.112
1018,-1,-100,-100,-100,"0,0,0",0,0,1,0,0,0,57,60,81,60,100,-18.98,20,31.0,1.0,-1009.0,11:04:49.677350,192.168.0.112
1023,-1,-100,-100,-100,"0,0,0",0,0,1,0,0,0,57,60,81,60,100,-18.98,20,29.0,2.0,-1004.0,11:04:49.779086,192.168.0.112
1028,-1,-100,-100,-100,"0,0,0",0,0,1,0,0,0,57,60,82,60,100,-19.0,20,21.0,2.0,-998.0,11:04:49.883798,192.168.0.112
1033,-1,-100,-100,-100,"0,0,0",0,0,1,0,0,0,57,60,82,60,100,-18.98,20,17.0,12.0,-993.0,11:04:49.983541,192.168.0.112
1038,-1,-100,-100,-100,"0,0,0",0,0,1,0,0,0,57,60,81,60,100,-19.05,20,23.0,2.0,-998.0,11:04:50.085312,192.168.0.112
1043,-1,-100,-100,-100,"0,0,0",0,0,1,0,0,0,57,60,81,60,100,-18.97,20,5.0,11.0,-1012.0,11:04:50.187261,192.168.0.112
1048,-1,-100,-100,-100,"0,0,0",0,0,1,0,0,0,57,60,82,60,100,-19.01,20,12.0,3.0,-993.0,11:04:50.289091,192.168.0.112
1053,-1,-100,-100,-100,"0,0,0",0,0,1,0,0,0,57,60,82,60,100,-18.98,20,22.0,-6.0,-1000.0,11:04:50.391248,192.168.0.112
1058,-1,-100,-100,-100,"0,0,0",0,0,1,0,0,0,57,60,82,60,100,-18.99,21,7.0,2.0,-1009.0,11:04:50.493332,192.168.0.112
1063,-1,-100,-100,-100,"0,0,0",0,0,1,0,0,0,57,60,82,60,100,-19.05,21,7.0,-8.0,-1001.0,11:04:50.595353,192.168.0.112
1068,-1,-100,-100,-100,"0,0,0",0,0,1,0,0,0,58,60,82,60,100,-19.0,21,11.0,-6.0,-1000.0,11:04:50.697216,192.168.0.112
1073,-1,-100,-100,-100,"0,0,0",0,0,1,0,0,0,58,60,82,60,100,-19.05,21,-8.0,12.0,-994.0,11:04:50.799010,192.168.0.112
1078,-1,-100,-100,-100,"0,0,0",-1,0,1,0,0,0,58,60,81,60,100,-18.96,21,6.0,1.0,-1003.0,11:04:50.901199,192.168.0.112
1083,-1,-100,-100,-100,"0,0,0",-1,0,1,0,0,0,58,60,82,60,100,-19.04,21,5.0,-9.0,-1017.0,11:04:51.003282,192.168.0.112
1088,-1,-100,-100,-100,"0,0,0",-1,0,1,0,0,0,58,60,82,60,100,-19.04,21,-8.0,8.0,-996.0,11:04:51.105147,192.168.0.112
1091,-1,-100,-100,-100,"0,0,0",-1,0,1,0,0,0,58,60,81,60,100,-19.01,21,5.0,-4.0,-1001.0,11:04:51.156204,192.168.0.112
1096,-1,-100,-100,-100,"0,0,0",-1,0,1,0,0,0,58,60,82,60,100,-19.01,21,1.0,-5.0,-993.0,11:04:51.258178,192.168.0.112
1101,-1,-100,-100,-100,"0,0,0",-1,0,1,0,0,0,58,60,81,60,100,-19.06,21,7.0,-2.0,-1008.0,11:04:51.360257,192.168.0.112
1106,-1,-100,-100,-100,"0,0,0",-1,0,1,0,0,0,58,60,81,60,100,-19.01,22,-4.0,-5.0,-1000.0,11:04:51.462146,192.168.0.112
1111,-1,-100,-100,-100,"0,0,0",-1,0,1,0,0,0,58,60,81,60,100,-19.0,22,-2.0,9.0,-1012.0,11:04:51.564225,192.168.0.112
1116,-1,-100,-100,-100,"0,0,0",-1,0,1,0,0,0,58,61,81,60,100,-18.98,22,-11.0,17.0,-998.0,11:04:51.666196,192.168.0.112
1121,-1,-100,-100,-100,"0,0,0",-1,0,1,0,0,0,58,61,81,60,100,-19.05,22,-30.0,29.0,-1022.0,11:04:51.768232,192.168.0.112
1126,-1,-100,-100,-100,"0,0,0",-1,0,1,0,0,0,58,61,80,60,100,-19.06,22,-13.0,8.0,-1000.0,11:04:51.870259,192.168.0.112
1132,-1,-100,-100,-100,"0,0,0",-2,0,1,0,0,0,58,61,81,60,100,-19.05,22,-38.0,26.0,-990.0,11:04:51.972141,192.168.0.112
1137,-1,-100,-100,-100,"0,0,0",-2,0,1,0,0,0,58,61,80,60,100,-19.1,22,-11.0,0.0,-1006.0,11:04:52.074077,192.168.0.112
1142,-1,-100,-100,-100,"0,0,0",-2,-1,1,0,0,0,58,61,80,60,100,-19.12,22,-19.0,9.0,-999.0,11:04:52.176995,192.168.0.112
1147,-1,-100,-100,-100,"0,0,0",-2,0,1,0,0,0,58,61,81,60,100,-19.08,22,-42.0,4.0,-1016.0,11:04:52.278119,192.168.0.112
1152,-1,-100,-100,-100,"0,0,0",-3,0,1,0,0,0,58,61,81,60,100,-18.9,22,-29.0,7.0,-970.0,11:04:52.380192,192.168.0.112
1157,-1,-100,-100,-100,"0,0,0",-3,0,1,0,0,0,58,61,82,60,100,-18.98,23,-27.0,-2.0,-1006.0,11:04:52.482004,192.168.0.112
1162,-1,-100,-100,-100,"0,0,0",-3,0,1,0,0,0,58,61,81,60,100,-19.0,23,-30.0,-21.0,-973.0,11:04:52.584009,192.168.0.112
1167,-1,-100,-100,-100,"0,0,0",-3,0,1,0,0,0,57,60,81,60,100,-19.01,23,-15.0,1.0,-992.0,11:04:52.685999,192.168.0.112
1172,-1,-100,-100,-100,"0,0,0",-2,0,1,0,0,0,57,60,82,60,100,-19.04,23,-32.0,-11.0,-1011.0,11:04:52.788119,192.168.0.112
1177,-1,-100,-100,-100,"0,0,0",-3,0,1,0,0,0,57,60,82,60,100,-19.01,23,-15.0,-19.0,-999.0,11:04:52.890052,192.168.0.112
1182,-1,-100,-100,-100,"0,0,0",-2,0,1,0,0,0,57,60,82,60,100,-19.04,23,-9.0,-17.0,-995.0,11:04:52.992143,192.168.0.112
1187,-1,-100,-100,-100,"0,0,0",-2,0,1,0,0,0,57,60,82,60,100,-19.18,23,-10.0,-22.0,-1016.0,11:04:53.094051,192.168.0.112
1192,-1,-100,-100,-100,"0,0,0",-2,1,1,0,0,0,57,60,83,60,100,-19.09,23,-16.0,0.0,-992.0,11:04:53.196142,192.168.0.112
1198,-1,-100,-100,-100,"0,0,0",-2,1,1,0,0,0,57,60,82,60,100,-19.08,23,-4.0,-12.0,-990.0,11:04:53.297858,192.168.0.112
1203,-1,-100,-100,-100,"0,0,0",-2,0,1,-1,0,0,57,60,83,60,100,-18.97,23,8.0,-31.0,-981.0,11:04:53.400042,192.168.0.112
1208,-1,-100,-100,-100,"0,0,0",-1,0,2,0,0,0,57,60,82,60,100,-18.99,24,0.0,-26.0,-955.0,11:04:53.502007,192.168.0.112
1213,-1,-100,-100,-100,"0,0,0",-2,0,2,0,0,0,57,60,82,60,100,-19.17,24,-24.0,1.0,-976.0,11:04:53.603495,192.168.0.112
1218,-1,-100,-100,-100,"0,0,0",-1,1,2,0,0,0,58,60,81,60,100,-19.16,24,7.0,-21.0,-977.0,11:04:53.706668,192.168.0.112
1223,-1,-100,-100,-100,"0,0,0",-1,0,2,0,0,0,58,60,81,60,100,-19.07,24,-6.0,-2.0,-1004.0,11:04:53.808875,192.168.0.112
1228,-1,-100,-100,-100,"0,0,0",-2,0,2,0,0,0,58,60,81,60,100,-19.12,24,-2.0,-13.0,-993.0,11:04:53.911005,192.168.0.112
1233,-1,-100,-100,-100,"0,0,0",-2,0,2,0,0,0,58,60,80,60,100,-19.17,24,5.0,-15.0,-1016.0,11:04:54.012965,192.168.0.112
1238,-1,-100,-100,-100,"0,0,0",-2,0,2,0,0,0,58,60,80,60,100,-19.05,24,-16.0,-5.0,-994.0,11:04:54.114924,192.168.0.112
1243,-1,-100,-100,-100,"0,0,0",-1,0,2,0,0,0,58,60,80,60,100,-19.11,24,7.0,-32.0,-992.0,11:04:54.217054,192.168.0.112
1248,-1,-100,-100,-100,"0,0,0",-1,0,1,0,0,0,58,60,81,60,100,-19.14,24,0.0,-10.0,-1013.0,11:04:54.319348,192.168.0.112
1251,-1,-100,-100,-100,"0,0,0",-1,0,1,0,0,0,58,60,81,60,100,-19.11,24,11.0,-12.0,-995.0,11:04:54.370381,192.168.0.112
1256,-1,-100,-100,-100,"0,0,0",-1,1,1,0,0,0,58,60,81,60,100,-19.05,25,4.0,0.0,-997.0,11:04:54.472232,192.168.0.112
1261,-1,-100,-100,-100,"0,0,0",-1,1,1,0,0,0,58,60,81,60,100,-19.08,25,3.0,17.0,-1000.0,11:04:54.573901,192.168.0.112
1266,-1,-100,-100,-100,"0,0,0",-1,0,1,-1,0,0,58,60,81,60,100,-19.05,25,16.0,2.0,-1006.0,11:04:54.676130,192.168.0.112
1271,-1,-100,-100,-100,"0,0,0",-1,0,1,-1,0,0,58,60,82,60,100,-19.07,25,5.0,8.0,-1014.0,11:04:54.777706,192.168.0.112
1276,-1,-100,-100,-100,"0,0,0",0,0,1,-1,0,0,58,60,81,60,100,-19.14,25,10.0,-5.0,-1017.0,11:04:54.879900,192.168.0.112
1281,-1,-100,-100,-100,"0,0,0",0,0,1,0,0,0,58,60,82,60,100,-19.13,25,-6.0,0.0,-1001.0,11:04:54.981917,192.168.0.112
1286,-1,-100,-100,-100,"0,0,0",-1,0,1,0,0,0,58,60,82,60,100,-19.17,25,-4.0,-7.0,-998.0,11:04:55.083854,192.168.0.112
1291,-1,-100,-100,-100,"0,0,0",-1,0,1,0,0,0,58,60,83,60,100,-19.22,25,4.0,-7.0,-994.0,11:04:55.185783,192.168.0.112
1296,-1,-100,-100,-100,"0,0,0",-1,0,1,0,0,0,58,60,82,60,100,-19.13,25,-9.0,-10.0,-984.0,11:04:55.287660,192.168.0.112
1302,-1,-100,-100,-100,"0,0,0",-1,0,1,0,0,0,58,60,82,60,100,-19.15,25,-6.0,-5.0,-982.0,11:04:55.389884,192.168.0.112
1306,-1,-100,-100,-100,"0,0,0",-1,0,1,0,0,0,58,60,82,60,100,-19.11,26,-6.0,-7.0,-991.0,11:04:55.497767,192.168.0.112
1312,-1,-100,-100,-100,"0,0,0",-2,0,1,0,0,0,58,60,82,60,100,-19.07,26,-14.0,3.0,-1026.0,11:04:55.594022,192.168.0.112
1317,-1,-100,-100,-100,"0,0,0",-2,0,1,0,0,0,58,60,82,60,100,-19.16,26,-2.0,13.0,-995.0,11:04:55.695899,192.168.0.112
1322,-1,-100,-100,-100,"0,0,0",-1,0,1,0,0,0,58,60,82,60,100,-19.18,26,-9.0,10.0,-1005.0,11:04:55.797774,192.168.0.112
1327,-1,-100,-100,-100,"0,0,0",-1,0,1,0,0,0,58,60,82,60,100,-19.1,26,12.0,11.0,-995.0,11:04:55.900401,192.168.0.112
1332,-1,-100,-100,-100,"0,0,0",-1,-1,1,0,0,0,58,60,81,60,100,-19.15,26,6.0,6.0,-986.0,11:04:56.001663,192.168.0.112
1337,-1,-100,-100,-100,"0,0,0",-1,0,1,0,0,0,58,60,82,60,100,-19.19,26,-3.0,10.0,-995.0,11:04:56.103801,192.168.0.112
1342,-1,-100,-100,-100,"0,0,0",-1,0,1,0,0,0,58,60,82,60,100,-19.19,26,5.0,2.0,-1002.0,11:04:56.205675,192.168.0.112
1347,-1,-100,-100,-100,"0,0,0",-1,0,1,0,0,0,58,60,82,60,100,-19.17,26,-2.0,0.0,-990.0,11:04:56.308598,192.168.0.112
1352,-1,-100,-100,-100,"0,0,0",-1,0,1,0,0,0,58,60,82,60,100,-19.1,27,-6.0,7.0,-988.0,11:04:56.409630,192.168.0.112
1357,-1,-100,-100,-100,"0,0,0",-1,0,1,0,0,0,58,60,82,60,100,-19.09,27,3.0,13.0,-1001.0,11:04:56.511694,192.168.0.112
1362,-1,-100,-100,-100,"0,0,0",-1,0,1,0,0,0,58,60,82,60,100,-19.08,27,0.0,7.0,-1005.0,11:04:56.613625,192.168.0.112
1368,-1,-100,-100,-100,"0,0,0",-1,0,1,0,0,0,58,61,82,60,100,-19.03,27,5.0,-1.0,-992.0,11:04:56.715946,192.168.0.112
1373,-1,-100,-100,-100,"0,0,0",-1,0,1,0,0,0,58,61,82,60,100,-19.01,27,7.0,-4.0,-1003.0,11:04:56.817671,192.168.0.112
1377,-1,-100,-100,-100,"0,0,0",-1,0,1,0,0,0,58,61,82,60,100,-19.02,27,3.0,2.0,-993.0,11:04:56.919655,192.168.0.112
1383,-1,-100,-100,-100,"0,0,0",-1,0,1,0,0,0,58,61,83,60,100,-19.03,27,-3.0,4.0,-1001.0,11:04:57.021305,192.168.0.112
1388,-1,-100,-100,-100,"0,0,0",-1,0,1,0,0,0,58,61,83,60,100,-18.99,27,9.0,0.0,-989.0,11:04:57.123574,192.168.0.112
1393,-1,-100,-100,-100,"0,0,0",0,0,1,0,0,0,58,61,83,60,100,-19.0,27,3.0,0.0,-1006.0,11:04:57.225665,192.168.0.112
1398,-1,-100,-100,-100,"0,0,0",-1,0,1,0,0,0,58,61,82,60,100,-19.11,27,6.0,-3.0,-1016.0,11:04:57.327813,192.168.0.112
1403,-1,-100,-100,-100,"0,0,0",-1,0,1,0,0,0,58,61,82,60,100,-19.08,28,10.0,-4.0,-995.0,11:04:57.429568,192.168.0.112
1408,-1,-100,-100,-100,"0,0,0",-1,0,1,0,0,0,58,61,83,60,100,-19.12,28,2.0,-5.0,-1002.0,11:04:57.531667,192.168.0.112
1413,-1,-100,-100,-100,"0,0,0",-1,0,1,0,0,0,58,61,83,60,100,-19.05,28,-12.0,-3.0,-996.0,11:04:57.633587,192.168.0.112
1418,-1,-100,-100,-100,"0,0,0",-1,0,1,0,0,0,58,61,82,60,100,-19.08,28,-3.0,0.0,-998.0,11:04:57.735752,192.168.0.112
1424,-1,-100,-100,-100,"0,0,0",-1,0,1,0,0,0,58,61,82,60,100,-19.12,28,14.0,-13.0,-1000.0,11:04:57.837594,192.168.0.112
1428,-1,-100,-100,-100,"0,0,0",-1,0,1,0,0,0,58,61,82,60,100,-19.12,28,6.0,-4.0,-1007.0,11:04:57.939594,192.168.0.112
1434,-1,-100,-100,-100,"0,0,0",-1,0,1,0,0,0,58,61,82,60,100,-19.15,28,1.0,3.0,-1003.0,11:04:58.041115,192.168.0.112
1436,-1,-100,-100,-100,"0,0,0",-1,0,1,0,0,0,58,61,82,60,100,-19.13,28,2.0,-9.0,-1002.0,11:04:58.092490,192.168.0.112
1441,-1,-100,-100,-100,"0,0,0",-1,0,1,0,0,0,58,61,83,60,100,-19.05,28,-23.0,14.0,-996.0,11:04:58.194561,192.168.0.112
1446,-1,-100,-100,-100,"0,0,0",-2,0,1,0,0,0,58,61,82,60,100,-19.06,28,-8.0,0.0,-997.0,11:04:58.296620,192.168.0.112
1451,-1,-100,-100,-100,"0,0,0",-2,0,1,0,0,0,58,61,82,60,100,-19.13,29,-9.0,1.0,-1004.0,11:04:58.398529,192.168.0.112
1456,-1,-100,-100,-100,"0,0,0",-2,0,1,0,0,0,58,61,82,60,100,-19.15,29,-25.0,5.0,-1001.0,11:04:58.500701,192.168.0.112
1461,-1,-100,-100,-100,"0,0,0",-2,0,1,0,0,0,58,61,82,60,100,-19.35,29,-51.0,11.0,-1010.0,11:04:58.602656,192.168.0.112
1466,-1,-100,-100,-100,"0,0,0",-3,0,1,0,0,0,58,61,82,60,100,-19.11,29,-30.0,17.0,-1001.0,11:04:58.704583,192.168.0.112
1471,-1,-100,-100,-100,"0,0,0",-3,-1,1,0,0,0,58,61,83,60,100,-19.16,29,-29.0,27.0,-1005.0,11:04:58.806472,192.168.0.112
1477,-1,-100,-100,-100,"0,0,0",-3,-1,1,0,0,0,58,61,82,60,100,-19.19,29,-8.0,16.0,-1012.0,11:04:58.911150,192.168.0.112
1482,-1,-100,-100,-100,"0,0,0",-3,-1,1,0,0,0,58,61,81,60,100,-19.13,29,-22.0,28.0,-993.0,11:04:59.010617,192.168.0.112
1487,-1,-100,-100,-100,"0,0,0",-3,-1,1,0,0,0,58,61,82,60,100,-19.12,29,-11.0,21.0,-986.0,11:04:59.112461,192.168.0.112
1492,-1,-100,-100,-100,"0,0,0",-2,0,1,0,0,0,58,61,81,60,100,-19.17,29,-22.0,41.0,-988.0,11:04:59.214279,192.168.0.112
1497,-1,-100,-100,-100,"0,0,0",-2,0,1,0,0,0,58,61,82,60,100,-19.08,29,-11.0,30.0,-988.0,11:04:59.319962,192.168.0.112
1502,-1,-100,-100,-100,"0,0,0",-2,0,1,0,0,0,58,61,82,60,100,-19.11,30,-23.0,22.0,-981.0,11:04:59.427564,192.168.0.112
1507,-1,-100,-100,-100,"0,0,0",-1,0,1,0,0,0,58,61,81,60,100,-19.11,30,-11.0,17.0,-1010.0,11:04:59.520421,192.168.0.112
1512,-1,-100,-100,-100,"0,0,0",-1,-1,1,0,0,0,58,61,81,60,100,-19.11,30,-11.0,19.0,-991.0,11:04:59.622329,192.168.0.112
1517,-1,-100,-100,-100,"0,0,0",-1,-1,1,0,0,0,58,61,81,60,100,-18.95,30,-3.0,14.0,-993.0,11:04:59.723813,192.168.0.112
1522,-1,-100,-100,-100,"0,0,0",-1,-1,1,0,0,0,58,61,80,60,100,-18.98,30,5.0,5.0,-1014.0,11:04:59.826357,192.168.0.112
1527,-1,-100,-100,-100,"0,0,0",-1,-1,2,0,0,0,58,61,80,60,100,-19.01,30,11.0,-9.0,-995.0,11:04:59.928405,192.168.0.112
1532,-1,-100,-100,-100,"0,0,0",-1,-1,1,0,0,0,58,61,81,60,100,-19.02,30,-13.0,15.0,-983.0,11:05:00.030164,192.168.0.112
1538,-1,-100,-100,-100,"0,0,0",-1,-1,1,0,0,0,58,61,80,60,100,-19.06,30,-11.0,7.0,-993.0,11:05:00.132311,192.168.0.112
1543,-1,-100,-100,-100,"0,0,0",-1,-1,1,0,0,0,58,61,80,60,100,-19.04,30,-9.0,5.0,-989.0,11:05:00.235467,192.168.0.112
1548,-1,-100,-100,-100,"0,0,0",-1,-1,1,0,0,0,58,61,80,60,100,-19.04,30,0.0,4.0,-1011.0,11:05:00.336549,192.168.0.112
1553,-1,-100,-100,-100,"0,0,0",-1,-1,1,0,0,0,58,61,80,60,100,-19.07,31,-8.0,17.0,-1007.0,11:05:00.438397,192.168.0.112
1558,-1,-100,-100,-100,"0,0,0",-1,-1,1,0,0,0,58,61,80,60,100,-19.01,31,-11.0,19.0,-997.0,11:05:00.540430,192.168.0.112
1563,-1,-100,-100,-100,"0,0,0",-2,-1,1,0,0,0,58,61,80,60,100,-18.96,31,-14.0,18.0,-996.0,11:05:00.642310,192.168.0.112
1568,-1,-100,-100,-100,"0,0,0",-2,-1,1,0,0,0,59,61,80,60,100,-19.04,31,-8.0,26.0,-1010.0,11:05:00.743800,192.168.0.112
1573,-1,-100,-100,-100,"0,0,0",-2,-1,1,0,0,0,59,61,81,60,100,-19.03,31,-2.0,10.0,-1013.0,11:05:00.846373,192.168.0.112
1578,-1,-100,-100,-100,"0,0,0",-2,-1,1,0,0,0,59,61,81,60,100,-18.96,31,-19.0,16.0,-997.0,11:05:00.948504,192.168.0.112
1583,-1,-100,-100,-100,"0,0,0",-2,-1,1,0,0,0,59,61,81,60,100,-19.07,31,-19.0,7.0,-981.0,11:05:01.050466,192.168.0.112
1588,-1,-100,-100,-100,"0,0,0",-2,-1,1,0,0,0,59,61,82,60,100,-19.07,31,-30.0,15.0,-997.0,11:05:01.152442,192.168.0.112
1593,-1,-100,-100,-100,"0,0,0",-2,-1,1,0,0,0,59,61,82,60,100,-18.94,31,-14.0,0.0,-1001.0,11:05:01.254386,192.168.0.112
1596,-1,-100,-100,-100,"0,0,0",-2,-1,1,0,0,0,59,61,82,60,100,-19.09,31,-17.0,-4.0,-1010.0,11:05:01.304916,192.168.0.112
1601,-1,-100,-100,-100,"0,0,0",-2,0,1,0,0,0,59,61,83,60,100,-19.06,32,-23.0,3.0,-1003.0,11:05:01.407399,192.168.0.112
1606,-1,-100,-100,-100,"0,0,0",-3,0,1,0,0,0,59,61,83,60,100,-19.14,32,-15.0,-7.0,-995.0,11:05:01.509073,192.168.0.112
1611,-1,-100,-100,-100,"0,0,0",-3,0,1,0,0,0,59,61,83,60,100,-19.05,32,-24.0,10.0,-976.0,11:05:01.612235,192.168.0.112
1616,-1,-100,-100,-100,"0,0,0",-2,0,1,0,0,0,58,61,83,60,100,-19.12,32,-9.0,-14.0,-997.0,11:05:01.714424,192.168.0.112
1621,-1,-100,-100,-100,"0,0,0",-2,0,1,0,0,0,58,61,83,60,100,-19.08,32,-5.0,-13.0,-996.0,11:05:01.815411,192.168.0.112
1626,-1,-100,-100,-100,"0,0,0",-2,0,1,0,0,0,58,61,83,60,100,-19.03,32,-20.0,-11.0,-1011.0,11:05:01.917206,192.168.0.112
1631,-1,-100,-100,-100,"0,0,0",-1,0,1,0,0,0,58,61,83,60,100,-19.02,32,-7.0,-12.0,-991.0,11:05:02.019260,192.168.0.112
1636,-1,-100,-100,-100,"0,0,0",-2,1,1,0,0,0,58,61,83,60,100,-19.11,32,-37.0,-4.0,-995.0,11:05:02.121027,192.168.0.112
1642,-1,-100,-100,-100,"0,0,0",-2,1,1,0,0,0,58,61,84,60,100,-19.09,32,-37.0,3.0,-1007.0,11:05:02.223150,192.168.0.112
1647,-1,-100,-100,-100,"0,0,0",-2,0,1,0,0,0,58,61,84,60,100,-19.09,32,-9.0,-15.0,-999.0,11:05:02.325421,192.168.0.112
1652,-1,-100,-100,-100,"0,0,0",-2,0,1,0,0,0,58,61,84,60,100,-19.11,33,-44.0,18.0,-1020.0,11:05:02.427124,192.168.0.112
1657,-1,-100,-100,-100,"0,0,0",-2,0,1,0,0,0,58,61,84,60,100,-19.25,33,-25.0,0.0,-1000.0,11:05:02.529131,192.168.0.112
1662,-1,-100,-100,-100,"0,0,0",-2,0,1,0,0,0,58,61,83,60,100,-19.15,33,-22.0,4.0,-998.0,11:05:02.631229,192.168.0.112
1667,-1,-100,-100,-100,"0,0,0",-2,0,1,0,0,0,59,61,83,60,100,-19.12,33,-30.0,20.0,-1000.0,11:05:02.733126,192.168.0.112
1672,-1,-100,-100,-100,"0,0,0",-2,0,1,0,0,0,59,61,83,60,100,-19.14,33,-39.0,27.0,-999.0,11:05:02.835237,192.168.0.112
1677,-1,-100,-100,-100,"0,0,0",-2,0,1,0,0,0,59,61,84,60,100,-19.16,33,-24.0,-6.0,-1001.0,11:05:02.937090,192.168.0.112
1682,-1,-100,-100,-100,"0,0,0",-2,0,1,0,0,0,59,61,84,60,100,-19.24,33,-28.0,6.0,-998.0,11:05:03.039947,192.168.0.112
1687,-1,-100,-100,-100,"0,0,0",-2,0,1,0,0,0,59,61,85,60,100,-19.17,33,-13.0,-2.0,-981.0,11:05:03.146427,192.168.0.112
1692,-1,-100,-100,-100,"0,0,0",-2,0,1,0,0,0,59,61,84,60,100,-19.13,33,-27.0,16.0,-997.0,11:05:03.243220,192.168.0.112
1697,-1,-100,-100,-100,"0,0,0",-2,0,1,0,0,0,59,61,84,60,100,-19.13,33,-20.0,19.0,-979.0,11:05:03.344996,192.168.0.112
1703,-1,-100,-100,-100,"0,0,0",-2,0,1,0,0,0,59,61,84,60,100,-19.16,34,-37.0,13.0,-981.0,11:05:03.447039,192.168.0.112
1708,-1,-100,-100,-100,"0,0,0",-2,0,1,0,0,0,59,61,83,60,100,-19.18,34,-36.0,24.0,-993.0,11:05:03.550912,192.168.0.112
1713,-1,-100,-100,-100,"0,0,0",-2,0,1,0,0,0,59,61,83,60,100,-19.2,34,-25.0,21.0,-999.0,11:05:03.651113,192.168.0.112
1718,-1,-100,-100,-100,"0,0,0",-3,-1,1,0,0,0,58,61,83,60,100,-19.24,34,-11.0,10.0,-1014.0,11:05:03.752996,192.168.0.112
1723,-1,-100,-100,-100,"0,0,0",-2,-1,1,0,0,0,58,61,84,60,100,-19.16,34,-42.0,15.0,-1002.0,11:05:03.855259,192.168.0.112
1728,-1,-100,-100,-100,"0,0,0",-2,0,1,0,0,0,58,61,83,60,100,-19.27,34,-30.0,15.0,-994.0,11:05:03.957074,192.168.0.112
1733,-1,-100,-100,-100,"0,0,0",-2,0,1,0,0,0,58,61,82,60,100,-19.05,34,-3.0,22.0,-985.0,11:05:04.058954,192.168.0.112
1738,-1,-100,-100,-100,"0,0,0",-3,-1,1,0,0,0,58,61,82,60,100,-18.98,34,-36.0,24.0,-1020.0,11:05:04.160939,192.168.0.112
1743,-1,-100,-100,-100,"0,0,0",-2,-1,1,0,0,0,58,61,82,60,100,-19.14,34,-10.0,8.0,-1019.0,11:05:04.262947,192.168.0.112
1748,-1,-100,-100,-100,"0,0,0",-3,-1,0,0,0,0,58,61,82,60,100,-19.14,34,-11.0,21.0,-1005.0,11:05:04.364956,192.168.0.112
1753,-1,-100,-100,-100,"0,0,0",-3,-1,0,0,0,0,58,61,82,60,100,-19.21,35,-32.0,-23.0,-953.0,11:05:04.466938,192.168.0.112
1758,-1,-100,-100,-100,"0,0,0",-3,-1,0,0,0,0,58,61,81,60,100,-19.18,35,-25.0,17.0,-1021.0,11:05:04.569073,192.168.0.112
1764,-1,-100,-100,-100,"0,0,0",-3,0,0,0,0,0,58,61,80,60,100,-19.17,35,-35.0,2.0,-1010.0,11:05:04.671664,192.168.0.112
1769,-1,-100,-100,-100,"0,0,0",-2,0,0,0,0,0,59,61,80,60,100,-19.35,35,-32.0,2.0,-1031.0,11:05:04.772438,192.168.0.112
1774,-1,-100,-100,-100,"0,0,0",-2,0,0,0,0,0,59,61,80,60,100,-19.34,35,-43.0,1.0,-1039.0,11:05:04.874351,192.168.0.112
1779,-1,-100,-100,-100,"0,0,0",-3,0,1,0,0,0,59,61,79,60,100,-19.3,35,-22.0,-1.0,-998.0,11:05:04.977830,192.168.0.112
1781,-1,-100,-100,-100,"0,0,0",-3,0,1,0,0,0,59,61,79,60,100,-19.11,35,-11.0,-2.0,-1039.0,11:05:05.027929,192.168.0.112
1786,-1,-100,-100,-100,"0,0,0",-3,0,1,0,0,0,59,61,80,60,100,-19.15,35,-28.0,9.0,-1012.0,11:05:05.129955,192.168.0.112
1791,-1,-100,-100,-100,"0,0,0",-2,0,1,0,0,0,59,61,80,60,100,-19.12,35,-30.0,-9.0,-1003.0,11:05:05.232033,192.168.0.112
1796,-1,-100,-100,-100,"0,0,0",-2,0,1,0,0,0,59,61,80,60,100,-19.1,35,-30.0,-1.0,-978.0,11:05:05.334027,192.168.0.112
1802,-1,-100,-100,-100,"0,0,0",-2,0,1,0,0,0,59,61,81,60,100,-19.12,36,-18.0,17.0,-972.0,11:05:05.436105,192.168.0.112
1806,-1,-100,-100,-100,"0,0,0",-2,0,1,0,0,0,59,61,81,60,100,-19.11,36,-36.0,3.0,-967.0,11:05:05.538057,192.168.0.112
1811,-1,-100,-100,-100,"0,0,0",-2,0,1,0,0,0,59,61,81,60,100,-19.11,36,-18.0,-1.0,-1019.0,11:05:05.640259,192.168.0.112
1817,-1,-100,-100,-100,"0,0,0",-2,0,1,0,0,0,59,62,81,60,100,-19.16,36,-18.0,10.0,-1022.0,11:05:05.741895,192.168.0.112
1822,-1,-100,-100,-100,"0,0,0",-2,0,0,0,0,0,59,62,81,60,100,-19.19,36,-32.0,-14.0,-1001.0,11:05:05.843899,192.168.0.112
1827,-1,-100,-100,-100,"0,0,0",-2,0,1,0,0,0,59,62,81,60,100,-19.22,36,-26.0,-17.0,-980.0,11:05:05.945865,192.168.0.112
1832,-1,-100,-100,-100,"0,0,0",-2,0,1,0,0,0,59,62,81,60,100,-19.19,36,-30.0,0.0,-999.0,11:05:06.047955,192.168.0.112
1837,-1,-100,-100,-100,"0,0,0",-2,0,1,0,0,0,59,62,80,60,100,-19.17,36,-26.0,-38.0,-960.0,11:05:06.149947,192.168.0.112
1842,-1,-100,-100,-100,"0,0,0",-2,0,1,0,0,0,59,62,80,60,100,-19.06,36,-24.0,3.0,-992.0,11:05:06.252014,192.168.0.112
1847,-1,-100,-100,-100,"0,0,0",-2,1,1,0,0,0,59,62,80,60,100,-19.01,36,-33.0,-8.0,-999.0,11:05:06.353905,192.168.0.112
1852,-1,-100,-100,-100,"0,0,0",-3,1,1,0,0,0,59,62,80,60,100,-19.04,37,9.0,-22.0,-1006.0,11:05:06.456525,192.168.0.112
1857,-1,-100,-100,-100,"0,0,0",-2,0,1,0,0,0,59,62,80,60,100,-19.1,37,-17.0,-52.0,-1004.0,11:05:06.557939,192.168.0.112
1862,-1,-100,-100,-100,"0,0,0",-1,0,1,0,0,0,59,62,80,60,100,-19.09,37,-13.0,-28.0,-1035.0,11:05:06.659957,192.168.0.112
1867,-1,-100,-100,-100,"0,0,0",-1,1,1,0,0,0,59,62,80,60,100,-19.18,37,-15.0,-15.0,-1031.0,11:05:06.761858,192.168.0.112
1873,-1,-100,-100,-100,"0,0,0",-2,2,1,0,0,0,59,62,81,60,100,-19.26,37,-7.0,-29.0,-1019.0,11:05:06.863956,192.168.0.112
1877,-1,-100,-100,-100,"0,0,0",-2,2,1,0,0,0,59,62,81,60,100,-19.36,37,-13.0,-28.0,-982.0,11:05:06.965915,192.168.0.112
1883,-1,-100,-100,-100,"0,0,0",-2,2,1,0,0,0,59,62,82,60,100,-19.27,37,-21.0,-3.0,-982.0,11:05:07.068091,192.168.0.112
1888,-1,-100,-100,-100,"0,0,0",-1,2,2,0,0,0,59,62,82,60,100,-19.32,37,0.0,-23.0,-999.0,11:05:07.171884,192.168.0.112
1893,-1,-100,-100,-100,"0,0,0",-1,1,2,0,0,0,59,62,83,60,100,-19.25,37,-19.0,-18.0,-992.0,11:05:07.272807,192.168.0.112
1898,-1,-100,-100,-100,"0,0,0",-1,0,2,0,0,0,59,62,84,60,100,-19.31,37,-19.0,-26.0,-987.0,11:05:07.374485,192.168.0.112
1903,-1,-100,-100,-100,"0,0,0",-2,0,2,0,0,0,59,62,84,60,100,-19.31,38,-16.0,3.0,-971.0,11:05:07.475937,192.168.0.112
1908,-1,-100,-100,-100,"0,0,0",-2,0,2,0,0,0,59,62,84,60,100,-19.25,38,-22.0,-15.0,-955.0,11:05:07.577866,192.168.0.112
1913,-1,-100,-100,-100,"0,0,0",-2,0,2,0,0,0,59,62,84,60,100,-19.24,38,-11.0,-24.0,-982.0,11:05:07.679876,192.168.0.112
1918,-1,-100,-100,-100,"0,0,0",-1,0,2,0,0,0,59,62,84,60,100,-19.19,38,-1.0,-27.0,-996.0,11:05:07.781815,192.168.0.112
1924,-1,-100,-100,-100,"0,0,0",-1,1,1,0,0,0,59,62,84,60,100,-19.2,38,-9.0,-16.0,-997.0,11:05:07.883870,192.168.0.112
1928,-1,-100,-100,-100,"0,0,0",-1,0,1,0,0,0,59,62,84,60,100,-19.23,38,-7.0,-28.0,-995.0,11:05:07.986765,192.168.0.112
1934,-1,-100,-100,-100,"0,0,0",-1,1,1,0,0,0,59,62,84,60,100,-19.21,38,-13.0,-13.0,-993.0,11:05:08.087674,192.168.0.112
1939,-1,-100,-100,-100,"0,0,0",-1,1,1,0,0,0,59,62,83,60,100,-19.24,38,-2.0,-10.0,-1002.0,11:05:08.189922,192.168.0.112
1944,-1,-100,-100,-100,"0,0,0",-1,1,1,0,0,0,59,62,84,60,100,-19.08,38,-1.0,-15.0,-1003.0,11:05:08.291583,192.168.0.112
1949,-1,-100,-100,-100,"0,0,0",-1,1,1,0,0,0,59,62,83,60,100,-19.2,38,-14.0,8.0,-989.0,11:05:08.400260,192.168.0.112
1951,-1,-100,-100,-100,"0,0,0",-1,0,1,0,0,0,59,62,83,60,100,-19.21,39,-13.0,7.0,-1001.0,11:05:08.444664,192.168.0.112
1956,-1,-100,-100,-100,"0,0,0",-1,0,1,0,0,0,59,62,82,60,100,-19.12,39,24.0,-6.0,-1003.0,11:05:08.546717,192.168.0.112
1961,-1,-100,-100,-100,"0,0,0",-1,0,1,0,0,0,59,62,82,60,100,-19.14,39,5.0,-9.0,-989.0,11:05:08.648702,192.168.0.112
1966,-1,-100,-100,-100,"0,0,0",-1,0,1,0,0,0,60,63,83,60,100,-19.19,39,14.0,12.0,-1002.0,11:05:08.750721,192.168.0.112
1971,-1,-100,-100,-100,"0,0,0",0,0,1,0,0,0,60,63,83,60,100,-19.13,39,-4.0,13.0,-999.0,11:05:08.853246,192.168.0.112
1976,-1,-100,-100,-100,"0,0,0",0,-1,1,0,0,0,60,63,82,60,100,-19.13,39,3.0,10.0,-983.0,11:05:08.954673,192.168.0.112
1981,-1,-100,-100,-100,"0,0,0",0,-1,1,0,0,0,60,63,82,60,100,-19.14,39,5.0,10.0,-1002.0,11:05:09.056616,192.168.0.112
1987,-1,-100,-100,-100,"0,0,0",0,-1,1,0,0,0,60,63,82,60,100,-19.1,39,2.0,7.0,-1004.0,11:05:09.159475,192.168.0.112
1992,-1,-100,-100,-100,"0,0,0",0,-1,1,0,0,0,60,63,81,60,100,-19.14,39,5.0,6.0,-998.0,11:05:09.261832,192.168.0.112
1997,-1,-100,-100,-100,"0,0,0",0,-1,1,0,0,0,60,63,81,60,100,-19.13,39,4.0,9.0,-993.0,11:05:09.363631,192.168.0.112
2002,-1,-100,-100,-100,"0,0,0",0,0,1,0,0,0,60,63,81,60,100,-19.19,40,2.0,14.0,-1004.0,11:05:09.465830,192.168.0.112
2007,-1,-100,-100,-100,"0,0,0",0,0,1,0,0,0,60,63,81,60,100,-19.21,40,8.0,10.0,-1012.0,11:05:09.568539,192.168.0.112
2012,-1,-100,-100,-100,"0,0,0",0,0,1,0,0,0,60,63,81,60,100,-19.24,40,6.0,12.0,-1019.0,11:05:09.670813,192.168.0.112
2017,-1,-100,-100,-100,"0,0,0",0,0,1,0,0,0,60,62,81,60,100,-19.19,40,16.0,4.0,-994.0,11:05:09.771542,192.168.0.112
2023,-1,-100,-100,-100,"0,0,0",0,0,1,0,0,0,60,62,80,60,100,-19.17,40,13.0,-6.0,-977.0,11:05:09.873644,192.168.0.112
2027,-1,-100,-100,-100,"0,0,0",0,0,1,0,0,0,60,62,81,60,100,-19.21,40,-1.0,-1.0,-1000.0,11:05:09.975577,192.168.0.112
2032,-1,-100,-100,-100,"0,0,0",0,0,1,0,0,0,60,62,81,60,100,-19.13,40,-24.0,20.0,-1010.0,11:05:10.077685,192.168.0.112
2037,-1,-100,-100,-100,"0,0,0",0,0,1,0,0,0,60,62,81,60,100,-19.25,40,3.0,-6.0,-1020.0,11:05:10.179659,192.168.0.112
2043,-1,-100,-100,-100,"0,0,0",-1,0,1,0,0,0,60,62,80,60,100,-19.16,40,-2.0,-5.0,-1002.0,11:05:10.281346,192.168.0.112
2048,-1,-100,-100,-100,"0,0,0",-1,0,1,0,0,0,60,62,81,60,100,-19.21,40,10.0,-2.0,-1004.0,11:05:10.383975,192.168.0.112
2053,-1,-100,-100,-100,"0,0,0",-1,0,1,0,0,0,60,62,81,60,100,-19.26,41,-4.0,2.0,-1002.0,11:05:10.485667,192.168.0.112
2058,-1,-100,-100,-100,"0,0,0",-1,0,1,0,0,0,60,62,81,60,100,-19.17,41,0.0,0.0,-998.0,11:05:10.587613,192.168.0.112
2063,-1,-100,-100,-100,"0,0,0",-1,0,1,0,0,0,60,62,81,60,100,-19.23,41,-3.0,0.0,-1007.0,11:05:10.689613,192.168.0.112
2068,-1,-100,-100,-100,"0,0,0",-1,0,1,0,0,0,59,62,81,60,100,-19.19,41,4.0,-1.0,-986.0,11:05:10.791458,192.168.0.112
2073,-1,-100,-100,-100,"0,0,0",-1,0,1,0,0,0,59,62,81,60,100,-19.19,41,-5.0,2.0,-998.0,11:05:10.893531,192.168.0.112
2078,-1,-100,-100,-100,"0,0,0",-1,0,1,0,0,0,59,62,81,60,100,-19.22,41,6.0,-5.0,-995.0,11:05:10.995614,192.168.0.112
2083,-1,-100,-100,-100,"0,0,0",-1,0,1,0,0,0,59,62,81,60,100,-19.22,41,1.0,1.0,-993.0,11:05:11.097419,192.168.0.112
2088,-1,-100,-100,-100,"0,0,0",-1,0,1,0,0,0,59,62,81,60,100,-19.23,41,-13.0,9.0,-998.0,11:05:11.199572,192.168.0.112
2094,-1,-100,-100,-100,"0,0,0",-1,0,1,0,0,0,59,62,81,60,100,-19.22,41,-7.0,3.0,-1003.0,11:05:11.301431,192.168.0.112
2099,-1,-100,-100,-100,"0,0,0",-1,0,1,0,0,0,59,62,82,60,100,-19.21,41,-7.0,0.0,-1012.0,11:05:11.403641,192.168.0.112
2101,-1,-100,-100,-100,"0,0,0",-1,0,1,0,0,0,59,62,82,60,100,-19.17,42,-12.0,-1.0,-975.0,11:05:11.454303,192.168.0.112
2106,-1,-100,-100,-100,"0,0,0",-2,0,1,0,0,0,59,62,81,60,100,-19.2,42,-4.0,-9.0,-991.0,11:05:11.556592,192.168.0.112
2111,-1,-100,-100,-100,"0,0,0",-2,0,1,0,0,0,59,62,81,60,100,-19.25,42,-7.0,-13.0,-1002.0,11:05:11.658445,192.168.0.112
2116,-1,-100,-100,-100,"0,0,0",-1,0,1,0,0,0,60,61,81,60,100,-19.2,42,-20.0,-4.0,-1009.0,11:05:11.760542,192.168.0.112
2121,-1,-100,-100,-100,"0,0,0",-1,0,1,0,0,0,60,61,82,60,100,-19.22,42,11.0,-27.0,-979.0,11:05:11.862454,192.168.0.112
2126,-1,-100,-100,-100,"0,0,0",-1,0,1,0,0,0,60,61,82,60,100,-19.13,42,-10.0,-5.0,-994.0,11:05:11.964839,192.168.0.112
2131,-1,-100,-100,-100,"0,0,0",-1,0,2,0,0,0,60,61,81,60,100,-19.12,42,-10.0,9.0,-1003.0,11:05:12.067455,192.168.0.112
2136,-1,-100,-100,-100,"0,0,0",-1,0,2,0,0,0,60,61,81,60,100,-19.23,42,-13.0,4.0,-993.0,11:05:12.169641,192.168.0.112
2142,-1,-100,-100,-100,"0,0,0",-1,0,1,0,0,0,60,61,81,60,100,-19.18,42,-7.0,-25.0,-996.0,11:05:12.272178,192.168.0.112
2147,-1,-100,-100,-100,"0,0,0",-1,0,1,0,0,0,60,61,81,60,100,-19.2,42,0.0,-18.0,-1023.0,11:05:12.374526,192.168.0.112
2152,-1,-100,-100,-100,"0,0,0",-1,0,1,0,0,0,60,61,81,60,100,-19.21,43,3.0,-20.0,-997.0,11:05:12.476800,192.168.0.112
2157,-1,-100,-100,-100,"0,0,0",-1,0,1,0,0,0,60,61,81,60,100,-19.24,43,-6.0,-3.0,-991.0,11:05:12.579340,192.168.0.112
2162,-1,-100,-100,-100,"0,0,0",-1,0,1,0,0,0,60,61,81,60,100,-19.29,43,-4.0,-11.0,-1021.0,11:05:12.678544,192.168.0.112
2167,-1,-100,-100,-100,"0,0,0",-1,0,1,0,0,0,60,62,81,60,100,-19.27,43,-24.0,-2.0,-1024.0,11:05:12.784389,192.168.0.112
2172,-1,-100,-100,-100,"0,0,0",-1,0,1,0,0,0,60,62,80,60,100,-19.19,43,-3.0,-9.0,-1001.0,11:05:12.882444,192.168.0.112
2177,-1,-100,-100,-100,"0,0,0",-2,0,1,0,0,0,60,62,80,60,100,-19.18,43,-10.0,5.0,-1008.0,11:05:12.984832,192.168.0.112
2182,-1,-100,-100,-100,"0,0,0",-1,0,1,0,0,0,60,62,80,60,100,-19.2,43,-3.0,3.0,-988.0,11:05:13.091393,192.168.0.112
2187,-1,-100,-100,-100,"0,0,0",-1,0,1,0,0,0,60,62,80,60,100,-19.15,43,2.0,1.0,-998.0,11:05:13.188658,192.168.0.112
2192,-1,-100,-100,-100,"0,0,0",-1,0,1,0,0,0,60,62,80,60,100,-19.2,43,-15.0,-7.0,-986.0,11:05:13.290826,192.168.0.112
2197,-1,-100,-100,-100,"0,0,0",-1,0,1,0,0,0,60,62,80,60,100,-19.21,43,-6.0,13.0,-1002.0,11:05:13.392366,192.168.0.112
2202,-1,-100,-100,-100,"0,0,0",-1,0,1,0,0,0,60,62,80,60,100,-19.07,44,8.0,-10.0,-994.0,11:05:13.494530,192.168.0.112
2208,-1,-100,-100,-100,"0,0,0",-1,0,1,0,0,0,60,62,80,60,100,-19.13,44,-2.0,6.0,-998.0,11:05:13.596161,192.168.0.112
2213,-1,-100,-100,-100,"0,0,0",-1,0,1,0,0,0,60,62,80,60,100,-19.19,44,6.0,0.0,-1004.0,11:05:13.698328,192.168.0.112
2218,-1,-100,-100,-100,"0,0,0",-1,0,1,0,0,0,60,62,80,60,100,-19.2,44,-7.0,-1.0,-986.0,11:05:13.800313,192.168.0.112
2223,-1,-100,-100,-100,"0,0,0",-1,0,1,0,0,0,60,62,80,60,100,-19.18,44,20.0,-15.0,-995.0,11:05:13.902451,192.168.0.112
2228,-1,-100,-100,-100,"0,0,0",0,0,1,0,0,0,60,62,80,60,100,-19.24,44,5.0,8.0,-999.0,11:05:14.015019,192.168.0.112
2233,-1,-100,-100,-100,"0,0,0",0,0,1,0,0,0,60,62,79,60,100,-19.24,44,-1.0,4.0,-993.0,11:05:14.106450,192.168.0.112
2238,-1,-100,-100,-100,"0,0,0",0,0,1,-1,0,0,60,62,78,60,100,-19.22,44,8.0,4.0,-1009.0,11:05:14.208320,192.168.0.112
2243,-1,-100,-100,-100,"0,0,0",0,0,1,-1,0,0,60,62,79,60,100,-19.26,44,-3.0,16.0,-1015.0,11:05:14.310369,192.168.0.112
2248,-1,-100,-100,-100,"0,0,0",0,0,1,-1,0,0,60,62,78,60,100,-19.18,44,-1.0,21.0,-980.0,11:05:14.412323,192.168.0.112
2253,-1,-100,-100,-100,"0,0,0",0,0,1,0,0,0,60,62,78,60,100,-19.21,45,-1.0,11.0,-996.0,11:05:14.514303,192.168.0.112
2259,-1,-100,-100,-100,"0,0,0",0,0,1,0,0,0,60,62,78,60,100,-19.31,45,-7.0,3.0,-1016.0,11:05:14.616330,192.168.0.112
2264,-1,-100,-100,-100,"0,0,0",0,0,1,0,0,0,60,62,78,60,100,-19.42,45,8.0,3.0,-1013.0,11:05:14.717839,192.168.0.112
2269,-1,-100,-100,-100,"0,0,0",0,0,1,0,0,0,60,62,79,60,100,-19.35,45,-8.0,1.0,-1035.0,11:05:14.819723,192.168.0.112
2274,-1,-100,-100,-100,"0,0,0",0,0,1,0,0,0,60,62,78,60,100,-19.3,45,3.0,-11.0,-1001.0,11:05:14.922019,192.168.0.112
2279,-1,-100,-100,-100,"0,0,0",-1,0,1,0,0,0,60,62,79,60,100,-19.45,45,-15.0,0.0,-1008.0,11:05:15.024309,192.168.0.112
2281,-1,-100,-100,-100,"0,0,0",-1,0,1,0,0,0,60,62,79,60,100,-19.36,45,-9.0,-17.0,-979.0,11:05:15.075326,192.168.0.112
2286,-1,-100,-100,-100,"0,0,0",-1,0,1,0,0,0,60,62,79,60,100,-19.4,45,-13.0,-6.0,-988.0,11:05:15.177277,192.168.0.112
2291,-1,-100,-100,-100,"0,0,0",-2,0,1,0,0,0,60,62,80,60,100,-19.27,45,-21.0,6.0,-997.0,11:05:15.279305,192.168.0.112
2296,-1,-100,-100,-100,"0,0,0",-2,0,1,0,0,0,60,62,80,60,100,-19.42,45,-15.0,5.0,-980.0,11:05:15.381339,192.168.0.112
2301,-1,-100,-100,-100,"0,0,0",-1,0,1,0,0,0,60,62,80,60,100,-19.34,46,-7.0,2.0,-989.0,11:05:15.483143,192.168.0.112
2306,-1,-100,-100,-100,"0,0,0",-1,0,1,0,0,0,60,62,79,60,100,-19.39,46,-13.0,0.0,-1002.0,11:05:15.585433,192.168.0.112
2311,-1,-100,-100,-100,"0,0,0",-2,0,1,0,0,0,60,62,79,60,100,-19.39,46,-27.0,8.0,-1003.0,11:05:15.687304,192.168.0.112
2316,-1,-100,-100,-100,"0,0,0",-1,0,1,0,0,0,60,63,79,60,100,-19.34,46,-13.0,-9.0,-1010.0,11:05:15.789392,192.168.0.112
2322,-1,-100,-100,-100,"0,0,0",-1,0,1,0,0,0,60,63,79,60,100,-19.28,46,0.0,-2.0,-1000.0,11:05:15.891243,192.168.0.112
2327,-1,-100,-100,-100,"0,0,0",-1,0,1,0,0,0,60,63,80,60,100,-19.27,46,-6.0,-7.0,-983.0,11:05:15.993141,192.168.0.112
2332,-1,-100,-100,-100,"0,0,0",0,1,1,0,0,0,60,63,79,60,100,-19.25,46,-7.0,2.0,-1002.0,11:05:16.095291,192.168.0.112
2337,-1,-100,-100,-100,"0,0,0",0,1,1,0,0,0,60,63,79,60,100,-19.31,46,-15.0,3.0,-1021.0,11:05:16.197180,192.168.0.112
2342,-1,-100,-100,-100,"0,0,0",-1,0,1,0,0,0,60,63,78,60,100,-19.37,46,-16.0,-8.0,-1021.0,11:05:16.299272,192.168.0.112
2347,-1,-100,-100,-100,"0,0,0",-1,0,1,0,0,0,60,63,78,60,100,-19.34,47,-11.0,-11.0,-994.0,11:05:16.401046,192.168.0.112
2352,-1,-100,-100,-100,"0,0,0",-1,0,1,0,0,0,60,63,78,60,100,-19.38,47,-17.0,-2.0,-993.0,11:05:16.503311,192.168.0.112
2357,-1,-100,-100,-100,"0,0,0",-1,0,2,0,0,0,60,63,78,60,100,-19.37,47,-21.0,11.0,-984.0,11:05:16.605358,192.168.0.112
2362,-1,-100,-100,-100,"0,0,0",-1,0,2,0,0,0,60,63,77,60,100,-19.33,47,-11.0,4.0,-1001.0,11:05:16.707064,192.168.0.112
2367,-1,-100,-100,-100,"0,0,0",-1,0,2,0,0,0,60,62,78,60,100,-19.32,47,-4.0,11.0,-1017.0,11:05:16.809312,192.168.0.112
2373,-1,-100,-100,-100,"0,0,0",0,0,2,0,0,0,60,62,77,60,100,-19.26,47,0.0,16.0,-1013.0,11:05:16.911394,192.168.0.112
2377,-1,-100,-100,-100,"0,0,0",0,0,1,0,0,0,60,62,77,60,100,-19.22,47,4.0,16.0,-1007.0,11:05:17.013032,192.168.0.112
2383,-1,-100,-100,-100,"0,0,0",0,0,1,0,0,0,60,62,77,60,100,-19.21,47,-5.0,18.0,-1023.0,11:05:17.115307,192.168.0.112
2388,-1,-100,-100,-100,"0,0,0",0,0,1,0,0,0,60,62,77,60,100,-19.3,47,-8.0,26.0,-1037.0,11:05:17.217213,192.168.0.112
2393,-1,-100,-100,-100,"0,0,0",0,-1,0,0,0,0,60,62,77,60,100,-19.24,47,-11.0,-4.0,-1022.0,11:05:17.319734,192.168.0.112
2398,-1,-100,-100,-100,"0,0,0",0,-1,0,0,0,0,60,62,78,60,100,-19.32,48,-14.0,9.0,-1000.0,11:05:17.421114,192.168.0.112
2403,-1,-100,-100,-100,"0,0,0",-1,-1,0,0,0,0,60,62,79,60,100,-19.27,48,-41.0,19.0,-993.0,11:05:17.522979,192.168.0.112
2408,-1,-100,-100,-100,"0,0,0",-1,-1,0,0,0,0,60,62,80,60,100,-19.25,48,-37.0,11.0,-970.0,11:05:17.625130,192.168.0.112
2413,-1,-100,-100,-100,"0,0,0",-1,-1,0,0,0,0,60,62,80,60,100,-19.2,48,-24.0,-8.0,-980.0,11:05:17.727175,192.168.0.112
2418,-1,-100,-100,-100,"0,0,0",-2,-1,0,0,0,0,60,62,80,60,100,-19.15,48,-21.0,0.0,-990.0,11:05:17.829206,192.168.0.112
2423,-1,-100,-100,-100,"0,0,0",-2,0,0,0,0,0,60,62,81,60,100,-19.33,48,-25.0,1.0,-994.0,11:05:17.931199,192.168.0.112
2428,-1,-100,-100,-100,"0,0,0",-2,0,1,0,0,0,60,62,81,60,100,-19.4,48,-7.0,-25.0,-1014.0,11:05:18.033058,192.168.0.112
2433,-1,-100,-100,-100,"0,0,0",-2,0,1,0,0,0,60,62,81,60,100,-19.46,48,-42.0,-12.0,-982.0,11:05:18.134978,192.168.0.112
2439,-1,-100,-100,-100,"0,0,0",-3,0,1,0,0,0,60,62,81,60,100,-19.44,48,-45.0,7.0,-970.0,11:05:18.237203,192.168.0.112
2444,-1,-100,-100,-100,"0,0,0",-3,1,1,0,0,0,60,62,81,60,100,-19.37,48,-43.0,10.0,-997.0,11:05:18.342727,192.168.0.112
2449,-1,-100,-100,-100,"0,0,0",-3,1,1,0,0,0,60,62,81,60,100,-19.53,49,-53.0,9.0,-998.0,11:05:18.441335,192.168.0.112
2454,-1,-100,-100,-100,"0,0,0",-3,0,1,0,0,0,60,62,81,60,100,-19.5,49,-26.0,-18.0,-1011.0,11:05:18.543621,192.168.0.112
2456,-1,-100,-100,-100,"0,0,0",-3,0,1,0,0,0,60,62,80,60,100,-19.43,49,-39.0,-26.0,-1015.0,11:05:18.594572,192.168.0.112
2461,-1,-100,-100,-100,"0,0,0",-3,1,1,0,0,0,60,62,80,60,100,-19.48,49,-37.0,-17.0,-1010.0,11:05:18.696575,192.168.0.112
2466,-1,-100,-100,-100,"0,0,0",-3,1,1,0,0,0,60,62,81,60,100,-19.45,49,-42.0,-15.0,-1010.0,11:05:18.798540,192.168.0.112
2471,-1,-100,-100,-100,"0,0,0",-2,1,1,0,0,0,60,62,80,60,100,-19.4,49,-34.0,-5.0,-1004.0,11:05:18.900793,192.168.0.112
2476,-1,-100,-100,-100,"0,0,0",-3,1,2,0,0,0,60,62,80,60,100,-19.33,49,-34.0,7.0,-998.0,11:05:19.002722,192.168.0.112
2481,-1,-100,-100,-100,"0,0,0",-3,1,2,0,0,0,60,62,80,60,100,-19.41,49,-20.0,13.0,-989.0,11:05:19.104966,192.168.0.112
2487,-1,-100,-100,-100,"0,0,0",-2,0,2,0,0,0,60,62,80,60,100,-19.42,49,-25.0,12.0,-986.0,11:05:19.207093,192.168.0.112
2492,-1,-100,-100,-100,"0,0,0",-2,0,2,0,0,0,60,62,80,60,100,-19.42,49,-14.0,3.0,-1001.0,11:05:19.308862,192.168.0.112
2497,-1,-100,-100,-100,"0,0,0",-2,0,1,0,0,0,60,62,79,60,100,-19.39,50,-17.0,20.0,-1029.0,11:05:19.410946,192.168.0.112
2502,-1,-100,-100,-100,"0,0,0",-1,0,1,0,0,0,60,62,79,60,100,-19.4,50,-22.0,33.0,-1026.0,11:05:19.512909,192.168.0.112
2507,-1,-100,-100,-100,"0,0,0",-1,-1,1,0,0,0,60,62,79,60,100,-19.4,50,-41.0,36.0,-989.0,11:05:19.615085,192.168.0.112
2512,-1,-100,-100,-100,"0,0,0",-1,-1,1,0,0,0,60,62,80,60,100,-19.54,50,-7.0,-20.0,-983.0,11:05:19.716394,192.168.0.112
2517,-1,-100,-100,-100,"0,0,0",-2,-1,0,0,0,0,60,62,81,60,100,-19.44,50,-33.0,-22.0,-990.0,11:05:19.818996,192.168.0.112
2522,-1,-100,-100,-100,"0,0,0",-2,0,1,0,0,0,60,62,81,60,100,-19.55,50,-36.0,-7.0,-1010.0,11:05:19.921192,192.168.0.112
2527,-1,-100,-100,-100,"0,0,0",-1,0,1,0,0,0,60,62,81,60,100,-19.56,50,-64.0,7.0,-1004.0,11:05:20.023141,192.168.0.112
2532,-1,-100,-100,-100,"0,0,0",-2,0,1,0,0,0,60,62,81,60,100,-19.49,50,-40.0,6.0,-1002.0,11:05:20.125201,192.168.0.112
2537,-1,-100,-100,-100,"0,0,0",-3,0,1,0,0,0,60,62,82,60,100,-19.46,50,-33.0,-8.0,-1020.0,11:05:20.227829,192.168.0.112
2542,-1,-100,-100,-100,"0,0,0",-3,0,1,0,0,0,60,62,82,60,100,-19.44,50,-45.0,-11.0,-1005.0,11:05:20.329825,192.168.0.112
2547,-1,-100,-100,-100,"0,0,0",-3,0,1,0,0,0,60,62,82,60,100,-19.49,51,-28.0,-19.0,-985.0,11:05:20.432333,192.168.0.112
2552,-1,-100,-100,-100,"0,0,0",-2,0,1,0,0,0,60,62,82,60,100,-19.47,51,-29.0,-4.0,-998.0,11:05:20.534395,192.168.0.112
2558,-1,-100,-100,-100,"0,0,0",-2,0,1,0,0,0,60,62,82,60,100,-19.5,51,-39.0,4.0,-993.0,11:05:20.637482,192.168.0.112
2563,-1,-100,-100,-100,"0,0,0",-2,0,1,0,0,0,60,62,82,60,100,-19.37,51,-31.0,-14.0,-986.0,11:05:20.738202,192.168.0.112
2568,-1,-100,-100,-100,"0,0,0",-1,1,1,0,0,0,61,63,82,60,100,-19.38,51,-51.0,13.0,-998.0,11:05:20.840517,192.168.0.112
