,mid,x,y,z,mpry,pitch,roll,yaw,vgx,vgy,vgz,templ,temph,tof,h,bat,baro,time,agx,agy,agz,timestamp,address
2,-1,-100,-100,-100,"0,0,0",0,0,0,0,0,0,60,63,10,0,100,-20.59,0,0.0,-6.0,-999.0,11:04:29.294062,192.168.0.113
7,-1,-100,-100,-100,"0,0,0",0,0,0,0,0,0,60,63,10,0,100,-20.62,0,0.0,-4.0,-1000.0,11:04:29.396261,192.168.0.113
12,-1,-100,-100,-100,"0,0,0",0,0,0,0,0,0,60,63,10,0,100,-20.63,0,-1.0,-1.0,-1001.0,11:04:29.498250,192.168.0.113
17,-1,-100,-100,-100,"0,0,0",0,0,0,0,0,0,60,63,10,0,100,-20.63,0,2.0,-2.0,-996.0,11:04:29.600199,192.168.0.113
22,-1,-100,-100,-100,"0,0,0",0,0,0,0,0,0,60,63,10,0,100,-20.63,0,28.0,-1.0,-994.0,11:04:29.701940,192.168.0.113
27,-1,-100,-100,-100,"0,0,0",0,0,0,0,0,0,60,63,10,0,100,-20.63,0,6.0,-12.0,-991.0,11:04:29.804267,192.168.0.113
32,-1,-100,-100,-100,"0,0,0",0,0,0,0,0,0,61,63,10,0,100,-20.63,0,-6.0,-7.0,-1165.0,11:04:29.906237,192.168.0.113
37,-1,-100,-100,-100,"0,0,0",0,0,0,0,0,1,61,63,10,0,100,-20.63,0,1.0,-9.0,-1365.0,11:04:30.008167,192.168.0.113
42,-1,-100,-100,-100,"0,0,0",0,0,0,0,0,4,61,63,10,0,100,-20.63,0,-7.0,-21.0,-1255.0,11:04:30.110459,192.168.0.113
47,-1,-100,-100,-100,"0,0,0",0,0,0,0,0,6,61,63,16,0,100,-20.45,0,-39.0,-30.0,-1086.0,11:04:30.212187,192.168.0.113
53,-1,-100,-100,-100,"0,0,0",0,1,0,0,0,7,61,63,25,0,100,-20.19,0,-50.0,-29.0,-1029.0,11:04:30.314143,192.168.0.113
58,-1,-100,-100,-100,"0,0,0",-1,1,0,0,0,7,61,63,32,10,100,-20.3,0,-50.0,3.0,-951.0,11:04:30.416200,192.168.0.113
63,-1,-100,-100,-100,"0,0,0",-2,1,0,1,0,7,61,63,41,20,100,-20.16,1,-79.0,-28.0,-947.0,11:04:30.518080,192.168.0.113
69,-1,-100,-100,-100,"0,0,0",-3,1,0,1,0,6,61,63,49,20,100,-20.04,1,-69.0,-3.0,-917.0,11:04:30.620147,192.168.0.113
74,-1,-100,-100,-100,"0,0,0",-4,1,0,1,0,5,61,63,57,30,100,-20.07,1,-43.0,-3.0,-881.0,11:04:30.722040,192.168.0.113
78,-1,-100,-100,-100,"0,0,0",-4,0,0,0,0,4,61,63,63,30,100,-19.79,1,-35.0,-1.0,-895.0,11:04:30.824414,192.168.0.113
80,-1,-100,-100,-100,"0,0,0",-3,0,0,0,0,3,61,64,68,30,100,-19.87,1,-23.0,-8.0,-923.0,11:04:30.875049,192.168.0.113
85,-1,-100,-100,-100,"0,0,0",-3,0,0,0,0,2,61,64,73,40,100,-19.78,1,-35.0,17.0,-927.0,11:04:30.977052,192.168.0.113
91,-1,-100,-100,-100,"0,0,0",-3,0,0,0,0,1,61,64,76,40,100,-19.79,1,-3.0,-5.0,-927.0,11:04:31.079051,192.168.0.113
96,-1,-100,-100,-100,"0,0,0",-2,-1,0,0,0,1,61,64,79,40,100,-19.76,1,-12.0,-36.0,-914.0,11:04:31.181010,192.168.0.113
101,-1,-100,-100,-100,"0,0,0",-1,-1,0,0,0,0,61,64,82,40,100,-19.67,1,-27.0,-11.0,-946.0,11:04:31.282958,192.168.0.113
106,-1,-100,-100,-100,"0,0,0",-1,0,0,0,0,0,61,64,84,50,100,-19.67,1,-19.0,-17.0,-962.0,11:04:31.384947,192.168.0.113
111,-1,-100,-100,-100,"0,0,0",-1,0,0,0,0,0,61,64,86,50,100,-19.59,2,-9.0,-2.0,-981.0,11:04:31.486912,192.168.0.113
116,-1,-100,-100,-100,"0,0,0",-1,1,0,0,0,0,61,64,88,50,100,-19.57,2,-14.0,-4.0,-963.0,11:04:31.588832,192.168.0.113
121,-1,-100,-100,-100,"0,0,0",-1,1,0,0,0,0,61,64,89,50,100,-19.69,2,-21.0,9.0,-990.0,11:04:31.690880,192.168.0.113
127,-1,-100,-100,-100,"0,0,0",-1,0,0,0,0,0,61,64,91,50,100,-19.66,2,-17.0,11.0,-1006.0,11:04:31.792882,192.168.0.113
132,-1,-100,-100,-100,"0,0,0",-1,0,0,0,0,0,61,64,92,50,100,-19.5,2,-18.0,18.0,-971.0,11:04:31.894811,192.168.0.113
137,-1,-100,-100,-100,"0,0,0",-1,0,0,0,0,0,61,64,93,50,100,-19.48,2,-18.0,1.0,-955.0,11:04:31.996905,192.168.0.113
142,-1,-100,-100,-100,"0,0,0",-1,-1,0,0,0,0,61,64,93,60,100,-19.58,2,0.0,-21.0,-951.0,11:04:32.098807,192.168.0.113
147,-1,-100,-100,-100,"0,0,0",-2,0,0,0,0,0,61,64,94,60,100,-19.52,2,-11.0,1.0,-973.0,11:04:32.200929,192.168.0.113
152,-1,-100,-100,-100,"0,0,0",-1,0,0,0,0,0,61,64,93,60,100,-19.56,2,0.0,-11.0,-982.0,11:04:32.302632,192.168.0.113
157,-1,-100,-100,-100,"0,0,0",0,0,0,0,0,0,61,64,92,60,100,-19.49,2,-21.0,1.0,-979.0,11:04:32.404769,192.168.0.113
161,-1,-100,-100,-100,"0,0,0",0,0,0,0,0,0,61,64,91,60,100,-19.5,3,-8.0,-19.0,-1004.0,11:04:32.506810,192.168.0.113
167,-1,-100,-100,-100,"0,0,0",0,0,0,0,0,0,61,64,91,60,100,-19.55,3,-16.0,-13.0,-1005.0,11:04:32.608404,192.168.0.113
172,-1,-100,-100,-100,"0,0,0",0,0,0,0,0,0,61,64,90,60,100,-19.59,3,-25.0,-9.0,-1011.0,11:04:32.710767,192.168.0.113
177,-1,-100,-100,-100,"0,0,0",0,0,0,0,0,0,61,64,89,60,100,-19.46,3,-22.0,7.0,-1002.0,11:04:32.812628,192.168.0.113
183,-1,-100,-100,-100,"0,0,0",0,0,0,0,0,0,61,64,89,60,100,-19.54,3,-3.0,0.0,-992.0,11:04:32.914644,192.168.0.113
188,-1,-100,-100,-100,"0,0,0",0,0,0,0,0,0,61,64,88,60,100,-19.5,3,-17.0,18.0,-988.0,11:04:33.016710,192.168.0.113
193,-1,-100,-100,-100,"0,0,0",0,0,0,0,0,0,61,64,88,60,100,-19.56,3,7.0,0.0,-962.0,11:04:33.118753,192.168.0.113
198,-1,-100,-100,-100,"0,0,0",0,0,0,0,0,0,61,64,86,50,100,-19.54,3,-26.0,12.0,-1005.0,11:04:33.220247,192.168.0.113
203,-1,-100,-100,-100,"0,0,0",0,0,0,0,0,0,61,64,86,50,100,-19.47,3,0.0,24.0,-1017.0,11:04:33.322375,192.168.0.113
205,-1,-100,-100,-100,"0,0,0",0,0,0,0,0,0,61,64,84,50,100,-19.56,3,8.0,-3.0,-984.0,11:04:33.373719,192.168.0.113
210,-1,-100,-100,-100,"0,0,0",0,0,0,0,0,0,61,64,83,50,100,-19.47,4,0.0,21.0,-1001.0,11:04:33.475572,192.168.0.113
215,-1,-100,-100,-100,"0,0,0",0,-1,0,0,0,0,61,64,83,50,100,-19.48,4,-7.0,0.0,-1000.0,11:04:33.577588,192.168.0.113
221,-1,-100,-100,-100,"0,0,0",0,-1,0,0,0,0,61,64,82,50,100,-19.56,4,-28.0,34.0,-1008.0,11:04:33.679637,192.168.0.113
226,-1,-100,-100,-100,"0,0,0",0,-1,0,0,0,0,61,64,81,50,100,-19.51,4,3.0,5.0,-1015.0,11:04:33.781356,192.168.0.113
231,-1,-100,-100,-100,"0,0,0",0,-1,0,0,0,0,61,64,80,50,100,-19.56,4,-21.0,23.0,-1002.0,11:04:33.883475,192.168.0.113
236,-1,-100,-100,-100,"0,0,0",0,-1,0,0,0,0,61,64,79,50,100,-19.57,4,-6.0,3.0,-1011.0,11:04:33.985459,192.168.0.113
241,-1,-100,-100,-100,"0,0,0",0,-1,0,0,0,0,61,64,78,50,100,-19.52,4,-3.0,7.0,-1018.0,11:04:34.087522,192.168.0.113
246,-1,-100,-100,-100,"0,0,0",0,-1,0,0,0,0,61,64,79,50,100,-19.58,4,-18.0,33.0,-1014.0,11:04:34.189379,192.168.0.113
251,-1,-100,-100,-100,"0,0,0",0,-1,0,0,0,0,61,64,78,50,100,-19.65,4,22.0,0.0,-1008.0,11:04:34.291163,192.168.0.113
257,-1,-100,-100,-100,"0,0,0",0,-1,0,0,0,0,61,64,77,50,100,-19.61,4,-26.0,42.0,-1006.0,11:04:34.393407,192.168.0.113
262,-1,-100,-100,-100,"0,0,0",0,-1,0,0,0,0,61,64,77,50,100,-19.62,5,0.0,19.0,-997.0,11:04:34.495253,192.168.0.113
267,-1,-100,-100,-100,"0,0,0",0,-1,0,0,0,0,61,64,77,50,100,-19.71,5,-4.0,26.0,-999.0,11:04:34.597356,192.168.0.113
272,-1,-100,-100,-100,"0,0,0",0,-1,0,0,0,0,61,64,77,50,100,-19.66,5,-8.0,12.0,-984.0,11:04:34.698850,192.168.0.113
277,-1,-100,-100,-100,"0,0,0",0,-1,0,0,0,0,61,64,77,50,100,-19.7,5,0.0,30.0,-999.0,11:04:34.801402,192.168.0.113
282,-1,-100,-100,-100,"0,0,0",0,-1,0,0,0,0,62,64,77,50,100,-19.71,5,12.0,21.0,-988.0,11:04:34.904500,192.168.0.113
287,-1,-100,-100,-100,"0,0,0",0,-1,0,0,0,0,62,64,77,50,100,-19.7,5,17.0,20.0,-985.0,11:04:35.005185,192.168.0.113
292,-1,-100,-100,-100,"0,0,0",0,-1,0,0,0,0,62,64,77,50,100,-19.63,5,8.0,17.0,-1009.0,11:04:35.107730,192.168.0.113
297,-1,-100,-100,-100,"0,0,0",0,-1,0,0,0,0,62,64,78,50,100,-19.61,5,-5.0,32.0,-989.0,11:04:35.209241,192.168.0.113
302,-1,-100,-100,-100,"0,0,0",0,-2,0,0,0,0,62,64,77,50,100,-19.53,5,6.0,23.0,-973.0,11:04:35.311193,192.168.0.113
307,-1,-100,-100,-100,"0,0,0",0,-1,0,0,0,0,62,64,78,50,100,-19.6,5,-1.0,27.0,-1001.0,11:04:35.413384,192.168.0.113
312,-1,-100,-100,-100,"0,0,0",0,-1,0,0,0,0,62,64,78,50,100,-19.65,6,12.0,27.0,-1009.0,11:04:35.514882,192.168.0.113
317,-1,-100,-100,-100,"0,0,0",0,-1,0,0,0,0,62,64,78,50,100,-19.59,6,2.0,4.0,-1002.0,11:04:35.617085,192.168.0.113
322,-1,-100,-100,-100,"0,0,0",0,-1,0,0,0,0,62,64,78,50,100,-19.56,6,9.0,17.0,-980.0,11:04:35.719108,192.168.0.113
327,-1,-100,-100,-100,"0,0,0",0,-1,0,0,0,0,62,64,79,50,100,-19.59,6,8.0,20.0,-992.0,11:04:35.821048,192.168.0.113
332,-1,-100,-100,-100,"0,0,0",0,-1,0,0,0,0,61,65,80,50,100,-19.64,6,1.0,22.0,-997.0,11:04:35.922866,192.168.0.113
335,-1,-100,-100,-100,"0,0,0",1,-1,0,0,0,0,61,65,80,50,100,-19.59,6,-5.0,32.0,-1016.0,11:04:35.974095,192.168.0.113
340,-1,-100,-100,-100,"0,0,0",1,-1,0,0,0,0,61,65,80,50,100,-19.61,6,10.0,17.0,-1015.0,11:04:36.076191,192.168.0.113
346,-1,-100,-100,-100,"0,0,0",0,-1,0,0,0,0,61,65,81,50,100,-19.64,6,10.0,13.0,-983.0,11:04:36.178097,192.168.0.113
351,-1,-100,-100,-100,"0,0,0",0,-1,0,0,0,0,61,65,80,50,100,-19.72,6,0.0,-8.0,-1006.0,11:04:36.279954,192.168.0.113
356,-1,-100,-100,-100,"0,0,0",0,0,0,0,0,0,61,65,81,50,100,-19.65,6,5.0,11.0,-995.0,11:04:36.382013,192.168.0.113
361,-1,-100,-100,-100,"0,0,0",0,0,0,0,0,0,61,65,81,50,100,-19.61,7,-14.0,7.0,-1011.0,11:04:36.483987,192.168.0.113
366,-1,-100,-100,-100,"0,0,0",0,0,0,0,0,0,61,65,81,50,100,-19.57,7,-4.0,2.0,-960.0,11:04:36.585549,192.168.0.113
371,-1,-100,-100,-100,"0,0,0",0,0,0,0,0,0,61,65,81,50,100,-19.58,7,-4.0,2.0,-990.0,11:04:36.688674,192.168.0.113
376,-1,-100,-100,-100,"0,0,0",0,0,0,0,0,0,61,65,81,50,100,-19.56,7,12.0,-7.0,-1000.0,11:04:36.789871,192.168.0.113
381,-1,-100,-100,-100,"0,0,0",0,0,0,0,0,0,61,64,81,50,100,-19.62,7,0.0,-12.0,-995.0,11:04:36.892176,192.168.0.113
386,-1,-100,-100,-100,"0,0,0",0,0,0,0,0,0,61,64,81,50,100,-19.66,7,-7.0,6.0,-1002.0,11:04:36.994005,192.168.0.113
391,-1,-100,-100,-100,"0,0,0",0,0,0,0,0,0,61,64,81,50,100,-19.66,7,-2.0,3.0,-998.0,11:04:37.095897,192.168.0.113
396,-1,-100,-100,-100,"0,0,0",0,0,0,0,0,0,61,64,82,50,100,-19.63,7,-3.0,-1.0,-1008.0,11:04:37.197898,192.168.0.113
401,-1,-100,-100,-100,"0,0,0",0,0,0,0,0,0,61,64,82,50,100,-19.71,7,5.0,0.0,-1020.0,11:04:37.302506,192.168.0.113
407,-1,-100,-100,-100,"0,0,0",0,0,0,0,0,0,61,64,82,50,100,-19.62,7,0.0,-9.0,-990.0,11:04:37.401848,192.168.0.113
412,-1,-100,-100,-100,"0,0,0",0,0,0,0,0,0,61,64,82,50,100,-19.63,8,-5.0,-9.0,-974.0,11:04:37.503644,192.168.0.113
416,-1,-100,-100,-100,"0,0,0",0,0,0,0,0,0,61,64,82,50,100,-19.64,8,8.0,-6.0,-983.0,11:04:37.605930,192.168.0.113
422,-1,-100,-100,-100,"0,0,0",0,0,0,0,0,0,61,64,82,50,100,-19.63,8,27.0,-17.0,-998.0,11:04:37.707992,192.168.0.113
427,-1,-100,-100,-100,"0,0,0",0,0,0,0,0,0,61,64,82,50,100,-19.73,8,13.0,-19.0,-1007.0,11:04:37.809816,192.168.0.113
432,-1,-100,-100,-100,"0,0,0",0,0,0,0,0,0,62,65,82,50,100,-19.57,8,-2.0,-14.0,-1011.0,11:04:37.911600,192.168.0.113
437,-1,-100,-100,-100,"0,0,0",0,1,0,0,0,0,62,65,82,50,100,-19.64,8,-1.0,-22.0,-1002.0,11:04:38.013858,192.168.0.113
442,-1,-100,-100,-100,"0,0,0",0,0,0,0,0,0,62,65,82,50,100,-19.64,8,-14.0,-22.0,-985.0,11:04:38.115820,192.168.0.113
447,-1,-100,-100,-100,"0,0,0",0,0,0,0,0,0,62,65,83,50,100,-19.67,8,-14.0,-30.0,-974.0,11:04:38.218375,192.168.0.113
451,-1,-100,-100,-100,"0,0,0",0,0,0,0,0,0,62,65,82,50,100,-19.5,8,-21.0,-37.0,-996.0,11:04:38.319904,192.168.0.113
457,-1,-100,-100,-100,"0,0,0",0,0,0,0,0,0,62,65,81,50,100,-19.48,8,-9.0,-38.0,-982.0,11:04:38.421501,192.168.0.113
462,-1,-100,-100,-100,"0,0,0",0,1,0,0,0,0,62,65,81,50,100,-19.72,9,11.0,-35.0,-1001.0,11:04:38.523709,192.168.0.113
465,-1,-100,-100,-100,"0,0,0",0,1,0,0,0,0,62,65,82,50,100,-19.76,9,-1.0,-16.0,-1009.0,11:04:38.574636,192.168.0.113
470,-1,-100,-100,-100,"0,0,0",0,1,0,0,0,0,62,65,82,50,100,-19.62,9,-39.0,-20.0,-1016.0,11:04:38.676580,192.168.0.113
475,-1,-100,-100,-100,"0,0,0",0,1,0,0,0,0,62,65,81,50,100,-19.63,9,-48.0,8.0,-1006.0,11:04:38.778787,192.168.0.113
481,-1,-100,-100,-100,"0,0,0",-1,1,0,0,0,0,61,65,81,50,100,-19.81,9,-31.0,4.0,-990.0,11:04:38.880523,192.168.0.113
486,-1,-100,-100,-100,"0,0,0",-1,0,0,0,0,0,61,65,82,50,100,-19.81,9,-35.0,10.0,-1024.0,11:04:38.982544,192.168.0.113
491,-1,-100,-100,-100,"0,0,0",-1,0,0,0,0,0,61,65,83,50,100,-19.7,9,-10.0,14.0,-982.0,11:04:39.084378,192.168.0.113
496,-1,-100,-100,-100,"0,0,0",-1,0,0,0,0,0,61,65,83,50,100,-19.64,9,-9.0,-21.0,-1005.0,11:04:39.186485,192.168.0.113
501,-1,-100,-100,-100,"0,0,0",-1,-1,0,0,0,0,61,65,82,50,100,-19.57,9,-56.0,37.0,-1022.0,11:04:39.288267,192.168.0.113
506,-1,-100,-100,-100,"0,0,0",0,0,0,0,0,0,61,65,83,50,100,-19.57,9,31.0,-15.0,-1006.0,11:04:39.392042,192.168.0.113
511,-1,-100,-100,-100,"0,0,0",0,-1,0,0,0,0,61,65,82,50,100,-19.69,10,16.0,-25.0,-1014.0,11:04:39.492475,192.168.0.113
516,-1,-100,-100,-100,"0,0,0",0,0,0,0,0,0,61,65,82,50,100,-19.57,10,-4.0,2.0,-998.0,11:04:39.594516,192.168.0.113
521,-1,-100,-100,-100,"0,0,0",0,0,0,0,0,0,61,65,82,50,100,-19.6,10,-19.0,0.0,-995.0,11:04:39.695867,192.168.0.113
526,-1,-100,-100,-100,"0,0,0",0,0,0,0,0,0,61,65,82,50,100,-19.61,10,7.0,-22.0,-994.0,11:04:39.798519,192.168.0.113
531,-1,-100,-100,-100,"0,0,0",0,0,0,0,0,0,62,65,81,50,100,-19.67,10,-39.0,-15.0,-1011.0,11:04:39.900496,192.168.0.113
536,-1,-100,-100,-100,"0,0,0",0,0,0,0,0,0,62,65,81,50,100,-19.59,10,-5.0,10.0,-1026.0,11:04:40.002430,192.168.0.113
541,-1,-100,-100,-100,"0,0,0",0,0,0,0,0,0,62,65,81,50,100,-19.58,10,12.0,-14.0,-965.0,11:04:40.104191,192.168.0.113
546,-1,-100,-100,-100,"0,0,0",0,0,0,0,0,0,62,65,81,50,100,-19.53,10,24.0,-16.0,-1003.0,11:04:40.206346,192.168.0.113
551,-1,-100,-100,-100,"0,0,0",0,0,0,0,0,0,62,65,81,50,100,-19.63,10,11.0,-21.0,-993.0,11:04:40.308142,192.168.0.113
556,-1,-100,-100,-100,"0,0,0",1,0,0,0,0,0,62,65,81,50,100,-19.59,10,10.0,-31.0,-987.0,11:04:40.410031,192.168.0.113
561,-1,-100,-100,-100,"0,0,0",1,0,0,0,0,0,62,65,81,50,100,-19.6,11,11.0,-9.0,-1016.0,11:04:40.516341,192.168.0.113
566,-1,-100,-100,-100,"0,0,0",1,0,0,0,0,0,62,65,80,50,100,-19.62,11,21.0,-37.0,-1008.0,11:04:40.614334,192.168.0.113
570,-1,-100,-100,-100,"0,0,0",0,0,0,0,0,0,62,65,80,50,100,-19.64,11,9.0,-49.0,-988.0,11:04:40.717533,192.168.0.113
576,-1,-100,-100,-100,"0,0,0",1,1,0,0,0,0,62,65,80,50,100,-19.64,11,-1.0,-32.0,-997.0,11:04:40.818339,192.168.0.113
581,-1,-100,-100,-100,"0,0,0",1,1,0,0,0,0,62,65,81,50,100,-19.59,11,28.0,-37.0,-1022.0,11:04:40.920153,192.168.0.113
587,-1,-100,-100,-100,"0,0,0",1,1,0,0,0,0,62,65,81,50,100,-19.69,11,18.0,-44.0,-1024.0,11:04:41.022073,192.168.0.113
590,-1,-100,-100,-100,"0,0,0",1,1,0,0,0,0,62,65,81,50,100,-19.75,11,13.0,-3.0,-1023.0,11:04:41.073180,192.168.0.113
595,-1,-100,-100,-100,"0,0,0",1,1,0,0,0,0,62,65,82,50,100,-19.66,11,-7.0,-16.0,-985.0,11:04:41.175251,192.168.0.113
600,-1,-100,-100,-100,"0,0,0",1,0,0,0,0,0,62,65,82,50,100,-19.7,11,19.0,-32.0,-970.0,11:04:41.277169,192.168.0.113
605,-1,-100,-100,-100,"0,0,0",1,0,0,0,0,0,62,65,83,50,100,-19.67,11,2.0,-31.0,-983.0,11:04:41.379233,192.168.0.113
610,-1,-100,-100,-100,"0,0,0",0,0,0,0,0,0,62,65,83,50,100,-19.68,12,2.0,-20.0,-974.0,11:04:41.481223,192.168.0.113
615,-1,-100,-100,-100,"0,0,0",1,0,0,0,0,0,62,65,82,50,100,-19.72,12,11.0,-20.0,-992.0,11:04:41.585128,192.168.0.113
620,-1,-100,-100,-100,"0,0,0",0,0,0,0,0,0,62,65,82,50,100,-19.69,12,-2.0,-36.0,-993.0,11:04:41.685145,192.168.0.113
626,-1,-100,-100,-100,"0,0,0",0,1,0,0,0,0,62,65,82,50,100,-19.7,12,0.0,-19.0,-1017.0,11:04:41.787195,192.168.0.113
631,-1,-100,-100,-100,"0,0,0",0,1,0,0,0,0,62,64,81,50,100,-19.68,12,-2.0,-22.0,-1010.0,11:04:41.888914,192.168.0.113
636,-1,-100,-100,-100,"0,0,0",0,1,0,0,0,0,62,64,81,50,100,-19.68,12,7.0,-20.0,-987.0,11:04:41.991121,192.168.0.113
641,-1,-100,-100,-100,"0,0,0",0,1,0,0,0,0,62,64,81,50,100,-19.64,12,4.0,-12.0,-992.0,11:04:42.093053,192.168.0.113
646,-1,-100,-100,-100,"0,0,0",1,1,0,0,0,0,62,64,81,50,100,-19.61,12,6.0,-21.0,-1010.0,11:04:42.195028,192.168.0.113
651,-1,-100,-100,-100,"0,0,0",1,1,0,0,0,0,62,64,80,50,100,-19.79,12,-14.0,-13.0,-1010.0,11:04:42.297071,192.168.0.113
656,-1,-100,-100,-100,"0,0,0",1,1,0,0,0,0,62,64,80,50,100,-19.73,12,-5.0,-7.0,-999.0,11:04:42.398989,192.168.0.113
661,-1,-100,-100,-100,"0,0,0",1,1,0,0,0,0,62,64,80,50,100,-19.76,13,25.0,-22.0,-1008.0,11:04:42.501799,192.168.0.113
666,-1,-100,-100,-100,"0,0,0",1,1,0,0,0,0,62,64,80,50,100,-19.57,13,19.0,-36.0,-993.0,11:04:42.602804,192.168.0.113
671,-1,-100,-100,-100,"0,0,0",1,1,0,0,0,0,62,64,80,50,100,-19.53,13,12.0,-33.0,-1000.0,11:04:42.704990,192.168.0.113
676,-1,-100,-100,-100,"0,0,0",1,1,0,0,0,0,62,64,80,50,100,-19.67,13,19.0,-32.0,-1002.0,11:04:42.806967,192.168.0.113
681,-1,-100,-100,-100,"0,0,0",1,0,0,0,0,0,62,65,80,50,100,-19.57,13,32.0,-29.0,-978.0,11:04:42.909188,192.168.0.113
686,-1,-100,-100,-100,"0,0,0",1,0,0,0,0,0,62,65,80,50,100,-19.56,13,18.0,-4.0,-1029.0,11:04:43.010897,192.168.0.113
691,-1,-100,-100,-100,"0,0,0",1,0,0,0,0,0,62,65,79,50,100,-19.74,13,27.0,9.0,-1038.0,11:04:43.112916,192.168.0.113
696,-1,-100,-100,-100,"0,0,0",1,0,0,0,0,0,62,65,79,50,100,-19.72,13,5.0,5.0,-1018.0,11:04:43.214911,192.168.0.113
701,-1,-100,-100,-100,"0,0,0",1,-1,0,0,0,0,62,65,80,50,100,-19.75,13,4.0,11.0,-1006.0,11:04:43.316768,192.168.0.113
706,-1,-100,-100,-100,"0,0,0",1,0,0,0,0,0,62,65,80,50,100,-19.75,13,12.0,-12.0,-1006.0,11:04:43.418832,192.168.0.113
711,-1,-100,-100,-100,"0,0,0",1,0,0,0,0,0,62,65,80,50,100,-19.75,14,12.0,14.0,-1005.0,11:04:43.521314,192.168.0.113
716,-1,-100,-100,-100,"0,0,0",1,0,0,0,0,0,62,65,81,50,100,-19.77,14,11.0,1.0,-998.0,11:04:43.622644,192.168.0.113
719,-1,-100,-100,-100,"0,0,0",1,0,0,0,0,0,62,65,81,50,100,-19.67,14,24.0,6.0,-1008.0,11:04:43.673695,192.168.0.113
724,-1,-100,-100,-100,"0,0,0",1,-1,0,0,0,0,62,65,80,50,100,-19.67,14,22.0,0.0,-1003.0,11:04:43.775816,192.168.0.113
729,-1,-100,-100,-100,"0,0,0",1,-1,0,0,0,0,62,65,81,50,100,-19.73,14,4.0,-7.0,-980.0,11:04:43.877790,192.168.0.113
734,-1,-100,-100,-100,"0,0,0",1,-1,0,0,0,0,62,65,82,50,100,-19.79,14,26.0,-2.0,-988.0,11:04:43.979983,192.168.0.113
739,-1,-100,-100,-100,"0,0,0",2,-1,0,0,0,0,62,65,81,50,100,-19.82,14,21.0,7.0,-989.0,11:04:44.082042,192.168.0.113
744,-1,-100,-100,-100,"0,0,0",2,-1,0,0,0,0,62,65,81,50,100,-19.7,14,10.0,18.0,-989.0,11:04:44.183957,192.168.0.113
749,-1,-100,-100,-100,"0,0,0",1,-1,0,0,0,0,62,65,81,50,100,-19.68,14,23.0,2.0,-990.0,11:04:44.285719,192.168.0.113
755,-1,-100,-100,-100,"0,0,0",2,-1,0,0,0,0,62,65,81,50,100,-19.69,14,20.0,14.0,-994.0,11:04:44.388025,192.168.0.113
760,-1,-100,-100,-100,"0,0,0",2,-1,0,0,0,0,62,65,81,50,100,-19.75,15,25.0,13.0,-983.0,11:04:44.489812,192.168.0.113
765,-1,-100,-100,-100,"0,0,0",2,-1,0,0,0,0,62,65,81,50,100,-19.73,15,26.0,6.0,-992.0,11:04:44.591927,192.168.0.113
770,-1,-100,-100,-100,"0,0,0",2,-1,0,0,0,0,62,65,80,50,100,-19.76,15,49.0,7.0,-1011.0,11:04:44.695795,192.168.0.113
775,-1,-100,-100,-100,"0,0,0",2,-1,0,0,0,0,62,65,81,50,100,-19.68,15,41.0,27.0,-1013.0,11:04:44.795816,192.168.0.113
780,-1,-100,-100,-100,"0,0,0",2,-1,0,0,0,0,62,65,80,50,100,-19.77,15,25.0,25.0,-990.0,11:04:44.897789,192.168.0.113
786,-1,-100,-100,-100,"0,0,0",3,-1,0,0,0,0,62,65,80,50,100,-19.69,15,21.0,8.0,-1016.0,11:04:44.999730,192.168.0.113
791,-1,-100,-100,-100,"0,0,0",3,0,0,0,0,0,62,65,80,50,100,-19.75,15,59.0,19.0,-995.0,11:04:45.101773,192.168.0.113
796,-1,-100,-100,-100,"0,0,0",3,-1,0,0,0,0,62,65,80,50,100,-19.76,15,0.0,18.0,-995.0,11:04:45.203698,192.168.0.113
801,-1,-100,-100,-100,"0,0,0",3,-1,0,0,0,0,62,65,80,50,100,-19.72,15,49.0,9.0,-984.0,11:04:45.305687,192.168.0.113
806,-1,-100,-100,-100,"0,0,0",3,-1,0,0,0,0,62,65,80,50,100,-19.75,15,41.0,31.0,-1017.0,11:04:45.407682,192.168.0.113
811,-1,-100,-100,-100,"0,0,0",2,-1,0,0,0,0,62,65,80,50,100,-19.75,16,31.0,17.0,-1021.0,11:04:45.509918,192.168.0.113
816,-1,-100,-100,-100,"0,0,0",2,-1,0,0,0,0,62,65,80,50,100,-19.78,16,21.0,-3.0,-984.0,11:04:45.611669,192.168.0.113
821,-1,-100,-100,-100,"0,0,0",3,0,0,0,0,0,62,65,80,50,100,-19.74,16,20.0,10.0,-1018.0,11:04:45.713623,192.168.0.113
826,-1,-100,-100,-100,"0,0,0",3,0,0,0,0,0,62,65,80,50,100,-19.73,16,24.0,-10.0,-986.0,11:04:45.815597,192.168.0.113
831,-1,-100,-100,-100,"0,0,0",3,0,0,0,0,0,62,65,80,50,100,-19.7,16,43.0,29.0,-1003.0,11:04:45.917529,192.168.0.113
836,-1,-100,-100,-100,"0,0,0",3,0,0,0,0,0,62,65,80,50,100,-19.73,16,35.0,32.0,-993.0,11:04:46.019261,192.168.0.113
841,-1,-100,-100,-100,"0,0,0",3,0,0,0,0,0,62,65,80,50,100,-19.82,16,35.0,-6.0,-994.0,11:04:46.121563,192.168.0.113
846,-1,-100,-100,-100,"0,0,0",3,-1,0,0,0,0,62,65,80,50,100,-19.8,16,32.0,-8.0,-976.0,11:04:46.223792,192.168.0.113
851,-1,-100,-100,-100,"0,0,0",3,-1,0,0,0,0,62,65,80,50,100,-19.83,16,48.0,-21.0,-988.0,11:04:46.325150,192.168.0.113
856,-1,-100,-100,-100,"0,0,0",3,-1,0,0,0,0,62,65,79,50,100,-19.83,16,50.0,-5.0,-1003.0,11:04:46.427672,192.168.0.113
861,-1,-100,-100,-100,"0,0,0",3,0,0,0,0,0,62,65,79,50,100,-19.81,17,-11.0,33.0,-1010.0,11:04:46.530072,192.168.0.113
866,-1,-100,-100,-100,"0,0,0",3,0,0,0,0,0,62,65,79,50,100,-19.93,17,22.0,-1.0,-1005.0,11:04:46.631345,192.168.0.113
871,-1,-100,-100,-100,"0,0,0",2,0,0,0,0,0,62,65,78,50,100,-19.82,17,28.0,28.0,-1000.0,11:04:46.733473,192.168.0.113
876,-1,-100,-100,-100,"0,0,0",2,0,0,0,0,0,62,65,78,50,100,-19.83,17,19.0,-7.0,-998.0,11:04:46.835525,192.168.0.113
881,-1,-100,-100,-100,"0,0,0",2,0,0,0,0,0,62,65,78,50,100,-19.85,17,18.0,21.0,-1007.0,11:04:46.937257,192.168.0.113
886,-1,-100,-100,-100,"0,0,0",2,0,0,0,0,0,62,65,78,50,100,-19.84,17,20.0,26.0,-1008.0,11:04:47.039165,192.168.0.113
891,-1,-100,-100,-100,"0,0,0",2,0,0,0,0,0,62,65,78,50,100,-19.8,17,35.0,5.0,-995.0,11:04:47.141228,192.168.0.113
896,-1,-100,-100,-100,"0,0,0",2,0,0,0,0,0,62,65,78,50,100,-19.76,17,37.0,0.0,-1010.0,11:04:47.243405,192.168.0.113
899,-1,-100,-100,-100,"0,0,0",2,0,0,0,0,0,62,65,77,50,100,-19.9,17,31.0,-10.0,-1006.0,11:04:47.294332,192.168.0.113
904,-1,-100,-100,-100,"0,0,0",2,0,0,0,0,0,62,65,78,50,100,-19.87,18,37.0,11.0,-1011.0,11:04:47.396361,192.168.0.113
909,-1,-100,-100,-100,"0,0,0",2,0,0,0,0,0,62,65,78,50,100,-19.82,18,17.0,-8.0,-983.0,11:04:47.498510,192.168.0.113
914,-1,-100,-100,-100,"0,0,0",2,0,0,0,0,0,62,65,78,50,100,-19.89,18,-2.0,18.0,-995.0,11:04:47.600375,192.168.0.113
919,-1,-100,-100,-100,"0,0,0",2,0,0,0,0,0,62,65,78,50,100,-19.73,18,40.0,-12.0,-964.0,11:04:47.702370,192.168.0.113
925,-1,-100,-100,-100,"0,0,0",2,0,0,0,0,0,62,65,77,50,100,-19.71,18,19.0,0.0,-1033.0,11:04:47.804700,192.168.0.113
930,-1,-100,-100,-100,"0,0,0",2,0,0,0,0,0,62,65,78,50,100,-19.82,18,56.0,0.0,-1040.0,11:04:47.906362,192.168.0.113
935,-1,-100,-100,-100,"0,0,0",3,0,0,0,0,0,62,65,78,50,100,-19.9,18,27.0,0.0,-1016.0,11:04:48.010679,192.168.0.113
940,-1,-100,-100,-100,"0,0,0",3,0,0,0,0,0,62,65,78,50,100,-19.87,18,3.0,3.0,-1021.0,11:04:48.110212,192.168.0.113
945,-1,-100,-100,-100,"0,0,0",2,0,0,0,0,0,62,65,79,50,100,-19.8,18,36.0,-23.0,-979.0,11:04:48.212330,192.168.0.113
950,-1,-100,-100,-100,"0,0,0",2,0,0,0,0,0,62,65,79,50,100,-19.66,18,51.0,-4.0,-963.0,11:04:48.314716,192.168.0.113
955,-1,-100,-100,-100,"0,0,0",2,0,0,0,0,0,62,65,80,50,100,-19.75,19,17.0,18.0,-997.0,11:04:48.416258,192.168.0.113
960,-1,-100,-100,-100,"0,0,0",2,0,0,0,0,0,62,65,80,50,100,-19.74,19,34.0,-8.0,-1005.0,11:04:48.518662,192.168.0.113
966,-1,-100,-100,-100,"0,0,0",2,0,0,0,0,0,62,65,80,50,100,-19.8,19,7.0,13.0,-988.0,11:04:48.620303,192.168.0.113
971,-1,-100,-100,-100,"0,0,0",3,0,0,0,0,0,62,65,80,50,100,-19.72,19,27.0,-3.0,-1011.0,11:04:48.722353,192.168.0.113
976,-1,-100,-100,-100,"0,0,0",2,0,0,0,0,0,62,65,80,50,100,-19.91,19,44.0,2.0,-1014.0,11:04:48.824120,192.168.0.113
981,-1,-100,-100,-100,"0,0,0",2,0,0,0,0,0,62,65,80,50,100,-19.73,19,12.0,-15.0,-1001.0,11:04:48.926044,192.168.0.113
986,-1,-100,-100,-100,"0,0,0",2,0,0,0,0,0,62,65,80,50,100,-19.78,19,32.0,-29.0,-997.0,11:04:49.028915,192.168.0.113
990,-1,-100,-100,-100,"0,0,0",2,0,0,0,0,0,62,65,80,50,100,-19.71,19,34.0,-27.0,-999.0,11:04:49.130959,192.168.0.113
995,-1,-100,-100,-100,"0,0,0",2,1,0,0,0,0,62,65,80,50,100,-19.65,19,16.0,8.0,-1012.0,11:04:49.232856,192.168.0.113
1000,-1,-100,-100,-100,"0,0,0",2,1,0,0,0,0,62,65,80,50,100,-19.69,19,6.0,8.0,-1013.0,11:04:49.335621,192.168.0.113
1006,-1,-100,-100,-100,"0,0,0",2,0,0,0,0,0,62,65,80,50,100,-19.69,20,63.0,-34.0,-981.0,11:04:49.437770,192.168.0.113
1011,-1,-100,-100,-100,"0,0,0",2,0,0,0,0,0,62,65,81,50,100,-19.72,20,-15.0,16.0,-1001.0,11:04:49.540160,192.168.0.113
1016,-1,-100,-100,-100,"0,0,0",2,0,0,0,0,0,62,65,80,50,100,-19.82,20,17.0,16.0,-993.0,11:04:49.642512,192.168.0.113
1021,-1,-100,-100,-100,"0,0,0",1,0,0,0,0,0,62,65,80,50,100,-19.74,20,0.0,-23.0,-999.0,11:04:49.741645,192.168.0.113
1026,-1,-100,-100,-100,"0,0,0",1,0,0,0,0,0,62,65,80,50,100,-19.75,20,-6.0,-6.0,-1002.0,11:04:49.847269,192.168.0.113
1031,-1,-100,-100,-100,"0,0,0",1,0,0,0,0,0,63,66,80,50,100,-19.82,20,35.0,-5.0,-990.0,11:04:49.945994,192.168.0.113
1036,-1,-100,-100,-100,"0,0,0",1,0,0,0,0,0,63,66,80,50,100,-19.79,20,0.0,0.0,-1000.0,11:04:50.048205,192.168.0.113
1040,-1,-100,-100,-100,"0,0,0",1,0,0,0,0,0,63,66,80,50,100,-19.78,20,-13.0,-4.0,-995.0,11:04:50.150185,192.168.0.113
1046,-1,-100,-100,-100,"0,0,0",1,0,0,1,0,0,63,66,80,50,100,-19.67,20,24.0,-10.0,-965.0,11:04:50.252055,192.168.0.113
1051,-1,-100,-100,-100,"0,0,0",1,0,0,1,0,0,63,66,79,50,100,-19.66,20,16.0,-21.0,-1002.0,11:04:50.353936,192.168.0.113
1056,-1,-100,-100,-100,"0,0,0",0,0,0,1,0,0,63,66,79,50,100,-19.69,21,13.0,-5.0,-1018.0,11:04:50.455897,192.168.0.113
1061,-1,-100,-100,-100,"0,0,0",1,0,0,0,0,0,63,66,78,50,100,-19.67,21,25.0,25.0,-1006.0,11:04:50.558075,192.168.0.113
1064,-1,-100,-100,-100,"0,0,0",1,0,0,0,0,0,63,66,78,50,100,-19.69,21,-2.0,-9.0,-978.0,11:04:50.609174,192.168.0.113
1069,-1,-100,-100,-100,"0,0,0",0,0,0,0,0,0,63,66,78,50,100,-19.75,21,-9.0,1.0,-1036.0,11:04:50.711095,192.168.0.113
1074,-1,-100,-100,-100,"0,0,0",0,0,0,0,0,0,63,66,78,50,100,-19.89,21,5.0,-12.0,-1014.0,11:04:50.812861,192.168.0.113
1081,-1,-100,-100,-100,"0,0,0",0,0,0,0,0,0,63,66,78,50,100,-19.77,21,16.0,-18.0,-986.0,11:04:50.965643,192.168.0.113
1084,-1,-100,-100,-100,"0,0,0",0,0,0,0,0,0,63,66,79,50,100,-19.78,21,11.0,8.0,-985.0,11:04:51.016982,192.168.0.113
1089,-1,-100,-100,-100,"0,0,0",0,0,0,0,0,0,63,66,79,50,100,-19.72,21,10.0,7.0,-987.0,11:04:51.119010,192.168.0.113
1094,-1,-100,-100,-100,"0,0,0",0,0,0,0,0,0,63,66,79,50,100,-19.68,21,-2.0,5.0,-979.0,11:04:51.221111,192.168.0.113
1100,-1,-100,-100,-100,"0,0,0",0,0,0,0,0,0,63,66,79,50,100,-19.75,21,7.0,3.0,-999.0,11:04:51.322787,192.168.0.113
1105,-1,-100,-100,-100,"0,0,0",0,0,0,0,0,0,63,66,78,50,100,-19.77,22,-7.0,20.0,-1009.0,11:04:51.424817,192.168.0.113
1110,-1,-100,-100,-100,"0,0,0",0,0,0,0,0,0,63,66,79,50,100,-19.84,22,7.0,23.0,-1008.0,11:04:51.526793,192.168.0.113
1115,-1,-100,-100,-100,"0,0,0",0,0,0,0,0,0,63,66,79,50,100,-19.78,22,-2.0,-3.0,-992.0,11:04:51.628907,192.168.0.113
1120,-1,-100,-100,-100,"0,0,0",0,0,0,0,0,0,63,66,79,50,100,-19.76,22,-7.0,3.0,-987.0,11:04:51.731092,192.168.0.113
1125,-1,-100,-100,-100,"0,0,0",0,0,0,0,0,0,63,66,78,50,100,-19.79,22,-5.0,-10.0,-1003.0,11:04:51.832824,192.168.0.113
1131,-1,-100,-100,-100,"0,0,0",0,0,0,0,0,0,63,65,78,50,100,-19.73,22,-9.0,-1.0,-1013.0,11:04:51.934788,192.168.0.113
1136,-1,-100,-100,-100,"0,0,0",0,0,0,0,0,0,63,65,78,50,100,-19.6,22,-16.0,-2.0,-976.0,11:04:52.036687,192.168.0.113
1141,-1,-100,-100,-100,"0,0,0",0,0,0,0,0,0,63,65,79,50,100,-19.74,22,14.0,-18.0,-1029.0,11:04:52.138834,192.168.0.113
1146,-1,-100,-100,-100,"0,0,0",0,0,0,0,0,0,63,65,78,50,100,-19.67,22,-5.0,-14.0,-969.0,11:04:52.240873,192.168.0.113
1151,-1,-100,-100,-100,"0,0,0",0,0,0,0,0,0,63,65,79,50,100,-19.69,22,8.0,-28.0,-989.0,11:04:52.342822,192.168.0.113
1156,-1,-100,-100,-100,"0,0,0",0,0,0,0,0,0,63,65,79,50,100,-19.78,23,5.0,-27.0,-1006.0,11:04:52.445348,192.168.0.113
1161,-1,-100,-100,-100,"0,0,0",1,0,0,0,0,0,63,65,78,50,100,-19.83,23,6.0,0.0,-1017.0,11:04:52.546964,192.168.0.113
1166,-1,-100,-100,-100,"0,0,0",1,0,0,0,0,0,63,65,79,50,100,-19.8,23,-8.0,4.0,-1017.0,11:04:52.648835,192.168.0.113
1171,-1,-100,-100,-100,"0,0,0",1,0,0,0,0,0,63,65,79,50,100,-19.78,23,-23.0,-14.0,-980.0,11:04:52.750747,192.168.0.113
1176,-1,-100,-100,-100,"0,0,0",1,0,0,0,0,0,63,65,79,50,100,-19.74,23,11.0,-8.0,-988.0,11:04:52.852533,192.168.0.113
1181,-1,-100,-100,-100,"0,0,0",1,0,0,0,0,0,63,65,80,50,100,-19.8,23,-3.0,-7.0,-978.0,11:04:52.954749,192.168.0.113
1186,-1,-100,-100,-100,"0,0,0",1,0,0,0,0,0,63,65,80,50,100,-19.83,23,1.0,-3.0,-1016.0,11:04:53.056704,192.168.0.113
1191,-1,-100,-100,-100,"0,0,0",1,0,0,0,0,0,63,65,80,50,100,-19.77,23,-1.0,-5.0,-987.0,11:04:53.158768,192.168.0.113
1196,-1,-100,-100,-100,"0,0,0",1,0,0,0,0,0,63,65,80,50,100,-19.81,23,24.0,1.0,-1015.0,11:04:53.260913,192.168.0.113
1200,-1,-100,-100,-100,"0,0,0",1,0,0,0,0,0,63,65,80,50,100,-19.74,23,25.0,8.0,-989.0,11:04:53.362980,192.168.0.113
1206,-1,-100,-100,-100,"0,0,0",1,0,0,0,0,0,63,65,80,50,100,-19.69,24,22.0,16.0,-969.0,11:04:53.464573,192.168.0.113
1211,-1,-100,-100,-100,"0,0,0",2,-1,0,0,0,0,63,65,80,50,100,-19.79,24,10.0,30.0,-991.0,11:04:53.566724,192.168.0.113
1216,-1,-100,-100,-100,"0,0,0",1,-1,0,0,0,0,63,65,79,50,100,-19.75,24,9.0,9.0,-990.0,11:04:53.668420,192.168.0.113
1221,-1,-100,-100,-100,"0,0,0",1,-1,0,0,0,0,63,65,80,50,100,-19.71,24,30.0,43.0,-1024.0,11:04:53.770391,192.168.0.113
1225,-1,-100,-100,-100,"0,0,0",1,-2,0,0,0,0,63,65,80,50,100,-19.69,24,23.0,20.0,-1000.0,11:04:53.872824,192.168.0.113
1231,-1,-100,-100,-100,"0,0,0",2,-2,0,0,0,0,63,65,80,50,100,-19.71,24,7.0,0.0,-985.0,11:04:53.974616,192.168.0.113
1234,-1,-100,-100,-100,"0,0,0",2,-2,0,0,0,0,63,65,80,50,100,-19.64,24,11.0,14.0,-1007.0,11:04:54.027470,192.168.0.113
1239,-1,-100,-100,-100,"0,0,0",2,-1,0,0,0,0,63,65,80,50,100,-19.67,24,11.0,24.0,-989.0,11:04:54.127630,192.168.0.113
1244,-1,-100,-100,-100,"0,0,0",2,-1,0,0,0,0,63,65,79,50,100,-19.74,24,34.0,28.0,-995.0,11:04:54.229633,192.168.0.113
1249,-1,-100,-100,-100,"0,0,0",2,-1,0,0,0,0,63,65,80,50,100,-19.69,24,30.0,26.0,-986.0,11:04:54.332077,192.168.0.113
1255,-1,-100,-100,-100,"0,0,0",2,-2,0,0,0,0,63,65,80,50,100,-19.84,25,38.0,31.0,-1020.0,11:04:54.433648,192.168.0.113
1260,-1,-100,-100,-100,"0,0,0",2,-2,0,0,0,0,63,65,79,50,100,-19.86,25,25.0,41.0,-1008.0,11:04:54.535669,192.168.0.113
1265,-1,-100,-100,-100,"0,0,0",2,-2,0,0,0,0,63,65,80,50,100,-19.68,25,15.0,21.0,-984.0,11:04:54.637632,192.168.0.113
1270,-1,-100,-100,-100,"0,0,0",1,-2,0,0,0,0,63,65,79,50,100,-19.78,25,33.0,38.0,-993.0,11:04:54.739448,192.168.0.113
1275,-1,-100,-100,-100,"0,0,0",2,-2,0,0,0,0,63,65,80,50,100,-19.74,25,9.0,29.0,-1023.0,11:04:54.841511,192.168.0.113
1280,-1,-100,-100,-100,"0,0,0",2,-2,0,0,0,0,63,65,79,50,100,-19.81,25,20.0,14.0,-1001.0,11:04:54.943597,192.168.0.113
1285,-1,-100,-100,-100,"0,0,0",1,-2,0,0,0,0,63,65,79,50,100,-19.79,25,14.0,18.0,-992.0,11:04:55.045684,192.168.0.113
1290,-1,-100,-100,-100,"0,0,0",1,-1,0,0,0,0,63,65,78,50,100,-19.83,25,-3.0,47.0,-982.0,11:04:55.147559,192.168.0.113
1295,-1,-100,-100,-100,"0,0,0",1,-1,0,0,0,0,63,65,79,50,100,-19.64,25,17.0,41.0,-993.0,11:04:55.249623,192.168.0.113
1300,-1,-100,-100,-100,"0,0,0",2,-1,0,0,0,0,63,65,78,50,100,-19.82,25,4.0,24.0,-1030.0,11:04:55.351517,192.168.0.113
1305,-1,-100,-100,-100,"0,0,0",2,-1,0,0,0,0,63,65,78,50,100,-19.84,26,18.0,34.0,-1034.0,11:04:55.453578,192.168.0.113
1310,-1,-100,-100,-100,"0,0,0",1,-1,0,0,0,0,63,65,78,50,100,-19.85,26,-3.0,27.0,-1018.0,11:04:55.555563,192.168.0.113
1316,-1,-100,-100,-100,"0,0,0",1,-1,0,0,0,0,63,65,78,50,100,-19.85,26,24.0,33.0,-1026.0,11:04:55.657573,192.168.0.113
1321,-1,-100,-100,-100,"0,0,0",1,-1,0,0,0,0,63,65,78,50,100,-19.86,26,38.0,37.0,-998.0,11:04:55.759342,192.168.0.113
1326,-1,-100,-100,-100,"0,0,0",1,-1,0,0,0,0,63,65,78,50,100,-19.83,26,9.0,31.0,-969.0,11:04:55.861352,192.168.0.113
1331,-1,-100,-100,-100,"0,0,0",1,0,0,0,0,0,63,65,78,50,100,-19.85,26,18.0,30.0,-1000.0,11:04:55.963136,192.168.0.113
1336,-1,-100,-100,-100,"0,0,0",1,0,0,0,0,0,63,65,78,50,100,-19.78,26,0.0,20.0,-1016.0,11:04:56.065471,192.168.0.113
1341,-1,-100,-100,-100,"0,0,0",1,0,0,0,0,0,63,65,77,50,100,-19.8,26,33.0,30.0,-978.0,11:04:56.167324,192.168.0.113
1346,-1,-100,-100,-100,"0,0,0",1,0,0,0,0,0,63,65,77,50,100,-19.79,26,26.0,23.0,-1000.0,11:04:56.269076,192.168.0.113
1351,-1,-100,-100,-100,"0,0,0",1,-1,0,0,0,0,63,65,77,50,100,-19.8,26,31.0,12.0,-1003.0,11:04:56.371430,192.168.0.113
1356,-1,-100,-100,-100,"0,0,0",1,-1,0,0,0,0,63,65,77,50,100,-19.83,27,5.0,38.0,-1007.0,11:04:56.473424,192.168.0.113
1361,-1,-100,-100,-100,"0,0,0",1,-1,0,0,0,0,63,65,77,50,100,-19.73,27,33.0,28.0,-1013.0,11:04:56.575269,192.168.0.113
1366,-1,-100,-100,-100,"0,0,0",1,-1,0,0,0,0,63,65,77,50,100,-19.72,27,9.0,16.0,-992.0,11:04:56.677516,192.168.0.113
1371,-1,-100,-100,-100,"0,0,0",1,-1,0,0,0,0,63,65,77,50,100,-19.8,27,9.0,26.0,-1000.0,11:04:56.779395,192.168.0.113
1376,-1,-100,-100,-100,"0,0,0",1,-1,0,0,0,0,63,65,77,50,100,-19.82,27,12.0,5.0,-1003.0,11:04:56.880985,192.168.0.113
1381,-1,-100,-100,-100,"0,0,0",1,-1,0,0,0,0,63,65,77,50,100,-19.69,27,8.0,19.0,-1003.0,11:04:56.982948,192.168.0.113
1385,-1,-100,-100,-100,"0,0,0",1,-1,0,0,0,0,63,65,77,50,100,-19.77,27,8.0,25.0,-1011.0,11:04:57.085603,192.168.0.113
1391,-1,-100,-100,-100,"0,0,0",1,0,0,0,0,0,63,65,77,50,100,-19.75,27,21.0,-2.0,-1008.0,11:04:57.187408,192.168.0.113
1396,-1,-100,-100,-100,"0,0,0",1,0,0,0,0,0,63,65,78,50,100,-19.76,27,21.0,14.0,-1021.0,11:04:57.289394,192.168.0.113
1401,-1,-100,-100,-100,"0,0,0",1,0,0,0,0,0,63,65,78,50,100,-19.76,27,26.0,21.0,-997.0,11:04:57.391229,192.168.0.113
1406,-1,-100,-100,-100,"0,0,0",1,0,0,0,0,0,63,65,79,50,100,-19.76,28,0.0,36.0,-995.0,11:04:57.492951,192.168.0.113
1409,-1,-100,-100,-100,"0,0,0",1,0,0,0,0,0,63,65,79,50,100,-19.76,28,32.0,2.0,-963.0,11:04:57.545126,192.168.0.113
1414,-1,-100,-100,-100,"0,0,0",1,0,0,0,0,0,63,65,79,50,100,-19.65,28,9.0,18.0,-991.0,11:04:57.646357,192.168.0.113
1419,-1,-100,-100,-100,"0,0,0",1,0,0,0,0,0,63,65,79,50,100,-19.65,28,36.0,-13.0,-996.0,11:04:57.748457,192.168.0.113
1425,-1,-100,-100,-100,"0,0,0",1,0,0,0,0,0,63,65,79,50,100,-19.75,28,25.0,-2.0,-973.0,11:04:57.855530,192.168.0.113
1431,-1,-100,-100,-100,"0,0,0",1,0,0,0,0,0,63,65,79,50,100,-19.76,28,48.0,-12.0,-967.0,11:04:58.003249,192.168.0.113
1435,-1,-100,-100,-100,"0,0,0",2,0,0,0,0,0,63,65,78,50,100,-19.76,28,47.0,-14.0,-1000.0,11:04:58.054251,192.168.0.113
1440,-1,-100,-100,-100,"0,0,0",2,0,0,0,0,0,63,65,78,50,100,-19.75,28,-20.0,21.0,-1036.0,11:04:58.156112,192.168.0.113
1445,-1,-100,-100,-100,"0,0,0",1,0,0,0,0,0,63,65,78,50,100,-19.76,28,41.0,-11.0,-1010.0,11:04:58.258306,192.168.0.113
1450,-1,-100,-100,-100,"0,0,0",1,0,0,0,0,0,63,65,78,50,100,-19.75,28,17.0,25.0,-1012.0,11:04:58.360255,192.168.0.113
1455,-1,-100,-100,-100,"0,0,0",1,0,0,0,0,0,63,65,79,50,100,-19.75,29,10.0,-5.0,-999.0,11:04:58.462223,192.168.0.113
1460,-1,-100,-100,-100,"0,0,0",1,0,0,0,0,0,63,65,80,50,100,-19.78,29,33.0,5.0,-1001.0,11:04:58.564291,192.168.0.113
1465,-1,-100,-100,-100,"0,0,0",1,0,0,0,0,0,63,65,80,50,100,-19.76,29,-17.0,-6.0,-1005.0,11:04:58.666383,192.168.0.113
1470,-1,-100,-100,-100,"0,0,0",1,0,0,0,0,0,63,65,81,50,100,-19.83,29,6.0,2.0,-957.0,11:04:58.768273,192.168.0.113
1476,-1,-100,-100,-100,"0,0,0",1,0,0,0,0,0,63,65,81,50,100,-19.76,29,0.0,-14.0,-1003.0,11:04:58.870132,192.168.0.113
1481,-1,-100,-100,-100,"0,0,0",1,0,0,0,0,0,64,66,82,50,100,-19.9,29,37.0,-6.0,-1004.0,11:04:58.971988,192.168.0.113
1486,-1,-100,-100,-100,"0,0,0",1,0,0,0,0,0,64,66,82,50,100,-19.8,29,3.0,-21.0,-995.0,11:04:59.074304,192.168.0.113
1491,-1,-100,-100,-100,"0,0,0",1,0,0,0,0,0,64,66,82,50,100,-19.79,29,2.0,12.0,-996.0,11:04:59.176826,192.168.0.113
1496,-1,-100,-100,-100,"0,0,0",1,0,0,0,0,0,64,66,82,50,100,-19.79,29,-8.0,16.0,-979.0,11:04:59.278753,192.168.0.113
1501,-1,-100,-100,-100,"0,0,0",0,0,0,0,0,0,64,66,82,50,100,-19.73,29,12.0,-15.0,-1015.0,11:04:59.381179,192.168.0.113
1506,-1,-100,-100,-100,"0,0,0",1,0,0,0,0,0,64,66,81,50,100,-19.7,30,18.0,-3.0,-1027.0,11:04:59.483113,192.168.0.113
1511,-1,-100,-100,-100,"0,0,0",1,0,0,0,0,0,64,66,81,50,100,-19.74,30,33.0,-2.0,-988.0,11:04:59.586457,192.168.0.113
1516,-1,-100,-100,-100,"0,0,0",1,0,0,0,0,0,64,66,82,50,100,-19.74,30,40.0,-2.0,-1007.0,11:04:59.686995,192.168.0.113
1521,-1,-100,-100,-100,"0,0,0",1,0,0,0,0,0,64,66,81,50,100,-19.72,30,8.0,0.0,-998.0,11:04:59.789003,192.168.0.113
1526,-1,-100,-100,-100,"0,0,0",1,0,0,0,0,0,64,66,80,50,100,-19.7,30,15.0,-20.0,-1015.0,11:04:59.891270,192.168.0.113
1531,-1,-100,-100,-100,"0,0,0",1,0,0,0,0,0,63,65,80,50,100,-19.81,30,43.0,-22.0,-1045.0,11:04:59.993088,192.168.0.113
1536,-1,-100,-100,-100,"0,0,0",1,0,0,0,0,0,63,65,80,50,100,-19.79,30,12.0,-9.0,-1016.0,11:05:00.095253,192.168.0.113
1541,-1,-100,-100,-100,"0,0,0",1,0,0,0,0,0,63,65,80,50,100,-19.71,30,33.0,3.0,-1022.0,11:05:00.196927,192.168.0.113
1546,-1,-100,-100,-100,"0,0,0",1,0,0,0,0,0,63,65,80,50,100,-19.87,30,33.0,0.0,-1029.0,11:05:00.298920,192.168.0.113
1551,-1,-100,-100,-100,"0,0,0",1,0,0,0,0,0,63,65,80,50,100,-19.81,30,28.0,0.0,-1011.0,11:05:00.400927,192.168.0.113
1556,-1,-100,-100,-100,"0,0,0",1,0,0,0,0,0,63,65,81,50,100,-19.81,31,11.0,9.0,-974.0,11:05:00.502998,192.168.0.113
1561,-1,-100,-100,-100,"0,0,0",1,0,0,0,0,0,63,65,80,50,100,-19.69,31,17.0,-26.0,-980.0,11:05:00.604965,192.168.0.113
1566,-1,-100,-100,-100,"0,0,0",1,0,0,0,0,0,63,65,80,50,100,-19.74,31,5.0,9.0,-986.0,11:05:00.707109,192.168.0.113
1571,-1,-100,-100,-100,"0,0,0",1,0,0,0,0,0,63,65,81,50,100,-19.68,31,24.0,-1.0,-1009.0,11:05:00.808989,192.168.0.113
1574,-1,-100,-100,-100,"0,0,0",1,0,0,0,0,0,63,65,80,50,100,-19.8,31,14.0,8.0,-1019.0,11:05:00.860158,192.168.0.113
1581,-1,-100,-100,-100,"0,0,0",1,0,0,0,0,0,64,65,81,50,100,-19.71,31,8.0,-14.0,-973.0,11:05:01.012920,192.168.0.113
1584,-1,-100,-100,-100,"0,0,0",1,0,0,0,0,0,64,65,80,50,100,-19.78,31,9.0,17.0,-996.0,11:05:01.064130,192.168.0.113
1589,-1,-100,-100,-100,"0,0,0",1,0,0,0,0,0,64,65,81,50,100,-19.76,31,-7.0,12.0,-984.0,11:05:01.165995,192.168.0.113
1594,-1,-100,-100,-100,"0,0,0",1,0,0,0,0,0,64,65,81,50,100,-19.63,31,16.0,14.0,-1006.0,11:05:01.268040,192.168.0.113
1600,-1,-100,-100,-100,"0,0,0",1,0,0,0,0,0,64,65,80,50,100,-19.65,31,38.0,14.0,-1039.0,11:05:01.369769,192.168.0.113
1605,-1,-100,-100,-100,"0,0,0",1,-1,0,0,0,0,64,65,79,50,100,-19.63,32,16.0,5.0,-985.0,11:05:01.471801,192.168.0.113
1610,-1,-100,-100,-100,"0,0,0",1,-1,0,0,0,0,64,65,80,50,100,-19.7,32,29.0,25.0,-1036.0,11:05:01.573945,192.168.0.113
1615,-1,-100,-100,-100,"0,0,0",1,-1,0,0,0,0,64,65,79,50,100,-19.79,32,20.0,9.0,-1022.0,11:05:01.676069,192.168.0.113
1620,-1,-100,-100,-100,"0,0,0",1,0,0,0,0,0,64,65,79,50,100,-19.82,32,29.0,17.0,-1022.0,11:05:01.777886,192.168.0.113
1625,-1,-100,-100,-100,"0,0,0",1,0,0,0,0,0,64,65,79,50,100,-19.93,32,8.0,-2.0,-996.0,11:05:01.880145,192.168.0.113
1630,-1,-100,-100,-100,"0,0,0",1,0,0,0,0,0,63,65,79,50,100,-19.78,32,15.0,27.0,-1015.0,11:05:01.982171,192.168.0.113
1635,-1,-100,-100,-100,"0,0,0",1,-1,0,0,0,0,63,65,79,50,100,-19.8,32,17.0,22.0,-989.0,11:05:02.084382,192.168.0.113
1641,-1,-100,-100,-100,"0,0,0",1,-1,0,0,0,0,63,65,79,50,100,-19.77,32,-6.0,15.0,-975.0,11:05:02.186751,192.168.0.113
1646,-1,-100,-100,-100,"0,0,0",1,-1,0,0,0,0,63,65,79,50,100,-19.63,32,38.0,27.0,-977.0,11:05:02.288880,192.168.0.113
1651,-1,-100,-100,-100,"0,0,0",1,-1,0,0,0,0,63,65,79,50,100,-19.66,32,40.0,28.0,-1007.0,11:05:02.391402,192.168.0.113
1656,-1,-100,-100,-100,"0,0,0",1,-1,0,0,0,0,63,65,78,50,100,-19.69,33,7.0,25.0,-1010.0,11:05:02.493499,192.168.0.113
1661,-1,-100,-100,-100,"0,0,0",1,-1,0,0,0,0,63,65,78,50,100,-19.6,33,20.0,30.0,-1009.0,11:05:02.593558,192.168.0.113
1665,-1,-100,-100,-100,"0,0,0",2,-1,0,0,0,0,63,65,78,50,100,-19.69,33,1.0,19.0,-1019.0,11:05:02.696354,192.168.0.113
1671,-1,-100,-100,-100,"0,0,0",2,-1,0,0,0,0,63,65,77,50,100,-19.78,33,20.0,13.0,-1008.0,11:05:02.797816,192.168.0.113
1676,-1,-100,-100,-100,"0,0,0",1,0,0,0,0,0,63,65,77,50,100,-19.83,33,15.0,20.0,-1003.0,11:05:02.900005,192.168.0.113
1681,-1,-100,-100,-100,"0,0,0",1,0,0,0,0,0,63,66,77,50,100,-19.72,33,20.0,8.0,-990.0,11:05:03.001772,192.168.0.113
1686,-1,-100,-100,-100,"0,0,0",1,-1,0,0,0,0,63,66,77,50,100,-19.76,33,15.0,41.0,-979.0,11:05:03.104754,192.168.0.113
1691,-1,-100,-100,-100,"0,0,0",1,-1,0,0,0,0,63,66,77,50,100,-19.65,33,22.0,34.0,-997.0,11:05:03.205535,192.168.0.113
1696,-1,-100,-100,-100,"0,0,0",1,-1,0,0,0,0,63,66,77,50,100,-19.72,33,0.0,28.0,-1031.0,11:05:03.307930,192.168.0.113
1701,-1,-100,-100,-100,"0,0,0",1,0,0,0,0,0,63,66,77,50,100,-19.74,33,-8.0,17.0,-1016.0,11:05:03.409789,192.168.0.113
1706,-1,-100,-100,-100,"0,0,0",1,0,0,0,0,0,63,66,77,50,100,-19.78,34,-1.0,31.0,-1017.0,11:05:03.511894,192.168.0.113
1711,-1,-100,-100,-100,"0,0,0",0,0,0,0,0,0,63,66,77,50,100,-19.72,34,9.0,4.0,-996.0,11:05:03.613974,192.168.0.113
1716,-1,-100,-100,-100,"0,0,0",1,0,0,0,0,0,63,66,77,50,100,-19.82,34,3.0,16.0,-1018.0,11:05:03.715360,192.168.0.113
1721,-1,-100,-100,-100,"0,0,0",1,-1,0,0,0,0,63,66,77,50,100,-19.78,34,24.0,24.0,-998.0,11:05:03.817784,192.168.0.113
1726,-1,-100,-100,-100,"0,0,0",1,-1,0,0,0,0,63,66,78,50,100,-19.78,34,-1.0,25.0,-1004.0,11:05:03.919900,192.168.0.113
1731,-1,-100,-100,-100,"0,0,0",1,0,0,0,0,0,63,65,78,50,100,-19.81,34,-2.0,28.0,-986.0,11:05:04.021384,192.168.0.113
1736,-1,-100,-100,-100,"0,0,0",0,0,0,0,0,0,63,65,78,50,100,-19.87,34,27.0,-6.0,-994.0,11:05:04.123711,192.168.0.113
1739,-1,-100,-100,-100,"0,0,0",0,0,0,0,0,0,63,65,78,50,100,-19.73,34,8.0,13.0,-999.0,11:05:04.175537,192.168.0.113
1744,-1,-100,-100,-100,"0,0,0",0,0,0,0,0,0,63,65,78,50,100,-19.82,34,10.0,6.0,-1006.0,11:05:04.276683,192.168.0.113
1749,-1,-100,-100,-100,"0,0,0",0,0,0,0,0,0,63,65,78,50,100,-19.79,34,27.0,10.0,-1002.0,11:05:04.378706,192.168.0.113
1754,-1,-100,-100,-100,"0,0,0",1,0,0,0,0,0,63,65,79,50,100,-19.81,35,21.0,5.0,-1011.0,11:05:04.480824,192.168.0.113
1759,-1,-100,-100,-100,"0,0,0",1,0,0,0,0,0,63,65,79,50,100,-19.86,35,13.0,6.0,-1000.0,11:05:04.582636,192.168.0.113
1765,-1,-100,-100,-100,"0,0,0",1,0,0,0,0,0,63,65,79,50,100,-19.78,35,3.0,21.0,-1009.0,11:05:04.684168,192.168.0.113
1770,-1,-100,-100,-100,"0,0,0",1,0,0,0,0,0,63,65,79,50,100,-19.81,35,18.0,18.0,-994.0,11:05:04.786192,192.168.0.113
1775,-1,-100,-100,-100,"0,0,0",1,0,0,0,0,0,63,65,79,50,100,-19.77,35,19.0,9.0,-1004.0,11:05:04.888132,192.168.0.113
1780,-1,-100,-100,-100,"0,0,0",1,0,0,0,0,0,63,66,80,50,100,-19.79,35,0.0,20.0,-980.0,11:05:04.990007,192.168.0.113
1785,-1,-100,-100,-100,"0,0,0",1,0,0,0,0,0,63,66,80,50,100,-19.8,35,22.0,22.0,-997.0,11:05:05.093184,192.168.0.113
1790,-1,-100,-100,-100,"0,0,0",1,0,0,0,0,0,63,66,80,50,100,-19.8,35,-3.0,25.0,-1018.0,11:05:05.194594,192.168.0.113
1795,-1,-100,-100,-100,"0,0,0",2,0,0,0,0,0,63,66,81,50,100,-19.83,35,31.0,7.0,-993.0,11:05:05.296549,192.168.0.113
1801,-1,-100,-100,-100,"0,0,0",2,0,0,0,0,0,63,66,81,50,100,-19.88,35,23.0,18.0,-1001.0,11:05:05.398701,192.168.0.113
1805,-1,-100,-100,-100,"0,0,0",2,0,0,0,0,0,63,66,81,50,100,-19.82,36,25.0,20.0,-1001.0,11:05:05.500713,192.168.0.113
1810,-1,-100,-100,-100,"0,0,0",2,0,0,0,0,0,63,66,81,50,100,-19.88,36,33.0,11.0,-1003.0,11:05:05.602674,192.168.0.113
1816,-1,-100,-100,-100,"0,0,0",2,0,0,0,0,0,63,66,81,50,100,-19.88,36,27.0,6.0,-985.0,11:05:05.704607,192.168.0.113
1821,-1,-100,-100,-100,"0,0,0",2,0,0,0,0,0,63,66,81,50,100,-19.78,36,28.0,9.0,-1007.0,11:05:05.806335,192.168.0.113
1826,-1,-100,-100,-100,"0,0,0",2,0,0,0,0,0,63,66,81,50,100,-19.9,36,14.0,0.0,-981.0,11:05:05.908521,192.168.0.113
1831,-1,-100,-100,-100,"0,0,0",2,0,0,0,0,0,63,65,80,50,100,-19.87,36,40.0,14.0,-1021.0,11:05:06.010496,192.168.0.113
1836,-1,-100,-100,-100,"0,0,0",2,0,0,0,0,0,63,65,81,50,100,-19.83,36,13.0,19.0,-1004.0,11:05:06.112327,192.168.0.113
1841,-1,-100,-100,-100,"0,0,0",2,0,0,0,0,0,63,65,81,50,100,-19.88,36,35.0,0.0,-979.0,11:05:06.214533,192.168.0.113
1846,-1,-100,-100,-100,"0,0,0",2,0,0,0,0,0,63,65,80,50,100,-19.85,36,-1.0,8.0,-979.0,11:05:06.316373,192.168.0.113
1850,-1,-100,-100,-100,"0,0,0",1,0,0,0,0,0,63,65,80,50,100,-19.86,36,25.0,25.0,-1001.0,11:05:06.418542,192.168.0.113
1856,-1,-100,-100,-100,"0,0,0",1,0,0,0,0,0,63,65,80,50,100,-19.8,37,52.0,-17.0,-990.0,11:05:06.521134,192.168.0.113
1861,-1,-100,-100,-100,"0,0,0",1,0,0,0,0,0,63,65,79,50,100,-19.8,37,40.0,6.0,-1000.0,11:05:06.622561,192.168.0.113
1866,-1,-100,-100,-100,"0,0,0",1,0,0,0,0,0,63,65,79,50,100,-19.81,37,32.0,38.0,-1014.0,11:05:06.724563,192.168.0.113
1871,-1,-100,-100,-100,"0,0,0",1,0,0,0,0,0,63,65,78,50,100,-19.82,37,17.0,5.0,-1014.0,11:05:06.826489,192.168.0.113
1876,-1,-100,-100,-100,"0,0,0",1,-1,0,0,0,0,63,65,78,50,100,-19.93,37,9.0,19.0,-1026.0,11:05:06.928872,192.168.0.113
1881,-1,-100,-100,-100,"0,0,0",1,-1,0,0,0,0,64,66,78,50,100,-19.85,37,23.0,46.0,-1000.0,11:05:07.030112,192.168.0.113
1886,-1,-100,-100,-100,"0,0,0",1,-1,0,0,0,0,64,66,78,50,100,-19.91,37,44.0,13.0,-999.0,11:05:07.132258,192.168.0.113
1891,-1,-100,-100,-100,"0,0,0",1,-1,0,0,0,0,64,66,78,50,100,-19.82,37,12.0,27.0,-1011.0,11:05:07.234597,192.168.0.113
1896,-1,-100,-100,-100,"0,0,0",2,-1,0,0,0,0,64,66,79,50,100,-19.92,37,47.0,16.0,-1012.0,11:05:07.336202,192.168.0.113
1901,-1,-100,-100,-100,"0,0,0",1,-1,0,0,0,0,64,66,80,50,100,-19.9,38,40.0,44.0,-974.0,11:05:07.438456,192.168.0.113
1906,-1,-100,-100,-100,"0,0,0",2,-1,0,0,0,0,64,66,80,50,100,-19.86,38,49.0,-4.0,-951.0,11:05:07.541381,192.168.0.113
1911,-1,-100,-100,-100,"0,0,0",1,0,0,0,0,0,64,66,80,50,100,-19.81,38,12.0,36.0,-1006.0,11:05:07.642493,192.168.0.113
1914,-1,-100,-100,-100,"0,0,0",1,0,0,0,0,0,64,66,79,50,100,-19.82,38,38.0,40.0,-982.0,11:05:07.698357,192.168.0.113
1919,-1,-100,-100,-100,"0,0,0",2,-1,0,0,0,0,64,66,79,50,100,-19.79,38,7.0,43.0,-1001.0,11:05:07.795470,192.168.0.113
1925,-1,-100,-100,-100,"0,0,0",2,-1,0,0,0,0,64,66,80,50,100,-19.79,38,25.0,34.0,-984.0,11:05:07.897403,192.168.0.113
1929,-1,-100,-100,-100,"0,0,0",2,-1,0,0,0,0,64,67,80,50,100,-19.86,38,28.0,9.0,-980.0,11:05:07.999376,192.168.0.113
1935,-1,-100,-100,-100,"0,0,0",1,-1,0,0,0,0,64,67,79,50,100,-19.91,38,18.0,49.0,-1004.0,11:05:08.101418,192.168.0.113
1940,-1,-100,-100,-100,"0,0,0",1,-2,0,0,0,0,64,67,79,50,100,-19.88,38,-5.0,21.0,-998.0,11:05:08.203482,192.168.0.113
1945,-1,-100,-100,-100,"0,0,0",0,-1,0,0,0,0,64,67,78,50,100,-19.84,38,14.0,38.0,-996.0,11:05:08.305431,192.168.0.113
1950,-1,-100,-100,-100,"0,0,0",0,-1,0,0,0,0,64,67,77,50,100,-19.88,39,47.0,25.0,-1017.0,11:05:08.407386,192.168.0.113
1955,-1,-100,-100,-100,"0,0,0",0,-1,0,0,0,0,64,67,78,50,100,-20.0,39,-5.0,27.0,-1005.0,11:05:08.509390,192.168.0.113
1960,-1,-100,-100,-100,"0,0,0",0,-1,0,0,0,0,64,67,78,50,100,-19.97,39,22.0,35.0,-992.0,11:05:08.611349,192.168.0.113
1965,-1,-100,-100,-100,"0,0,0",0,-1,0,0,0,0,64,67,78,50,100,-19.79,39,0.0,26.0,-991.0,11:05:08.713345,192.168.0.113
1970,-1,-100,-100,-100,"0,0,0",0,-1,0,0,0,0,64,67,78,50,100,-19.93,39,15.0,18.0,-1002.0,11:05:08.815336,192.168.0.113
1975,-1,-100,-100,-100,"0,0,0",0,-1,0,0,0,0,64,67,77,50,100,-19.88,39,13.0,52.0,-1007.0,11:05:08.917866,192.168.0.113
1980,-1,-100,-100,-100,"0,0,0",0,-1,0,0,0,0,64,67,77,50,100,-19.94,39,19.0,47.0,-1016.0,11:05:09.019473,192.168.0.113
1986,-1,-100,-100,-100,"0,0,0",0,-2,0,0,0,0,64,67,78,50,100,-19.96,39,19.0,19.0,-1005.0,11:05:09.120813,192.168.0.113
1991,-1,-100,-100,-100,"0,0,0",0,-1,0,0,0,0,64,67,78,50,100,-19.88,39,28.0,27.0,-1014.0,11:05:09.224067,192.168.0.113
1996,-1,-100,-100,-100,"0,0,0",0,-1,0,0,0,0,64,67,78,50,100,-20.03,39,44.0,35.0,-1010.0,11:05:09.326277,192.168.0.113
2001,-1,-100,-100,-100,"0,0,0",1,-2,0,0,0,0,64,67,79,50,100,-19.88,40,30.0,35.0,-1007.0,11:05:09.428230,192.168.0.113
2006,-1,-100,-100,-100,"0,0,0",1,-1,0,0,0,0,64,67,79,50,100,-19.8,40,19.0,30.0,-977.0,11:05:09.530079,192.168.0.113
2011,-1,-100,-100,-100,"0,0,0",2,-1,0,0,0,0,64,67,79,50,100,-19.72,40,34.0,35.0,-981.0,11:05:09.632287,192.168.0.113
2016,-1,-100,-100,-100,"0,0,0",2,-1,0,0,0,0,64,67,80,50,100,-19.79,40,46.0,23.0,-995.0,11:05:09.733849,192.168.0.113
2021,-1,-100,-100,-100,"0,0,0",2,-1,0,0,0,0,64,67,79,50,100,-19.9,40,21.0,31.0,-995.0,11:05:09.836199,192.168.0.113
2026,-1,-100,-100,-100,"0,0,0",2,-1,0,0,0,0,64,67,80,50,100,-19.95,40,24.0,36.0,-971.0,11:05:09.938120,192.168.0.113
2031,-1,-100,-100,-100,"0,0,0",2,-1,0,0,0,0,64,67,80,50,100,-19.76,40,46.0,5.0,-989.0,11:05:10.040409,192.168.0.113
2036,-1,-100,-100,-100,"0,0,0",2,-1,0,0,0,0,64,67,79,50,100,-19.9,40,19.0,10.0,-965.0,11:05:10.142814,192.168.0.113
2040,-1,-100,-100,-100,"0,0,0",2,0,0,0,0,0,64,67,80,50,100,-19.89,40,47.0,1.0,-1009.0,11:05:10.245377,192.168.0.113
2046,-1,-100,-100,-100,"0,0,0",2,0,0,0,0,0,64,67,79,50,100,-19.86,40,38.0,10.0,-975.0,11:05:10.346494,192.168.0.113
2051,-1,-100,-100,-100,"0,0,0",2,0,0,0,0,0,64,67,79,50,100,-19.86,41,78.0,-16.0,-1011.0,11:05:10.448235,192.168.0.113
2056,-1,-100,-100,-100,"0,0,0",3,0,0,0,0,0,64,67,80,50,100,-19.88,41,40.0,-9.0,-1009.0,11:05:10.550215,192.168.0.113
2061,-1,-100,-100,-100,"0,0,0",3,1,0,0,0,0,64,67,79,50,100,-19.91,41,71.0,0.0,-1039.0,11:05:10.652416,192.168.0.113
2066,-1,-100,-100,-100,"0,0,0",3,0,0,0,0,0,64,67,80,50,100,-19.95,41,37.0,16.0,-1010.0,11:05:10.754148,192.168.0.113
2071,-1,-100,-100,-100,"0,0,0",3,0,0,0,0,0,64,67,81,50,100,-19.93,41,59.0,17.0,-1007.0,11:05:10.856989,192.168.0.113
2076,-1,-100,-100,-100,"0,0,0",3,0,0,0,0,0,64,67,81,50,100,-19.89,41,28.0,30.0,-1007.0,11:05:10.958687,192.168.0.113
2081,-1,-100,-100,-100,"0,0,0",3,0,0,0,0,0,63,66,81,50,100,-19.97,41,39.0,13.0,-982.0,11:05:11.061431,192.168.0.113
2086,-1,-100,-100,-100,"0,0,0",3,0,0,0,0,0,63,66,82,50,100,-19.95,41,18.0,36.0,-1006.0,11:05:11.163728,192.168.0.113
2091,-1,-100,-100,-100,"0,0,0",3,0,0,0,0,0,63,66,82,50,100,-19.95,41,24.0,35.0,-978.0,11:05:11.264097,192.168.0.113
2095,-1,-100,-100,-100,"0,0,0",2,0,0,0,0,0,63,66,82,50,100,-19.93,41,10.0,53.0,-953.0,11:05:11.315141,192.168.0.113
2100,-1,-100,-100,-100,"0,0,0",2,-1,0,0,0,0,63,66,80,50,100,-19.88,42,13.0,39.0,-1003.0,11:05:11.417116,192.168.0.113
2105,-1,-100,-100,-100,"0,0,0",2,-1,0,0,0,0,63,66,80,50,100,-19.9,42,6.0,33.0,-988.0,11:05:11.519252,192.168.0.113
2110,-1,-100,-100,-100,"0,0,0",1,-1,0,0,0,0,63,66,79,50,100,-19.97,42,15.0,18.0,-1001.0,11:05:11.621192,192.168.0.113
2115,-1,-100,-100,-100,"0,0,0",1,-1,0,0,0,0,63,66,78,50,100,-19.96,42,27.0,49.0,-1010.0,11:05:11.723025,192.168.0.113
2120,-1,-100,-100,-100,"0,0,0",1,-2,0,0,0,0,63,66,78,50,100,-19.95,42,29.0,33.0,-1043.0,11:05:11.825694,192.168.0.113
2125,-1,-100,-100,-100,"0,0,0",1,-2,0,0,0,0,63,66,77,50,100,-19.91,42,30.0,21.0,-1018.0,11:05:11.927195,192.168.0.113
2130,-1,-100,-100,-100,"0,0,0",1,-2,0,0,0,0,63,66,77,50,100,-19.92,42,19.0,35.0,-1008.0,11:05:12.029230,192.168.0.113
2135,-1,-100,-100,-100,"0,0,0",1,-2,0,0,0,0,63,66,77,50,100,-19.96,42,8.0,40.0,-997.0,11:05:12.131223,192.168.0.113
2141,-1,-100,-100,-100,"0,0,0",0,-2,0,0,0,0,63,66,77,50,100,-19.92,42,35.0,55.0,-1000.0,11:05:12.233160,192.168.0.113
2145,-1,-100,-100,-100,"0,0,0",0,-2,0,0,0,0,63,66,77,50,100,-19.92,42,13.0,17.0,-1004.0,11:05:12.336687,192.168.0.113
2151,-1,-100,-100,-100,"0,0,0",1,-2,0,0,0,0,63,66,78,50,100,-19.86,43,5.0,19.0,-995.0,11:05:12.436500,192.168.0.113
2156,-1,-100,-100,-100,"0,0,0",1,-2,0,0,0,0,63,66,78,50,100,-19.92,43,11.0,33.0,-1018.0,11:05:12.547835,192.168.0.113
2161,-1,-100,-100,-100,"0,0,0",0,-2,0,0,0,0,63,66,78,50,100,-20.02,43,7.0,37.0,-985.0,11:05:12.640861,192.168.0.113
2166,-1,-100,-100,-100,"0,0,0",0,-1,0,0,0,0,63,66,78,50,100,-19.93,43,-8.0,16.0,-969.0,11:05:12.743026,192.168.0.113
2171,-1,-100,-100,-100,"0,0,0",0,0,0,0,0,0,63,66,79,50,100,-20.0,43,21.0,23.0,-977.0,11:05:12.845098,192.168.0.113
2175,-1,-100,-100,-100,"0,0,0",1,0,0,0,0,0,63,66,77,50,100,-19.98,43,-6.0,12.0,-994.0,11:05:12.947242,192.168.0.113
2181,-1,-100,-100,-100,"0,0,0",0,0,0,0,0,0,64,67,77,50,100,-20.02,43,28.0,24.0,-986.0,11:05:13.049049,192.168.0.113
2186,-1,-100,-100,-100,"0,0,0",0,0,0,0,0,0,64,67,78,50,100,-19.96,43,32.0,-3.0,-989.0,11:05:13.150968,192.168.0.113
2191,-1,-100,-100,-100,"0,0,0",0,0,0,0,0,0,64,67,78,50,100,-19.99,43,-2.0,20.0,-1015.0,11:05:13.252846,192.168.0.113
2196,-1,-100,-100,-100,"0,0,0",0,0,0,0,0,0,64,67,78,50,100,-19.87,43,17.0,22.0,-999.0,11:05:13.355057,192.168.0.113
2201,-1,-100,-100,-100,"0,0,0",1,0,0,0,0,0,64,67,78,50,100,-19.89,44,1.0,3.0,-1011.0,11:05:13.456813,192.168.0.113
2205,-1,-100,-100,-100,"0,0,0",1,0,0,0,0,0,64,67,79,50,100,-19.85,44,6.0,36.0,-976.0,11:05:13.559036,192.168.0.113
2211,-1,-100,-100,-100,"0,0,0",0,0,0,0,0,0,64,67,80,50,100,-19.84,44,25.0,23.0,-984.0,11:05:13.660799,192.168.0.113
2216,-1,-100,-100,-100,"0,0,0",0,0,0,0,0,0,64,67,81,50,100,-19.96,44,18.0,6.0,-1016.0,11:05:13.762980,192.168.0.113
2221,-1,-100,-100,-100,"0,0,0",0,0,0,0,0,0,64,67,79,50,100,-19.98,44,32.0,2.0,-981.0,11:05:13.865053,192.168.0.113
2226,-1,-100,-100,-100,"0,0,0",1,0,0,0,0,0,64,67,80,50,100,-19.85,44,23.0,-1.0,-990.0,11:05:13.966909,192.168.0.113
2231,-1,-100,-100,-100,"0,0,0",1,0,0,0,0,0,64,67,80,50,100,-19.9,44,-1.0,0.0,-993.0,11:05:14.069058,192.168.0.113
2236,-1,-100,-100,-100,"0,0,0",1,0,0,0,0,0,64,67,80,50,100,-19.83,44,3.0,1.0,-992.0,11:05:14.170866,192.168.0.113
2241,-1,-100,-100,-100,"0,0,0",1,0,0,0,0,0,64,67,80,50,100,-19.9,44,29.0,10.0,-995.0,11:05:14.273060,192.168.0.113
2244,-1,-100,-100,-100,"0,0,0",1,0,0,0,0,0,64,67,80,50,100,-19.88,44,17.0,-15.0,-985.0,11:05:14.324055,192.168.0.113
2249,-1,-100,-100,-100,"0,0,0",1,0,0,0,0,0,64,67,80,50,100,-19.86,45,21.0,4.0,-998.0,11:05:14.425871,192.168.0.113
2254,-1,-100,-100,-100,"0,0,0",1,1,0,0,0,0,64,67,80,50,100,-19.95,45,30.0,-6.0,-977.0,11:05:14.528091,192.168.0.113
2260,-1,-100,-100,-100,"0,0,0",2,1,0,0,0,0,64,67,81,50,100,-19.91,45,31.0,-16.0,-987.0,11:05:14.630101,192.168.0.113
2265,-1,-100,-100,-100,"0,0,0",2,1,0,0,0,0,64,67,80,50,100,-19.83,45,32.0,0.0,-990.0,11:05:14.731409,192.168.0.113
2270,-1,-100,-100,-100,"0,0,0",2,1,0,0,0,0,64,67,80,50,100,-19.89,45,34.0,10.0,-1003.0,11:05:14.834598,192.168.0.113
2275,-1,-100,-100,-100,"0,0,0",2,0,0,0,0,0,64,67,80,50,100,-19.94,45,46.0,-32.0,-1011.0,11:05:14.935572,192.168.0.113
2280,-1,-100,-100,-100,"0,0,0",2,0,0,0,0,0,64,67,80,50,100,-19.96,45,22.0,-3.0,-976.0,11:05:15.037903,192.168.0.113
2285,-1,-100,-100,-100,"0,0,0",2,0,0,0,0,0,64,67,81,50,100,-19.96,45,14.0,-23.0,-983.0,11:05:15.139962,192.168.0.113
2290,-1,-100,-100,-100,"0,0,0",1,1,0,0,0,0,64,67,80,50,100,-19.98,45,8.0,-16.0,-992.0,11:05:15.241936,192.168.0.113
2295,-1,-100,-100,-100,"0,0,0",1,1,0,0,0,0,64,67,80,50,100,-19.98,45,35.0,7.0,-997.0,11:05:15.344321,192.168.0.113
2300,-1,-100,-100,-100,"0,0,0",1,1,0,0,0,0,64,67,79,50,100,-19.85,46,37.0,-21.0,-1003.0,11:05:15.446602,192.168.0.113
2305,-1,-100,-100,-100,"0,0,0",1,0,0,0,0,0,64,67,79,50,100,-19.88,46,0.0,9.0,-998.0,11:05:15.549482,192.168.0.113
2310,-1,-100,-100,-100,"0,0,0",0,0,0,0,0,0,64,67,78,50,100,-19.99,46,-6.0,1.0,-981.0,11:05:15.653649,192.168.0.113
2315,-1,-100,-100,-100,"0,0,0",0,0,0,0,0,0,64,67,78,50,100,-19.97,46,-1.0,1.0,-1005.0,11:05:15.753770,192.168.0.113
2321,-1,-100,-100,-100,"0,0,0",0,0,0,0,0,0,64,67,78,50,100,-20.02,46,5.0,11.0,-1023.0,11:05:15.856901,192.168.0.113
2326,-1,-100,-100,-100,"0,0,0",0,0,0,0,0,0,64,67,78,50,100,-19.94,46,8.0,8.0,-1030.0,11:05:15.958405,192.168.0.113
2331,-1,-100,-100,-100,"0,0,0",0,0,0,0,0,0,65,67,78,50,100,-19.9,46,11.0,12.0,-980.0,11:05:16.071098,192.168.0.113
2336,-1,-100,-100,-100,"0,0,0",0,0,0,0,0,0,65,67,79,50,100,-20.0,46,0.0,12.0,-1003.0,11:05:16.159912,192.168.0.113
2341,-1,-100,-100,-100,"0,0,0",0,0,0,0,0,0,65,67,79,50,100,-19.9,46,19.0,15.0,-960.0,11:05:16.262319,192.168.0.113
2346,-1,-100,-100,-100,"0,0,0",0,0,0,0,0,0,65,67,80,50,100,-19.91,46,12.0,29.0,-1021.0,11:05:16.363862,192.168.0.113
2351,-1,-100,-100,-100,"0,0,0",0,0,0,0,0,0,65,67,80,50,100,-19.93,47,-15.0,4.0,-1008.0,11:05:16.466113,192.168.0.113
2356,-1,-100,-100,-100,"0,0,0",0,0,0,0,0,0,65,67,79,50,100,-19.89,47,1.0,1.0,-998.0,11:05:16.568333,192.168.0.113
2361,-1,-100,-100,-100,"0,0,0",0,0,0,0,0,0,65,67,80,50,100,-19.87,47,14.0,4.0,-1022.0,11:05:16.669946,192.168.0.113
2366,-1,-100,-100,-100,"0,0,0",0,0,0,0,0,0,65,67,80,50,100,-19.99,47,-2.0,9.0,-1003.0,11:05:16.772018,192.168.0.113
2371,-1,-100,-100,-100,"0,0,0",0,0,0,0,0,0,65,67,81,50,100,-19.87,47,-1.0,20.0,-976.0,11:05:16.873716,192.168.0.113
2376,-1,-100,-100,-100,"0,0,0",0,0,0,0,0,0,65,67,81,50,100,-19.89,47,-1.0,17.0,-991.0,11:05:16.975615,192.168.0.113
2381,-1,-100,-100,-100,"0,0,0",0,0,0,0,0,0,65,67,81,50,100,-19.9,47,32.0,-5.0,-1002.0,11:05:17.078053,192.168.0.113
2386,-1,-100,-100,-100,"0,0,0",1,0,0,0,0,0,65,67,81,50,100,-19.93,47,-1.0,26.0,-993.0,11:05:17.179710,192.168.0.113
2391,-1,-100,-100,-100,"0,0,0",1,-1,0,0,0,0,65,67,80,50,100,-19.95,47,-16.0,15.0,-1002.0,11:05:17.281905,192.168.0.113
2396,-1,-100,-100,-100,"0,0,0",1,-1,0,0,0,0,65,67,80,50,100,-19.82,47,5.0,-1.0,-995.0,11:05:17.384074,192.168.0.113
2401,-1,-100,-100,-100,"0,0,0",0,-1,0,0,0,0,65,67,80,50,100,-19.9,48,-1.0,14.0,-985.0,11:05:17.485743,192.168.0.113
2406,-1,-100,-100,-100,"0,0,0",0,0,0,0,0,0,65,67,79,50,100,-19.89,48,7.0,12.0,-997.0,11:05:17.588001,192.168.0.113
2409,-1,-100,-100,-100,"0,0,0",0,0,0,0,0,0,65,67,79,50,100,-19.89,48,-5.0,18.0,-1033.0,11:05:17.638714,192.168.0.113
2414,-1,-100,-100,-100,"0,0,0",0,0,0,0,0,0,65,67,79,50,100,-19.9,48,-15.0,25.0,-989.0,11:05:17.740849,192.168.0.113
2419,-1,-100,-100,-100,"0,0,0",0,0,0,0,0,0,65,67,79,50,100,-19.91,48,-10.0,21.0,-998.0,11:05:17.842791,192.168.0.113
2424,-1,-100,-100,-100,"0,0,0",0,0,0,0,0,0,65,67,79,50,100,-19.95,48,13.0,22.0,-993.0,11:05:17.944851,192.168.0.113
2429,-1,-100,-100,-100,"0,0,0",0,0,0,0,0,0,65,67,78,50,100,-19.9,48,-5.0,26.0,-997.0,11:05:18.046735,192.168.0.113
2434,-1,-100,-100,-100,"0,0,0",0,-1,0,0,0,0,65,67,78,50,100,-19.95,48,-17.0,19.0,-1013.0,11:05:18.148832,192.168.0.113
2440,-1,-100,-100,-100,"0,0,0",0,-1,0,0,0,0,65,67,78,50,100,-20.02,48,-13.0,10.0,-1016.0,11:05:18.251050,192.168.0.113
2445,-1,-100,-100,-100,"0,0,0",0,-1,0,0,0,0,65,67,78,50,100,-20.02,48,12.0,22.0,-1009.0,11:05:18.352904,192.168.0.113
2450,-1,-100,-100,-100,"0,0,0",0,0,0,0,0,0,65,67,78,50,100,-19.96,49,3.0,17.0,-992.0,11:05:18.455080,192.168.0.113
2455,-1,-100,-100,-100,"0,0,0",0,-1,0,0,0,0,65,67,78,50,100,-20.02,49,12.0,32.0,-990.0,11:05:18.557451,192.168.0.113
2460,-1,-100,-100,-100,"0,0,0",0,-1,0,0,0,0,65,67,78,50,100,-20.02,49,1.0,34.0,-1016.0,11:05:18.659182,192.168.0.113
2465,-1,-100,-100,-100,"0,0,0",0,-1,0,0,0,0,65,67,78,50,100,-19.97,49,-10.0,38.0,-999.0,11:05:18.761276,192.168.0.113
2470,-1,-100,-100,-100,"0,0,0",0,-2,0,0,0,0,65,67,78,50,100,-19.94,49,-5.0,20.0,-1017.0,11:05:18.863264,192.168.0.113
2475,-1,-100,-100,-100,"0,0,0",0,-2,0,0,0,0,65,67,78,50,100,-19.94,49,-25.0,30.0,-1001.0,11:05:18.966674,192.168.0.113
2480,-1,-100,-100,-100,"0,0,0",0,-1,0,0,0,0,65,67,78,50,100,-20.0,49,-9.0,32.0,-1011.0,11:05:19.067385,192.168.0.113
2486,-1,-100,-100,-100,"0,0,0",0,-1,0,0,0,0,65,67,79,50,100,-19.99,49,12.0,21.0,-992.0,11:05:19.169406,192.168.0.113
2491,-1,-100,-100,-100,"0,0,0",0,-1,0,0,0,0,65,67,79,50,100,-20.01,49,-24.0,33.0,-986.0,11:05:19.271420,192.168.0.113
2496,-1,-100,-100,-100,"0,0,0",0,-2,0,0,0,0,65,67,80,50,100,-20.12,49,11.0,11.0,-1005.0,11:05:19.374263,192.168.0.113
2501,-1,-100,-100,-100,"0,0,0",0,-2,0,0,0,0,65,67,79,50,100,-20.0,50,-31.0,0.0,-992.0,11:05:19.475574,192.168.0.113
2506,-1,-100,-100,-100,"0,0,0",0,-1,0,0,0,0,65,67,79,50,100,-19.97,50,-13.0,30.0,-995.0,11:05:19.578038,192.168.0.113
2511,-1,-100,-100,-100,"0,0,0",0,0,0,0,0,0,65,67,79,50,100,-20.03,50,-1.0,18.0,-1016.0,11:05:19.680100,192.168.0.113
2516,-1,-100,-100,-100,"0,0,0",0,0,0,0,0,0,65,67,79,50,100,-20.01,50,-7.0,5.0,-1002.0,11:05:19.781623,192.168.0.113
2521,-1,-100,-100,-100,"0,0,0",0,0,0,0,0,0,65,67,79,50,100,-19.92,50,-20.0,39.0,-994.0,11:05:19.883873,192.168.0.113
2526,-1,-100,-100,-100,"0,0,0",0,0,0,0,0,0,65,67,79,50,100,-19.94,50,24.0,24.0,-1006.0,11:05:19.985994,192.168.0.113
2531,-1,-100,-100,-100,"0,0,0",0,0,0,0,0,0,65,67,79,50,100,-20.01,50,13.0,12.0,-1001.0,11:05:20.087931,192.168.0.113
2536,-1,-100,-100,-100,"0,0,0",0,0,0,0,0,0,65,67,79,50,100,-20.06,50,20.0,33.0,-994.0,11:05:20.191420,192.168.0.113
2541,-1,-100,-100,-100,"0,0,0",0,0,0,0,0,0,65,67,79,50,100,-20.11,50,16.0,25.0,-1017.0,11:05:20.291700,192.168.0.113
2546,-1,-100,-100,-100,"0,0,0",0,0,0,0,0,0,65,67,79,50,100,-20.05,50,17.0,17.0,-1009.0,11:05:20.393548,192.168.0.113
2551,-1,-100,-100,-100,"0,0,0",1,-1,0,0,0,0,65,67,79,50,100,-20.06,51,15.0,44.0,-996.0,11:05:20.496097,192.168.0.113
2555,-1,-100,-100,-100,"0,0,0",1,-1,0,0,0,0,65,67,79,50,100,-20.0,51,-22.0,29.0,-1010.0,11:05:20.598056,192.168.0.113
2561,-1,-100,-100,-100,"0,0,0",1,-1,0,0,0,0,65,67,79,50,100,-20.1,51,9.0,20.0,-1003.0,11:05:20.700294,192.168.0.113
2566,-1,-100,-100,-100,"0,0,0",1,0,0,0,0,0,65,67,79,50,100,-20.05,51,15.0,17.0,-987.0,11:05:20.801959,192.168.0.113
2571,-1,-100,-100,-100,"0,0,0",1,0,0,0,0,0,65,67,80,50,100,-20.04,51,21.0,17.0,-1001.0,11:05:20.904281,192.168.0.113
2575,-1,-100,-100,-100,"0,0,0",0,0,0,0,0,0,65,67,80,50,100,-20.06,51,30.0,30.0,-998.0,11:05:21.006496,192.168.0.113
