,mid,x,y,z,mpry,pitch,roll,yaw,vgx,vgy,vgz,templ,temph,tof,h,bat,baro,time,agx,agy,agz,timestamp,address
2,-1,-100,-100,-100,"-1,-1,-1",0,0,0,0,0,0,78,80,10,0,92,-11.32,0,-7.0,7.0,-1000.0,13:29:31.159502,192.168.0.115
7,-1,-100,-100,-100,"-1,-1,-1",0,0,0,0,0,0,77,81,10,0,92,-11.28,0,-5.0,6.0,-1000.0,13:29:31.261634,192.168.0.115
14,-1,-100,-100,-100,"-1,-1,-1",0,0,0,0,0,0,77,81,10,0,92,-11.3,0,-6.0,7.0,-1001.0,13:29:31.363453,192.168.0.115
15,-1,-100,-100,-100,"-1,-1,-1",0,0,0,0,0,0,77,81,10,0,92,-11.26,0,-7.0,4.0,-1001.0,13:29:31.506051,192.168.0.115
20,-1,-100,-100,-100,"-1,-1,-1",0,0,0,0,0,0,77,81,10,0,92,-11.28,0,-6.0,6.0,-1000.0,13:29:31.516642,192.168.0.115
25,-1,-100,-100,-100,"-1,-1,-1",0,0,0,0,0,0,77,81,10,0,92,-11.28,0,0.0,2.0,-1000.0,13:29:31.618450,192.168.0.115
30,-1,-100,-100,-100,"-1,-1,-1",0,0,0,0,0,0,77,81,10,0,92,-11.28,0,2.0,-3.0,-1000.0,13:29:31.720438,192.168.0.115
35,-1,-100,-100,-100,"-1,-1,-1",0,0,0,0,0,0,77,81,10,0,92,-11.28,0,-13.0,12.0,-1003.0,13:29:31.838028,192.168.0.115
40,-1,-100,-100,-100,"-1,-1,-1",0,0,0,0,0,0,77,81,10,0,92,-11.28,0,1.0,-7.0,-1007.0,13:29:31.958195,192.168.0.115
45,-1,-100,-100,-100,"-1,-1,-1",0,0,0,0,0,0,77,81,10,0,92,-11.28,0,12.0,-16.0,-1121.0,13:29:32.077574,192.168.0.115
50,-1,-100,-100,-100,"-1,-1,-1",0,0,-1,0,0,-1,77,81,10,0,92,-11.28,0,1.0,-20.0,-1241.0,13:29:32.128398,192.168.0.115
55,-1,-100,-100,-100,"-1,-1,-1",0,0,-1,0,0,-4,78,81,10,0,92,-11.28,0,6.0,-17.0,-1310.0,13:29:32.230384,192.168.0.115
60,-1,-100,-100,-100,"-1,-1,-1",0,0,-1,0,0,-6,78,81,13,0,92,-11.11,0,-8.0,-12.0,-1164.0,13:29:32.332352,192.168.0.115
65,-1,-100,-100,-100,"-1,-1,-1",0,1,-1,0,0,-7,78,81,20,0,92,-10.84,0,-2.0,-20.0,-1038.0,13:29:32.437755,192.168.0.115
70,-1,-100,-100,-100,"-1,-1,-1",0,1,-1,0,0,-7,78,81,28,10,92,-10.73,1,-1.0,0.0,-1013.0,13:29:32.557734,192.168.0.115
75,-1,-100,-100,-100,"-1,-1,-1",0,0,-1,0,0,-7,78,81,36,10,92,-10.66,1,-21.0,5.0,-983.0,13:29:32.680066,192.168.0.115
80,-1,-100,-100,-100,"-1,-1,-1",0,0,-1,0,0,-6,78,81,45,20,92,-10.68,1,-14.0,-3.0,-941.0,13:29:32.797633,192.168.0.115
86,5,20,0,48,"1,3,-178",0,0,-1,0,0,-5,78,81,53,20,92,-10.59,1,-1.0,-11.0,-911.0,13:29:32.842452,192.168.0.115
91,5,21,0,55,"2,3,-178",0,0,-1,0,0,-4,78,81,61,30,92,-10.55,1,3.0,0.0,-898.0,13:29:32.945581,192.168.0.115
97,5,20,-2,67,"1,2,-177",0,0,-1,0,0,-3,78,81,68,30,92,-10.45,1,-5.0,-1.0,-894.0,13:29:33.048393,192.168.0.115
101,5,21,1,69,"2,3,-179",0,0,-1,0,0,-2,78,81,73,30,92,-10.38,1,1.0,-5.0,-905.0,13:29:33.157567,192.168.0.115
107,5,19,-1,76,"1,3,-177",0,0,-1,0,0,-1,77,81,78,40,92,-10.37,1,-3.0,-6.0,-910.0,13:29:33.281635,192.168.0.115
111,5,19,-1,81,"0,3,-178",0,0,-1,0,0,-1,77,81,82,40,92,-10.3,1,-6.0,7.0,-931.0,13:29:33.401064,192.168.0.115
117,5,17,-2,85,"0,3,-177",0,0,-1,0,0,0,77,81,86,40,92,-10.2,1,-3.0,-1.0,-928.0,13:29:33.454378,192.168.0.115
122,5,16,-2,87,"0,3,-177",0,0,-1,0,0,0,77,81,89,40,92,-10.18,2,-2.0,-9.0,-937.0,13:29:33.556254,192.168.0.115
127,5,16,1,91,"0,4,179",0,0,-1,0,0,0,77,81,91,40,92,-10.19,2,2.0,-7.0,-952.0,13:29:33.758352,192.168.0.115
132,5,17,-4,93,"0,3,-177",0,0,-1,0,0,0,77,81,93,50,92,-10.12,2,-1.0,-15.0,-956.0,13:29:33.767336,192.168.0.115
137,5,16,-4,96,"0,3,-176",0,0,-1,0,0,0,77,81,95,50,92,-10.13,2,-4.0,-1.0,-967.0,13:29:33.883170,192.168.0.115
142,5,15,-4,97,"0,3,-176",0,0,-1,0,0,0,77,81,96,50,92,-10.16,2,-13.0,0.0,-963.0,13:29:33.999081,192.168.0.115
148,5,11,-4,98,"-2,3,-176",0,0,-1,0,0,0,77,81,96,50,91,-10.07,2,-3.0,3.0,-980.0,13:29:34.118884,192.168.0.115
153,5,15,-5,98,"0,3,-176",0,0,-1,0,0,0,77,81,97,50,91,-10.1,2,-12.0,-5.0,-973.0,13:29:34.168234,192.168.0.115
158,5,13,-1,99,"-1,3,-178",0,0,-1,0,0,0,78,80,97,50,91,-10.1,2,6.0,-15.0,-960.0,13:29:34.270272,192.168.0.115
160,5,17,-4,98,"1,3,-176",0,0,-1,0,0,1,78,80,97,50,91,-10.14,2,4.0,4.0,-962.0,13:29:34.383745,192.168.0.115
165,5,11,0,100,"-2,3,-179",0,0,-1,0,0,1,78,80,97,50,91,-10.13,2,1.0,-9.0,-974.0,13:29:34.486509,192.168.0.115
170,5,13,-4,99,"-1,3,-176",0,0,-1,0,0,1,78,80,96,50,91,-10.12,3,9.0,-16.0,-979.0,13:29:34.525401,192.168.0.115
175,5,12,-2,98,"-1,3,-177",0,0,-1,0,0,1,78,80,95,50,91,-10.13,3,-8.0,8.0,-988.0,13:29:34.627277,192.168.0.115
180,5,14,-3,98,"0,3,-177",0,0,-1,0,0,1,78,80,94,50,91,-10.18,3,-10.0,4.0,-985.0,13:29:34.729322,192.168.0.115
185,5,14,-3,96,"0,3,-177",0,0,-1,0,0,1,78,80,93,50,91,-10.18,3,0.0,1.0,-990.0,13:29:34.838895,192.168.0.115
190,5,15,-2,95,"0,3,-177",0,0,-1,0,0,1,78,80,92,50,91,-10.23,3,20.0,-4.0,-983.0,13:29:34.960221,192.168.0.115
195,5,13,-1,95,"0,3,-178",0,0,-1,0,0,1,78,80,91,50,91,-10.19,3,-7.0,4.0,-995.0,13:29:35.198533,192.168.0.115
200,5,12,-3,93,"-1,3,-177",0,0,-1,0,0,1,78,80,89,50,91,-10.16,3,5.0,-13.0,-996.0,13:29:35.198940,192.168.0.115
205,5,14,-4,91,"0,3,-176",0,0,-1,0,0,1,77,80,87,50,91,-10.17,3,-1.0,0.0,-999.0,13:29:35.239249,192.168.0.115
210,5,13,1,91,"-1,3,179",0,0,-1,0,0,1,77,80,87,50,91,-10.19,3,3.0,-4.0,-1000.0,13:29:35.341483,192.168.0.115
217,5,12,2,89,"-2,3,178",0,0,-1,0,0,1,77,80,85,50,91,-10.21,3,0.0,0.0,-1006.0,13:29:35.445309,192.168.0.115
221,5,12,-1,88,"-2,3,-178",0,0,-1,0,0,1,77,80,84,40,91,-10.17,4,-7.0,8.0,-1003.0,13:29:35.559173,192.168.0.115
226,5,15,-3,85,"0,3,-177",0,0,-1,0,0,0,77,80,83,40,91,-10.15,4,-3.0,5.0,-1002.0,13:29:35.679370,192.168.0.115
232,5,12,-2,86,"-2,3,-178",0,0,-1,0,0,0,77,80,82,40,91,-10.22,4,13.0,0.0,-992.0,13:29:35.822544,192.168.0.115
237,5,16,-1,83,"0,3,-178",0,0,-1,0,0,0,77,80,81,40,91,-10.17,4,-8.0,13.0,-1004.0,13:29:35.853711,192.168.0.115
242,5,16,-4,82,"0,3,-177",0,0,-1,0,0,0,77,80,80,40,91,-10.22,4,6.0,-9.0,-1008.0,13:29:35.956158,192.168.0.115
247,5,16,-3,81,"0,3,-177",0,0,-1,0,0,0,77,80,78,40,91,-10.23,4,-4.0,-11.0,-1001.0,13:29:36.058350,192.168.0.115
254,5,14,-1,81,"-1,3,-178",0,0,-1,0,0,0,77,80,78,40,91,-10.15,4,10.0,-6.0,-1006.0,13:29:36.281502,192.168.0.115
257,5,17,-2,79,"0,3,-177",0,0,-1,0,0,0,77,81,77,40,91,-10.22,4,6.0,-11.0,-1005.0,13:29:36.281710,192.168.0.115
262,5,17,-3,78,"0,3,-177",0,0,-1,0,0,0,77,81,76,40,91,-10.23,4,-5.0,-3.0,-1004.0,13:29:36.521250,192.168.0.115
267,5,17,-3,77,"0,3,-177",0,0,-1,0,0,0,77,81,76,40,91,-10.25,4,-2.0,2.0,-1009.0,13:29:36.521655,192.168.0.115
272,5,16,-3,77,"0,3,-178",0,0,-1,0,0,0,77,81,75,40,91,-10.26,5,25.0,-24.0,-1014.0,13:29:36.566074,192.168.0.115
277,5,17,-3,76,"0,3,-177",0,0,-1,0,0,0,77,81,75,40,91,-10.27,5,-2.0,2.0,-1016.0,13:29:36.668186,192.168.0.115
283,5,18,-4,75,"1,3,-177",0,0,-1,0,0,0,77,81,74,40,91,-10.31,5,7.0,-18.0,-1004.0,13:29:36.770962,192.168.0.115
287,5,17,-3,75,"0,3,-177",0,0,-1,0,0,0,77,81,74,40,91,-10.29,5,-1.0,0.0,-1002.0,13:29:36.883250,192.168.0.115
290,5,17,-3,75,"0,3,-177",0,0,-1,0,0,0,77,81,74,40,91,-10.27,5,12.0,0.0,-1007.0,13:29:36.923143,192.168.0.115
295,5,17,-2,75,"0,3,-178",0,0,-1,0,0,0,77,81,73,40,91,-10.28,5,22.0,-19.0,-1006.0,13:29:37.025210,192.168.0.115
300,5,17,-4,75,"0,3,-177",0,0,-1,0,0,0,77,81,73,30,91,-10.23,5,7.0,-8.0,-1013.0,13:29:37.241232,192.168.0.115
305,5,18,-4,75,"0,3,-177",0,0,-1,0,0,0,77,81,74,30,91,-10.24,5,10.0,2.0,-1013.0,13:29:37.241603,192.168.0.115
311,5,17,-3,75,"0,3,-177",0,0,-1,0,0,0,77,81,74,30,91,-10.3,5,-4.0,-2.0,-1001.0,13:29:37.364484,192.168.0.115
315,5,18,-3,75,"0,3,-177",0,0,-1,0,0,0,77,81,74,30,91,-10.28,5,-2.0,0.0,-990.0,13:29:37.482217,192.168.0.115
320,5,18,-3,75,"0,3,-177",0,0,-1,0,0,0,77,81,74,40,91,-10.25,6,2.0,-6.0,-1009.0,13:29:37.535215,192.168.0.115
325,5,17,-2,76,"0,3,-178",0,0,-1,0,0,0,77,81,74,40,91,-10.28,6,26.0,-15.0,-985.0,13:29:37.637104,192.168.0.115
330,5,18,-4,76,"0,3,-177",0,0,-1,0,0,0,77,81,74,40,91,-10.23,6,2.0,-2.0,-998.0,13:29:37.739044,192.168.0.115
335,5,18,-3,76,"0,3,-177",0,0,-1,0,0,0,77,81,75,40,91,-10.26,6,1.0,-2.0,-999.0,13:29:37.877903,192.168.0.115
341,5,17,-2,77,"0,3,-178",0,0,-1,0,0,0,77,81,75,40,91,-10.27,6,0.0,1.0,-1002.0,13:29:37.980775,192.168.0.115
346,5,18,-3,76,"0,3,-177",0,0,-1,0,0,0,77,81,75,40,91,-10.24,6,12.0,-4.0,-998.0,13:29:38.201436,192.168.0.115
352,5,18,-3,76,"0,3,-177",0,0,-1,0,0,0,77,81,76,40,91,-10.28,6,9.0,-12.0,-1005.0,13:29:38.201632,192.168.0.115
356,5,18,-4,77,"0,3,-177",0,0,-1,0,0,0,77,81,76,40,91,-10.25,6,6.0,2.0,-1010.0,13:29:38.248907,192.168.0.115
361,5,18,-4,77,"0,3,-177",0,0,-1,0,0,0,77,81,76,40,91,-10.23,6,-4.0,-8.0,-991.0,13:29:38.351024,192.168.0.115
366,5,18,-3,78,"0,3,-177",0,0,-1,0,0,0,77,81,76,40,91,-10.22,6,-15.0,14.0,-1006.0,13:29:38.452948,192.168.0.115
371,5,18,-3,78,"0,3,-177",0,0,-1,0,0,0,77,81,77,40,91,-10.17,7,15.0,-3.0,-1004.0,13:29:38.681910,192.168.0.115
376,5,19,-3,78,"0,3,-177",0,0,-1,0,0,0,77,81,77,40,91,-10.15,7,-24.0,5.0,-1001.0,13:29:38.682246,192.168.0.115
381,5,19,-3,78,"0,3,-177",0,0,-1,0,0,0,77,81,77,40,91,-10.22,7,6.0,-3.0,-997.0,13:29:38.802905,192.168.0.115
386,5,19,-5,79,"1,3,-177",0,0,-1,0,0,0,77,81,77,40,91,-10.2,7,-4.0,-11.0,-992.0,13:29:38.922246,192.168.0.115
391,5,19,-5,79,"1,3,-177",0,0,-1,0,0,0,77,81,78,40,91,-10.27,7,-15.0,10.0,-1009.0,13:29:38.962940,192.168.0.115
396,5,19,-4,79,"0,3,-177",0,0,-1,0,0,0,77,81,78,40,91,-10.12,7,-15.0,7.0,-993.0,13:29:39.065588,192.168.0.115
401,5,19,-4,79,"0,3,-177",0,0,-1,0,0,0,77,81,78,40,91,-10.19,7,-1.0,11.0,-997.0,13:29:39.167010,192.168.0.115
406,5,18,-4,80,"0,3,-177",0,0,-1,0,0,0,77,81,78,40,91,-10.2,7,-12.0,7.0,-1004.0,13:29:39.402455,192.168.0.115
411,5,18,-4,80,"0,3,-177",0,0,-1,0,0,0,77,81,78,40,91,-10.15,7,-11.0,-1.0,-997.0,13:29:39.402923,192.168.0.115
418,5,19,-5,80,"0,3,-177",0,0,-1,0,0,0,77,81,78,40,91,-10.22,7,-1.0,3.0,-1001.0,13:29:39.523944,192.168.0.115
424,5,19,-5,80,"0,3,-177",0,0,-1,0,0,0,77,81,79,40,91,-10.22,8,-22.0,17.0,-989.0,13:29:39.644965,192.168.0.115
429,5,19,-4,80,"0,3,-177",0,0,-1,0,0,0,77,81,78,40,91,-10.25,8,-7.0,12.0,-991.0,13:29:39.762277,192.168.0.115
434,5,19,-4,80,"0,3,-177",0,-1,-1,0,0,0,77,81,78,40,91,-10.19,8,-3.0,-16.0,-948.0,13:29:39.882435,192.168.0.115
439,5,19,-3,79,"1,3,-178",0,0,-1,0,0,0,77,81,78,40,91,-10.25,8,-30.0,30.0,-988.0,13:29:39.932121,192.168.0.115
444,5,19,-3,79,"1,3,-178",0,1,-1,0,0,0,77,81,77,40,91,-10.19,8,0.0,0.0,-1007.0,13:29:40.036618,192.168.0.115
449,5,18,-1,78,"0,3,-178",0,0,-1,0,0,0,77,81,76,40,91,-10.23,8,-3.0,-13.0,-996.0,13:29:40.157421,192.168.0.115
454,5,18,-1,78,"0,3,-178",0,0,-1,0,0,0,77,80,75,40,91,-10.22,8,-15.0,10.0,-1011.0,13:29:40.242740,192.168.0.115
459,5,19,-2,76,"0,3,-178",0,0,-1,0,0,0,77,80,74,30,91,-10.24,8,3.0,-7.0,-1004.0,13:29:40.362501,192.168.0.115
464,5,19,-2,76,"0,3,-178",0,0,-1,0,0,0,77,80,74,30,91,-10.24,8,-11.0,11.0,-1033.0,13:29:40.483625,192.168.0.115
470,5,19,-3,75,"0,3,-178",0,0,-1,0,0,0,77,80,73,30,91,-10.23,9,3.0,2.0,-1028.0,13:29:40.596059,192.168.0.115
475,5,19,-3,75,"0,3,-178",0,0,-1,0,0,0,77,80,73,30,91,-10.22,9,-6.0,-6.0,-1016.0,13:29:40.697785,192.168.0.115
480,5,19,-3,75,"1,3,-178",0,0,-1,0,0,0,77,80,73,30,91,-10.25,9,6.0,-8.0,-1019.0,13:29:40.799015,192.168.0.115
486,5,19,-3,75,"1,3,-178",0,0,-1,0,0,0,77,80,73,30,91,-10.21,9,12.0,0.0,-1009.0,13:29:40.900897,192.168.0.115
490,5,19,-4,75,"1,3,-177",0,0,-1,0,0,0,77,80,73,30,91,-10.24,9,-6.0,-4.0,-1014.0,13:29:41.003908,192.168.0.115
495,5,19,-4,75,"1,3,-177",0,0,-1,0,0,0,77,80,73,30,91,-10.2,9,2.0,5.0,-1005.0,13:29:41.105098,192.168.0.115
501,5,18,-4,75,"0,3,-177",0,0,0,0,0,0,77,80,74,30,91,-10.24,9,-7.0,10.0,-1001.0,13:29:41.207781,192.168.0.115
505,5,18,-4,75,"0,3,-177",0,0,-1,0,0,0,76,81,74,30,91,-10.19,9,11.0,-11.0,-996.0,13:29:41.372179,192.168.0.115
510,5,18,-3,75,"0,3,-179",0,0,-1,0,0,0,76,81,74,30,91,-10.2,9,2.0,-7.0,-997.0,13:29:41.499360,192.168.0.115
517,5,18,-3,75,"0,3,-179",0,0,-1,0,0,0,76,81,74,30,91,-10.21,9,-4.0,-9.0,-1002.0,13:29:41.512899,192.168.0.115
524,5,19,-3,75,"1,3,-178",0,0,-1,0,0,0,76,81,74,30,91,-10.25,10,-2.0,0.0,-1014.0,13:29:41.739799,192.168.0.115
527,5,19,-3,75,"1,3,-178",0,0,0,0,0,0,76,81,74,30,91,-10.23,10,-9.0,14.0,-992.0,13:29:41.740044,192.168.0.115
534,5,18,-4,76,"1,3,-178",0,0,0,0,0,0,76,81,74,30,91,-10.22,10,-9.0,-1.0,-999.0,13:29:41.869896,192.168.0.115
540,5,18,-4,76,"1,3,-178",0,0,0,0,0,0,76,81,74,30,91,-10.24,10,-2.0,-2.0,-1005.0,13:29:41.977136,192.168.0.115
542,5,18,-4,76,"0,3,-178",0,0,0,0,0,0,76,81,74,30,91,-10.24,10,-7.0,11.0,-1010.0,13:29:42.097124,192.168.0.115
547,5,18,-4,76,"0,3,-178",0,0,0,0,0,0,76,81,74,30,91,-10.19,10,-8.0,-6.0,-1005.0,13:29:42.216808,192.168.0.115
552,5,18,-4,76,"0,3,-178",0,0,0,0,0,0,76,81,74,30,91,-10.16,10,0.0,-3.0,-1000.0,13:29:42.227018,192.168.0.115
557,5,18,-3,76,"0,3,-178",0,0,0,0,0,0,76,80,74,30,91,-10.19,10,1.0,6.0,-1001.0,13:29:42.336751,192.168.0.115
562,5,18,-3,76,"0,3,-178",0,0,0,0,0,0,76,80,74,30,91,-10.17,10,5.0,7.0,-1004.0,13:29:42.456410,192.168.0.115
566,5,18,-3,76,"0,3,-178",0,0,0,0,0,0,76,80,74,30,91,-10.2,11,-2.0,2.0,-999.0,13:29:42.577151,192.168.0.115
572,5,18,-3,76,"0,3,-178",0,0,-1,0,0,0,76,80,74,30,91,-10.19,11,5.0,-4.0,-1004.0,13:29:42.696581,192.168.0.115
577,5,20,-4,75,"0,3,-177",0,0,-1,0,0,0,76,80,74,30,91,-10.16,11,0.0,0.0,-999.0,13:29:42.818799,192.168.0.115
582,5,20,-4,75,"0,3,-177",0,0,-1,0,0,0,76,80,74,30,91,-10.19,11,1.0,3.0,-999.0,13:29:42.838880,192.168.0.115
587,5,21,-1,75,"1,3,179",0,0,-1,0,0,0,76,80,74,30,91,-10.19,11,-1.0,6.0,-1003.0,13:29:42.940849,192.168.0.115
592,5,21,-1,75,"1,3,179",0,0,-1,0,0,0,76,80,74,30,91,-10.19,11,5.0,-4.0,-991.0,13:29:43.056887,192.168.0.115
597,5,19,0,76,"0,4,179",0,0,-1,0,0,0,76,80,74,30,91,-10.2,11,3.0,-14.0,-991.0,13:29:43.176683,192.168.0.115
602,5,19,0,76,"0,4,179",0,0,-1,0,0,0,76,80,74,30,91,-10.21,11,-14.0,18.0,-997.0,13:29:43.296627,192.168.0.115
607,5,20,-4,75,"1,3,-177",0,0,-1,0,0,0,77,80,74,30,91,-10.25,11,-7.0,8.0,-1003.0,13:29:43.416536,192.168.0.115
612,5,20,-4,75,"1,3,-177",0,0,0,0,0,0,77,80,74,30,91,-10.22,11,-10.0,9.0,-999.0,13:29:43.536815,192.168.0.115
617,5,20,-4,76,"1,3,-178",0,0,0,0,0,0,77,80,74,30,91,-10.17,12,-22.0,21.0,-1000.0,13:29:43.553192,192.168.0.115
622,5,20,-4,76,"1,3,-178",0,0,0,0,0,0,77,80,74,30,91,-10.25,12,0.0,5.0,-987.0,13:29:43.657553,192.168.0.115
627,5,21,-3,75,"2,3,-178",0,0,0,0,0,0,77,80,74,30,91,-10.23,12,-5.0,14.0,-1001.0,13:29:43.779515,192.168.0.115
632,5,21,-3,75,"2,3,-178",0,0,0,0,0,0,77,80,74,30,91,-10.23,12,0.0,0.0,-1000.0,13:29:43.899019,192.168.0.115
637,5,20,-1,75,"1,3,179",0,0,0,0,0,0,77,80,73,30,91,-10.2,12,-10.0,5.0,-1007.0,13:29:44.018786,192.168.0.115
642,5,20,-1,75,"1,3,179",0,0,-1,0,0,0,77,80,73,30,91,-10.26,12,-2.0,-2.0,-1007.0,13:29:44.258746,192.168.0.115
647,5,20,-2,75,"0,3,-179",0,0,-1,0,0,0,77,80,73,30,91,-10.19,12,5.0,-12.0,-999.0,13:29:44.259123,192.168.0.115
653,5,20,-2,75,"0,3,-179",0,0,-1,0,0,0,77,80,73,30,91,-10.22,12,-18.0,-3.0,-999.0,13:29:44.266859,192.168.0.115
658,5,19,-3,75,"0,3,-178",0,0,-1,0,0,0,76,80,73,30,91,-10.22,12,-17.0,11.0,-1013.0,13:29:44.377955,192.168.0.115
663,5,19,-3,75,"0,3,-178",0,0,-1,0,0,0,76,80,73,30,91,-10.23,12,-7.0,5.0,-1006.0,13:29:44.499219,192.168.0.115
669,5,20,-5,75,"1,3,-177",0,0,-1,0,0,0,76,80,74,30,91,-10.2,13,-17.0,12.0,-1009.0,13:29:44.623673,192.168.0.115
674,5,20,-5,75,"1,3,-177",0,0,-1,0,0,0,76,80,74,30,91,-10.2,13,9.0,9.0,-998.0,13:29:44.739263,192.168.0.115
679,5,20,-1,75,"1,3,-179",0,0,-1,0,0,0,76,80,74,30,91,-10.17,13,2.0,3.0,-1003.0,13:29:44.978257,192.168.0.115
685,5,20,-1,75,"1,3,-179",0,0,-1,0,0,0,76,80,73,30,91,-10.18,13,8.0,-11.0,-994.0,13:29:44.978766,192.168.0.115
690,5,19,-3,75,"0,3,-178",0,0,-1,0,0,0,76,80,74,30,91,-10.15,13,-28.0,14.0,-997.0,13:29:45.099128,192.168.0.115
695,5,19,-3,75,"0,3,-178",0,0,-1,0,0,0,76,80,73,30,91,-10.14,13,-7.0,-3.0,-990.0,13:29:45.220126,192.168.0.115
700,5,19,-3,75,"1,3,-178",0,0,-1,0,0,0,76,80,73,30,91,-10.09,13,-26.0,23.0,-1006.0,13:29:45.239390,192.168.0.115
705,5,19,-3,75,"1,3,-178",0,0,-1,0,0,0,76,80,73,30,91,-10.14,13,17.0,-4.0,-988.0,13:29:45.339449,192.168.0.115
710,5,19,-3,75,"1,3,-178",0,0,-1,0,0,0,76,80,73,30,91,-10.19,13,-3.0,-1.0,-1007.0,13:29:45.458991,192.168.0.115
715,5,18,-4,75,"0,3,-178",0,0,-1,0,0,0,76,80,73,30,91,-10.25,13,-16.0,15.0,-1010.0,13:29:45.698307,192.168.0.115
720,5,18,-4,75,"0,3,-178",0,0,-1,0,0,0,76,80,73,30,91,-10.19,14,0.0,15.0,-1007.0,13:29:45.698459,192.168.0.115
725,5,19,-4,74,"1,3,-178",0,0,-1,0,0,0,76,80,73,30,91,-10.19,14,5.0,0.0,-991.0,13:29:45.820854,192.168.0.115
730,5,19,-4,74,"1,3,-178",0,0,-1,0,0,0,76,80,73,30,91,-10.19,14,1.0,6.0,-997.0,13:29:45.939756,192.168.0.115
735,5,19,-4,74,"1,3,-178",0,0,-1,0,0,0,76,80,73,30,91,-10.25,14,-12.0,10.0,-1020.0,13:29:45.957469,192.168.0.115
740,5,19,-4,74,"1,3,-178",0,0,-1,0,0,0,76,80,73,30,91,-10.26,14,4.0,-6.0,-995.0,13:29:46.059341,192.168.0.115
743,5,19,-4,74,"1,3,-178",0,0,-1,0,0,0,76,80,73,30,91,-10.19,14,0.0,0.0,-980.0,13:29:46.179168,192.168.0.115
748,5,19,-4,74,"1,3,-178",0,0,-1,0,0,0,76,80,73,30,91,-10.2,14,-5.0,-1.0,-1007.0,13:29:46.305509,192.168.0.115
753,5,18,-5,75,"0,3,-177",0,0,-1,0,0,0,76,80,73,30,91,-10.17,14,-10.0,6.0,-1002.0,13:29:46.306596,192.168.0.115
760,5,18,-5,75,"0,3,-177",0,0,-1,0,0,0,76,80,74,30,91,-10.17,14,8.0,-1.0,-984.0,13:29:46.539047,192.168.0.115
765,5,18,-5,75,"0,3,-178",0,0,-1,0,0,0,76,80,74,30,91,-10.17,15,10.0,14.0,-975.0,13:29:46.561561,192.168.0.115
770,5,18,-5,75,"0,3,-178",0,0,-1,0,0,0,76,80,74,30,91,-10.17,15,1.0,14.0,-1000.0,13:29:46.663606,192.168.0.115
775,5,19,-5,75,"1,3,-177",0,0,-1,0,0,0,76,80,74,30,91,-10.17,15,-8.0,12.0,-1001.0,13:29:46.779129,192.168.0.115
778,5,19,-5,75,"1,3,-177",0,0,-1,0,0,0,76,80,74,30,91,-10.13,15,6.0,-7.0,-985.0,13:29:46.914599,192.168.0.115
785,5,18,-3,75,"1,3,-179",0,0,-1,0,0,0,76,80,74,30,91,-10.23,15,0.0,3.0,-1001.0,13:29:47.138548,192.168.0.115
790,5,18,-3,75,"1,3,-179",0,0,-1,0,0,0,76,80,74,30,91,-10.22,15,0.0,0.0,-996.0,13:29:47.138914,192.168.0.115
793,5,18,-1,76,"0,3,179",0,0,-1,0,0,0,76,80,75,30,91,-10.22,15,5.0,4.0,-1007.0,13:29:47.139103,192.168.0.115
798,5,18,-1,76,"0,3,179",0,0,-1,0,0,0,76,80,74,30,91,-10.18,15,12.0,-4.0,-993.0,13:29:47.259437,192.168.0.115
803,5,18,-1,76,"0,3,179",0,0,-1,0,0,0,76,80,75,30,91,-10.14,15,-21.0,23.0,-1003.0,13:29:47.379286,192.168.0.115
808,5,18,-3,76,"0,3,-179",0,0,-1,0,0,0,76,80,74,30,91,-10.15,15,0.0,0.0,-995.0,13:29:47.499420,192.168.0.115
813,5,18,-3,76,"0,3,-179",0,0,-1,0,0,0,76,80,74,30,91,-10.22,16,9.0,7.0,-1006.0,13:29:47.619083,192.168.0.115
818,5,22,0,75,"2,3,179",0,0,-1,0,0,0,76,80,75,30,91,-10.22,16,-20.0,22.0,-1007.0,13:29:47.632571,192.168.0.115
823,5,22,0,75,"2,3,179",0,0,-1,0,0,0,76,80,75,30,91,-10.16,16,-7.0,8.0,-997.0,13:29:47.858700,192.168.0.115
828,5,20,-3,75,"0,3,-178",0,0,-1,0,0,0,76,80,74,30,91,-10.19,16,4.0,1.0,-993.0,13:29:47.859031,192.168.0.115
833,5,20,-3,75,"0,3,-178",0,0,-1,0,0,0,76,80,74,30,91,-10.21,16,3.0,0.0,-986.0,13:29:47.979362,192.168.0.115
838,5,19,-3,76,"0,3,-179",0,0,-1,0,0,0,76,80,74,30,91,-10.19,16,-8.0,20.0,-1001.0,13:29:48.099263,192.168.0.115
843,5,19,-3,76,"0,3,-179",0,0,-1,0,0,0,76,80,73,30,91,-10.16,16,0.0,-11.0,-996.0,13:29:48.219404,192.168.0.115
848,5,21,-2,75,"0,3,-179",0,0,-1,0,0,0,76,80,74,30,91,-10.13,16,1.0,18.0,-1014.0,13:29:48.339640,192.168.0.115
853,5,21,-2,75,"0,3,-179",0,0,-1,0,0,0,76,81,74,30,91,-10.19,16,-4.0,3.0,-993.0,13:29:48.346588,192.168.0.115
858,5,24,-4,73,"1,2,-177",0,0,-1,0,0,0,76,81,74,30,91,-10.21,16,2.0,1.0,-984.0,13:29:48.464653,192.168.0.115
863,5,24,-4,73,"1,2,-177",0,0,-1,0,0,0,76,81,74,30,91,-10.17,17,27.0,-5.0,-990.0,13:29:48.579324,192.168.0.115
869,5,24,-4,73,"1,2,-177",0,0,-1,0,0,0,76,81,73,30,91,-10.24,17,6.0,5.0,-1003.0,13:29:48.699269,192.168.0.115
874,5,24,-4,73,"1,2,-177",0,0,-1,0,0,0,76,81,74,30,91,-10.22,17,1.0,10.0,-1009.0,13:29:48.819237,192.168.0.115
879,5,22,-4,74,"0,2,-177",0,0,-1,0,0,0,76,81,74,30,91,-10.14,17,-10.0,8.0,-1003.0,13:29:48.939287,192.168.0.115
884,5,22,-4,74,"0,2,-177",0,0,-1,0,0,0,76,81,73,30,91,-10.14,17,-7.0,12.0,-999.0,13:29:48.960446,192.168.0.115
889,5,26,-4,72,"2,2,-177",0,0,-1,0,0,0,76,81,73,30,91,-10.15,17,-26.0,22.0,-1008.0,13:29:49.062723,192.168.0.115
894,5,26,-4,72,"2,2,-177",0,0,-1,0,0,0,76,81,73,30,91,-10.13,17,-1.0,4.0,-997.0,13:29:49.183431,192.168.0.115
898,5,21,-4,74,"0,2,-177",0,0,-1,0,0,0,76,81,73,30,91,-10.07,17,4.0,3.0,-992.0,13:29:49.299454,192.168.0.115
904,5,21,-4,74,"0,2,-177",0,0,-1,0,0,0,76,79,73,30,91,-10.22,17,7.0,0.0,-1000.0,13:29:49.419277,192.168.0.115
909,5,24,0,73,"1,4,179",0,0,-1,0,0,0,76,79,73,30,91,-10.23,17,3.0,-7.0,-1013.0,13:29:49.539154,192.168.0.115
914,5,24,0,73,"1,4,179",0,0,-1,0,0,0,76,79,73,30,91,-10.15,18,-13.0,26.0,-1002.0,13:29:49.659362,192.168.0.115
919,5,24,-5,72,"1,2,-176",0,0,-1,0,0,0,76,79,73,30,91,-10.09,18,6.0,1.0,-1012.0,13:29:49.781355,192.168.0.115
924,5,24,-5,72,"1,2,-176",0,0,-1,0,0,0,76,79,73,30,91,-10.12,18,8.0,4.0,-1008.0,13:29:49.902499,192.168.0.115
929,5,25,-5,71,"2,2,-176",0,0,-1,0,0,0,76,79,73,30,91,-10.17,18,16.0,4.0,-997.0,13:29:50.019196,192.168.0.115
934,5,25,-5,71,"2,2,-176",0,0,-1,0,0,0,76,79,73,30,91,-10.13,18,-8.0,18.0,-1001.0,13:29:50.029285,192.168.0.115
940,5,21,-3,74,"0,3,-178",0,0,-1,0,0,0,76,79,73,30,91,-10.16,18,36.0,-24.0,-1003.0,13:29:50.139202,192.168.0.115
944,5,21,-3,74,"0,3,-178",0,0,-1,0,0,0,76,79,73,30,91,-10.16,18,11.0,1.0,-989.0,13:29:50.259681,192.168.0.115
948,5,21,-3,74,"0,3,-178",0,0,-1,0,0,0,76,79,73,30,91,-10.14,18,28.0,-15.0,-986.0,13:29:50.379517,192.168.0.115
953,5,21,-4,74,"0,3,-177",0,0,-1,0,0,0,76,79,73,30,91,-10.17,18,11.0,-21.0,-1005.0,13:29:50.386395,192.168.0.115
958,5,21,-4,74,"0,3,-177",0,0,-1,0,0,0,76,79,73,30,91,-10.15,18,8.0,3.0,-996.0,13:29:50.499665,192.168.0.115
963,5,21,-2,74,"0,3,-177",0,0,-1,0,0,0,76,79,73,30,91,-10.13,19,15.0,-12.0,-997.0,13:29:50.738838,192.168.0.115
968,5,21,-2,74,"0,3,-177",1,0,-1,0,0,0,76,79,73,30,91,-10.17,19,22.0,0.0,-1004.0,13:29:50.739176,192.168.0.115
973,5,25,-2,72,"1,3,-177",1,0,-1,0,0,0,76,79,73,30,91,-10.21,19,18.0,-5.0,-993.0,13:29:50.858966,192.168.0.115
978,5,25,-2,72,"1,3,-177",1,0,-1,0,0,0,76,79,73,30,91,-10.24,19,9.0,-24.0,-956.0,13:29:50.979075,192.168.0.115
982,5,26,-2,71,"2,3,-177",1,0,-1,0,0,0,76,79,72,30,91,-10.23,19,19.0,-17.0,-936.0,13:29:50.998398,192.168.0.115
987,5,26,-2,71,"2,3,-177",0,0,-1,0,0,1,76,79,71,30,91,-10.2,19,26.0,-7.0,-929.0,13:29:51.100312,192.168.0.115
992,5,24,0,70,"1,3,-177",0,0,-1,0,0,1,76,79,69,30,91,-10.1,19,0.0,-25.0,-906.0,13:29:51.219193,192.168.0.115
997,5,24,0,70,"1,3,-177",0,0,-1,0,0,2,76,79,66,30,91,-10.07,19,15.0,-18.0,-905.0,13:29:51.341744,192.168.0.115
1002,5,24,0,63,"2,3,-177",0,1,-1,0,0,3,75,80,62,20,91,-10.14,19,15.0,-30.0,-909.0,13:29:51.459377,192.168.0.115
1007,5,24,0,63,"2,3,-177",0,1,-1,0,0,4,75,80,57,20,91,-10.26,19,2.0,-1.0,-973.0,13:29:51.579335,192.168.0.115
1012,5,24,1,55,"2,3,-177",0,1,-1,0,0,4,75,80,52,20,91,-10.2,20,19.0,-29.0,-926.0,13:29:51.610324,192.168.0.115
1017,5,24,1,55,"2,3,-177",0,1,-1,0,0,4,75,80,47,10,91,-10.26,20,4.0,-21.0,-995.0,13:29:51.712525,192.168.0.115
1022,5,23,1,46,"1,3,-176",0,1,-1,0,0,4,75,80,43,10,91,-10.28,20,11.0,-7.0,-989.0,13:29:51.814211,192.168.0.115
1027,5,23,1,46,"1,3,-176",0,1,-1,0,0,4,75,80,37,0,91,-10.27,20,17.0,20.0,-1006.0,13:29:51.916330,192.168.0.115
1032,5,23,1,46,"1,3,-176",0,1,-1,0,0,4,75,80,33,0,91,-10.32,20,8.0,-21.0,-998.0,13:29:52.018193,192.168.0.115
1037,5,23,1,46,"1,3,-176",0,1,-1,0,0,4,75,80,28,0,91,-10.39,20,0.0,-22.0,-1008.0,13:29:52.120226,192.168.0.115
1042,5,23,1,46,"1,3,-176",0,1,-1,0,0,4,75,80,24,0,91,-10.52,20,-15.0,-19.0,-1018.0,13:29:52.222256,192.168.0.115
1047,5,23,1,46,"1,3,-176",0,1,-1,0,0,4,75,80,19,-10,91,-10.56,20,5.0,-11.0,-1021.0,13:29:52.368745,192.168.0.115
1052,5,23,1,46,"1,3,-176",0,0,-1,0,0,4,76,81,16,-10,91,-10.64,20,4.0,-7.0,-1004.0,13:29:52.499068,192.168.0.115
1057,5,23,1,46,"1,3,-176",0,0,-1,0,0,4,76,81,11,-20,91,-10.95,20,12.0,-13.0,-1014.0,13:29:52.619116,192.168.0.115
1062,5,23,1,46,"1,3,-176",0,0,-1,0,0,3,76,81,10,-20,91,-11.77,21,21.0,-4.0,-1055.0,13:29:52.630162,192.168.0.115
1067,5,23,1,46,"1,3,-176",0,0,-1,0,0,3,76,81,10,-20,91,-12.75,21,-18.0,0.0,-1058.0,13:29:52.739147,192.168.0.115
1072,5,23,1,46,"1,3,-176",0,1,0,0,0,3,76,81,10,-30,91,-14.02,21,-199.0,-53.0,-1683.0,13:29:52.859124,192.168.0.115
1077,5,23,1,46,"1,3,-176",2,-2,-1,0,0,0,76,81,10,-30,91,-12.67,21,38.0,0.0,-715.0,13:29:53.098212,192.168.0.115
1082,5,23,1,46,"1,3,-176",0,0,-3,-1,0,0,76,81,10,-30,91,-12.76,21,-199.0,-53.0,-1683.0,13:29:53.098566,192.168.0.115
1087,5,23,1,46,"1,3,-176",2,-1,-2,0,0,0,76,81,10,-30,91,-13.31,21,38.0,0.0,-715.0,13:29:53.219217,192.168.0.115
1093,5,23,1,46,"1,3,-176",0,0,-4,0,0,0,76,81,10,-30,91,-12.54,21,-11.0,-19.0,-969.0,13:29:53.242206,192.168.0.115
1099,5,23,1,46,"1,3,-176",0,0,-3,0,0,0,76,81,10,-30,91,-12.03,21,41.0,5.0,-956.0,13:29:53.353108,192.168.0.115
1103,5,23,1,46,"1,3,-176",0,0,-3,0,0,0,76,80,10,-30,91,-11.72,21,4.0,22.0,-1010.0,13:29:53.459945,192.168.0.115
1108,5,23,1,46,"1,3,-176",0,0,-3,0,0,0,76,80,10,-30,91,-11.6,21,11.0,3.0,-999.0,13:29:53.578219,192.168.0.115
1114,5,23,1,46,"1,3,-176",0,0,-3,0,0,0,76,80,10,-30,91,-11.6,22,11.0,2.0,-1002.0,13:29:53.817068,192.168.0.115
1117,5,23,1,46,"1,3,-176",0,0,-3,0,0,0,76,80,10,-30,91,-11.64,22,10.0,8.0,-995.0,13:29:53.817276,192.168.0.115
1122,5,23,1,46,"1,3,-176",0,0,-3,0,0,0,76,80,10,-30,91,-11.46,22,2.0,10.0,-1000.0,13:29:53.817609,192.168.0.115
1127,5,23,1,46,"1,3,-176",0,0,-3,0,0,0,76,80,10,0,91,-11.26,22,14.0,2.0,-993.0,13:29:53.938097,192.168.0.115
1132,5,23,1,46,"1,3,-176",0,0,-3,0,0,2,76,80,10,0,91,-11.23,22,5.0,9.0,-994.0,13:29:54.058386,192.168.0.115
1137,5,23,1,46,"1,3,-176",0,0,-3,0,0,2,76,80,10,0,91,-11.17,22,6.0,3.0,-992.0,13:29:54.177611,192.168.0.115
