,mid,x,y,z,mpry,pitch,roll,yaw,vgx,vgy,vgz,templ,temph,tof,h,bat,baro,time,agx,agy,agz,timestamp,address
3,-2,-200,-200,-200,"0,0,0",0,1,1,0,0,0,74,76,10,0,94,-11.37,0,7.0,-18.0,-999.0,13:29:31.160993,192.168.0.111
8,-2,-200,-200,-200,"0,0,0",0,1,1,0,0,0,74,76,10,0,94,-11.29,0,7.0,-19.0,-999.0,13:29:31.262905,192.168.0.111
10,-2,-200,-200,-200,"0,0,0",0,1,1,0,0,0,74,76,10,0,94,-11.32,0,8.0,-18.0,-1000.0,13:29:31.357561,192.168.0.111
16,-2,-200,-200,-200,"0,0,0",0,1,1,0,0,0,74,76,10,0,94,-11.32,0,7.0,-18.0,-997.0,13:29:31.506161,192.168.0.111
21,-2,-200,-200,-200,"0,0,0",0,1,1,0,0,0,74,76,10,0,94,-11.32,0,8.0,-23.0,-999.0,13:29:31.518722,192.168.0.111
26,-2,-200,-200,-200,"0,0,0",0,1,1,0,0,0,74,76,10,0,94,-11.32,0,15.0,-15.0,-997.0,13:29:31.619877,192.168.0.111
31,-2,-200,-200,-200,"0,0,0",0,1,1,0,0,0,74,76,10,0,94,-11.32,0,6.0,-9.0,-1004.0,13:29:31.721889,192.168.0.111
36,-2,-200,-200,-200,"0,0,0",0,1,1,0,0,0,74,76,10,0,94,-11.32,0,-15.0,-5.0,-997.0,13:29:31.838120,192.168.0.111
41,-2,-200,-200,-200,"0,0,0",0,0,1,0,0,0,74,76,10,0,94,-11.32,0,5.0,4.0,-1176.0,13:29:31.958286,192.168.0.111
46,-2,-200,-200,-200,"0,0,0",0,0,2,0,0,2,74,76,10,0,94,-11.32,0,19.0,13.0,-1382.0,13:29:32.077668,192.168.0.111
51,-2,-200,-200,-200,"0,0,0",1,0,2,0,0,6,74,76,10,0,94,-11.32,0,-16.0,24.0,-1263.0,13:29:32.129790,192.168.0.111
56,-2,-200,-200,-200,"0,0,0",1,0,2,0,0,7,74,76,12,10,94,-11.06,0,10.0,24.0,-1065.0,13:29:32.231772,192.168.0.111
61,-2,-200,-200,-200,"0,0,0",1,-1,2,0,0,8,74,76,21,10,94,-10.86,0,3.0,4.0,-1006.0,13:29:32.333802,192.168.0.111
66,-2,-200,-200,-200,"0,0,0",0,-1,2,0,0,7,74,76,30,20,94,-10.92,0,23.0,-9.0,-954.0,13:29:32.438449,192.168.0.111
71,-2,-200,-200,-200,"0,0,0",1,0,2,0,0,7,74,76,37,30,94,-10.81,1,11.0,6.0,-929.0,13:29:32.557838,192.168.0.111
76,-2,-200,-200,-200,"0,0,0",1,0,2,0,0,6,74,76,44,30,94,-10.7,1,11.0,10.0,-903.0,13:29:32.680158,192.168.0.111
81,-2,-200,-200,-200,"0,0,0",1,0,1,0,0,5,74,76,51,40,94,-10.66,1,11.0,13.0,-896.0,13:29:32.797738,192.168.0.111
87,-2,-200,-200,-200,"0,0,0",1,0,1,0,0,4,74,76,60,40,94,-10.63,1,-7.0,7.0,-914.0,13:29:32.843752,192.168.0.111
92,-2,-200,-200,-200,"0,0,0",0,0,1,0,0,3,74,77,64,50,94,-10.52,1,-2.0,13.0,-915.0,13:29:32.946052,192.168.0.111
96,-2,-200,-200,-200,"0,0,0",0,0,1,0,0,2,74,77,68,50,94,-10.51,1,7.0,7.0,-930.0,13:29:33.048300,192.168.0.111
102,-2,-200,-200,-200,"0,0,0",0,0,1,0,0,1,74,77,70,50,94,-10.42,1,3.0,6.0,-937.0,13:29:33.157611,192.168.0.111
106,-2,-200,-200,-200,"0,0,0",0,0,1,0,0,1,74,77,73,50,94,-10.44,1,0.0,10.0,-970.0,13:29:33.281597,192.168.0.111
112,5,26,-1,60,"1,-2,179",0,0,2,0,0,1,74,77,75,50,94,-10.4,1,12.0,10.0,-978.0,13:29:33.401127,192.168.0.111
118,5,26,-1,60,"1,-2,179",0,0,2,0,0,0,74,77,77,60,94,-10.36,1,2.0,9.0,-984.0,13:29:33.521085,192.168.0.111
123,5,26,-1,60,"1,-2,179",0,0,2,0,0,0,74,77,79,60,94,-10.32,2,2.0,9.0,-984.0,13:29:33.557648,192.168.0.111
128,5,26,-1,60,"1,-2,179",0,0,2,0,0,0,74,77,80,60,94,-10.36,2,4.0,8.0,-990.0,13:29:33.767050,192.168.0.111
133,5,26,-1,60,"1,-2,179",0,0,2,0,0,0,74,77,82,60,94,-10.38,2,13.0,1.0,-986.0,13:29:33.767400,192.168.0.111
138,5,25,-3,74,"2,-2,-178",0,0,2,0,0,0,74,77,83,60,94,-10.38,2,-4.0,4.0,-987.0,13:29:33.883248,192.168.0.111
143,5,25,-3,74,"2,-2,-178",0,0,2,0,0,0,74,77,85,60,94,-10.35,2,0.0,9.0,-980.0,13:29:33.999112,192.168.0.111
149,5,25,-3,74,"2,-2,-178",0,0,2,0,0,0,74,77,86,60,94,-10.26,2,5.0,17.0,-979.0,13:29:34.118933,192.168.0.111
154,5,25,-3,74,"2,-2,-178",0,0,2,0,0,0,74,77,86,70,94,-10.29,2,6.0,14.0,-973.0,13:29:34.169659,192.168.0.111
159,5,22,-2,83,"1,-2,-178",0,0,2,0,0,0,74,77,86,70,94,-10.27,2,4.0,11.0,-981.0,13:29:34.271734,192.168.0.111
164,5,22,-2,83,"1,-2,-178",0,0,2,0,0,0,74,77,87,70,94,-10.26,2,17.0,-1.0,-984.0,13:29:34.383943,192.168.0.111
166,5,22,-2,83,"1,-2,-178",0,0,2,0,0,0,74,77,87,70,94,-10.32,2,-6.0,21.0,-977.0,13:29:34.486571,192.168.0.111
171,5,22,-2,83,"1,-2,-178",0,0,2,0,0,0,74,77,87,70,94,-10.31,3,14.0,12.0,-999.0,13:29:34.526723,192.168.0.111
176,5,22,-2,83,"1,-2,-178",0,0,2,0,0,0,74,77,86,70,94,-10.32,3,5.0,8.0,-990.0,13:29:34.628748,192.168.0.111
181,5,21,0,88,"0,-2,-179",0,0,2,0,0,0,74,77,87,70,94,-10.32,3,8.0,0.0,-976.0,13:29:34.730742,192.168.0.111
186,5,21,0,88,"0,-2,-179",0,0,2,0,0,0,74,77,86,70,94,-10.27,3,16.0,5.0,-999.0,13:29:34.838987,192.168.0.111
191,5,21,0,88,"0,-2,-179",0,0,2,0,0,0,74,77,86,70,94,-10.31,3,13.0,15.0,-1004.0,13:29:34.960339,192.168.0.111
196,5,21,0,88,"0,-2,-179",0,0,2,0,0,0,74,77,86,70,94,-10.38,3,29.0,0.0,-1000.0,13:29:35.198625,192.168.0.111
201,5,18,-1,90,"-1,-2,-178",0,0,2,0,0,0,74,77,85,70,94,-10.3,3,6.0,13.0,-988.0,13:29:35.199008,192.168.0.111
206,5,18,-1,90,"-1,-2,-178",0,0,2,0,0,0,74,77,85,70,94,-10.31,3,4.0,2.0,-997.0,13:29:35.240639,192.168.0.111
211,5,18,-1,90,"-1,-2,-178",0,0,2,0,0,0,74,77,84,70,94,-10.34,3,14.0,6.0,-989.0,13:29:35.342698,192.168.0.111
216,5,18,-1,90,"-1,-2,-178",0,0,2,0,0,0,74,77,84,70,94,-10.34,3,21.0,12.0,-1006.0,13:29:35.444665,192.168.0.111
222,5,18,-1,90,"-1,-2,-178",0,0,2,0,0,0,74,77,84,70,94,-10.36,4,8.0,18.0,-1006.0,13:29:35.559244,192.168.0.111
227,5,23,-2,87,"0,-2,-178",0,0,2,0,0,0,74,77,83,70,94,-10.31,4,-7.0,15.0,-990.0,13:29:35.679458,192.168.0.111
231,5,23,-2,87,"0,-2,-178",0,0,2,0,0,0,74,77,83,70,94,-10.25,4,-1.0,16.0,-1007.0,13:29:35.822453,192.168.0.111
236,5,23,-2,87,"0,-2,-178",0,0,2,0,0,0,74,77,82,70,94,-10.25,4,12.0,-2.0,-990.0,13:29:35.853609,192.168.0.111
241,5,23,-2,87,"0,-2,-178",0,0,2,0,0,0,73,76,82,70,94,-10.31,4,-4.0,18.0,-1002.0,13:29:35.955779,192.168.0.111
248,5,25,4,84,"1,-1,177",0,0,2,0,0,0,73,76,82,60,94,-10.24,4,0.0,13.0,-1027.0,13:29:36.058458,192.168.0.111
253,5,25,4,84,"1,-1,177",0,0,2,0,0,0,73,76,81,60,94,-10.3,4,0.0,12.0,-995.0,13:29:36.281436,192.168.0.111
258,5,25,4,84,"1,-1,177",0,0,2,0,0,0,73,76,81,60,94,-10.29,4,10.0,9.0,-1005.0,13:29:36.281797,192.168.0.111
263,5,25,4,84,"1,-1,177",0,0,2,0,0,0,73,76,81,60,94,-10.28,4,-1.0,8.0,-1015.0,13:29:36.521342,192.168.0.111
268,5,25,4,84,"1,-1,177",0,0,2,0,0,0,73,76,81,60,94,-10.31,4,0.0,14.0,-1005.0,13:29:36.521720,192.168.0.111
273,5,20,5,85,"-1,-1,176",0,0,2,0,0,0,73,76,81,60,94,-10.32,5,-10.0,22.0,-995.0,13:29:36.566627,192.168.0.111
278,5,20,5,85,"-1,-1,176",0,0,2,0,0,0,73,76,81,60,94,-10.34,5,7.0,10.0,-1016.0,13:29:36.668614,192.168.0.111
282,5,20,5,85,"-1,-1,176",0,0,2,0,0,0,73,76,81,60,94,-10.34,5,19.0,6.0,-984.0,13:29:36.770847,192.168.0.111
288,5,20,5,85,"-1,-1,176",0,0,2,0,0,0,73,76,80,60,94,-10.3,5,-8.0,16.0,-1002.0,13:29:36.883320,192.168.0.111
294,5,20,5,85,"-1,-1,176",0,0,2,0,0,0,74,76,81,60,94,-10.33,5,14.0,-3.0,-987.0,13:29:37.002211,192.168.0.111
299,5,25,-1,81,"2,-2,-179",0,0,2,0,0,0,74,76,80,60,94,-10.31,5,-13.0,23.0,-991.0,13:29:37.241141,192.168.0.111
301,5,25,-1,81,"2,-2,-179",0,0,2,0,0,0,74,76,81,60,94,-10.31,5,9.0,0.0,-981.0,13:29:37.241319,192.168.0.111
306,5,25,-1,81,"2,-2,-179",0,0,2,0,0,0,74,76,81,60,94,-10.36,5,-7.0,12.0,-998.0,13:29:37.241667,192.168.0.111
310,5,25,-1,81,"2,-2,-179",0,0,2,0,0,0,74,76,81,60,94,-10.37,5,23.0,2.0,-1003.0,13:29:37.364377,192.168.0.111
316,5,18,0,84,"-1,-2,-179",0,0,2,0,0,0,74,76,80,60,94,-10.39,5,17.0,3.0,-985.0,13:29:37.482332,192.168.0.111
321,5,18,0,84,"-1,-2,-179",0,0,1,0,0,0,74,76,81,60,94,-10.32,6,-10.0,15.0,-983.0,13:29:37.535723,192.168.0.111
326,5,18,0,84,"-1,-2,-179",0,0,1,0,0,0,74,76,81,60,94,-10.37,6,18.0,5.0,-989.0,13:29:37.637565,192.168.0.111
331,5,18,0,84,"-1,-2,-179",0,0,1,0,0,0,74,76,81,60,94,-10.34,6,-2.0,12.0,-990.0,13:29:37.739861,192.168.0.111
336,5,18,0,84,"-1,-2,-179",0,0,1,0,0,0,74,76,81,60,94,-10.34,6,-2.0,16.0,-982.0,13:29:37.877958,192.168.0.111
342,5,21,-1,83,"0,-2,-178",0,0,1,0,0,0,74,76,81,60,94,-10.29,6,4.0,7.0,-996.0,13:29:37.980820,192.168.0.111
347,5,21,-1,83,"0,-2,-178",0,0,1,0,0,0,74,76,81,60,94,-10.33,6,11.0,-6.0,-990.0,13:29:38.201468,192.168.0.111
351,5,21,-1,83,"0,-2,-178",0,0,1,0,0,0,74,76,82,60,94,-10.41,6,-4.0,6.0,-983.0,13:29:38.201598,192.168.0.111
357,5,21,-1,83,"0,-2,-178",0,0,1,0,0,0,74,76,82,60,94,-10.28,6,18.0,-8.0,-955.0,13:29:38.249496,192.168.0.111
362,5,21,0,83,"1,-2,-179",0,0,1,0,0,0,74,76,80,60,94,-10.31,6,7.0,1.0,-933.0,13:29:38.351435,192.168.0.111
367,5,21,0,83,"1,-2,-179",0,0,1,0,0,0,74,76,80,60,94,-10.36,6,22.0,-10.0,-952.0,13:29:38.453501,192.168.0.111
372,5,21,0,83,"1,-2,-179",0,0,1,0,0,-1,74,76,78,60,94,-10.37,7,18.0,-2.0,-990.0,13:29:38.681978,192.168.0.111
377,5,21,0,83,"1,-2,-179",0,0,1,0,0,-1,74,76,77,60,94,-10.32,7,12.0,-14.0,-990.0,13:29:38.682285,192.168.0.111
382,5,21,0,83,"1,-2,-179",0,0,1,0,0,-1,74,76,76,60,94,-10.34,7,5.0,7.0,-1004.0,13:29:38.802959,192.168.0.111
387,5,21,0,83,"1,-2,-179",0,0,1,0,0,0,74,76,75,60,94,-10.38,7,2.0,7.0,-1007.0,13:29:38.922312,192.168.0.111
392,5,21,0,83,"1,-2,-179",0,0,1,0,0,0,73,75,74,60,94,-10.36,7,21.0,-3.0,-1040.0,13:29:38.963437,192.168.0.111
397,5,22,0,80,"1,-2,-179",0,0,1,0,0,0,73,75,73,60,94,-10.34,7,8.0,4.0,-1033.0,13:29:39.066008,192.168.0.111
402,5,22,0,80,"1,-2,-179",0,0,1,0,0,0,73,75,73,60,94,-10.32,7,-1.0,10.0,-1006.0,13:29:39.167339,192.168.0.111
407,5,22,0,80,"1,-2,-179",0,0,1,0,0,0,73,75,74,60,94,-10.35,7,-5.0,15.0,-1006.0,13:29:39.402532,192.168.0.111
412,5,22,0,80,"1,-2,-179",0,0,1,0,0,0,73,75,74,60,94,-10.37,7,1.0,-2.0,-1007.0,13:29:39.403013,192.168.0.111
416,5,22,0,80,"1,-2,-179",0,0,1,0,0,0,73,75,73,60,94,-10.37,7,2.0,5.0,-1010.0,13:29:39.522247,192.168.0.111
421,5,22,0,80,"1,-2,-179",0,0,1,0,0,0,73,75,73,60,94,-10.39,8,1.0,2.0,-999.0,13:29:39.575617,192.168.0.111
426,5,18,0,75,"0,-2,179",0,0,1,0,0,0,73,75,73,60,94,-10.39,8,-12.0,6.0,-997.0,13:29:39.677543,192.168.0.111
431,5,18,0,75,"0,-2,179",0,0,1,0,0,0,73,75,74,60,94,-10.31,8,-11.0,8.0,-990.0,13:29:39.779519,192.168.0.111
436,5,18,0,75,"0,-2,179",0,0,1,0,0,0,73,75,73,60,94,-10.34,8,-2.0,6.0,-1002.0,13:29:39.883017,192.168.0.111
441,5,18,0,75,"0,-2,179",0,0,1,0,0,0,73,76,73,60,94,-10.33,8,2.0,6.0,-999.0,13:29:40.036404,192.168.0.111
446,5,18,0,75,"0,-2,179",0,0,1,0,0,0,73,76,74,60,94,-10.35,8,1.0,-4.0,-986.0,13:29:40.157201,192.168.0.111
451,5,18,0,75,"0,-2,179",0,0,1,0,0,0,73,76,74,60,94,-10.38,8,-4.0,2.0,-1010.0,13:29:40.242467,192.168.0.111
456,5,18,0,75,"0,-2,179",0,0,1,0,0,0,73,76,74,60,94,-10.31,8,0.0,-10.0,-996.0,13:29:40.289846,192.168.0.111
461,5,15,0,77,"-1,-2,-177",0,0,1,0,0,0,73,76,74,60,94,-10.42,8,1.0,-4.0,-988.0,13:29:40.391705,192.168.0.111
466,5,15,0,77,"-1,-2,-177",0,0,1,0,0,0,73,76,74,60,94,-10.36,8,0.0,-3.0,-998.0,13:29:40.493678,192.168.0.111
471,5,15,0,77,"-1,-2,-177",0,0,1,0,0,0,73,76,75,60,94,-10.36,9,-7.0,8.0,-1009.0,13:29:40.596142,192.168.0.111
476,5,15,0,77,"-1,-2,-177",0,0,2,0,0,0,73,76,75,60,94,-10.37,9,-15.0,1.0,-999.0,13:29:40.697874,192.168.0.111
481,5,15,0,77,"-1,-2,-177",0,0,1,0,0,0,73,76,75,60,94,-10.41,9,-17.0,12.0,-1002.0,13:29:40.799422,192.168.0.111
484,5,15,0,77,"-1,-2,-177",-1,0,1,0,0,0,73,76,75,60,94,-10.33,9,-16.0,17.0,-1004.0,13:29:40.850418,192.168.0.111
491,5,15,0,77,"-1,-2,-177",-1,0,1,0,0,0,73,76,75,60,94,-10.38,9,-13.0,11.0,-987.0,13:29:41.004302,192.168.0.111
496,5,16,2,77,"0,-1,-179",-1,0,1,0,0,0,73,76,75,60,94,-10.37,9,-7.0,7.0,-1003.0,13:29:41.105459,192.168.0.111
500,5,16,2,77,"0,-1,-179",-1,0,1,0,0,0,73,76,75,60,94,-10.42,9,-14.0,17.0,-1001.0,13:29:41.207463,192.168.0.111
506,5,16,2,77,"0,-1,-179",-1,0,1,0,0,0,73,76,75,60,94,-10.34,9,-12.0,6.0,-997.0,13:29:41.372288,192.168.0.111
511,5,16,2,77,"0,-1,-179",-1,0,1,0,0,0,73,76,75,60,94,-10.33,9,-11.0,7.0,-1008.0,13:29:41.499454,192.168.0.111
515,5,16,2,77,"0,-1,-179",-1,0,1,0,0,0,73,76,74,60,94,-10.35,9,-7.0,-3.0,-992.0,13:29:41.499773,192.168.0.111
520,5,16,2,77,"0,-1,-179",-1,0,1,0,0,0,73,76,75,60,94,-10.32,10,-4.0,-4.0,-996.0,13:29:41.619092,192.168.0.111
525,5,15,0,77,"1,-1,-179",-1,0,1,0,0,0,73,76,75,60,94,-10.3,10,-16.0,-1.0,-1005.0,13:29:41.739897,192.168.0.111
530,5,15,0,77,"1,-1,-179",-1,0,1,0,0,0,73,76,75,60,94,-10.26,10,-17.0,-4.0,-1002.0,13:29:41.856405,192.168.0.111
535,5,15,0,77,"1,-1,-179",-1,0,1,0,0,0,73,76,75,60,94,-10.35,10,-8.0,-9.0,-988.0,13:29:41.870287,192.168.0.111
539,5,15,0,77,"1,-1,-179",-1,0,1,0,0,0,73,75,75,60,94,-10.35,10,-16.0,-1.0,-1009.0,13:29:41.977072,192.168.0.111
545,5,15,0,77,"1,-1,-179",-1,0,1,0,0,0,73,75,75,60,94,-10.35,10,-24.0,1.0,-990.0,13:29:42.097396,192.168.0.111
550,5,15,0,77,"1,-1,-179",-1,0,1,0,0,0,73,75,75,60,94,-10.33,10,-16.0,-12.0,-987.0,13:29:42.217067,192.168.0.111
555,5,15,0,77,"1,-1,-179",-1,0,2,0,0,0,73,75,75,60,94,-10.32,10,-16.0,0.0,-992.0,13:29:42.336595,192.168.0.111
560,5,9,3,78,"0,-1,179",-1,0,2,0,0,0,73,75,75,60,94,-10.34,10,-14.0,-7.0,-1005.0,13:29:42.456254,192.168.0.111
565,5,9,3,78,"0,-1,179",-1,0,2,0,0,0,73,75,75,60,94,-10.34,10,-14.0,-2.0,-991.0,13:29:42.577048,192.168.0.111
570,5,9,3,78,"0,-1,179",-1,0,2,0,0,0,73,75,75,60,94,-10.32,11,0.0,-4.0,-1009.0,13:29:42.585167,192.168.0.111
575,5,9,3,78,"0,-1,179",-1,0,2,0,0,0,73,75,74,60,94,-10.36,11,-9.0,2.0,-998.0,13:29:42.696820,192.168.0.111
580,5,9,3,78,"0,-1,179",-1,0,2,0,0,0,73,75,74,60,94,-10.32,11,-25.0,14.0,-997.0,13:29:42.819065,192.168.0.111
585,5,9,3,78,"0,-1,179",-1,0,2,0,0,0,73,75,74,60,94,-10.36,11,-28.0,13.0,-994.0,13:29:42.936579,192.168.0.111
590,5,10,3,77,"0,-1,-179",-1,0,2,0,0,0,72,75,74,60,94,-10.36,11,-15.0,0.0,-1003.0,13:29:43.056730,192.168.0.111
595,5,10,3,77,"0,-1,-179",-1,0,2,0,0,0,72,75,74,60,94,-10.37,11,-26.0,8.0,-990.0,13:29:43.176507,192.168.0.111
600,5,10,3,77,"0,-1,-179",0,0,2,0,0,0,72,75,74,60,94,-10.37,11,-2.0,8.0,-1007.0,13:29:43.197291,192.168.0.111
605,5,10,3,77,"0,-1,-179",0,0,1,0,0,0,72,75,74,60,94,-10.28,11,-12.0,0.0,-997.0,13:29:43.299811,192.168.0.111
610,5,10,3,77,"0,-1,-179",0,0,1,0,0,0,72,75,75,60,94,-10.34,11,-8.0,5.0,-1004.0,13:29:43.416776,192.168.0.111
615,5,10,3,77,"0,-1,-179",0,0,1,0,0,0,72,75,74,60,94,-10.44,11,-8.0,6.0,-1007.0,13:29:43.537077,192.168.0.111
620,5,10,3,77,"0,-1,-179",0,0,1,0,0,0,72,75,74,60,94,-10.43,12,-12.0,9.0,-1002.0,13:29:43.657388,192.168.0.111
625,5,11,2,77,"0,-1,-179",0,0,1,0,0,0,72,75,75,60,94,-10.34,12,-2.0,3.0,-1004.0,13:29:43.779375,192.168.0.111
630,5,11,2,77,"0,-1,-179",0,0,1,0,0,0,72,75,75,60,94,-10.42,12,2.0,3.0,-996.0,13:29:43.898831,192.168.0.111
635,5,11,2,77,"0,-1,-179",0,0,1,0,0,0,72,75,75,60,94,-10.3,12,-8.0,3.0,-991.0,13:29:43.911338,192.168.0.111
640,5,11,2,77,"0,-1,-179",0,0,1,0,0,0,72,75,74,60,94,-10.29,12,-3.0,-5.0,-997.0,13:29:44.019002,192.168.0.111
645,5,11,2,77,"0,-1,-179",0,0,1,0,0,0,72,75,75,60,94,-10.35,12,-6.0,-1.0,-1008.0,13:29:44.258984,192.168.0.111
650,5,11,2,77,"0,-1,-179",0,0,1,0,0,0,72,75,75,60,94,-10.39,12,-8.0,2.0,-995.0,13:29:44.259318,192.168.0.111
655,5,12,0,78,"0,-1,-179",0,0,1,0,0,0,72,75,75,60,94,-10.36,12,-12.0,-1.0,-1000.0,13:29:44.377722,192.168.0.111
660,5,12,0,78,"0,-1,-179",0,0,1,0,0,0,72,75,75,60,94,-10.31,12,-6.0,1.0,-1001.0,13:29:44.498953,192.168.0.111
665,5,12,0,78,"0,-1,-179",0,0,1,0,0,0,72,75,75,60,94,-10.34,12,-21.0,8.0,-995.0,13:29:44.618884,192.168.0.111
670,5,12,0,78,"0,-1,-179",0,0,1,0,0,0,72,75,75,60,94,-10.32,13,-5.0,6.0,-999.0,13:29:44.625247,192.168.0.111
675,5,12,0,78,"0,-1,-179",0,0,1,0,0,0,72,75,76,60,94,-10.31,13,-7.0,2.0,-994.0,13:29:44.739334,192.168.0.111
680,5,12,0,78,"0,-1,-179",0,0,1,0,0,0,72,75,76,60,94,-10.33,13,-5.0,11.0,-993.0,13:29:44.978378,192.168.0.111
683,5,12,0,78,"0,-1,-179",0,0,2,0,0,0,72,75,76,60,94,-10.28,13,0.0,2.0,-987.0,13:29:44.978639,192.168.0.111
688,5,14,0,78,"0,-1,-178",0,0,2,0,0,0,72,75,76,60,94,-10.25,13,-6.0,11.0,-1008.0,13:29:44.982305,192.168.0.111
693,5,14,0,78,"0,-1,-178",0,0,2,0,0,0,72,75,75,60,94,-10.26,13,-9.0,6.0,-984.0,13:29:45.099345,192.168.0.111
699,5,14,0,78,"0,-1,-178",0,0,2,0,0,0,72,75,75,60,94,-10.23,13,-6.0,8.0,-994.0,13:29:45.220439,192.168.0.111
704,5,14,0,78,"0,-1,-178",0,0,2,0,0,0,72,75,75,60,94,-10.31,13,3.0,4.0,-1003.0,13:29:45.339081,192.168.0.111
709,5,14,0,78,"0,-1,-178",0,0,2,0,0,0,72,75,75,60,94,-10.3,13,-2.0,1.0,-995.0,13:29:45.458923,192.168.0.111
713,5,14,0,78,"0,-1,-178",0,0,2,0,0,0,72,75,75,60,94,-10.36,13,-1.0,-1.0,-993.0,13:29:45.698216,192.168.0.111
718,5,15,1,77,"0,-2,-178",0,0,2,0,0,0,72,75,75,60,94,-10.34,14,-10.0,0.0,-1003.0,13:29:45.698397,192.168.0.111
723,5,15,1,77,"0,-2,-178",0,0,2,0,0,0,72,75,75,60,94,-10.36,14,-7.0,4.0,-1001.0,13:29:45.699924,192.168.0.111
728,5,15,1,77,"0,-2,-178",0,0,2,0,0,0,72,75,75,60,94,-10.28,14,-6.0,4.0,-993.0,13:29:45.820972,192.168.0.111
733,5,15,1,77,"0,-2,-178",0,0,2,0,0,0,72,75,75,60,94,-10.3,14,-11.0,10.0,-1001.0,13:29:45.939869,192.168.0.111
738,5,15,1,77,"0,-2,-178",0,0,2,0,0,0,72,75,75,60,94,-10.34,14,0.0,6.0,-1009.0,13:29:46.059269,192.168.0.111
744,5,15,1,77,"0,-2,-178",0,0,2,0,0,0,72,75,75,60,94,-10.29,14,1.0,0.0,-1009.0,13:29:46.179220,192.168.0.111
749,5,15,1,77,"0,-2,-178",0,0,2,0,0,0,72,75,76,60,94,-10.29,14,-17.0,10.0,-1017.0,13:29:46.305573,192.168.0.111
754,5,15,3,77,"0,-2,-179",0,0,2,0,0,0,72,75,76,60,94,-10.33,14,-8.0,-10.0,-990.0,13:29:46.307945,192.168.0.111
758,5,15,3,77,"0,-2,-179",0,0,2,0,0,0,72,75,76,60,94,-10.33,14,-8.0,6.0,-1002.0,13:29:46.418914,192.168.0.111
763,5,15,3,77,"0,-2,-179",0,0,2,0,0,0,72,75,75,60,94,-10.3,14,-25.0,14.0,-984.0,13:29:46.539181,192.168.0.111
768,5,15,3,77,"0,-2,-179",0,0,2,0,0,0,72,75,76,60,94,-10.32,15,-13.0,12.0,-991.0,13:29:46.660002,192.168.0.111
773,5,15,3,77,"0,-2,-179",0,0,2,0,0,0,72,75,75,60,94,-10.33,15,-2.0,0.0,-995.0,13:29:46.779067,192.168.0.111
779,5,15,3,77,"0,-2,-179",0,0,2,0,0,0,72,75,75,60,94,-10.33,15,-11.0,6.0,-980.0,13:29:46.914655,192.168.0.111
783,5,15,3,77,"0,-2,-179",0,0,2,0,0,0,72,75,75,60,94,-10.36,15,-29.0,17.0,-993.0,13:29:46.921929,192.168.0.111
788,5,11,2,79,"-2,-2,-178",-1,0,1,0,0,0,73,74,75,60,94,-10.31,15,-12.0,-7.0,-998.0,13:29:47.138765,192.168.0.111
794,5,11,2,79,"-2,-2,-178",-1,0,1,0,0,0,73,74,76,60,94,-10.41,15,-4.0,-10.0,-1002.0,13:29:47.139172,192.168.0.111
799,5,11,2,79,"-2,-2,-178",-1,0,1,0,0,0,73,74,76,60,94,-10.31,15,-18.0,-1.0,-1004.0,13:29:47.259502,192.168.0.111
804,5,11,2,79,"-2,-2,-178",-1,0,2,0,0,0,73,74,75,60,94,-10.33,15,-19.0,2.0,-982.0,13:29:47.379357,192.168.0.111
809,5,11,2,79,"-2,-2,-178",-1,0,2,0,0,0,73,74,76,60,94,-10.35,15,0.0,1.0,-1006.0,13:29:47.499519,192.168.0.111
814,5,11,2,79,"-2,-2,-178",-1,0,2,0,0,0,73,74,75,60,94,-10.38,15,-8.0,0.0,-1009.0,13:29:47.619170,192.168.0.111
819,5,14,2,78,"0,-2,-179",-1,0,2,0,0,0,73,74,75,60,94,-10.32,16,-10.0,5.0,-1003.0,13:29:47.633993,192.168.0.111
824,5,14,2,78,"0,-2,-179",-1,0,1,0,0,0,73,74,76,60,94,-10.31,16,-19.0,0.0,-1010.0,13:29:47.858766,192.168.0.111
829,5,14,2,78,"0,-2,-179",-1,0,1,0,0,0,73,74,75,60,94,-10.34,16,-19.0,10.0,-1014.0,13:29:47.859093,192.168.0.111
834,5,14,2,78,"0,-2,-179",-1,0,2,0,0,0,73,74,75,60,94,-10.33,16,-12.0,7.0,-1000.0,13:29:47.979445,192.168.0.111
839,5,14,2,78,"0,-2,-179",-1,0,2,0,0,0,73,73,75,60,94,-10.34,16,-12.0,0.0,-1002.0,13:29:48.099328,192.168.0.111
844,5,14,2,78,"0,-2,-179",-1,0,2,0,0,0,73,73,75,60,94,-10.37,16,-36.0,6.0,-979.0,13:29:48.219502,192.168.0.111
849,5,14,2,78,"0,-2,-179",-1,0,1,0,0,0,73,73,75,60,94,-10.39,16,-18.0,0.0,-994.0,13:29:48.339751,192.168.0.111
854,5,11,1,77,"0,-2,-179",-1,0,2,0,0,0,73,73,75,60,94,-10.29,16,-28.0,9.0,-999.0,13:29:48.348027,192.168.0.111
859,5,11,1,77,"0,-2,-179",-1,0,2,0,0,0,73,73,75,60,94,-10.26,16,-14.0,0.0,-995.0,13:29:48.464722,192.168.0.111
864,5,11,1,77,"0,-2,-179",-1,0,2,0,0,0,73,73,75,60,94,-10.2,17,-17.0,5.0,-1010.0,13:29:48.579411,192.168.0.111
865,5,11,1,77,"0,-2,-179",-1,0,2,0,0,0,73,73,75,60,94,-10.26,17,-6.0,-6.0,-1005.0,13:29:48.699116,192.168.0.111
870,5,11,1,77,"0,-2,-179",-1,0,2,0,0,0,73,73,75,60,94,-10.25,17,-35.0,12.0,-990.0,13:29:48.705970,192.168.0.111
876,5,11,1,77,"0,-2,-179",-1,0,2,0,0,0,73,73,75,60,94,-10.24,17,-4.0,-4.0,-999.0,13:29:48.819314,192.168.0.111
880,5,11,3,77,"0,-2,-179",-1,0,2,0,0,0,73,73,75,60,94,-10.19,17,-12.0,-5.0,-991.0,13:29:48.939331,192.168.0.111
885,5,11,3,77,"0,-2,-179",-1,0,2,0,0,0,72,75,76,60,94,-10.2,17,-22.0,1.0,-998.0,13:29:49.058910,192.168.0.111
890,5,11,3,77,"0,-2,-179",0,0,2,0,0,0,72,75,75,60,94,-10.21,17,-3.0,-15.0,-995.0,13:29:49.183265,192.168.0.111
895,5,11,3,77,"0,-2,-179",0,0,1,0,0,0,72,75,75,60,94,-10.25,17,-10.0,-8.0,-988.0,13:29:49.299332,192.168.0.111
900,5,11,3,77,"0,-2,-179",0,0,1,0,0,0,72,75,75,60,94,-10.23,17,10.0,-14.0,-1014.0,13:29:49.317979,192.168.0.111
905,5,11,3,77,"0,-2,-179",0,0,1,0,0,0,72,75,76,60,94,-10.29,17,-10.0,-8.0,-988.0,13:29:49.420014,192.168.0.111
910,5,11,3,77,"0,-2,-179",0,0,1,0,0,0,72,75,75,60,94,-10.27,18,0.0,-20.0,-973.0,13:29:49.539204,192.168.0.111
915,5,12,4,77,"0,-2,-178",0,0,1,0,0,0,72,75,75,60,94,-10.29,18,6.0,-17.0,-1003.0,13:29:49.659414,192.168.0.111
920,5,12,4,77,"0,-2,-178",0,0,1,0,0,0,72,75,75,60,94,-10.32,18,23.0,-19.0,-1013.0,13:29:49.781386,192.168.0.111
925,5,12,4,77,"0,-2,-178",0,0,1,0,0,0,72,75,75,60,94,-10.24,18,6.0,-14.0,-1005.0,13:29:49.902558,192.168.0.111
930,5,12,4,77,"0,-2,-178",0,0,1,0,0,0,72,75,75,60,94,-10.23,18,-1.0,0.0,-998.0,13:29:50.019241,192.168.0.111
935,5,12,4,77,"0,-2,-178",0,0,1,0,0,0,72,75,75,60,94,-10.17,18,14.0,-20.0,-1007.0,13:29:50.031927,192.168.0.111
941,5,12,4,77,"0,-2,-178",0,0,1,0,0,0,72,75,75,60,94,-10.26,18,-2.0,1.0,-991.0,13:29:50.139234,192.168.0.111
945,5,16,6,77,"0,-1,-179",0,0,2,0,0,0,72,75,75,60,94,-10.28,18,21.0,-12.0,-1005.0,13:29:50.259751,192.168.0.111
950,5,16,6,77,"0,-1,-179",0,0,2,0,0,0,72,75,75,60,94,-10.3,18,-7.0,-1.0,-1005.0,13:29:50.379848,192.168.0.111
955,5,16,6,77,"0,-1,-179",0,0,2,0,0,0,72,75,75,60,94,-10.24,18,4.0,-13.0,-972.0,13:29:50.499427,192.168.0.111
961,5,16,6,77,"0,-1,-179",0,0,2,0,0,0,72,75,75,60,94,-10.23,19,0.0,0.0,-1006.0,13:29:50.738670,192.168.0.111
966,5,16,6,77,"0,-1,-179",0,0,2,0,0,0,72,75,76,60,94,-10.23,19,7.0,-5.0,-992.0,13:29:50.739053,192.168.0.111
971,5,16,6,77,"0,-1,-179",0,0,2,0,0,0,72,75,75,60,94,-10.16,19,20.0,-7.0,-1008.0,13:29:50.745844,192.168.0.111
976,5,16,6,77,"0,-1,-179",0,0,2,0,0,0,72,75,75,60,94,-10.23,19,2.0,-5.0,-967.0,13:29:50.859204,192.168.0.111
981,5,20,6,76,"1,-2,-179",0,0,2,0,0,0,72,75,74,60,94,-10.24,19,9.0,-3.0,-961.0,13:29:50.979327,192.168.0.111
986,5,20,6,76,"1,-2,-179",0,0,2,0,0,-1,71,74,72,60,94,-10.2,19,-3.0,-2.0,-931.0,13:29:51.099772,192.168.0.111
991,5,20,6,76,"1,-2,-179",0,0,2,0,0,-1,71,74,70,50,94,-10.23,19,17.0,-20.0,-925.0,13:29:51.219123,192.168.0.111
996,5,20,6,76,"1,-2,-179",0,0,2,0,0,-2,71,74,67,50,94,-10.3,19,1.0,-2.0,-916.0,13:29:51.341635,192.168.0.111
1001,5,20,6,76,"1,-2,-179",0,0,2,0,0,-3,71,74,63,50,94,-10.28,19,18.0,-11.0,-931.0,13:29:51.358298,192.168.0.111
1006,5,20,6,76,"1,-2,-179",0,0,2,0,0,-4,71,74,60,40,94,-10.39,19,7.0,-4.0,-962.0,13:29:51.460305,192.168.0.111
1010,5,21,4,72,"1,-2,-179",0,0,2,0,0,-4,71,74,55,40,94,-10.37,20,7.0,-12.0,-962.0,13:29:51.579588,192.168.0.111
1015,5,21,4,72,"1,-2,-179",0,0,2,0,0,-4,71,74,51,40,94,-10.43,20,15.0,-11.0,-996.0,13:29:51.663816,192.168.0.111
1021,5,21,4,72,"1,-2,-179",0,0,2,0,0,-4,71,74,46,30,94,-10.42,20,24.0,-7.0,-1000.0,13:29:51.766238,192.168.0.111
1026,5,21,4,72,"1,-2,-179",0,0,2,0,0,-4,71,74,41,30,94,-10.49,20,8.0,0.0,-1009.0,13:29:51.868366,192.168.0.111
1031,5,21,4,72,"1,-2,-179",0,0,2,0,0,-4,71,74,36,20,94,-10.58,20,11.0,-13.0,-1002.0,13:29:51.971497,192.168.0.111
1036,5,21,4,72,"1,-2,-179",0,0,2,0,0,-4,72,75,31,20,94,-10.59,20,14.0,-5.0,-1025.0,13:29:52.071878,192.168.0.111
1041,5,21,4,72,"1,-2,-179",0,0,2,0,0,-4,72,75,26,10,94,-10.66,20,20.0,-14.0,-1002.0,13:29:52.173830,192.168.0.111
1046,5,19,4,45,"1,-2,-179",0,0,2,0,0,-4,72,75,22,10,94,-10.73,20,0.0,-3.0,-1007.0,13:29:52.275741,192.168.0.111
1051,5,19,4,45,"1,-2,-179",0,0,2,0,0,-4,72,75,18,0,94,-10.74,20,25.0,-9.0,-1036.0,13:29:52.377762,192.168.0.111
1056,5,19,4,45,"1,-2,-179",0,0,2,0,0,-4,72,75,13,0,94,-10.88,20,14.0,-5.0,-1008.0,13:29:52.499218,192.168.0.111
1058,5,19,4,45,"1,-2,-179",0,0,1,0,0,-4,72,75,10,0,94,-11.39,21,11.0,-3.0,-1051.0,13:29:52.619159,192.168.0.111
1063,5,19,4,45,"1,-2,-179",0,0,1,0,0,-3,72,75,10,0,94,-11.79,21,7.0,-5.0,-1012.0,13:29:52.632705,192.168.0.111
1068,5,19,4,45,"1,-2,-179",0,0,1,0,0,-3,72,75,10,0,94,-12.81,21,11.0,-7.0,-1047.0,13:29:52.739176,192.168.0.111
1073,5,19,4,45,"1,-2,-179",0,1,1,0,0,-2,72,75,10,-10,94,-14.26,21,49.0,3.0,-1551.0,13:29:52.859160,192.168.0.111
1078,5,19,4,45,"1,-2,-179",3,-3,3,0,0,0,72,75,10,0,94,-12.48,21,6.0,-2.0,-601.0,13:29:53.098296,192.168.0.111
1083,5,19,4,45,"1,-2,-179",-3,2,6,-1,0,1,72,75,10,0,94,-11.83,21,-78.0,-13.0,-56.0,13:29:53.098640,192.168.0.111
1088,5,19,4,45,"1,-2,-179",-1,2,6,-1,0,0,72,75,10,0,94,-11.49,21,3.0,-14.0,-1013.0,13:29:53.219279,192.168.0.111
1094,5,19,4,45,"1,-2,-179",0,1,6,0,0,0,72,75,10,0,94,-11.39,21,-37.0,-49.0,-1010.0,13:29:53.339051,192.168.0.111
1098,5,19,4,45,"1,-2,-179",-1,2,6,-1,0,0,72,75,10,0,94,-11.25,21,-12.0,-31.0,-1009.0,13:29:53.352689,192.168.0.111
1104,5,19,4,45,"1,-2,-179",-1,2,6,-1,0,0,72,75,10,0,94,-11.2,21,-24.0,-46.0,-989.0,13:29:53.460011,192.168.0.111
1109,5,19,4,45,"1,-2,-179",0,1,6,-1,0,0,72,75,10,0,94,-11.22,21,-2.0,-24.0,-1007.0,13:29:53.578288,192.168.0.111
1115,5,19,4,45,"1,-2,-179",-1,2,6,-1,0,0,72,75,10,0,94,-11.15,21,-23.0,-41.0,-993.0,13:29:53.817136,192.168.0.111
1120,5,19,4,45,"1,-2,-179",-1,2,6,-1,0,0,72,75,10,0,94,-11.19,21,-4.0,-22.0,-994.0,13:29:53.817463,192.168.0.111
1125,5,19,4,45,"1,-2,-179",-1,1,6,-1,0,0,72,75,10,0,94,-11.11,21,-11.0,-33.0,-1002.0,13:29:53.937932,192.168.0.111
1130,5,19,4,45,"1,-2,-179",-1,2,6,-1,0,0,72,75,10,0,94,-11.08,21,-20.0,-39.0,-993.0,13:29:53.958692,192.168.0.111
1135,5,19,4,45,"1,-2,-179",-1,2,6,-1,0,0,71,74,10,0,94,-11.13,21,-9.0,-32.0,-1003.0,13:29:54.060743,192.168.0.111
1140,5,19,4,45,"1,-2,-179",-1,2,6,-1,0,0,71,74,10,0,94,-11.15,21,-16.0,-37.0,-994.0,13:29:54.178045,192.168.0.111
