,mid,x,y,z,mpry,pitch,roll,yaw,vgx,vgy,vgz,templ,temph,tof,h,bat,baro,time,agx,agy,agz,timestamp,address
1,-1,-100,-100,-100,"0,0,0",0,0,0,0,0,0,64,67,10,0,81,-1.56,0,4.0,-6.0,-1000.0,13:59:28.212113,192.168.0.111
6,-1,-100,-100,-100,"0,0,0",0,0,0,0,0,0,64,67,10,0,81,-1.59,0,5.0,-6.0,-1000.0,13:59:28.314199,192.168.0.111
11,-1,-100,-100,-100,"0,0,0",0,0,0,0,0,0,64,67,10,0,81,-1.61,0,8.0,-7.0,-999.0,13:59:28.416549,192.168.0.111
16,-1,-100,-100,-100,"0,0,0",0,0,0,0,0,0,64,67,10,0,81,-1.61,0,6.0,-6.0,-1000.0,13:59:28.518037,192.168.0.111
22,-1,-100,-100,-100,"0,0,0",0,0,0,0,0,0,64,67,10,0,81,-1.61,0,13.0,-10.0,-999.0,13:59:28.620463,192.168.0.111
27,-1,-100,-100,-100,"0,0,0",0,0,0,0,0,0,64,67,10,0,81,-1.61,0,-7.0,-14.0,-1006.0,13:59:28.722486,192.168.0.111
32,-1,-100,-100,-100,"0,0,0",0,0,0,0,0,0,64,67,10,0,81,-1.61,0,-1.0,-12.0,-1128.0,13:59:28.824376,192.168.0.111
37,-1,-100,-100,-100,"0,0,0",0,0,0,0,0,1,64,67,10,0,81,-1.61,0,-20.0,3.0,-1277.0,13:59:28.926434,192.168.0.111
42,-1,-100,-100,-100,"0,0,0",-1,0,0,0,0,5,64,67,10,0,81,-1.61,0,-36.0,1.0,-1328.0,13:59:29.028392,192.168.0.111
47,-1,-100,-100,-100,"0,0,0",-2,-1,0,0,0,7,64,67,13,0,81,-1.42,0,-12.0,4.0,-1135.0,13:59:29.130456,192.168.0.111
52,-1,-100,-100,-100,"0,0,0",-1,0,0,0,0,8,64,67,20,10,81,-1.25,0,-13.0,8.0,-1013.0,13:59:29.232380,192.168.0.111
58,-1,-100,-100,-100,"0,0,0",-1,0,0,0,0,7,64,67,27,20,81,-1.12,0,-13.0,6.0,-1042.0,13:59:29.336822,192.168.0.111
63,-1,-100,-100,-100,"0,0,0",-1,-1,0,0,0,7,64,67,37,30,81,-1.07,1,-23.0,16.0,-986.0,13:59:29.436734,192.168.0.111
68,-1,-100,-100,-100,"0,0,0",-1,-1,0,0,0,6,64,67,45,30,81,-1.03,1,-2.0,14.0,-950.0,13:59:29.538363,192.168.0.111
73,-1,-100,-100,-100,"0,0,0",0,0,0,0,0,5,64,67,52,40,81,-1.04,1,17.0,-13.0,-895.0,13:59:29.640362,192.168.0.111
79,-1,-100,-100,-100,"0,0,0",0,0,0,0,0,4,64,67,58,40,81,-0.92,1,-17.0,-21.0,-909.0,13:59:29.745473,192.168.0.111
84,-1,-100,-100,-100,"0,0,0",-1,1,0,0,0,3,64,67,63,50,81,-0.9,1,-32.0,-25.0,-903.0,13:59:29.846338,192.168.0.111
89,3,-3,-1,43,"1,0,178",-1,1,0,0,0,2,64,67,66,50,81,-0.83,1,-23.0,-19.0,-896.0,13:59:29.946321,192.168.0.111
90,3,-3,-1,43,"1,0,178",-1,0,0,0,0,2,64,67,69,50,81,-0.85,1,-11.0,-8.0,-918.0,13:59:29.997064,192.168.0.111
96,3,-3,-1,43,"1,0,178",-1,0,0,0,0,1,64,67,72,50,81,-0.7,1,-17.0,-15.0,-923.0,13:59:30.098974,192.168.0.111
101,3,-2,-5,67,"2,0,-173",-1,0,0,0,0,1,64,67,74,60,81,-0.74,1,-27.0,-6.0,-940.0,13:59:30.201333,192.168.0.111
106,3,-2,-5,67,"2,0,-173",-1,0,0,0,0,1,64,67,75,60,81,-0.69,1,-18.0,-21.0,-959.0,13:59:30.303410,192.168.0.111
111,3,-2,-5,67,"2,0,-173",-1,1,0,0,0,0,64,67,77,60,81,-0.77,2,-22.0,0.0,-971.0,13:59:30.405406,192.168.0.111
116,3,-2,-5,67,"2,0,-173",-1,0,0,0,0,0,64,67,79,60,81,-0.8,2,-17.0,-5.0,-981.0,13:59:30.507341,192.168.0.111
121,3,-3,-5,77,"3,1,-173",-1,1,0,0,0,0,64,67,81,60,81,-0.64,2,-11.0,-12.0,-973.0,13:59:30.609326,192.168.0.111
126,3,-3,-5,77,"3,1,-173",0,0,0,0,0,0,64,67,82,60,81,-0.64,2,-9.0,-8.0,-997.0,13:59:30.711320,192.168.0.111
131,3,-3,-5,77,"3,1,-173",-1,0,0,0,0,0,64,67,84,70,81,-0.65,2,-23.0,16.0,-993.0,13:59:30.813353,192.168.0.111
136,3,-3,-5,77,"3,1,-173",-1,0,0,0,0,0,64,67,85,70,81,-0.61,2,-18.0,-2.0,-976.0,13:59:30.915363,192.168.0.111
141,3,-4,-6,84,"2,0,-172",0,0,0,0,0,0,64,67,85,70,81,-0.58,2,-2.0,-11.0,-957.0,13:59:31.017038,192.168.0.111
146,3,-4,-6,84,"2,0,-172",0,0,0,0,0,0,64,67,84,70,81,-0.58,2,0.0,-3.0,-925.0,13:59:31.119172,192.168.0.111
151,3,-4,-6,84,"2,0,-172",0,0,0,0,0,0,64,67,85,70,81,-0.54,2,7.0,-16.0,-969.0,13:59:31.221079,192.168.0.111
157,3,-3,-2,88,"3,0,-175",0,0,0,0,0,0,64,67,85,70,81,-0.64,2,5.0,-26.0,-1003.0,13:59:31.323423,192.168.0.111
162,3,-3,-2,88,"3,0,-175",0,0,0,0,0,0,64,67,85,70,81,-0.54,3,3.0,-28.0,-1016.0,13:59:31.425209,192.168.0.111
167,3,-3,-2,88,"3,0,-175",0,1,0,0,0,0,64,67,84,70,81,-0.68,3,0.0,-21.0,-993.0,13:59:31.527351,192.168.0.111
172,3,-3,-2,88,"3,0,-175",0,2,0,0,0,0,64,67,84,70,81,-0.69,3,15.0,-50.0,-1001.0,13:59:31.629275,192.168.0.111
177,3,-7,-6,87,"-2,0,-172",1,2,0,0,0,0,64,67,85,70,81,-0.62,3,-4.0,-31.0,-1007.0,13:59:31.731275,192.168.0.111
183,3,-7,-6,87,"-2,0,-172",0,1,0,0,0,0,64,67,85,70,81,-0.62,3,5.0,-50.0,-1000.0,13:59:31.833228,192.168.0.111
188,3,-7,-6,87,"-2,0,-172",0,2,0,0,0,0,64,67,85,70,81,-0.65,3,3.0,-42.0,-968.0,13:59:31.935253,192.168.0.111
193,3,-7,-6,87,"-2,0,-172",0,2,0,0,0,0,64,67,84,70,81,-0.65,3,13.0,-41.0,-979.0,13:59:32.037220,192.168.0.111
198,3,-3,-4,88,"-2,0,-170",0,2,0,0,0,0,64,67,84,70,81,-0.62,3,10.0,-27.0,-970.0,13:59:32.139357,192.168.0.111
203,3,-3,-4,88,"-2,0,-170",0,3,0,0,0,0,64,67,85,70,81,-0.52,3,10.0,-44.0,-1003.0,13:59:32.241215,192.168.0.111
208,3,-3,-4,88,"-2,0,-170",0,2,0,0,0,0,64,67,84,70,81,-0.56,3,-5.0,-22.0,-1012.0,13:59:32.343364,192.168.0.111
214,3,-3,-4,88,"-2,0,-170",0,1,0,0,0,0,64,67,84,70,81,-0.5,4,10.0,-25.0,-987.0,13:59:32.445159,192.168.0.111
215,3,-1,-2,87,"-1,0,-170",0,2,0,0,0,0,64,67,83,70,81,-0.52,4,13.0,-49.0,-974.0,13:59:32.496228,192.168.0.111
220,3,-1,-2,87,"-1,0,-170",0,2,0,0,0,0,64,67,82,70,81,-0.58,4,12.0,-43.0,-1002.0,13:59:32.598226,192.168.0.111
226,3,-1,-2,87,"-1,0,-170",0,1,0,0,0,0,64,67,83,70,81,-0.62,4,13.0,-5.0,-994.0,13:59:32.700263,192.168.0.111
231,3,-1,-3,86,"-1,0,-170",1,1,0,0,0,0,64,67,83,70,81,-0.64,4,38.0,-27.0,-1026.0,13:59:32.802460,192.168.0.111
236,3,-1,-3,86,"-1,0,-170",1,1,0,0,0,0,64,67,82,70,81,-0.55,4,26.0,-14.0,-1001.0,13:59:32.904186,192.168.0.111
241,3,-1,-3,86,"-1,0,-170",0,0,0,0,0,0,64,67,81,70,81,-0.63,4,25.0,-25.0,-980.0,13:59:33.008840,192.168.0.111
246,3,-1,-3,86,"-1,0,-170",1,0,0,0,0,0,65,67,81,70,81,-0.61,4,28.0,-6.0,-999.0,13:59:33.108015,192.168.0.111
251,3,0,-3,86,"-1,0,-171",1,0,0,0,0,0,65,67,82,70,81,-0.6,4,33.0,-17.0,-1027.0,13:59:33.210268,192.168.0.111
256,3,0,-3,86,"-1,0,-171",1,0,0,0,0,0,65,67,81,70,81,-0.51,4,18.0,-12.0,-992.0,13:59:33.311944,192.168.0.111
261,3,0,-3,86,"-1,0,-171",1,0,0,0,0,0,65,67,82,70,81,-0.65,5,17.0,-15.0,-1008.0,13:59:33.414867,192.168.0.111
266,3,0,-3,86,"-1,0,-171",2,0,0,0,0,0,65,67,81,70,81,-0.64,5,28.0,-2.0,-986.0,13:59:33.516096,192.168.0.111
271,3,-5,-7,84,"-7,0,-171",2,0,0,0,0,0,65,67,82,70,81,-0.66,5,0.0,0.0,-998.0,13:59:33.618089,192.168.0.111
276,3,-5,-7,84,"-7,0,-171",1,1,0,0,0,0,65,67,82,70,81,-0.72,5,12.0,-22.0,-999.0,13:59:33.721491,192.168.0.111
281,3,-5,-7,84,"-7,0,-171",1,0,0,0,0,0,65,67,82,70,81,-0.66,5,24.0,0.0,-1004.0,13:59:33.821886,192.168.0.111
286,3,-8,-4,85,"-10,0,-174",1,0,0,0,0,0,65,67,82,70,81,-0.58,5,31.0,-3.0,-1003.0,13:59:33.923771,192.168.0.111
291,3,-8,-4,85,"-10,0,-174",1,0,0,0,0,0,65,67,83,70,81,-0.61,5,28.0,0.0,-992.0,13:59:34.026055,192.168.0.111
296,3,-8,-4,85,"-10,0,-174",1,0,0,0,0,0,64,67,82,70,81,-0.62,5,28.0,-1.0,-980.0,13:59:34.127522,192.168.0.111
301,3,-8,-4,85,"-10,0,-174",2,0,0,0,0,0,64,67,82,70,81,-0.74,5,42.0,-7.0,-999.0,13:59:34.229980,192.168.0.111
306,3,-1,-5,85,"-6,0,-174",2,0,0,0,0,0,64,67,82,70,81,-0.59,5,42.0,-1.0,-1001.0,13:59:34.339266,192.168.0.111
312,3,-1,-5,85,"-6,0,-174",2,0,0,0,0,0,64,67,81,70,81,-0.68,6,35.0,3.0,-1000.0,13:59:34.434641,192.168.0.111
317,3,-1,-5,85,"-6,0,-174",1,0,0,0,0,0,64,67,82,70,81,-0.62,6,39.0,13.0,-991.0,13:59:34.536609,192.168.0.111
321,3,-1,-5,85,"-6,0,-174",1,0,0,0,0,0,64,67,82,70,81,-0.64,6,34.0,7.0,-1006.0,13:59:34.639581,192.168.0.111
327,3,-1,-5,85,"-6,0,-174",1,-1,0,0,0,0,64,67,82,70,81,-0.65,6,26.0,4.0,-1005.0,13:59:34.741827,192.168.0.111
333,3,-1,-5,85,"-6,0,-174",2,0,0,0,0,0,64,67,83,70,81,-0.65,6,34.0,17.0,-1009.0,13:59:34.844966,192.168.0.111
338,3,-1,-5,85,"-6,0,-174",2,0,0,0,0,0,64,67,83,70,81,-0.68,6,43.0,0.0,-1000.0,13:59:34.943990,192.168.0.111
343,3,-1,-5,85,"-6,0,-174",2,0,0,0,0,0,64,67,82,70,81,-0.64,6,42.0,2.0,-981.0,13:59:35.050289,192.168.0.111
345,3,-1,-5,85,"-6,0,-174",2,0,0,0,0,0,64,67,82,70,81,-0.68,6,39.0,1.0,-984.0,13:59:35.097123,192.168.0.111
351,3,-1,-5,85,"-6,0,-174",2,0,0,0,0,0,64,67,83,70,81,-0.65,6,36.0,-5.0,-1005.0,13:59:35.200617,192.168.0.111
356,3,-1,-5,85,"-6,0,-174",2,0,0,0,0,0,64,67,82,70,81,-0.71,6,43.0,-4.0,-990.0,13:59:35.301020,192.168.0.111
360,3,-1,-5,85,"-6,0,-174",2,0,0,0,0,0,64,67,82,70,81,-0.64,7,27.0,12.0,-994.0,13:59:35.403616,192.168.0.111
366,3,-1,-5,85,"-6,0,-174",2,0,0,0,0,0,64,67,82,70,81,-0.66,7,42.0,-5.0,-1007.0,13:59:35.504946,192.168.0.111
371,3,-1,-5,85,"-6,0,-174",2,0,0,0,0,0,64,67,82,70,81,-0.63,7,33.0,21.0,-996.0,13:59:35.606967,192.168.0.111
376,3,-1,-5,85,"-6,0,-174",2,0,0,0,0,0,64,67,82,70,81,-0.68,7,43.0,1.0,-993.0,13:59:35.708808,192.168.0.111
381,3,0,-2,85,"-6,0,-178",2,0,0,0,0,0,64,67,82,70,81,-0.66,7,44.0,0.0,-993.0,13:59:35.811026,192.168.0.111
386,3,0,-2,85,"-6,0,-178",2,0,0,0,0,0,64,67,81,70,81,-0.71,7,36.0,-1.0,-987.0,13:59:35.912495,192.168.0.111
391,3,0,-2,85,"-6,0,-178",2,0,0,0,0,0,64,67,81,70,81,-0.66,7,18.0,3.0,-998.0,13:59:36.014976,192.168.0.111
396,3,0,-2,85,"-6,0,-178",2,0,0,0,0,0,64,67,81,70,81,-0.67,7,34.0,-8.0,-1011.0,13:59:36.116870,192.168.0.111
401,3,2,-5,85,"-5,0,-176",1,0,0,0,0,0,64,67,80,70,81,-0.71,7,18.0,-6.0,-1009.0,13:59:36.223478,192.168.0.111
406,3,2,-5,85,"-5,0,-176",1,0,0,0,0,0,64,67,81,70,81,-0.62,7,22.0,-10.0,-1006.0,13:59:36.326415,192.168.0.111
410,3,2,-5,85,"-5,0,-176",1,0,0,0,0,0,64,67,81,70,81,-0.66,8,19.0,-16.0,-1025.0,13:59:36.423215,192.168.0.111
416,3,0,-6,84,"-5,0,-174",1,1,0,0,0,0,64,67,81,70,81,-0.66,8,23.0,-5.0,-1013.0,13:59:36.524963,192.168.0.111
420,3,0,-6,84,"-5,0,-174",1,0,0,0,0,0,64,67,81,70,81,-0.73,8,17.0,0.0,-999.0,13:59:36.626969,192.168.0.111
425,3,0,-6,84,"-5,0,-174",1,0,0,0,0,0,64,67,82,70,81,-0.72,8,32.0,-18.0,-998.0,13:59:36.729150,192.168.0.111
431,3,0,-6,84,"-5,0,-174",1,0,0,0,0,0,64,67,82,70,81,-0.59,8,28.0,-25.0,-1010.0,13:59:36.830948,192.168.0.111
437,3,0,-6,84,"-4,0,-172",1,0,0,0,0,0,64,67,82,70,81,-0.74,8,30.0,-30.0,-1015.0,13:59:36.935556,192.168.0.111
441,3,0,-6,84,"-4,0,-172",1,1,0,0,0,0,64,67,82,70,81,-0.67,8,32.0,-22.0,-986.0,13:59:37.036465,192.168.0.111
447,3,0,-6,84,"-4,0,-172",1,1,0,0,0,0,65,67,83,70,81,-0.68,8,25.0,-15.0,-1009.0,13:59:37.137211,192.168.0.111
452,3,0,-6,84,"-4,0,-172",1,1,0,0,0,0,65,67,83,70,81,-0.59,8,33.0,-23.0,-1001.0,13:59:37.238294,192.168.0.111
457,3,-2,-4,85,"-5,0,-173",1,1,0,0,0,0,65,67,84,70,81,-0.63,8,40.0,-17.0,-1005.0,13:59:37.340891,192.168.0.111
462,3,-2,-4,85,"-5,0,-173",0,1,0,0,0,0,65,67,84,70,81,-0.71,9,51.0,-12.0,-993.0,13:59:37.442950,192.168.0.111
468,3,-2,-4,85,"-5,0,-173",0,1,0,0,0,0,65,67,85,70,81,-0.68,9,39.0,6.0,-993.0,13:59:37.544900,192.168.0.111
473,3,-2,-4,85,"-5,0,-173",0,1,0,-1,0,0,65,67,85,70,81,-0.67,9,32.0,0.0,-983.0,13:59:37.646902,192.168.0.111
477,3,-2,-4,85,"-5,0,-173",0,0,0,-1,0,0,65,67,85,70,81,-0.71,9,18.0,3.0,-983.0,13:59:37.754639,192.168.0.111
483,3,-2,-4,85,"-5,0,-173",0,0,0,-1,0,0,65,67,86,70,81,-0.7,9,37.0,-8.0,-990.0,13:59:37.850865,192.168.0.111
488,3,-2,-4,85,"-5,0,-173",0,0,0,-2,0,0,65,67,86,70,81,-0.69,9,23.0,0.0,-994.0,13:59:37.952791,192.168.0.111
494,3,-1,-1,89,"-3,0,-173",0,0,0,-2,0,0,65,67,85,70,81,-0.71,9,39.0,3.0,-999.0,13:59:38.055177,192.168.0.111
499,3,-1,-1,89,"-3,0,-173",0,0,0,-2,0,0,64,67,85,70,81,-0.73,9,25.0,0.0,-992.0,13:59:38.156376,192.168.0.111
504,3,-1,-1,89,"-3,0,-173",0,0,0,-2,0,0,64,67,86,70,81,-0.69,9,23.0,6.0,-995.0,13:59:38.258330,192.168.0.111
506,3,-1,-1,89,"-3,0,-173",0,0,0,-2,0,0,64,67,85,70,81,-0.64,9,17.0,11.0,-991.0,13:59:38.309552,192.168.0.111
511,3,1,-7,90,"-6,0,-170",0,0,0,-3,0,0,64,67,85,70,81,-0.63,10,19.0,5.0,-988.0,13:59:38.411776,192.168.0.111
516,3,1,-7,90,"-6,0,-170",0,0,0,-3,0,0,64,67,85,70,81,-0.62,10,16.0,11.0,-988.0,13:59:38.513493,192.168.0.111
521,3,1,-7,90,"-6,0,-170",0,0,0,-3,0,0,64,67,85,70,81,-0.54,10,21.0,-4.0,-1006.0,13:59:38.615812,192.168.0.111
526,3,1,-7,90,"-6,0,-170",1,0,0,-3,0,0,64,67,84,70,81,-0.54,10,17.0,-4.0,-1014.0,13:59:38.717804,192.168.0.111
531,3,1,-7,90,"-6,0,-170",1,0,0,-3,0,0,64,67,84,70,81,-0.56,10,10.0,9.0,-1001.0,13:59:38.819857,192.168.0.111
536,3,1,-7,90,"-6,0,-170",0,0,0,-3,0,0,64,67,84,70,81,-0.63,10,20.0,13.0,-995.0,13:59:38.922370,192.168.0.111
541,3,1,-7,90,"-6,0,-170",0,0,0,-3,0,0,64,67,84,70,81,-0.56,10,9.0,2.0,-991.0,13:59:39.023586,192.168.0.111
546,3,1,-7,90,"-6,0,-170",1,0,0,-3,0,0,64,67,84,70,81,-0.57,10,19.0,-9.0,-1002.0,13:59:39.125508,192.168.0.111
551,3,1,-7,90,"-6,0,-170",1,0,0,-3,0,0,64,67,83,70,81,-0.63,10,19.0,11.0,-1010.0,13:59:39.227566,192.168.0.111
556,3,1,-7,90,"-6,0,-170",1,0,0,-3,0,0,64,67,83,70,81,-0.74,10,20.0,-10.0,-993.0,13:59:39.329497,192.168.0.111
561,3,1,-7,90,"-6,0,-170",1,0,0,-3,0,0,64,67,83,70,81,-0.5,11,28.0,-10.0,-1035.0,13:59:39.431556,192.168.0.111
567,3,1,-7,90,"-6,0,-170",2,1,0,-3,0,0,64,67,86,70,81,-0.31,11,28.0,-9.0,-1023.0,13:59:39.533563,192.168.0.111
572,3,1,-7,90,"-6,0,-170",2,1,0,-3,0,0,64,67,86,70,81,-0.28,11,24.0,-23.0,-1001.0,13:59:39.635776,192.168.0.111
577,3,1,-7,90,"-6,0,-170",2,0,0,-3,0,0,64,67,85,70,81,-0.35,11,27.0,-16.0,-975.0,13:59:39.738116,192.168.0.111
582,3,1,-7,90,"-6,0,-170",1,0,0,-3,0,0,64,67,85,70,81,-0.2,11,16.0,-16.0,-974.0,13:59:39.839574,192.168.0.111
587,3,1,-7,90,"-6,0,-170",1,1,0,-2,0,0,64,67,85,70,81,-0.19,11,24.0,-21.0,-991.0,13:59:39.941529,192.168.0.111
592,3,1,-7,90,"-6,0,-170",1,1,0,-2,0,0,64,67,81,70,81,-0.37,11,4.0,-11.0,-989.0,13:59:40.043870,192.168.0.111
598,3,1,-7,90,"-6,0,-170",1,2,0,-2,0,0,65,68,80,70,81,-0.62,11,29.0,-13.0,-996.0,13:59:40.145802,192.168.0.111
603,3,1,-7,90,"-6,0,-170",1,2,0,-2,0,0,65,68,80,70,81,-0.81,11,10.0,1.0,-1004.0,13:59:40.257557,192.168.0.111
608,3,1,-7,90,"-6,0,-170",1,2,0,-2,0,0,65,68,79,70,81,-1.0,11,29.0,-14.0,-1017.0,13:59:40.349500,192.168.0.111
613,3,1,-7,90,"-6,0,-170",1,2,0,-2,0,0,65,68,79,60,81,-1.07,12,23.0,-2.0,-1038.0,13:59:40.455252,192.168.0.111
618,3,1,-7,90,"-6,0,-170",1,1,0,-2,0,0,65,68,79,60,81,-1.12,12,8.0,-13.0,-1013.0,13:59:40.553611,192.168.0.111
623,3,1,-7,90,"-6,0,-170",1,2,0,-2,0,0,65,68,78,60,81,-1.23,12,20.0,12.0,-1024.0,13:59:40.655675,192.168.0.111
628,3,1,-7,90,"-6,0,-170",2,2,0,-2,-1,0,65,68,78,60,81,-1.26,12,37.0,3.0,-999.0,13:59:40.765712,192.168.0.111
633,3,1,-7,90,"-6,0,-170",2,-1,0,-2,-1,0,65,68,79,60,81,-1.11,12,41.0,-39.0,-1031.0,13:59:40.859351,192.168.0.111
638,3,1,-7,90,"-6,0,-170",5,-2,0,-1,0,0,65,68,80,60,81,-0.87,12,20.0,-10.0,-1031.0,13:59:40.961702,192.168.0.111
643,3,1,-7,90,"-6,0,-170",5,0,0,-1,0,0,65,68,80,60,81,-0.97,12,43.0,-21.0,-1013.0,13:59:41.063740,192.168.0.111
648,3,1,-7,90,"-6,0,-170",3,1,0,0,0,0,64,67,81,60,81,-0.77,12,42.0,1.0,-1012.0,13:59:41.166442,192.168.0.111
653,3,1,-7,90,"-6,0,-170",2,1,0,0,0,0,64,67,81,60,81,-0.99,12,34.0,2.0,-1015.0,13:59:41.268547,192.168.0.111
658,3,1,-7,90,"-6,0,-170",3,0,0,0,0,0,64,67,82,60,81,-0.81,12,53.0,-20.0,-989.0,13:59:41.371879,192.168.0.111
663,3,1,-7,90,"-6,0,-170",3,0,0,0,0,0,64,67,82,70,81,-0.88,13,31.0,-17.0,-980.0,13:59:41.472703,192.168.0.111
666,3,1,-7,90,"-6,0,-170",3,0,0,0,0,0,64,67,83,70,81,-0.88,13,60.0,-11.0,-1006.0,13:59:41.523696,192.168.0.111
671,3,1,-7,90,"-6,0,-170",2,1,0,0,0,0,64,67,84,70,81,-0.83,13,35.0,-1.0,-990.0,13:59:41.625581,192.168.0.111
676,3,1,-7,90,"-6,0,-170",2,1,0,0,0,0,64,67,83,70,81,-0.82,13,40.0,5.0,-970.0,13:59:41.727486,192.168.0.111
681,3,1,-7,90,"-6,0,-170",2,1,0,0,0,0,64,67,84,70,81,-0.83,13,34.0,-15.0,-1007.0,13:59:41.829529,192.168.0.111
686,3,1,-7,90,"-6,0,-170",2,0,0,0,0,0,64,67,84,70,81,-0.78,13,38.0,-3.0,-996.0,13:59:41.931278,192.168.0.111
692,3,1,-7,90,"-6,0,-170",2,1,0,0,0,0,64,67,85,70,81,-0.96,13,27.0,17.0,-970.0,13:59:42.033558,192.168.0.111
697,3,1,-7,90,"-6,0,-170",2,0,0,0,0,0,65,67,85,70,81,-0.99,13,51.0,-4.0,-1005.0,13:59:42.137236,192.168.0.111
702,3,1,-7,90,"-6,0,-170",2,0,0,0,0,0,65,67,86,70,81,-1.01,13,51.0,-21.0,-1010.0,13:59:42.238396,192.168.0.111
707,3,1,-7,90,"-6,0,-170",2,0,0,0,0,0,65,67,85,70,81,-1.01,13,34.0,-20.0,-981.0,13:59:42.339494,192.168.0.111
712,3,1,-7,90,"-6,0,-170",2,0,0,0,0,0,65,67,85,70,81,-1.02,14,18.0,-12.0,-991.0,13:59:42.441498,192.168.0.111
717,3,1,-7,90,"-6,0,-170",2,1,0,0,0,0,65,67,85,70,81,-0.94,14,32.0,-23.0,-958.0,13:59:42.543504,192.168.0.111
722,3,1,-7,90,"-6,0,-170",1,1,0,0,0,0,65,67,85,70,81,-0.99,14,46.0,-2.0,-1008.0,13:59:42.645401,192.168.0.111
728,3,1,-7,90,"-6,0,-170",1,1,0,0,0,0,65,67,84,70,81,-1.01,14,33.0,-17.0,-1008.0,13:59:42.747524,192.168.0.111
733,3,1,-7,90,"-6,0,-170",1,1,0,0,0,0,65,67,84,70,81,-1.04,14,49.0,-8.0,-1003.0,13:59:42.849594,192.168.0.111
738,3,1,-7,90,"-6,0,-170",2,0,0,0,0,0,65,67,84,70,81,-0.97,14,34.0,5.0,-1008.0,13:59:42.952153,192.168.0.111
743,3,1,-7,90,"-6,0,-170",2,0,0,0,0,0,65,67,85,70,81,-1.06,14,68.0,-22.0,-994.0,13:59:43.054813,192.168.0.111
748,3,1,-7,90,"-6,0,-170",3,0,0,0,0,0,65,67,85,70,81,-1.11,14,47.0,-30.0,-998.0,13:59:43.155373,192.168.0.111
753,3,1,-7,90,"-6,0,-170",3,1,0,0,0,0,65,67,85,70,81,-1.08,14,41.0,-27.0,-996.0,13:59:43.260424,192.168.0.111
758,3,1,-7,90,"-6,0,-170",2,2,0,0,0,0,65,67,85,70,81,-1.16,14,14.0,-24.0,-1015.0,13:59:43.359327,192.168.0.111
763,3,1,-7,90,"-6,0,-170",2,2,0,0,0,0,65,67,85,70,81,-0.86,15,19.0,-33.0,-1015.0,13:59:43.461604,192.168.0.111
768,-1,-100,-100,-100,"0,0,0",2,2,0,0,0,0,65,67,85,70,81,-0.91,15,26.0,-32.0,-980.0,13:59:43.563490,192.168.0.111
773,-1,-100,-100,-100,"0,0,0",1,2,0,0,0,0,65,67,85,70,81,-0.99,15,22.0,-3.0,-979.0,13:59:43.665502,192.168.0.111
778,-1,-100,-100,-100,"0,0,0",0,2,0,0,0,0,65,67,84,70,81,-0.61,15,25.0,-22.0,-1008.0,13:59:43.767604,192.168.0.111
783,-1,-100,-100,-100,"0,0,0",1,1,0,0,0,0,65,67,84,70,81,-0.56,15,13.0,-14.0,-984.0,13:59:43.869532,192.168.0.111
788,-1,-100,-100,-100,"0,0,0",1,1,0,0,0,0,65,67,84,70,81,-0.52,15,51.0,-29.0,-992.0,13:59:43.971653,192.168.0.111
793,-1,-100,-100,-100,"0,0,0",0,2,0,0,0,0,65,67,83,70,81,-0.68,15,53.0,-10.0,-992.0,13:59:44.073531,192.168.0.111
798,-1,-100,-100,-100,"0,0,0",1,2,0,0,0,0,65,67,82,70,81,-0.7,15,48.0,21.0,-990.0,13:59:44.175462,192.168.0.111
803,-1,-100,-100,-100,"0,0,0",2,1,0,0,0,0,65,67,82,70,81,-0.65,15,48.0,26.0,-994.0,13:59:44.277321,192.168.0.111
808,-1,-100,-100,-100,"0,0,0",2,0,0,0,-1,0,65,67,81,70,81,-0.62,15,51.0,11.0,-1025.0,13:59:44.379346,192.168.0.111
813,-1,-100,-100,-100,"0,0,0",2,0,0,0,-1,0,65,67,81,70,81,-0.68,16,34.0,29.0,-1001.0,13:59:44.481369,192.168.0.111
818,-1,-100,-100,-100,"0,0,0",2,-1,0,0,-1,0,65,67,81,70,81,-0.7,16,46.0,23.0,-1006.0,13:59:44.583546,192.168.0.111
823,-1,-100,-100,-100,"0,0,0",2,-1,0,0,-1,0,65,67,80,70,81,-0.65,16,33.0,11.0,-1004.0,13:59:44.686740,192.168.0.111
828,-1,-100,-100,-100,"0,0,0",2,-1,0,0,-1,0,65,67,80,70,81,-0.61,16,39.0,30.0,-1003.0,13:59:44.787400,192.168.0.111
831,-1,-100,-100,-100,"0,0,0",2,-1,0,0,0,0,65,67,79,70,81,-0.71,16,48.0,23.0,-996.0,13:59:44.838203,192.168.0.111
836,-1,-100,-100,-100,"0,0,0",2,-1,0,0,0,0,65,67,79,70,81,-0.81,16,54.0,17.0,-1017.0,13:59:44.940292,192.168.0.111
841,-1,-100,-100,-100,"0,0,0",2,-1,0,0,0,0,65,67,79,70,81,-0.81,16,39.0,19.0,-995.0,13:59:45.042405,192.168.0.111
846,-1,-100,-100,-100,"0,0,0",2,-1,0,0,0,0,65,68,79,60,81,-0.81,16,28.0,-3.0,-995.0,13:59:45.144127,192.168.0.111
852,-1,-100,-100,-100,"0,0,0",2,-1,0,0,0,0,65,68,79,60,81,-0.7,16,29.0,8.0,-1000.0,13:59:45.246289,192.168.0.111
858,-1,-100,-100,-100,"0,0,0",2,0,0,0,0,0,65,68,79,60,81,-0.64,16,36.0,16.0,-998.0,13:59:45.348298,192.168.0.111
863,-1,-100,-100,-100,"0,0,0",2,0,0,0,0,0,65,68,79,60,81,-0.71,17,34.0,16.0,-988.0,13:59:45.450317,192.168.0.111
868,-1,-100,-100,-100,"0,0,0",2,0,0,0,0,0,65,68,78,60,81,-0.82,17,52.0,27.0,-1021.0,13:59:45.552433,192.168.0.111
873,-1,-100,-100,-100,"0,0,0",2,0,0,0,0,0,65,68,78,60,81,-0.8,17,34.0,35.0,-977.0,13:59:45.654930,192.168.0.111
878,-1,-100,-100,-100,"0,0,0",2,0,0,0,0,0,65,68,79,60,81,-0.72,17,39.0,11.0,-1000.0,13:59:45.757375,192.168.0.111
883,-1,-100,-100,-100,"0,0,0",2,0,0,0,0,0,65,68,79,60,81,-0.69,17,48.0,15.0,-1003.0,13:59:45.858276,192.168.0.111
888,-1,-100,-100,-100,"0,0,0",2,-1,0,0,0,0,65,68,79,60,81,-0.81,17,46.0,4.0,-1006.0,13:59:45.960445,192.168.0.111
893,-1,-100,-100,-100,"0,0,0",2,0,0,0,0,0,65,68,79,60,81,-0.83,17,58.0,-7.0,-988.0,13:59:46.062352,192.168.0.111
898,-1,-100,-100,-100,"0,0,0",2,0,0,0,0,0,65,67,79,60,81,-0.8,17,49.0,1.0,-1001.0,13:59:46.164197,192.168.0.111
903,-1,-100,-100,-100,"0,0,0",2,0,0,0,0,0,65,67,79,60,81,-0.83,17,36.0,2.0,-1004.0,13:59:46.266389,192.168.0.111
908,-1,-100,-100,-100,"0,0,0",2,0,0,0,0,0,65,67,79,60,81,-0.85,17,51.0,-19.0,-995.0,13:59:46.368354,192.168.0.111
913,-1,-100,-100,-100,"0,0,0",3,1,0,0,0,0,65,67,79,60,81,-0.88,18,53.0,-32.0,-999.0,13:59:46.470453,192.168.0.111
918,-1,-100,-100,-100,"0,0,0",2,1,0,0,0,0,65,67,80,60,81,-0.82,18,41.0,-45.0,-1006.0,13:59:46.572169,192.168.0.111
923,-1,-100,-100,-100,"0,0,0",2,2,0,0,1,0,65,67,80,60,81,-0.87,18,43.0,-33.0,-1006.0,13:59:46.674255,192.168.0.111
928,-1,-100,-100,-100,"0,0,0",1,3,0,0,1,0,65,67,80,60,81,-0.8,18,44.0,-45.0,-974.0,13:59:46.776304,192.168.0.111
933,-1,-100,-100,-100,"0,0,0",1,3,0,0,0,0,65,67,80,60,81,-0.87,18,47.0,-42.0,-985.0,13:59:46.878378,192.168.0.111
938,-1,-100,-100,-100,"0,0,0",1,2,0,0,0,0,65,67,81,60,81,-0.86,18,16.0,-30.0,-1006.0,13:59:46.980103,192.168.0.111
943,-1,-100,-100,-100,"0,0,0",1,3,0,0,1,0,65,67,80,60,81,-0.65,18,15.0,-45.0,-997.0,13:59:47.082413,192.168.0.111
948,-1,-100,-100,-100,"0,0,0",0,3,0,1,0,0,65,68,80,60,81,-0.71,18,-13.0,-46.0,-1007.0,13:59:47.184081,192.168.0.111
953,-1,-100,-100,-100,"0,0,0",-1,3,0,1,0,0,65,68,80,60,81,-0.73,18,6.0,-45.0,-983.0,13:59:47.286266,192.168.0.111
958,-1,-100,-100,-100,"0,0,0",-1,4,0,0,0,0,65,68,80,60,81,-0.72,19,9.0,-45.0,-976.0,13:59:47.388249,192.168.0.111
963,-1,-100,-100,-100,"0,0,0",0,4,0,0,0,0,65,68,80,60,81,-0.69,19,-18.0,-54.0,-964.0,13:59:47.491044,192.168.0.111
968,-1,-100,-100,-100,"0,0,0",0,3,0,1,0,0,65,68,80,60,81,-0.88,19,-30.0,-63.0,-946.0,13:59:47.592496,192.168.0.111
973,-1,-100,-100,-100,"0,0,0",-2,3,0,1,0,-1,65,68,79,60,81,-0.79,19,-15.0,-61.0,-899.0,13:59:47.694715,192.168.0.111
978,-1,-100,-100,-100,"0,0,0",-1,2,0,0,0,-2,65,68,77,60,81,-0.74,19,-18.0,-43.0,-897.0,13:59:47.796230,192.168.0.111
983,-1,-100,-100,-100,"0,0,0",0,2,0,0,0,-3,65,68,74,60,81,-0.79,19,5.0,-60.0,-927.0,13:59:47.898180,192.168.0.111
988,-1,-100,-100,-100,"0,0,0",0,3,0,0,0,-3,65,68,71,60,81,-0.8,19,-1.0,-26.0,-985.0,13:59:48.000320,192.168.0.111
993,-1,-100,-100,-100,"0,0,0",0,3,0,0,0,-4,65,68,67,50,81,-0.89,19,15.0,-36.0,-955.0,13:59:48.102993,192.168.0.111
998,-1,-100,-100,-100,"0,0,0",0,3,0,0,0,-4,65,68,62,50,81,-0.93,19,2.0,-20.0,-975.0,13:59:48.203682,192.168.0.111
1003,-1,-100,-100,-100,"0,0,0",0,2,0,0,0,-4,65,68,58,40,81,-1.08,19,5.0,-14.0,-994.0,13:59:48.305839,192.168.0.111
1008,-1,-100,-100,-100,"0,0,0",0,1,0,0,0,-4,65,68,53,40,81,-0.99,20,10.0,-16.0,-1016.0,13:59:48.408157,192.168.0.111
1013,-1,-100,-100,-100,"0,0,0",0,2,0,0,0,-4,65,68,48,30,81,-1.05,20,-4.0,9.0,-1005.0,13:59:48.510119,192.168.0.111
1016,-1,-100,-100,-100,"0,0,0",0,1,0,0,0,-4,65,68,44,30,81,-1.21,20,7.0,3.0,-1004.0,13:59:48.561145,192.168.0.111
1022,-1,-100,-100,-100,"0,0,0",0,0,0,0,0,-4,65,68,39,20,81,-1.24,20,21.0,-2.0,-1016.0,13:59:48.663160,192.168.0.111
1028,-1,-100,-100,-100,"0,0,0",0,0,0,0,0,-4,65,68,35,20,81,-1.32,20,31.0,-18.0,-1001.0,13:59:48.765065,192.168.0.111
1033,-1,-100,-100,-100,"0,0,0",1,0,0,0,0,-4,65,68,31,20,81,-1.16,20,9.0,-25.0,-1001.0,13:59:48.867191,192.168.0.111
1038,-1,-100,-100,-100,"0,0,0",0,0,0,0,0,-4,65,68,26,10,81,-1.2,20,25.0,-22.0,-979.0,13:59:48.969156,192.168.0.111
1043,-1,-100,-100,-100,"0,0,0",1,0,0,0,0,-4,65,68,21,10,81,-1.19,20,-6.0,-38.0,-997.0,13:59:49.071281,192.168.0.111
1048,-1,-100,-100,-100,"0,0,0",0,0,0,0,0,-4,65,68,17,0,81,-1.29,20,18.0,-31.0,-974.0,13:59:49.172976,192.168.0.111
1053,-1,-100,-100,-100,"0,0,0",0,1,0,0,0,-4,65,68,11,0,81,-1.58,20,4.0,-24.0,-1012.0,13:59:49.275309,192.168.0.111
1058,-1,-100,-100,-100,"0,0,0",0,2,0,0,0,-4,65,68,10,0,81,-2.37,21,32.0,-30.0,-1117.0,13:59:49.377100,192.168.0.111
1063,-1,-100,-100,-100,"0,0,0",0,2,0,0,0,-3,65,68,10,0,81,-4.08,21,12.0,-6.0,-1063.0,13:59:49.479395,192.168.0.111
1068,-1,-100,-100,-100,"0,0,0",-3,-2,-1,0,0,0,65,68,10,0,81,-4.71,21,17.0,-45.0,-828.0,13:59:49.580876,192.168.0.111
1073,-1,-100,-100,-100,"0,0,0",-2,-1,-1,-1,0,0,65,68,10,0,81,-3.42,21,-12.0,-20.0,-679.0,13:59:49.682972,192.168.0.111
1078,-1,-100,-100,-100,"0,0,0",0,0,-1,0,0,0,65,68,10,0,81,-3.78,21,1.0,14.0,-700.0,13:59:49.785094,192.168.0.111
1083,-1,-100,-100,-100,"0,0,0",0,0,-1,0,0,0,65,68,10,0,81,-3.69,21,-21.0,-22.0,-969.0,13:59:49.888246,192.168.0.111
1088,-1,-100,-100,-100,"0,0,0",0,0,-1,0,0,0,65,68,10,0,81,-3.07,21,1.0,8.0,-996.0,13:59:49.989097,192.168.0.111
1093,-1,-100,-100,-100,"0,0,0",0,0,-1,0,0,0,65,68,10,0,81,-2.66,21,5.0,0.0,-999.0,13:59:50.091110,192.168.0.111
1098,-1,-100,-100,-100,"0,0,0",0,0,-1,0,0,0,65,68,10,0,81,-2.47,21,2.0,-9.0,-1001.0,13:59:50.193178,192.168.0.111
1103,-1,-100,-100,-100,"0,0,0",0,0,-1,0,0,0,65,68,10,0,81,-2.62,21,12.0,0.0,-999.0,13:59:50.295191,192.168.0.111
1108,-1,-100,-100,-100,"0,0,0",0,0,-1,0,0,0,65,68,10,0,81,-2.36,22,1.0,9.0,-1001.0,13:59:50.397125,192.168.0.111
1113,-1,-100,-100,-100,"0,0,0",0,0,-1,0,-1,0,65,68,10,0,81,-2.27,22,6.0,-9.0,-998.0,13:59:50.499033,192.168.0.111
1118,-1,-100,-100,-100,"0,0,0",0,0,-1,0,-1,-1,65,68,10,0,81,-2.03,22,0.0,2.0,-1000.0,13:59:50.601404,192.168.0.111
