,mid,x,y,z,mpry,pitch,roll,yaw,vgx,vgy,vgz,templ,temph,tof,h,bat,baro,time,agx,agy,agz,timestamp,address
0,-1,-100,-100,-100,"-1,-1,-1",0,0,0,0,0,0,81,83,10,0,90,-58.21,0,-1.0,-6.0,-999.0,15:55:03.241458,192.168.0.113
5,-1,-100,-100,-100,"-1,-1,-1",0,0,0,0,0,0,80,82,10,0,90,-58.22,0,-3.0,-7.0,-1001.0,15:55:03.343715,192.168.0.113
11,-1,-100,-100,-100,"-1,-1,-1",0,0,0,0,0,0,80,82,10,0,90,-58.21,0,-4.0,-7.0,-998.0,15:55:03.445207,192.168.0.113
16,-1,-100,-100,-100,"-1,-1,-1",0,0,0,0,0,0,80,82,10,0,90,-58.18,0,16.0,-20.0,-1009.0,15:55:03.547402,192.168.0.113
21,-1,-100,-100,-100,"-1,-1,-1",0,0,0,0,0,0,80,82,10,0,90,-58.18,0,19.0,-27.0,-1002.0,15:55:03.648958,192.168.0.113
26,-1,-100,-100,-100,"-1,-1,-1",0,0,0,0,0,0,80,82,10,0,90,-58.18,0,-20.0,-1.0,-995.0,15:55:03.751441,192.168.0.113
31,-1,-100,-100,-100,"-1,-1,-1",0,0,0,0,0,0,80,82,10,0,90,-58.18,0,-7.0,19.0,-998.0,15:55:03.853409,192.168.0.113
37,-1,-100,-100,-100,"-1,-1,-1",0,0,0,0,0,0,80,82,10,0,90,-58.18,0,13.0,-7.0,-1067.0,15:55:03.955271,192.168.0.113
42,-1,-100,-100,-100,"-1,-1,-1",0,0,0,0,0,-1,80,82,10,0,90,-58.18,0,18.0,-4.0,-1265.0,15:55:04.057351,192.168.0.113
47,-1,-100,-100,-100,"-1,-1,-1",0,0,0,0,0,-4,80,82,10,0,90,-58.18,0,9.0,-18.0,-1334.0,15:55:04.159275,192.168.0.113
52,-1,-100,-100,-100,"-1,-1,-1",1,0,0,0,0,-6,80,82,10,0,90,-58.18,0,5.0,21.0,-1127.0,15:55:04.261049,192.168.0.113
58,-1,-100,-100,-100,"-1,-1,-1",0,0,0,0,0,-7,81,83,22,0,90,-57.88,0,14.0,-4.0,-1038.0,15:55:04.363288,192.168.0.113
63,-1,-100,-100,-100,"-1,-1,-1",1,0,0,0,0,-7,81,83,31,10,90,-57.88,0,-11.0,-8.0,-1010.0,15:55:04.465292,192.168.0.113
68,-1,-100,-100,-100,"-1,-1,-1",1,0,0,0,0,-7,81,83,39,20,90,-57.77,1,6.0,5.0,-971.0,15:55:04.567305,192.168.0.113
73,-1,-100,-100,-100,"-1,-1,-1",1,0,0,0,0,-7,81,83,48,30,90,-57.71,1,9.0,-13.0,-904.0,15:55:04.672569,192.168.0.113
78,3,16,-3,45,"-2,-6,-178",1,0,0,0,0,-6,81,83,14,30,90,-57.56,1,10.0,-4.0,-898.0,15:55:04.770812,192.168.0.113
83,3,17,-4,48,"-1,-6,-177",0,0,0,0,0,-5,81,83,60,40,90,-57.51,1,22.0,-26.0,-927.0,15:55:04.873462,192.168.0.113
88,3,16,-6,59,"-1,-6,-176",0,0,0,0,0,-4,81,83,67,40,90,-57.51,1,14.0,-4.0,-873.0,15:55:04.975280,192.168.0.113
93,3,17,-3,65,"-1,-5,-178",0,0,0,0,0,-3,81,83,72,50,90,-57.48,1,4.0,0.0,-876.0,15:55:05.077276,192.168.0.113
98,3,16,-8,72,"-1,-6,-175",0,0,0,0,0,-2,81,83,76,50,90,-57.4,1,19.0,0.0,-897.0,15:55:05.179273,192.168.0.113
103,3,16,-8,73,"-1,-6,-175",0,0,0,0,0,-1,81,83,79,50,90,-57.35,1,-3.0,19.0,-920.0,15:55:05.281241,192.168.0.113
108,3,16,-9,76,"-1,-6,-174",0,0,0,0,0,0,81,83,81,50,90,-57.41,1,-19.0,-1.0,-927.0,15:55:05.383292,192.168.0.113
113,3,14,-8,79,"-2,-6,-175",0,0,0,0,0,0,81,83,83,50,90,-57.43,1,7.0,6.0,-952.0,15:55:05.485215,192.168.0.113
115,3,14,-6,80,"-3,-6,-176",0,0,0,0,0,0,81,83,84,50,90,-57.39,2,15.0,27.0,-970.0,15:55:05.536344,192.168.0.113
120,3,14,-8,81,"-3,-6,-175",0,0,0,0,0,0,81,83,85,50,90,-57.27,2,5.0,2.0,-983.0,15:55:05.639464,192.168.0.113
125,3,13,-4,82,"-3,-5,-177",0,0,0,0,0,0,81,83,85,60,90,-57.27,2,10.0,32.0,-1000.0,15:55:05.740295,192.168.0.113
130,3,15,-7,82,"-2,-6,-176",0,0,0,0,0,0,81,83,86,60,90,-57.34,2,14.0,2.0,-989.0,15:55:05.842376,192.168.0.113
135,3,9,-9,83,"-6,-6,-174",0,0,0,0,0,0,81,83,86,60,90,-57.25,2,14.0,3.0,-994.0,15:55:05.944884,192.168.0.113
140,3,13,-5,84,"-3,-5,-177",0,0,0,0,0,0,81,83,86,60,90,-57.22,2,8.0,2.0,-996.0,15:55:06.046345,192.168.0.113
145,3,15,-9,83,"-2,-6,-174",0,0,0,0,0,0,81,83,86,60,90,-57.29,2,1.0,8.0,-997.0,15:55:06.148142,192.168.0.113
150,3,5,-8,85,"-8,-6,-174",0,0,0,0,0,0,81,83,87,60,90,-57.23,2,21.0,1.0,-996.0,15:55:06.250062,192.168.0.113
155,3,-7,-13,84,"-16,-7,-169",0,0,0,0,0,0,81,83,87,60,90,-57.21,2,3.0,1.0,-996.0,15:55:06.352152,192.168.0.113
160,3,13,-7,84,"-3,-6,-175",0,0,0,0,0,0,81,83,87,60,90,-57.21,2,34.0,7.0,-991.0,15:55:06.454244,192.168.0.113
166,3,13,-4,84,"-3,-5,-176",0,0,0,0,0,0,81,83,86,60,90,-57.24,3,19.0,-23.0,-984.0,15:55:06.556198,192.168.0.113
171,3,13,-2,84,"-3,-5,-178",0,0,0,0,0,0,81,83,86,60,90,-57.28,3,16.0,-11.0,-986.0,15:55:06.658384,192.168.0.113
176,3,16,-6,83,"-2,-6,-175",0,0,0,0,0,0,81,83,86,60,90,-57.3,3,-3.0,30.0,-1008.0,15:55:06.760463,192.168.0.113
181,3,13,-8,84,"-3,-6,-173",0,0,0,0,0,0,81,83,86,60,90,-57.29,3,24.0,-23.0,-998.0,15:55:06.862257,192.168.0.113
186,3,12,-4,84,"-4,-5,-176",0,0,0,0,0,0,81,83,86,60,90,-57.34,3,33.0,-7.0,-997.0,15:55:06.964206,192.168.0.113
192,3,-9,-15,82,"-18,-7,-166",0,0,0,0,0,0,81,83,86,60,90,-57.3,3,17.0,10.0,-999.0,15:55:07.066220,192.168.0.113
197,3,14,0,83,"-3,-5,-179",0,0,0,0,0,0,81,83,85,60,90,-57.32,3,14.0,18.0,-997.0,15:55:07.167785,192.168.0.113
202,3,13,-4,83,"-4,-5,-176",0,0,0,0,0,0,81,83,85,60,90,-57.36,3,23.0,-1.0,-996.0,15:55:07.269970,192.168.0.113
207,3,13,-6,82,"-3,-6,-174",0,0,0,0,0,0,81,83,84,50,90,-57.4,3,17.0,-14.0,-996.0,15:55:07.375980,192.168.0.113
212,3,14,-1,82,"-3,-5,-178",0,0,0,0,0,0,81,83,84,50,90,-57.32,3,10.0,-13.0,-1000.0,15:55:07.474242,192.168.0.113
217,3,15,0,81,"-2,-5,-179",0,0,0,0,0,0,81,83,83,50,90,-57.33,4,13.0,6.0,-1000.0,15:55:07.576234,192.168.0.113
222,3,9,-6,82,"-6,-6,-174",0,0,0,0,0,0,81,83,83,50,90,-57.34,4,12.0,-6.0,-1001.0,15:55:07.678328,192.168.0.113
227,3,14,-4,81,"-3,-5,-176",0,0,0,0,0,0,81,83,82,50,90,-57.37,4,20.0,-4.0,-1000.0,15:55:07.780312,192.168.0.113
233,3,13,-5,80,"-3,-6,-175",0,0,0,0,0,0,81,83,82,50,90,-57.35,4,8.0,-2.0,-998.0,15:55:07.882200,192.168.0.113
238,3,-8,-15,79,"-18,-8,-166",0,0,0,0,0,0,81,83,82,50,90,-57.35,4,15.0,-2.0,-998.0,15:55:07.984229,192.168.0.113
243,3,14,-7,79,"-2,-6,-174",0,0,0,0,0,0,81,83,81,50,90,-57.3,4,6.0,-3.0,-1012.0,15:55:08.086518,192.168.0.113
248,3,12,-3,79,"-4,-5,-177",0,0,0,0,0,0,81,83,80,50,90,-57.35,4,11.0,-13.0,-1000.0,15:55:08.187886,192.168.0.113
254,3,15,-3,78,"-2,-6,-177",0,0,0,0,0,0,81,83,80,50,90,-57.3,4,3.0,3.0,-1008.0,15:55:08.289985,192.168.0.113
258,3,15,-6,78,"-2,-6,-175",0,0,0,0,0,0,81,83,80,50,90,-57.34,4,12.0,0.0,-1004.0,15:55:08.392144,192.168.0.113
264,3,15,-6,78,"-2,-6,-175",0,0,0,0,0,0,81,83,80,50,90,-57.42,4,2.0,-20.0,-997.0,15:55:08.494158,192.168.0.113
269,3,14,-6,77,"-2,-6,-175",0,0,0,0,0,0,81,83,79,50,90,-57.43,5,10.0,-4.0,-1006.0,15:55:08.596186,192.168.0.113
274,3,13,-6,77,"-3,-6,-175",0,0,0,0,0,0,81,83,79,50,90,-57.37,5,19.0,2.0,-1017.0,15:55:08.698208,192.168.0.113
279,3,12,-7,77,"-3,-6,-174",0,0,0,0,0,0,81,83,79,50,90,-57.34,5,0.0,4.0,-1019.0,15:55:08.800140,192.168.0.113
284,3,13,-5,77,"-3,-5,-176",0,0,0,0,0,0,81,83,78,50,90,-57.41,5,3.0,-11.0,-1010.0,15:55:08.902565,192.168.0.113
285,3,13,-6,77,"-2,-6,-175",0,0,0,0,0,0,81,83,78,50,90,-57.34,5,17.0,-8.0,-999.0,15:55:08.953077,192.168.0.113
291,3,13,-6,77,"-2,-6,-176",0,0,0,0,0,0,81,83,78,50,90,-57.34,5,10.0,-2.0,-1002.0,15:55:09.055154,192.168.0.113
296,3,13,-6,76,"-1,-6,-176",0,0,0,0,0,0,81,83,78,50,90,-57.4,5,3.0,-9.0,-1001.0,15:55:09.157009,192.168.0.113
301,3,13,-8,76,"-1,-6,-174",0,0,0,0,0,0,81,83,78,50,90,-57.39,5,8.0,-2.0,-1006.0,15:55:09.258775,192.168.0.113
306,3,15,-8,76,"0,-6,-174",0,0,0,0,0,0,80,83,78,50,90,-57.36,5,7.0,10.0,-1006.0,15:55:09.360932,192.168.0.113
311,3,12,-5,77,"-2,-6,-176",0,0,0,0,0,0,80,83,76,50,90,-57.39,5,0.0,6.0,-994.0,15:55:09.462884,192.168.0.113
316,3,12,-7,77,"-2,-6,-175",0,0,0,0,0,0,80,83,76,50,90,-57.37,6,14.0,0.0,-1006.0,15:55:09.565869,192.168.0.113
322,3,11,-7,77,"-2,-6,-175",0,0,0,0,0,0,80,83,76,50,90,-57.38,6,-8.0,7.0,-998.0,15:55:09.668037,192.168.0.113
327,3,11,-7,77,"-2,-6,-175",0,0,0,0,0,0,80,83,76,50,90,-57.44,6,7.0,24.0,-1014.0,15:55:09.770047,192.168.0.113
332,3,12,-5,77,"-2,-6,-176",0,0,0,0,0,0,80,83,76,50,90,-57.34,6,0.0,-4.0,-1001.0,15:55:09.872086,192.168.0.113
337,3,11,-8,77,"-2,-6,-174",0,0,0,0,0,0,80,83,77,50,90,-57.41,6,-2.0,28.0,-1013.0,15:55:09.973742,192.168.0.113
342,3,11,-7,78,"-3,-6,-175",0,0,0,0,0,0,80,83,77,50,90,-57.41,6,0.0,0.0,-1008.0,15:55:10.078462,192.168.0.113
347,3,13,-3,78,"-2,-5,-178",0,0,0,0,0,0,80,83,77,50,90,-57.4,6,3.0,4.0,-1000.0,15:55:10.178066,192.168.0.113
352,3,11,-5,78,"-3,-6,-177",0,0,0,0,0,0,80,83,77,50,90,-57.38,6,-3.0,-24.0,-976.0,15:55:10.279934,192.168.0.113
357,3,11,-6,78,"-3,-6,-177",0,0,0,0,0,0,81,83,77,50,90,-57.46,6,-3.0,3.0,-995.0,15:55:10.381992,192.168.0.113
362,3,11,-6,78,"-3,-6,-177",0,0,0,0,0,0,81,83,78,50,90,-57.42,6,4.0,-17.0,-995.0,15:55:10.483970,192.168.0.113
367,3,11,-8,78,"-2,-6,-175",-2,-2,0,0,0,0,81,83,78,50,90,-57.41,7,-7.0,16.0,-1009.0,15:55:10.585891,192.168.0.113
372,3,11,-8,78,"-2,-6,-175",-2,-2,0,0,0,0,81,83,78,50,90,-57.41,7,-6.0,10.0,-961.0,15:55:10.688075,192.168.0.113
378,3,11,-5,78,"-2,-6,-178",-1,-1,0,0,0,0,81,83,77,50,90,-57.42,7,-2.0,-1.0,-969.0,15:55:10.789993,192.168.0.113
383,3,11,-5,78,"-2,-6,-178",0,0,0,0,0,0,81,83,76,50,90,-57.41,7,-8.0,14.0,-991.0,15:55:10.892020,192.168.0.113
388,3,11,-5,78,"-2,-6,-178",0,0,0,0,0,0,81,83,75,50,90,-57.4,7,-4.0,-2.0,-1003.0,15:55:10.993947,192.168.0.113
392,3,16,-6,76,"-1,-6,-175",0,0,0,0,0,0,81,83,75,50,90,-57.41,7,-12.0,-31.0,-988.0,15:55:11.095851,192.168.0.113
398,3,16,-6,76,"-1,-6,-175",1,1,0,0,0,0,81,83,76,50,90,-57.43,7,-27.0,3.0,-1006.0,15:55:11.198229,192.168.0.113
403,3,22,-1,74,"-1,-5,-176",1,0,0,0,0,0,81,83,75,50,90,-57.39,7,0.0,-9.0,-1009.0,15:55:11.299551,192.168.0.113
408,3,22,-1,74,"-1,-5,-176",0,0,0,0,0,0,80,83,74,50,90,-57.35,7,1.0,13.0,-1028.0,15:55:11.401711,192.168.0.113
413,3,22,-5,74,"-1,-6,-175",0,0,0,0,0,0,80,83,73,50,90,-57.36,7,-1.0,6.0,-1029.0,15:55:11.503532,192.168.0.113
418,3,22,-5,74,"-1,-6,-175",0,0,0,0,0,0,80,83,74,50,90,-57.44,8,-9.0,9.0,-1019.0,15:55:11.605572,192.168.0.113
423,3,24,-5,73,"0,-6,-175",0,0,0,0,0,0,80,83,73,50,90,-57.35,8,-9.0,8.0,-999.0,15:55:11.707487,192.168.0.113
428,3,24,-5,73,"0,-6,-175",0,0,0,0,0,0,80,83,74,50,90,-57.38,8,10.0,-4.0,-1006.0,15:55:11.809521,192.168.0.113
433,3,24,-5,73,"0,-6,-175",0,0,0,0,0,0,80,83,74,50,90,-57.38,8,7.0,-3.0,-1009.0,15:55:11.911495,192.168.0.113
438,3,19,-7,76,"-4,-7,-174",0,0,0,0,0,0,80,83,75,50,90,-57.39,8,21.0,0.0,-1010.0,15:55:12.013548,192.168.0.113
444,3,19,-7,76,"-4,-7,-174",0,0,0,0,0,0,80,83,75,50,90,-57.4,8,7.0,9.0,-987.0,15:55:12.116402,192.168.0.113
449,3,26,-1,74,"0,-5,-179",0,0,0,0,0,0,80,83,75,50,90,-57.42,8,-3.0,22.0,-1002.0,15:55:12.217606,192.168.0.113
454,3,26,-1,74,"0,-5,-179",0,0,0,0,0,0,80,83,75,50,90,-57.39,8,-4.0,18.0,-1001.0,15:55:12.319624,192.168.0.113
459,3,26,-8,74,"0,-7,-174",0,0,0,0,0,0,80,83,75,50,90,-57.35,8,-1.0,2.0,-1018.0,15:55:12.421465,192.168.0.113
460,3,26,-8,74,"0,-7,-174",-2,0,0,0,0,0,80,83,75,50,90,-57.38,8,19.0,-7.0,-980.0,15:55:12.472599,192.168.0.113
469,3,27,-1,75,"3,-5,-179",-7,0,0,0,0,0,80,83,75,50,90,-57.42,9,0.0,0.0,-1016.0,15:55:12.625484,192.168.0.113
474,3,27,-1,75,"3,-5,-179",-8,0,0,2,0,0,80,83,76,50,90,-57.37,9,-17.0,18.0,-1011.0,15:55:12.727490,192.168.0.113
479,3,27,-1,75,"3,-5,-179",-8,0,0,3,0,0,80,83,76,50,90,-57.38,9,-23.0,-6.0,-1001.0,15:55:12.830144,192.168.0.113
484,3,32,-10,75,"7,-7,-174",-7,0,0,5,0,0,80,83,76,50,90,-57.45,9,-56.0,11.0,-1003.0,15:55:12.931825,192.168.0.113
489,3,32,-10,75,"7,-7,-174",-6,0,0,5,0,0,80,83,76,50,90,-57.47,9,-41.0,-4.0,-995.0,15:55:13.033582,192.168.0.113
494,3,14,-30,85,"-12,-13,-163",-6,0,0,6,0,0,80,83,77,50,90,-57.49,9,-54.0,7.0,-1009.0,15:55:13.135754,192.168.0.113
499,3,14,-30,85,"-12,-13,-163",-6,0,0,7,0,0,80,83,76,50,90,-57.48,9,-64.0,12.0,-997.0,15:55:13.237769,192.168.0.113
504,3,14,-30,85,"-12,-13,-163",-5,0,0,7,0,0,80,83,77,50,90,-57.58,9,-81.0,29.0,-993.0,15:55:13.344225,192.168.0.113
506,3,14,-30,85,"-12,-13,-163",-5,0,0,8,0,0,80,83,77,50,90,-57.54,9,-60.0,30.0,-985.0,15:55:13.390713,192.168.0.113
511,3,14,-30,85,"-12,-13,-163",-5,-1,0,8,0,0,80,83,77,50,90,-57.46,9,-51.0,24.0,-995.0,15:55:13.492391,192.168.0.113
516,3,14,-30,85,"-12,-13,-163",-5,-1,0,8,0,0,80,83,78,50,90,-57.43,10,-62.0,32.0,-1006.0,15:55:13.594419,192.168.0.113
521,3,14,-30,85,"-12,-13,-163",-4,-1,0,9,0,0,80,83,78,50,90,-57.37,10,-63.0,22.0,-981.0,15:55:13.696317,192.168.0.113
526,3,14,-30,85,"-12,-13,-163",-4,-1,0,9,0,0,80,83,78,50,90,-57.52,10,-48.0,25.0,-1002.0,15:55:13.798572,192.168.0.113
531,3,14,-30,85,"-12,-13,-163",-4,-2,0,9,0,0,80,83,78,50,90,-57.56,10,-64.0,3.0,-997.0,15:55:13.900558,192.168.0.113
536,3,14,-30,85,"-12,-13,-163",-3,-2,0,9,0,0,80,83,75,50,90,-57.5,10,-61.0,7.0,-996.0,15:55:14.002403,192.168.0.113
541,3,14,-30,85,"-12,-13,-163",-3,-2,0,9,0,0,80,83,77,50,90,-57.5,10,-91.0,6.0,-994.0,15:55:14.104688,192.168.0.113
546,3,14,-30,85,"-12,-13,-163",-3,-2,0,9,0,0,80,83,78,50,90,-57.63,10,-57.0,30.0,-980.0,15:55:14.206333,192.168.0.113
551,3,14,-30,85,"-12,-13,-163",-3,-2,0,9,0,0,80,83,78,50,90,-57.54,10,-81.0,11.0,-988.0,15:55:14.308404,192.168.0.113
556,3,14,-30,85,"-12,-13,-163",-1,-2,0,9,0,0,80,82,77,50,90,-57.5,10,-83.0,21.0,-991.0,15:55:14.410315,192.168.0.113
561,7,-21,-14,79,"0,-6,172",1,-1,0,9,0,0,80,82,77,50,90,-57.6,10,-67.0,29.0,-1015.0,15:55:14.512429,192.168.0.113
566,7,-21,-14,79,"0,-6,172",3,-1,0,8,0,0,80,82,77,50,90,-57.54,11,-62.0,24.0,-1010.0,15:55:14.614348,192.168.0.113
571,7,-21,-14,79,"0,-6,172",4,-1,0,7,0,0,80,82,77,50,90,-57.56,11,-73.0,19.0,-1039.0,15:55:14.716403,192.168.0.113
576,7,4,-12,80,"-4,-4,171",5,0,0,5,0,0,80,82,77,50,90,-57.5,11,-66.0,27.0,-998.0,15:55:14.818406,192.168.0.113
582,7,4,-12,80,"-4,-4,171",3,0,0,4,0,0,80,82,77,50,90,-57.41,11,-50.0,-1.0,-1004.0,15:55:14.920437,192.168.0.113
587,7,24,-1,80,"-1,0,165",3,0,0,3,0,0,80,82,77,50,90,-57.44,11,-51.0,49.0,-1009.0,15:55:15.022265,192.168.0.113
592,7,24,-1,80,"-1,0,165",3,0,0,2,0,0,80,82,77,50,90,-57.47,11,-33.0,-12.0,-1010.0,15:55:15.124371,192.168.0.113
596,7,24,-1,80,"-1,0,165",3,-1,0,2,0,0,80,82,77,50,90,-57.45,11,-33.0,47.0,-995.0,15:55:15.226331,192.168.0.113
602,7,31,-12,79,"-2,-2,170",3,0,0,1,0,0,80,82,77,50,90,-57.53,11,-43.0,27.0,-981.0,15:55:15.328316,192.168.0.113
608,7,31,-12,79,"-2,-2,170",1,0,0,0,0,0,80,82,76,50,90,-57.43,11,-21.0,23.0,-981.0,15:55:15.430183,192.168.0.113
613,7,31,-12,79,"-2,-2,170",0,0,0,0,0,0,80,82,76,50,90,-57.38,11,-14.0,-4.0,-998.0,15:55:15.532300,192.168.0.113
618,7,31,-12,79,"-2,-2,170",0,-1,0,0,0,0,80,82,75,50,90,-57.4,12,-37.0,34.0,-1004.0,15:55:15.634524,192.168.0.113
623,7,31,-12,79,"-2,-2,170",0,-1,0,0,0,0,80,82,75,50,90,-57.36,12,-13.0,42.0,-989.0,15:55:15.736407,192.168.0.113
628,7,40,-10,76,"2,-1,169",0,-1,0,0,0,0,80,82,75,50,90,-57.31,12,-12.0,39.0,-972.0,15:55:15.838824,192.168.0.113
633,7,40,-10,76,"2,-1,169",2,-3,0,0,0,0,80,82,74,50,90,-57.4,12,-51.0,72.0,-1129.0,15:55:15.940698,192.168.0.113
639,8,40,19,74,"0,-6,178",2,-5,0,0,0,0,80,82,74,50,90,-57.35,12,-23.0,32.0,-986.0,15:55:16.042691,192.168.0.113
644,8,40,19,74,"0,-6,178",2,-3,0,0,0,0,80,82,73,50,90,-57.39,12,-10.0,58.0,-970.0,15:55:16.144738,192.168.0.113
649,8,40,19,74,"0,-6,178",2,-1,0,-1,0,0,80,82,73,50,90,-57.32,12,-10.0,22.0,-983.0,15:55:16.246563,192.168.0.113
654,8,40,19,74,"0,-6,178",2,-1,0,-1,0,0,80,82,73,50,90,-57.36,12,24.0,10.0,-977.0,15:55:16.348611,192.168.0.113
659,8,40,19,74,"0,-6,178",1,-1,0,-1,0,0,80,82,72,40,90,-57.3,12,9.0,33.0,-1020.0,15:55:16.450513,192.168.0.113
664,8,40,19,74,"0,-6,178",1,-1,0,-1,0,0,80,82,71,40,90,-57.34,13,15.0,39.0,-1005.0,15:55:16.552669,192.168.0.113
669,8,40,19,74,"0,-6,178",1,-1,0,-1,0,0,80,82,71,40,90,-57.37,13,1.0,23.0,-1009.0,15:55:16.654989,192.168.0.113
674,8,40,19,74,"0,-6,178",1,-1,0,-1,0,0,80,82,71,40,90,-57.35,13,31.0,18.0,-993.0,15:55:16.756810,192.168.0.113
679,8,40,19,74,"0,-6,178",1,-1,0,0,0,0,80,82,71,40,90,-57.36,13,-12.0,33.0,-996.0,15:55:16.858641,192.168.0.113
684,7,33,-5,75,"-1,-1,169",1,-1,0,0,0,0,80,82,71,40,90,-57.37,13,15.0,22.0,-1018.0,15:55:16.960634,192.168.0.113
689,7,33,-5,75,"-1,-1,169",2,0,0,0,0,0,80,82,71,40,90,-57.39,13,20.0,2.0,-984.0,15:55:17.065411,192.168.0.113
694,7,33,-6,74,"-2,-2,171",2,0,0,0,0,0,80,82,72,40,90,-57.36,13,23.0,9.0,-996.0,15:55:17.164127,192.168.0.113
699,7,33,-6,74,"-2,-2,171",2,0,0,-1,0,0,80,82,72,40,90,-57.32,13,20.0,11.0,-1001.0,15:55:17.266403,192.168.0.113
704,7,35,-5,71,"0,-2,173",2,0,0,-1,0,0,80,82,72,40,90,-57.31,13,19.0,0.0,-982.0,15:55:17.368503,192.168.0.113
709,7,35,-5,71,"0,-2,173",2,0,0,-1,0,0,80,82,72,40,90,-57.29,13,11.0,15.0,-1010.0,15:55:17.470611,192.168.0.113
714,7,35,-5,71,"0,-2,173",2,0,0,-1,0,0,80,82,72,40,90,-57.31,14,23.0,21.0,-987.0,15:55:17.572656,192.168.0.113
719,7,31,-12,73,"-1,-4,178",1,0,0,-1,0,0,80,82,72,40,90,-57.32,14,15.0,16.0,-1011.0,15:55:17.674453,192.168.0.113
724,7,31,-12,73,"-1,-4,178",1,0,0,-1,0,0,80,82,72,40,90,-57.34,14,8.0,11.0,-986.0,15:55:17.776584,192.168.0.113
729,7,31,2,73,"0,0,168",1,0,0,-1,0,0,80,82,72,40,90,-57.36,14,15.0,-1.0,-984.0,15:55:17.885718,192.168.0.113
734,7,31,2,73,"0,0,168",1,0,0,-1,0,0,80,82,72,40,90,-57.37,14,-3.0,7.0,-963.0,15:55:17.981560,192.168.0.113
736,7,32,1,71,"1,0,168",1,0,0,-1,0,0,80,82,72,40,90,-57.35,14,5.0,16.0,-999.0,15:55:18.032875,192.168.0.113
741,7,32,1,71,"1,0,168",1,0,0,-1,0,0,80,82,72,40,90,-57.3,14,18.0,16.0,-1011.0,15:55:18.134788,192.168.0.113
746,7,25,-6,73,"-1,-3,174",1,0,0,-1,0,0,80,82,71,40,90,-57.36,14,11.0,24.0,-1011.0,15:55:18.235579,192.168.0.113
751,7,25,-6,73,"-1,-3,174",1,0,0,-1,0,0,80,82,71,40,90,-57.31,14,-7.0,-1.0,-996.0,15:55:18.337880,192.168.0.113
756,7,25,-6,73,"-1,-3,174",-1,0,0,0,0,0,80,82,70,40,90,-57.38,14,25.0,5.0,-996.0,15:55:18.450463,192.168.0.113
762,7,28,-5,70,"2,-3,174",-1,0,0,0,0,0,80,82,71,40,90,-57.4,15,22.0,27.0,-1007.0,15:55:18.541693,192.168.0.113
766,7,28,-5,70,"2,-3,174",0,0,0,0,0,0,80,82,70,40,90,-57.37,15,20.0,7.0,-1018.0,15:55:18.644304,192.168.0.113
771,7,26,-5,71,"1,-3,174",1,0,0,0,0,0,80,82,71,40,90,-57.34,15,14.0,13.0,-994.0,15:55:18.745531,192.168.0.113
777,7,26,-5,71,"1,-3,174",1,0,0,0,0,0,80,82,71,40,90,-57.37,15,-10.0,28.0,-960.0,15:55:18.847683,192.168.0.113
783,7,29,-1,71,"0,-2,171",1,0,0,0,0,0,80,82,71,40,90,-57.4,15,0.0,5.0,-909.0,15:55:18.949574,192.168.0.113
788,7,29,-1,71,"0,-2,171",1,0,0,0,0,1,80,82,71,40,90,-57.41,15,0.0,15.0,-949.0,15:55:19.051570,192.168.0.113
793,7,29,-1,71,"0,-2,171",2,0,0,0,0,1,80,82,69,40,90,-57.31,15,6.0,19.0,-903.0,15:55:19.153510,192.168.0.113
798,7,29,-10,70,"-1,-4,177",1,-1,0,0,0,2,80,82,67,40,90,-57.38,15,-7.0,27.0,-911.0,15:55:19.255265,192.168.0.113
803,7,29,-10,70,"-1,-4,177",1,0,0,0,0,3,80,82,64,30,90,-57.34,15,0.0,36.0,-977.0,15:55:19.357599,192.168.0.113
808,7,34,-7,64,"1,-3,175",0,0,0,0,0,3,79,82,59,30,90,-57.38,15,12.0,-19.0,-935.0,15:55:19.459517,192.168.0.113
812,7,34,-7,64,"1,-3,175",1,0,0,0,0,4,79,82,54,30,90,-57.31,16,6.0,18.0,-944.0,15:55:19.561579,192.168.0.113
817,7,34,-7,64,"1,-3,175",1,-1,0,0,0,4,79,82,50,20,90,-57.43,16,-26.0,10.0,-970.0,15:55:19.663427,192.168.0.113
822,7,34,-7,64,"1,-3,175",0,0,0,0,0,4,79,82,45,20,90,-57.47,16,-4.0,13.0,-1007.0,15:55:19.765420,192.168.0.113
828,7,34,-7,64,"1,-3,175",0,0,0,0,0,4,79,82,40,10,90,-57.62,16,-42.0,51.0,-993.0,15:55:19.867504,192.168.0.113
832,7,34,-7,64,"1,-3,175",0,0,0,0,0,4,79,82,36,10,90,-57.55,16,-17.0,50.0,-1004.0,15:55:19.969391,192.168.0.113
837,7,34,-7,64,"1,-3,175",0,0,0,0,0,4,79,82,31,10,90,-57.62,16,-33.0,62.0,-1027.0,15:55:20.071504,192.168.0.113
842,7,34,-7,64,"1,-3,175",0,-1,0,0,0,4,79,82,26,0,90,-57.67,16,-13.0,41.0,-1014.0,15:55:20.173458,192.168.0.113
848,7,34,-7,64,"1,-3,175",0,-1,0,0,0,4,79,82,25,0,90,-57.78,16,20.0,38.0,-991.0,15:55:20.275316,192.168.0.113
853,7,34,-7,64,"1,-3,175",0,-1,0,0,0,4,79,82,19,0,90,-57.78,16,15.0,34.0,-986.0,15:55:20.377537,192.168.0.113
858,7,34,-7,64,"1,-3,175",1,-1,0,0,0,4,80,82,13,0,90,-58.15,16,4.0,59.0,-981.0,15:55:20.479727,192.168.0.113
863,7,34,-7,64,"1,-3,175",1,-2,0,0,0,4,80,82,10,-10,90,-58.88,17,-3.0,23.0,-1085.0,15:55:20.581654,192.168.0.113
868,7,34,-7,64,"1,-3,175",1,-2,0,0,0,3,80,82,10,-10,90,-59.52,17,9.0,-13.0,-1063.0,15:55:20.683436,192.168.0.113
874,7,34,-7,64,"1,-3,175",1,-3,0,0,0,3,80,82,10,-20,90,-61.55,17,-3.0,4.0,-1133.0,15:55:20.785413,192.168.0.113
879,7,34,-7,64,"1,-3,175",-1,0,-2,0,1,-1,80,82,10,-20,90,-60.06,17,12.0,10.0,-990.0,15:55:20.887428,192.168.0.113
884,7,34,-7,64,"1,-3,175",-1,-4,-3,0,0,0,80,82,10,-20,90,-59.96,17,35.0,-47.0,-705.0,15:55:20.989382,192.168.0.113
889,7,34,-7,64,"1,-3,175",0,-1,-2,-1,0,0,80,82,10,-20,90,-60.54,17,-26.0,11.0,-945.0,15:55:21.091415,192.168.0.113
894,7,34,-7,64,"1,-3,175",0,0,-2,-2,0,0,80,82,10,-20,90,-60.32,17,-17.0,-35.0,-1188.0,15:55:21.193418,192.168.0.113
899,7,34,-7,64,"1,-3,175",0,0,-2,-2,0,0,80,82,10,-10,90,-59.67,17,-49.0,-3.0,-1007.0,15:55:21.295455,192.168.0.113
904,7,34,-7,64,"1,-3,175",0,0,-2,-2,0,0,80,82,10,-10,90,-59.19,17,-20.0,-5.0,-1001.0,15:55:21.397537,192.168.0.113
909,7,34,-7,64,"1,-3,175",0,0,-2,-2,0,0,79,81,10,-10,90,-59.51,17,2.0,0.0,-980.0,15:55:21.501356,192.168.0.113
914,7,34,-7,64,"1,-3,175",0,0,-2,-3,1,0,79,81,10,-10,90,-59.22,18,-23.0,12.0,-1005.0,15:55:21.601349,192.168.0.113
919,7,34,-7,64,"1,-3,175",0,0,-2,-3,1,0,79,81,10,-10,90,-59.2,18,-14.0,1.0,-994.0,15:55:21.706807,192.168.0.113
924,7,34,-7,64,"1,-3,175",0,0,-2,-3,1,0,79,81,10,0,90,-58.69,18,-1.0,-8.0,-998.0,15:55:21.805326,192.168.0.113
929,7,34,-7,64,"1,-3,175",0,0,-2,-3,1,1,79,81,10,0,90,-58.52,18,-6.0,2.0,-998.0,15:55:21.907355,192.168.0.113
934,-2,-200,-200,-200,"-1,-1,-1",0,0,-2,-3,1,2,79,81,10,0,90,-58.37,18,-12.0,2.0,-991.0,15:55:22.009370,192.168.0.113
