,mid,x,y,z,mpry,pitch,roll,yaw,vgx,vgy,vgz,templ,temph,tof,h,bat,baro,time,agx,agy,agz,timestamp,address
0,-2,-200,-200,-200,"-1,-1,-1",0,0,0,0,0,0,82,86,6553,0,42,-105.03,289,5.0,-7.0,-1001.0,15:42:17.652997,192.168.0.113
1,-2,-200,-200,-200,"-1,-1,-1",0,0,0,0,0,0,82,86,6553,0,42,-105.06,289,4.0,-4.0,-1000.0,15:42:17.754799,192.168.0.113
2,-2,-200,-200,-200,"-1,-1,-1",0,0,0,0,0,0,83,85,6553,0,42,-105.05,289,5.0,-4.0,-1000.0,15:42:17.856693,192.168.0.113
3,-2,-200,-200,-200,"-1,-1,-1",0,0,0,0,0,0,83,85,6553,0,42,-105.06,289,10.0,-3.0,-1003.0,15:42:17.958670,192.168.0.113
4,-2,-200,-200,-200,"-1,-1,-1",0,0,0,0,0,0,83,85,6553,0,42,-105.06,289,13.0,-5.0,-999.0,15:42:18.061321,192.168.0.113
5,-2,-200,-200,-200,"-1,-1,-1",0,0,0,0,0,0,83,85,6553,0,42,-105.06,289,13.0,0.0,-1005.0,15:42:18.162630,192.168.0.113
6,-2,-200,-200,-200,"-1,-1,-1",0,0,0,0,0,0,83,85,6553,0,42,-105.06,290,37.0,-40.0,-1029.0,15:42:18.264557,192.168.0.113
7,-2,-200,-200,-200,"-1,-1,-1",0,0,-1,0,0,0,83,85,6553,0,42,-105.06,290,-64.0,3.0,-1010.0,15:42:18.475762,192.168.0.113
8,-2,-200,-200,-200,"-1,-1,-1",1,0,-1,0,0,0,83,85,6553,0,42,-105.06,290,-12.0,-5.0,-1137.0,15:42:18.476042,192.168.0.113
9,-2,-200,-200,-200,"-1,-1,-1",0,0,-1,-1,0,-2,83,85,10,0,42,-105.06,290,-40.0,8.0,-1348.0,15:42:18.570733,192.168.0.113
10,-2,-200,-200,-200,"-1,-1,-1",-2,0,0,-1,0,-5,83,85,10,0,42,-105.06,290,-32.0,6.0,-1283.0,15:42:18.672550,192.168.0.113
11,-2,-200,-200,-200,"-1,-1,-1",-2,0,-1,-1,0,-7,83,85,10,10,42,-105.03,290,-61.0,6.0,-1108.0,15:42:18.775037,192.168.0.113
12,-2,-200,-200,-200,"-1,-1,-1",-2,-1,-1,-1,0,-8,83,85,24,10,42,-104.67,290,-69.0,-17.0,-1067.0,15:42:18.877487,192.168.0.113
13,-2,-200,-200,-200,"-1,-1,-1",-3,-1,-1,-1,0,-8,83,85,32,20,42,-104.57,290,-67.0,-18.0,-1013.0,15:42:18.981091,192.168.0.113
14,-2,-200,-200,-200,"-1,-1,-1",-4,0,-1,-1,0,-8,83,85,36,30,42,-104.52,290,-67.0,11.0,-936.0,15:42:19.082591,192.168.0.113
15,-2,-200,-200,-200,"-1,-1,-1",-5,0,-1,-1,0,-7,83,85,46,40,42,-104.46,290,-48.0,18.0,-892.0,15:42:19.184621,192.168.0.113
16,4,-9,1,50,"5,0,178",-4,0,-1,0,0,-6,83,85,55,40,42,-104.42,291,-71.0,4.0,-888.0,15:42:19.286986,192.168.0.113
17,4,-9,1,50,"5,0,178",-3,0,-1,0,0,-5,83,85,62,50,42,-104.38,291,-50.0,-8.0,-871.0,15:42:19.386824,192.168.0.113
18,4,-9,1,50,"5,0,178",-3,0,-1,0,0,-3,83,85,71,50,42,-104.3,291,-56.0,-11.0,-865.0,15:42:19.488669,192.168.0.113
19,4,-9,1,50,"5,0,178",-4,0,-1,0,0,-2,83,85,74,60,42,-104.22,291,-42.0,-2.0,-887.0,15:42:19.590599,192.168.0.113
20,4,-9,1,50,"5,0,178",-4,0,-1,0,0,-1,83,85,77,60,42,-104.1,291,-33.0,-4.0,-862.0,15:42:19.692816,192.168.0.113
21,4,-9,1,50,"5,0,178",-4,0,-1,0,0,0,83,85,79,60,42,-104.12,291,-61.0,14.0,-950.0,15:42:19.794604,192.168.0.113
22,4,-9,1,50,"5,0,178",-3,0,-1,0,0,0,83,86,79,60,42,-104.26,291,-53.0,-4.0,-945.0,15:42:19.896726,192.168.0.113
23,4,-10,7,79,"5,0,177",-3,0,-1,0,0,0,83,86,80,60,42,-104.22,291,-43.0,-12.0,-958.0,15:42:19.998556,192.168.0.113
24,4,-10,7,79,"5,0,177",-3,0,-1,0,0,0,83,86,80,60,42,-104.15,291,-53.0,-5.0,-1006.0,15:42:20.100506,192.168.0.113
25,4,-7,10,79,"6,0,175",-3,1,-1,0,0,0,83,86,80,60,42,-104.2,291,-50.0,-1.0,-999.0,15:42:20.202750,192.168.0.113
26,4,-7,10,79,"6,0,175",-2,1,-1,0,0,0,83,86,80,60,42,-104.23,292,-34.0,-2.0,-1025.0,15:42:20.304785,192.168.0.113
27,4,-7,10,79,"6,0,175",-2,1,-1,0,0,0,83,86,80,60,42,-104.3,292,-23.0,-7.0,-1010.0,15:42:20.406722,192.168.0.113
28,4,-7,10,79,"6,0,175",-1,1,-1,0,0,0,83,86,80,60,42,-104.19,292,-28.0,-9.0,-1012.0,15:42:20.510600,192.168.0.113
29,4,-7,10,79,"6,0,175",0,0,-1,0,0,0,83,86,81,70,42,-104.13,292,-19.0,-25.0,-1022.0,15:42:20.610668,192.168.0.113
30,4,-6,8,80,"2,0,179",0,1,0,0,0,0,83,86,82,70,42,-104.02,292,-28.0,0.0,-1021.0,15:42:20.712682,192.168.0.113
31,4,-6,8,80,"2,0,179",-1,1,-1,0,0,0,83,86,82,70,42,-104.11,292,-12.0,29.0,-957.0,15:42:20.814687,192.168.0.113
32,4,-3,9,81,"3,0,179",0,0,-1,0,0,0,83,86,83,70,42,-104.06,292,-13.0,-14.0,-965.0,15:42:20.916453,192.168.0.113
33,4,-3,9,81,"3,0,179",0,0,0,0,0,0,83,86,82,70,42,-104.06,292,-17.0,4.0,-1014.0,15:42:21.018679,192.168.0.113
34,4,-3,9,81,"3,0,179",0,0,0,0,0,0,83,86,82,70,42,-104.14,292,14.0,2.0,-986.0,15:42:21.120434,192.168.0.113
35,4,-3,6,82,"1,-1,178",0,0,0,0,0,0,83,86,82,70,42,-103.97,292,-11.0,13.0,-994.0,15:42:21.222533,192.168.0.113
36,4,-3,6,82,"1,-1,178",0,0,0,0,0,0,83,86,81,70,42,-104.1,293,-5.0,7.0,-1010.0,15:42:21.324490,192.168.0.113
37,4,-1,2,81,"0,-1,179",0,0,0,0,0,0,83,86,81,70,42,-103.98,293,-23.0,53.0,-967.0,15:42:21.375619,192.168.0.113
38,4,-1,2,81,"0,-1,179",0,0,0,0,1,0,83,86,80,70,42,-103.97,293,-6.0,24.0,-989.0,15:42:21.477803,192.168.0.113
39,4,-1,2,81,"0,-1,179",0,-1,0,0,1,0,83,86,80,70,42,-104.04,293,-23.0,65.0,-983.0,15:42:21.579684,192.168.0.113
40,4,-1,2,81,"0,-1,179",0,-2,-1,0,1,0,83,86,79,70,42,-104.1,293,0.0,40.0,-1021.0,15:42:21.681405,192.168.0.113
41,4,-2,1,78,"0,0,174",-1,-3,-1,0,1,0,83,86,78,60,42,-104.08,293,-55.0,32.0,-1032.0,15:42:21.952235,192.168.0.113
42,4,-2,1,78,"0,0,174",-2,-3,-1,0,0,0,83,85,78,60,42,-104.03,293,0.0,9.0,-980.0,15:42:21.952322,192.168.0.113
43,4,-2,1,78,"0,0,174",-4,-2,-1,0,0,0,83,85,78,60,42,-104.03,293,-33.0,27.0,-961.0,15:42:22.038703,192.168.0.113
44,4,1,-2,77,"4,0,175",-3,-2,-1,1,0,0,83,85,77,60,42,-104.15,293,-45.0,-1.0,-1002.0,15:42:22.140567,192.168.0.113
45,4,1,-2,77,"4,0,175",-1,-3,-1,1,0,0,83,85,75,60,42,-104.1,293,-60.0,16.0,-1009.0,15:42:22.242669,192.168.0.113
46,4,10,-3,74,"6,0,174",-1,-2,-1,1,0,0,83,85,75,60,42,-104.19,294,-30.0,7.0,-977.0,15:42:22.293432,192.168.0.113
47,4,10,-3,74,"6,0,174",-2,-1,-1,0,0,0,83,85,74,60,42,-104.19,294,-20.0,21.0,-1009.0,15:42:22.395339,192.168.0.113
48,4,8,-4,73,"2,0,178",-2,0,-1,1,0,0,83,85,73,60,42,-104.2,294,-26.0,-15.0,-996.0,15:42:22.496901,192.168.0.113
49,4,8,-4,73,"2,0,178",-2,0,-1,1,0,0,83,85,72,60,42,-104.26,294,-8.0,21.0,-984.0,15:42:22.600262,192.168.0.113
50,4,10,-4,72,"2,0,-177",-1,0,-1,1,0,0,83,85,71,60,42,-104.21,294,-41.0,-3.0,-1025.0,15:42:22.701270,192.168.0.113
51,4,10,-4,72,"2,0,-177",-1,0,-1,1,0,0,83,85,70,60,42,-104.21,294,-54.0,-7.0,-1007.0,15:42:22.803525,192.168.0.113
52,4,13,-4,70,"1,0,-178",-1,0,-1,0,0,0,83,85,70,60,42,-104.31,294,-62.0,-29.0,-1007.0,15:42:23.079264,192.168.0.113
53,4,13,-4,70,"1,0,-178",-1,0,-1,0,0,0,83,85,70,60,42,-104.42,294,-36.0,-15.0,-1031.0,15:42:23.079498,192.168.0.113
54,4,16,-5,68,"2,0,-178",-2,0,-1,0,0,0,83,85,69,50,42,-104.28,294,-54.0,-38.0,-995.0,15:42:23.110582,192.168.0.113
55,4,16,-5,68,"2,0,-178",0,0,-1,0,0,0,83,85,68,50,42,-104.15,294,-33.0,-27.0,-1006.0,15:42:23.212504,192.168.0.113
56,4,16,-3,68,"1,-1,-177",-1,0,-1,0,0,0,83,85,68,50,42,-104.18,295,-38.0,-40.0,-998.0,15:42:23.489363,192.168.0.113
57,4,16,-3,68,"1,-1,-177",-2,1,-1,0,-1,0,83,85,68,50,42,-104.22,295,-38.0,-31.0,-990.0,15:42:23.489574,192.168.0.113
58,4,16,-3,68,"1,-1,-177",-2,2,-1,0,0,0,83,85,68,50,42,-104.16,295,-35.0,-23.0,-1011.0,15:42:23.568956,192.168.0.113
59,4,18,0,67,"3,-1,-176",-2,2,-1,0,0,0,83,85,67,50,42,-104.21,295,-36.0,-15.0,-1026.0,15:42:23.671456,192.168.0.113
60,4,18,0,67,"3,-1,-176",-2,2,-1,1,0,0,83,85,68,50,42,-104.25,295,-19.0,-33.0,-1026.0,15:42:23.773221,192.168.0.113
61,4,20,3,67,"2,0,-178",-2,1,-1,1,0,0,83,85,67,50,42,-104.25,295,-16.0,-23.0,-1008.0,15:42:23.919697,192.168.0.113
62,4,20,3,67,"2,0,-178",-2,1,0,1,0,0,83,85,67,50,42,-104.22,295,-36.0,-17.0,-988.0,15:42:23.979850,192.168.0.113
63,4,24,2,67,"4,-1,-177",-2,1,0,1,0,0,83,85,67,50,42,-104.31,295,-23.0,-18.0,-999.0,15:42:24.207576,192.168.0.113
64,4,24,2,67,"4,-1,-177",-1,1,0,1,0,0,83,85,68,50,42,-104.24,295,-30.0,-13.0,-1013.0,15:42:24.207780,192.168.0.113
65,4,31,0,67,"3,-2,-176",-1,0,0,1,0,0,83,85,68,50,42,-104.34,295,-66.0,-12.0,-1008.0,15:42:24.232376,192.168.0.113
66,4,31,0,67,"3,-2,-176",-1,1,0,1,0,0,83,85,69,50,42,-104.36,296,-41.0,15.0,-977.0,15:42:24.334487,192.168.0.113
67,4,31,0,67,"3,-2,-176",-2,1,0,1,0,0,83,85,69,50,42,-104.46,296,-44.0,15.0,-994.0,15:42:24.436508,192.168.0.113
68,4,35,0,68,"4,-2,-176",-2,0,0,1,0,0,83,85,69,50,42,-104.24,296,-21.0,-3.0,-958.0,15:42:24.538561,192.168.0.113
69,4,35,0,68,"4,-2,-176",-3,0,0,1,0,0,83,85,70,60,42,-104.28,296,-21.0,-2.0,-1008.0,15:42:24.640508,192.168.0.113
70,4,41,-3,67,"5,-3,-176",-2,-1,0,1,0,0,83,85,70,60,42,-104.48,296,-28.0,46.0,-979.0,15:42:24.742295,192.168.0.113
71,4,41,-3,67,"5,-3,-176",-1,-1,0,1,1,0,83,85,69,60,42,-104.48,296,-68.0,15.0,-1044.0,15:42:24.844432,192.168.0.113
72,4,41,-3,67,"5,-3,-176",-2,-3,0,1,0,0,82,85,70,60,42,-104.46,296,-67.0,49.0,-1002.0,15:42:24.946370,192.168.0.113
73,4,41,-3,67,"5,-3,-176",-3,-2,0,1,0,0,82,85,70,60,42,-104.36,296,-71.0,11.0,-1000.0,15:42:25.048497,192.168.0.113
74,4,41,-3,67,"5,-3,-176",-3,-1,-1,1,0,0,82,85,71,60,42,-104.41,296,-73.0,1.0,-1018.0,15:42:25.150307,192.168.0.113
75,4,41,-3,67,"5,-3,-176",-4,-1,-1,1,0,0,82,85,71,60,42,-104.35,296,-68.0,-1.0,-979.0,15:42:25.252421,192.168.0.113
76,4,41,-3,67,"5,-3,-176",-3,-1,-1,1,0,0,82,85,71,60,42,-104.32,297,-51.0,-15.0,-943.0,15:42:25.354464,192.168.0.113
77,4,41,-3,67,"5,-3,-176",-3,0,-1,1,0,0,82,85,71,60,42,-104.45,297,-35.0,-3.0,-977.0,15:42:25.456419,192.168.0.113
78,4,41,-3,67,"5,-3,-176",-3,0,-1,1,0,0,82,85,70,60,42,-104.43,297,-69.0,3.0,-967.0,15:42:25.558690,192.168.0.113
79,4,41,-3,67,"5,-3,-176",-3,0,-1,1,0,0,82,85,70,60,42,-104.27,297,-77.0,4.0,-1030.0,15:42:25.660422,192.168.0.113
80,4,41,-3,67,"5,-3,-176",-3,0,0,1,0,0,82,85,70,60,42,-104.4,297,-28.0,-27.0,-1006.0,15:42:25.762373,192.168.0.113
81,4,41,-3,67,"5,-3,-176",-3,2,0,1,0,0,82,85,70,60,42,-104.31,297,-78.0,-6.0,-1000.0,15:42:25.864344,192.168.0.113
82,4,41,-3,67,"5,-3,-176",-3,1,0,1,0,0,82,85,70,60,42,-104.29,297,-63.0,33.0,-981.0,15:42:26.151483,192.168.0.113
83,4,41,-3,67,"5,-3,-176",-2,-2,0,1,1,0,82,85,70,60,42,-104.33,297,-73.0,37.0,-1007.0,15:42:26.151701,192.168.0.113
84,4,41,-3,67,"5,-3,-176",-2,-2,-1,1,0,0,82,85,69,50,42,-104.46,297,-81.0,5.0,-1001.0,15:42:26.173803,192.168.0.113
85,4,41,-3,67,"5,-3,-176",-3,-2,-1,1,0,0,82,85,69,50,42,-104.45,298,-46.0,-1.0,-1013.0,15:42:26.272425,192.168.0.113
86,4,41,-3,67,"5,-3,-176",-3,-1,-1,1,0,0,82,85,68,50,42,-104.54,298,-60.0,-2.0,-1018.0,15:42:26.374433,192.168.0.113
87,4,41,-3,67,"5,-3,-176",-2,0,-1,1,0,0,82,85,67,50,42,-104.43,298,-71.0,-2.0,-1006.0,15:42:26.476457,192.168.0.113
88,4,41,-3,67,"5,-3,-176",-3,0,-1,1,0,0,82,85,67,50,42,-104.61,298,-91.0,5.0,-1009.0,15:42:26.578470,192.168.0.113
89,4,41,-3,67,"5,-3,-176",-3,0,-1,1,0,0,82,85,67,50,42,-104.63,298,-100.0,25.0,-985.0,15:42:26.680340,192.168.0.113
90,4,41,-3,67,"5,-3,-176",-4,0,-1,1,0,0,82,85,67,50,42,-104.46,298,-65.0,24.0,-970.0,15:42:26.782624,192.168.0.113
91,4,41,-3,67,"5,-3,-176",-4,-2,0,1,0,0,82,85,67,50,42,-104.48,298,-59.0,14.0,-1011.0,15:42:26.884357,192.168.0.113
92,4,41,-3,67,"5,-3,-176",-3,-2,0,1,0,0,83,85,68,50,42,-104.47,298,-37.0,5.0,-996.0,15:42:26.986664,192.168.0.113
93,4,41,-3,67,"5,-3,-176",-2,0,0,1,0,0,83,85,67,50,42,-104.66,298,-71.0,43.0,-993.0,15:42:27.088336,192.168.0.113
94,4,41,-3,67,"5,-3,-176",-3,-1,-1,1,0,0,83,85,67,50,42,-104.68,298,-54.0,17.0,-984.0,15:42:27.190341,192.168.0.113
95,4,41,-3,67,"5,-3,-176",-3,-2,-1,1,0,0,83,85,69,50,42,-104.58,299,-63.0,-18.0,-1001.0,15:42:27.379125,192.168.0.113
96,4,41,-3,67,"5,-3,-176",-3,-2,-1,1,0,0,83,85,69,50,42,-104.6,299,-86.0,-53.0,-993.0,15:42:27.394254,192.168.0.113
97,4,41,-3,67,"5,-3,-176",-4,0,-1,1,0,0,83,85,69,60,42,-104.54,299,-65.0,1.0,-1004.0,15:42:27.497165,192.168.0.113
98,4,41,-3,67,"5,-3,-176",-3,1,-1,1,0,0,83,85,69,60,42,-104.56,299,-85.0,1.0,-967.0,15:42:27.598246,192.168.0.113
99,4,41,-3,67,"5,-3,-176",-3,0,-1,1,0,0,83,85,68,60,42,-104.42,299,-114.0,15.0,-970.0,15:42:27.700297,192.168.0.113
100,4,41,-3,67,"5,-3,-176",-4,0,0,1,0,0,83,85,68,50,42,-104.27,299,-82.0,46.0,-1052.0,15:42:27.802379,192.168.0.113
101,4,41,-3,67,"5,-3,-176",-3,0,0,1,0,0,83,85,68,50,42,-104.28,299,-94.0,48.0,-1008.0,15:42:27.858999,192.168.0.113
102,4,41,-3,67,"5,-3,-176",-4,-1,0,1,0,0,82,84,69,50,42,-104.5,299,-89.0,51.0,-1016.0,15:42:28.096722,192.168.0.113
103,4,41,-3,67,"5,-3,-176",-4,-1,0,1,0,0,82,84,69,50,42,-104.32,299,-33.0,43.0,-971.0,15:42:28.096931,192.168.0.113
104,4,41,-3,67,"5,-3,-176",-3,-2,0,2,1,0,82,84,69,50,42,-104.51,299,-32.0,41.0,-997.0,15:42:28.159223,192.168.0.113
105,4,41,-3,67,"5,-3,-176",-3,-4,-1,2,1,0,82,84,68,50,42,-104.46,300,-44.0,21.0,-997.0,15:42:28.263738,192.168.0.113
106,4,41,-3,67,"5,-3,-176",-2,-3,-1,2,0,0,82,84,68,50,42,-104.34,300,-38.0,41.0,-999.0,15:42:28.363106,192.168.0.113
107,4,41,-3,67,"5,-3,-176",-2,-2,-1,2,0,0,82,84,68,50,42,-104.32,300,-41.0,32.0,-995.0,15:42:28.465213,192.168.0.113
108,4,41,-3,67,"5,-3,-176",-1,-2,-1,2,0,0,82,84,68,50,42,-104.31,300,-33.0,25.0,-985.0,15:42:28.567197,192.168.0.113
109,4,41,-3,67,"5,-3,-176",-1,-3,-1,2,0,0,82,84,68,50,42,-104.45,300,-41.0,-2.0,-1028.0,15:42:28.669142,192.168.0.113
110,4,41,-3,67,"5,-3,-176",0,0,0,2,0,0,82,84,68,50,42,-104.51,300,-29.0,23.0,-1010.0,15:42:28.771165,192.168.0.113
111,4,41,-3,67,"5,-3,-176",0,0,0,2,0,0,82,84,68,50,42,-104.47,300,-70.0,73.0,-982.0,15:42:28.873203,192.168.0.113
112,4,41,-3,67,"5,-3,-176",-1,-2,-1,2,0,0,81,84,69,50,42,-104.54,300,-82.0,-9.0,-1027.0,15:42:28.975161,192.168.0.113
113,4,41,-3,67,"5,-3,-176",-2,-2,-1,1,0,0,81,84,68,60,42,-104.55,300,-78.0,-3.0,-1019.0,15:42:29.077602,192.168.0.113
114,4,41,-3,67,"5,-3,-176",-4,-1,-1,1,0,0,81,84,68,60,42,-104.63,300,-74.0,12.0,-970.0,15:42:29.179333,192.168.0.113
115,4,41,-3,67,"5,-3,-176",-3,-1,-1,1,0,0,81,84,69,60,42,-104.5,301,-62.0,3.0,-970.0,15:42:29.281198,192.168.0.113
116,4,41,-3,67,"5,-3,-176",-2,1,-1,1,0,0,81,84,71,60,42,-104.51,301,-105.0,77.0,-1001.0,15:42:29.383176,192.168.0.113
117,4,41,-3,67,"5,-3,-176",-3,0,-1,1,0,0,81,84,70,60,42,-104.59,301,-81.0,47.0,-979.0,15:42:29.485099,192.168.0.113
118,4,41,-3,67,"5,-3,-176",-2,-3,-1,1,0,0,81,84,70,60,42,-104.72,301,-127.0,7.0,-1090.0,15:42:29.587859,192.168.0.113
119,4,41,-3,67,"5,-3,-176",-4,-1,-1,0,0,0,81,84,72,60,42,-104.56,301,-124.0,30.0,-983.0,15:42:29.689185,192.168.0.113
120,-1,-100,-100,-100,"-1,-1,-1",-5,0,-1,0,0,0,81,84,73,60,42,-104.62,301,-110.0,1.0,-992.0,15:42:29.791117,192.168.0.113
121,-1,-100,-100,-100,"-1,-1,-1",-6,0,-1,1,0,0,81,84,73,60,42,-104.66,301,-103.0,-4.0,-991.0,15:42:29.892873,192.168.0.113
122,-1,-100,-100,-100,"-1,-1,-1",-5,0,-1,1,0,0,82,84,73,60,42,-104.61,301,-112.0,-8.0,-975.0,15:42:29.995094,192.168.0.113
123,-1,-100,-100,-100,"-1,-1,-1",-5,0,-1,1,0,0,82,84,73,60,42,-104.6,301,-96.0,24.0,-985.0,15:42:30.097412,192.168.0.113
124,-1,-100,-100,-100,"-1,-1,-1",-4,-1,-1,1,0,0,82,84,73,60,42,-104.62,301,-139.0,-3.0,-1016.0,15:42:30.199192,192.168.0.113
125,-1,-100,-100,-100,"-1,-1,-1",-5,-1,0,1,0,0,82,84,73,60,42,-104.41,302,-120.0,-3.0,-991.0,15:42:30.300988,192.168.0.113
126,-1,-100,-100,-100,"-1,-1,-1",-5,2,-1,1,0,0,82,84,73,60,42,-104.46,302,-111.0,56.0,-984.0,15:42:30.402821,192.168.0.113
127,-1,-100,-100,-100,"-1,-1,-1",-4,0,-1,1,0,0,82,84,73,60,42,-104.69,302,-114.0,26.0,-1013.0,15:42:30.505018,192.168.0.113
128,-1,-100,-100,-100,"-1,-1,-1",-6,-2,-1,0,0,0,82,84,74,60,42,-104.65,302,-120.0,-19.0,-994.0,15:42:30.700360,192.168.0.113
129,-1,-100,-100,-100,"-1,-1,-1",-7,-2,-1,1,0,0,82,84,74,60,42,-104.32,302,-144.0,-2.0,-977.0,15:42:30.709383,192.168.0.113
130,-1,-100,-100,-100,"-1,-1,-1",-5,0,0,1,0,0,82,84,74,60,42,-104.38,302,-113.0,-4.0,-971.0,15:42:30.811048,192.168.0.113
131,-1,-100,-100,-100,"-1,-1,-1",-5,2,0,1,0,0,82,84,74,60,42,-104.36,302,-93.0,0.0,-955.0,15:42:30.913047,192.168.0.113
132,-1,-100,-100,-100,"-1,-1,-1",-4,1,-1,1,0,0,82,83,72,60,42,-104.7,302,-110.0,30.0,-1094.0,15:42:31.015437,192.168.0.113
133,-1,-100,-100,-100,"-1,-1,-1",-5,-1,-1,1,0,0,82,83,71,60,42,-104.49,302,-70.0,-6.0,-1005.0,15:42:31.116996,192.168.0.113
134,-1,-100,-100,-100,"-1,-1,-1",-4,0,-1,1,0,0,82,83,70,60,42,-104.55,302,-82.0,27.0,-1018.0,15:42:31.219244,192.168.0.113
135,-1,-100,-100,-100,"-1,-1,-1",-4,0,0,2,0,0,82,83,71,60,42,-104.54,303,-73.0,54.0,-1005.0,15:42:31.320937,192.168.0.113
136,-1,-100,-100,-100,"-1,-1,-1",-2,-1,-1,2,0,0,82,83,71,60,42,-104.63,303,-86.0,14.0,-1026.0,15:42:31.423429,192.168.0.113
137,-1,-100,-100,-100,"-1,-1,-1",-3,-3,-1,2,0,0,82,83,72,60,42,-104.84,303,-86.0,-33.0,-1025.0,15:42:31.525023,192.168.0.113
138,-1,-100,-100,-100,"-1,-1,-1",-3,-1,-1,1,0,0,82,83,72,60,42,-104.64,303,-97.0,26.0,-938.0,15:42:31.626948,192.168.0.113
139,-1,-100,-100,-100,"-1,-1,-1",-5,-1,-1,1,0,0,82,83,73,60,42,-104.39,303,-57.0,-51.0,-887.0,15:42:31.728957,192.168.0.113
140,-1,-100,-100,-100,"-1,-1,-1",-2,0,-1,2,0,0,82,83,72,60,42,-104.7,303,-138.0,27.0,-1074.0,15:42:31.830998,192.168.0.113
141,-1,-100,-100,-100,"-1,-1,-1",-2,0,0,1,0,0,82,83,72,60,42,-104.25,303,-78.0,29.0,-915.0,15:42:31.932964,192.168.0.113
142,-1,-100,-100,-100,"-1,-1,-1",-4,0,0,1,0,0,81,84,72,60,42,-104.64,303,-73.0,61.0,-995.0,15:42:32.034962,192.168.0.113
143,-1,-100,-100,-100,"-1,-1,-1",-3,0,0,1,0,0,81,84,72,60,42,-104.67,303,-101.0,36.0,-1022.0,15:42:32.136961,192.168.0.113
144,-1,-100,-100,-100,"-1,-1,-1",-4,-1,0,2,0,0,81,84,72,60,42,-104.8,303,-86.0,31.0,-1024.0,15:42:32.239284,192.168.0.113
145,-1,-100,-100,-100,"-1,-1,-1",-3,-3,0,1,0,0,81,84,71,60,42,-104.45,304,-96.0,16.0,-1041.0,15:42:32.341081,192.168.0.113
146,-1,-100,-100,-100,"-1,-1,-1",-3,-1,0,1,0,0,81,84,70,60,42,-104.63,304,-72.0,27.0,-977.0,15:42:32.443007,192.168.0.113
147,-1,-100,-100,-100,"-1,-1,-1",-4,-1,0,1,0,0,81,84,70,60,42,-104.49,304,-104.0,11.0,-993.0,15:42:32.546436,192.168.0.113
148,-1,-100,-100,-100,"-1,-1,-1",-5,-1,0,1,0,0,81,84,71,60,42,-104.3,304,-56.0,23.0,-947.0,15:42:32.646928,192.168.0.113
149,-1,-100,-100,-100,"-1,-1,-1",-4,-1,0,2,0,0,81,84,70,60,42,-104.35,304,-57.0,73.0,-998.0,15:42:32.698099,192.168.0.113
150,-1,-100,-100,-100,"-1,-1,-1",-4,0,-1,2,0,0,81,84,70,60,42,-104.67,304,-97.0,76.0,-1008.0,15:42:32.800083,192.168.0.113
151,-1,-100,-100,-100,"-1,-1,-1",-2,-4,-1,2,1,0,81,84,69,60,42,-104.74,304,-120.0,21.0,-1068.0,15:42:32.902331,192.168.0.113
152,-1,-100,-100,-100,"-1,-1,-1",-2,-4,-1,1,0,0,81,83,69,60,42,-104.48,304,-97.0,29.0,-962.0,15:42:33.166519,192.168.0.113
153,-1,-100,-100,-100,"-1,-1,-1",-4,-1,-1,1,0,0,81,83,69,60,42,-104.48,304,-129.0,34.0,-988.0,15:42:33.166749,192.168.0.113
154,-1,-100,-100,-100,"-1,-1,-1",-5,-2,-1,1,0,0,81,83,69,60,42,-104.39,304,-123.0,23.0,-919.0,15:42:33.259056,192.168.0.113
155,-1,-100,-100,-100,"-1,-1,-1",-6,-1,-2,1,0,0,81,83,69,60,42,-104.41,305,-102.0,-24.0,-974.0,15:42:33.310239,192.168.0.113
156,-1,-100,-100,-100,"-1,-1,-1",-6,-2,-2,1,0,0,81,83,68,60,42,-104.51,305,-90.0,-9.0,-1013.0,15:42:33.412174,192.168.0.113
157,-1,-100,-100,-100,"-1,-1,-1",-4,1,-2,1,-1,0,81,83,67,50,42,-104.9,305,-131.0,25.0,-1063.0,15:42:33.514052,192.168.0.113
158,-1,-100,-100,-100,"-1,-1,-1",-3,0,-1,1,0,0,81,83,67,50,42,-105.03,305,-145.0,36.0,-1085.0,15:42:33.616125,192.168.0.113
159,-1,-100,-100,-100,"-1,-1,-1",-5,0,-1,1,0,0,81,83,67,50,42,-104.48,305,-131.0,26.0,-992.0,15:42:33.718180,192.168.0.113
160,-1,-100,-100,-100,"-1,-1,-1",-6,0,-1,0,0,0,81,83,68,50,42,-104.61,305,-129.0,37.0,-1014.0,15:42:33.820089,192.168.0.113
161,-1,-100,-100,-100,"-1,-1,-1",-6,0,-1,0,0,0,81,83,68,50,42,-104.48,305,-104.0,79.0,-960.0,15:42:33.922083,192.168.0.113
162,-1,-100,-100,-100,"-1,-1,-1",-7,-2,0,1,0,0,81,83,69,50,42,-104.64,305,-98.0,63.0,-989.0,15:42:34.137599,192.168.0.113
163,-1,-100,-100,-100,"-1,-1,-1",-7,-3,0,1,0,0,81,83,69,50,42,-104.58,305,-102.0,69.0,-979.0,15:42:34.177062,192.168.0.113
164,-1,-100,-100,-100,"-1,-1,-1",-6,-3,0,1,0,0,81,83,69,60,42,-104.89,305,-103.0,15.0,-963.0,15:42:34.279182,192.168.0.113
165,5,-18,35,63,"8,-5,170",-5,0,0,1,0,0,81,83,69,60,42,-104.67,306,-99.0,36.0,-960.0,15:42:34.380885,192.168.0.113
166,5,-18,35,63,"8,-5,170",-5,-2,-1,2,0,0,81,83,68,60,42,-104.82,306,-90.0,46.0,-968.0,15:42:34.483079,192.168.0.113
167,5,-16,26,67,"4,-2,175",-3,-4,-1,2,0,0,81,83,68,60,42,-104.7,306,-64.0,-33.0,-952.0,15:42:34.534195,192.168.0.113
168,5,-16,26,67,"4,-2,175",-3,1,-1,2,-1,0,81,83,69,50,42,-105.07,306,-77.0,-56.0,-1019.0,15:42:34.636170,192.168.0.113
169,5,-16,26,67,"4,-2,175",-2,2,-1,1,0,0,81,83,70,50,42,-104.55,306,-99.0,-6.0,-1048.0,15:42:34.738164,192.168.0.113
170,5,-16,26,67,"4,-2,175",-5,0,0,1,0,0,81,83,69,60,42,-104.6,306,-154.0,46.0,-1121.0,15:42:34.840118,192.168.0.113
171,5,-4,28,68,"6,-2,179",-6,0,0,0,0,0,81,83,69,60,42,-104.63,306,-152.0,13.0,-939.0,15:42:35.060430,192.168.0.113
172,5,-4,28,68,"6,-2,179",-7,-1,0,0,0,0,81,83,70,60,42,-104.49,306,-115.0,32.0,-1024.0,15:42:35.060625,192.168.0.113
173,5,-4,28,68,"6,-2,179",-8,-1,-1,1,0,0,81,83,69,60,42,-104.6,306,-153.0,70.0,-936.0,15:42:35.146237,192.168.0.113
174,5,-2,29,68,"7,-2,178",-6,-3,-1,1,0,0,81,83,68,50,42,-104.92,306,-75.0,38.0,-946.0,15:42:35.248050,192.168.0.113
175,5,-2,29,68,"7,-2,178",-4,-2,-1,2,0,0,81,83,67,50,42,-104.7,307,-107.0,-13.0,-988.0,15:42:35.349996,192.168.0.113
176,5,24,9,67,"17,-2,-166",-5,1,-1,2,0,0,81,83,68,50,42,-104.6,307,-65.0,4.0,-1118.0,15:42:35.454037,192.168.0.113
177,5,24,9,67,"17,-2,-166",-6,-2,-1,2,0,0,81,83,67,50,42,-104.76,307,-102.0,45.0,-996.0,15:42:35.676786,192.168.0.113
178,5,15,23,70,"5,-3,-177",-4,-1,0,2,-1,0,81,83,67,50,42,-104.59,307,-84.0,-48.0,-942.0,15:42:35.677005,192.168.0.113
179,5,15,23,70,"5,-3,-177",-3,4,0,2,-1,0,81,83,67,50,42,-104.72,307,-91.0,25.0,-1026.0,15:42:35.758464,192.168.0.113
180,5,15,23,70,"5,-3,-177",-6,-1,-1,1,0,0,81,83,68,50,42,-104.55,307,-168.0,24.0,-1013.0,15:42:35.860060,192.168.0.113
181,5,15,23,70,"5,-3,-177",-8,-2,-1,1,0,0,81,83,68,50,42,-104.84,307,-141.0,15.0,-977.0,15:42:35.961976,192.168.0.113
182,5,28,25,70,"8,-3,-179",-7,-1,0,2,0,0,81,83,69,50,42,-104.72,307,-159.0,30.0,-1054.0,15:42:36.064242,192.168.0.113
183,5,28,25,70,"8,-3,-179",-6,0,-1,2,0,0,81,83,69,50,42,-104.49,307,-130.0,68.0,-896.0,15:42:36.167230,192.168.0.113
184,5,28,25,70,"8,-3,-179",-5,-1,-1,2,0,0,81,83,69,60,42,-104.34,308,-122.0,82.0,-995.0,15:42:36.268169,192.168.0.113
185,5,36,14,74,"6,-6,-171",-5,-5,-1,1,0,0,81,83,70,60,42,-104.81,308,-147.0,-1.0,-1047.0,15:42:36.370011,192.168.0.113
186,5,36,14,74,"6,-6,-171",-7,-1,-1,1,0,0,81,83,71,60,42,-104.82,308,-117.0,18.0,-905.0,15:42:36.472090,192.168.0.113
187,5,36,14,74,"6,-6,-171",-7,0,-1,1,0,0,81,83,71,60,42,-104.52,308,-109.0,0.0,-903.0,15:42:36.574123,192.168.0.113
188,5,36,14,74,"6,-6,-171",-5,1,-1,1,0,0,81,83,71,60,41,-104.54,308,-185.0,74.0,-1029.0,15:42:36.802105,192.168.0.113
189,5,36,14,74,"6,-6,-171",-5,0,0,1,0,0,81,83,71,60,41,-104.54,308,-182.0,29.0,-957.0,15:42:36.802336,192.168.0.113
190,5,36,14,74,"6,-6,-171",-4,-2,0,0,0,0,81,83,71,60,41,-104.52,308,-129.0,51.0,-917.0,15:42:36.880313,192.168.0.113
191,8,-28,-14,68,"4,0,-175",-3,-4,0,0,0,0,81,83,70,60,41,-104.55,308,-91.0,13.0,-1015.0,15:42:36.982068,192.168.0.113
192,8,-28,-14,68,"4,0,-175",-5,0,0,0,0,1,80,83,69,60,41,-104.56,308,-75.0,74.0,-899.0,15:42:37.172751,192.168.0.113
193,8,-28,-14,68,"4,0,-175",-3,-3,-1,0,0,1,80,83,67,50,41,-104.78,308,-109.0,39.0,-1135.0,15:42:37.185817,192.168.0.113
194,8,-21,-13,67,"8,0,-176",-4,-3,-1,0,0,0,80,83,66,50,41,-104.62,309,-143.0,-6.0,-1061.0,15:42:37.415526,192.168.0.113
195,8,-21,-13,67,"8,0,-176",-6,-2,0,0,0,0,80,83,65,50,41,-104.47,309,-35.0,1.0,-938.0,15:42:37.415712,192.168.0.113
196,8,-19,-13,64,"7,-1,-177",-6,-2,0,1,0,0,80,83,65,50,41,-104.94,309,-101.0,19.0,-1108.0,15:42:37.491913,192.168.0.113
197,8,-19,-13,64,"7,-1,-177",-5,0,0,2,0,0,80,83,65,50,41,-104.57,309,-108.0,33.0,-1029.0,15:42:37.686724,192.168.0.113
198,8,-15,-9,64,"7,-2,-178",-3,0,-1,1,0,0,80,83,65,50,41,-104.51,309,-95.0,5.0,-958.0,15:42:37.695905,192.168.0.113
199,8,-15,-9,64,"7,-2,-178",-5,-3,-1,1,0,0,80,83,66,50,41,-104.15,309,-83.0,38.0,-889.0,15:42:37.797797,192.168.0.113
200,8,-9,-9,64,"6,0,177",-6,-6,-1,2,-1,0,80,83,66,50,41,-104.65,309,-33.0,-19.0,-1030.0,15:42:37.899990,192.168.0.113
201,8,-9,-9,64,"6,0,177",-3,2,0,2,-2,0,80,83,65,50,41,-104.7,309,-103.0,16.0,-1061.0,15:42:38.002025,192.168.0.113
202,8,-9,-9,64,"6,0,177",-2,3,-1,2,-1,0,81,82,65,50,41,-104.68,309,-186.0,42.0,-1145.0,15:42:38.104259,192.168.0.113
203,8,1,-5,64,"5,-2,-173",0,1,-1,1,0,0,81,82,64,50,41,-104.69,309,-174.0,48.0,-937.0,15:42:38.205650,192.168.0.113
204,8,1,-5,64,"5,-2,-173",-5,-4,-1,0,0,0,81,82,67,50,41,-104.56,310,-147.0,19.0,-941.0,15:42:38.308050,192.168.0.113
205,8,6,-2,65,"6,-2,178",-10,-1,-1,0,0,0,81,82,68,50,41,-104.8,310,-165.0,41.0,-998.0,15:42:38.409937,192.168.0.113
206,8,6,-2,65,"6,-2,178",-10,1,0,0,0,0,81,82,69,50,41,-104.84,310,-131.0,33.0,-860.0,15:42:38.512039,192.168.0.113
207,8,10,-2,66,"14,-2,-176",-9,0,0,0,0,0,81,82,69,50,40,-104.96,310,-79.0,58.0,-870.0,15:42:38.614287,192.168.0.113
208,8,10,-2,66,"14,-2,-176",-7,-4,0,1,0,0,81,82,69,50,40,-104.77,310,-90.0,-3.0,-1018.0,15:42:38.715967,192.168.0.113
209,8,13,-1,66,"9,-2,175",-5,-5,-1,1,0,0,81,82,69,50,40,-105.11,310,-180.0,51.0,-1103.0,15:42:38.817914,192.168.0.113
210,8,13,-1,66,"9,-2,175",-1,0,0,1,-1,0,81,82,68,50,40,-104.92,310,-84.0,29.0,-1013.0,15:42:38.920557,192.168.0.113
211,8,13,-1,66,"9,-2,175",-3,2,-1,1,0,0,81,82,69,50,40,-104.81,310,-87.0,-23.0,-1024.0,15:42:39.022469,192.168.0.113
212,8,17,-1,67,"5,-2,-173",-2,-1,-1,0,0,0,81,82,68,50,40,-104.97,310,-115.0,54.0,-986.0,15:42:39.124490,192.168.0.113
213,8,17,-1,67,"5,-2,-173",-2,0,-1,0,0,0,81,82,68,50,40,-105.16,310,-147.0,43.0,-1059.0,15:42:39.226553,192.168.0.113
214,8,21,-1,66,"4,-3,-176",-4,-1,-1,0,0,0,81,82,69,50,40,-104.55,311,-120.0,9.0,-958.0,15:42:39.433427,192.168.0.113
215,8,21,-1,66,"4,-3,-176",-7,-2,-3,0,0,0,81,82,70,50,40,-104.77,311,-43.0,7.0,-959.0,15:42:39.433639,192.168.0.113
216,8,21,-1,68,"8,0,-179",-5,0,-5,0,0,0,81,82,69,50,40,-104.86,311,-75.0,-15.0,-976.0,15:42:39.532696,192.168.0.113
217,8,21,-1,68,"8,0,-179",-3,-2,-4,0,0,0,81,82,68,50,40,-104.83,311,-74.0,35.0,-940.0,15:42:39.634620,192.168.0.113
218,8,28,0,65,"7,-1,-179",-1,1,0,0,0,1,81,82,67,50,40,-105.26,311,-148.0,75.0,-1030.0,15:42:39.736866,192.168.0.113
219,8,28,0,65,"7,-1,-179",-1,-1,0,0,0,1,81,82,65,50,40,-105.5,311,-76.0,16.0,-929.0,15:42:39.839008,192.168.0.113
220,8,28,0,65,"7,-1,-179",-6,0,0,0,0,2,81,82,63,50,40,-104.5,311,-139.0,27.0,-955.0,15:42:39.941076,192.168.0.113
221,8,30,-1,61,"8,-4,-177",-6,-1,0,0,0,3,81,82,60,50,40,-104.37,311,-195.0,62.0,-997.0,15:42:40.042736,192.168.0.113
222,8,30,-1,61,"8,-4,-177",-6,-1,0,-1,0,3,81,83,57,40,40,-104.48,311,-173.0,-51.0,-911.0,15:42:40.144603,192.168.0.113
223,8,28,-2,55,"9,-3,-179",-7,-2,0,-1,0,3,81,83,53,40,40,-104.59,311,-197.0,20.0,-950.0,15:42:40.195785,192.168.0.113
224,8,28,-2,55,"9,-3,-179",-8,-1,0,-1,0,4,81,83,49,40,40,-104.63,312,-159.0,-9.0,-960.0,15:42:40.297774,192.168.0.113
225,8,26,-3,45,"12,-3,-178",-9,0,0,-1,0,4,81,83,43,30,40,-104.7,312,-188.0,12.0,-995.0,15:42:40.399787,192.168.0.113
226,8,26,-3,45,"12,-3,-178",-9,-2,0,-2,0,4,81,83,39,30,40,-104.58,312,-171.0,-60.0,-982.0,15:42:40.501858,192.168.0.113
227,8,26,-3,45,"12,-3,-178",-9,0,0,-1,-1,4,81,83,33,20,39,-104.64,312,-146.0,7.0,-1033.0,15:42:40.604225,192.168.0.113
228,8,22,0,33,"11,-3,179",-9,0,0,-1,0,4,81,83,28,20,39,-105.07,312,-140.0,-26.0,-968.0,15:42:40.793773,192.168.0.113
229,8,22,0,33,"11,-3,179",-9,0,0,0,-1,4,81,83,24,10,39,-105.03,312,-58.0,-50.0,-1051.0,15:42:40.808251,192.168.0.113
230,8,22,0,33,"11,-3,179",-7,1,0,0,-1,4,81,83,23,10,39,-105.16,312,-78.0,28.0,-972.0,15:42:40.909821,192.168.0.113
231,8,22,0,33,"11,-3,179",-6,2,0,0,-1,3,81,83,17,0,39,-105.23,312,-66.0,24.0,-1008.0,15:42:41.011867,192.168.0.113
232,8,22,0,33,"11,-3,179",-5,1,0,1,0,3,80,83,11,0,39,-105.86,312,-54.0,30.0,-987.0,15:42:41.113843,192.168.0.113
233,8,22,0,33,"11,-3,179",-3,0,0,1,0,3,80,83,10,0,39,-106.5,312,-27.0,-21.0,-1065.0,15:42:41.217983,192.168.0.113
234,8,22,0,33,"11,-3,179",-2,0,0,1,0,3,80,83,10,0,39,-107.56,313,-22.0,44.0,-1046.0,15:42:41.317886,192.168.0.113
235,8,22,0,33,"11,-3,179",0,0,0,1,0,2,80,83,10,0,39,-108.64,313,24.0,35.0,-1078.0,15:42:41.419841,192.168.0.113
236,8,22,0,33,"11,-3,179",-1,0,26,-2,0,0,80,83,10,0,39,-106.65,313,63.0,777.0,-2160.0,15:42:41.521797,192.168.0.113
