,mid,x,y,z,mpry,pitch,roll,yaw,vgx,vgy,vgz,templ,temph,tof,h,bat,baro,time,agx,agy,agz,timestamp,address
3,-1,-100,-100,-100,"0,0,0",0,2,6,0,0,0,63,65,10,0,73,11.63,31,-13.0,-42.0,-1001.0,13:54:05.750442,192.168.0.112
8,-1,-100,-100,-100,"0,0,0",0,2,6,0,0,0,63,65,10,0,73,11.65,31,-13.0,-42.0,-998.0,13:54:05.852468,192.168.0.112
13,-1,-100,-100,-100,"0,0,0",0,2,6,0,0,0,63,65,10,0,73,11.65,31,-18.0,-44.0,-1002.0,13:54:05.954332,192.168.0.112
18,-1,-100,-100,-100,"0,0,0",0,2,6,0,0,0,63,65,10,0,73,11.65,31,-17.0,-39.0,-1001.0,13:54:06.056638,192.168.0.112
23,-1,-100,-100,-100,"0,0,0",0,2,6,0,0,0,63,65,10,0,73,11.65,31,-14.0,-52.0,-996.0,13:54:06.158543,192.168.0.112
29,-1,-100,-100,-100,"0,0,0",0,2,6,0,0,0,63,65,10,0,73,11.65,31,-10.0,2.0,-997.0,13:54:06.260488,192.168.0.112
34,-1,-100,-100,-100,"0,0,0",0,2,6,0,0,0,63,65,10,0,73,11.65,32,0.0,-7.0,-1046.0,13:54:06.362276,192.168.0.112
39,-1,-100,-100,-100,"0,0,0",0,0,6,0,0,0,63,65,10,0,73,11.65,32,-3.0,2.0,-1207.0,13:54:06.464447,192.168.0.112
44,-1,-100,-100,-100,"0,0,0",-1,0,6,0,0,2,63,65,10,0,73,11.65,32,-1.0,13.0,-1350.0,13:54:06.566615,192.168.0.112
49,-1,-100,-100,-100,"0,0,0",0,0,5,0,0,5,63,65,15,0,73,11.67,32,-5.0,-17.0,-1160.0,13:54:06.668980,192.168.0.112
54,-1,-100,-100,-100,"0,0,0",0,-1,5,0,0,7,63,65,21,10,73,12.05,32,-9.0,-23.0,-1029.0,13:54:06.770958,192.168.0.112
59,-1,-100,-100,-100,"0,0,0",0,-1,5,0,0,7,63,65,28,10,73,12.11,32,-11.0,-28.0,-987.0,13:54:06.872217,192.168.0.112
64,-1,-100,-100,-100,"0,0,0",0,0,5,0,0,7,63,65,36,20,73,12.14,32,1.0,-8.0,-944.0,13:54:06.974506,192.168.0.112
69,-1,-100,-100,-100,"0,0,0",0,1,5,0,0,7,62,65,44,30,73,12.18,32,-31.0,-18.0,-945.0,13:54:07.076649,192.168.0.112
75,-1,-100,-100,-100,"0,0,0",0,1,5,0,0,6,62,65,51,30,73,12.25,32,-37.0,2.0,-955.0,13:54:07.178067,192.168.0.112
80,-1,-100,-100,-100,"0,0,0",-1,1,6,0,0,5,62,65,57,40,73,12.34,32,1.0,-41.0,-898.0,13:54:07.280157,192.168.0.112
84,-1,-100,-100,-100,"0,0,0",-1,0,6,0,0,4,62,65,63,40,73,12.38,33,-16.0,-21.0,-906.0,13:54:07.382662,192.168.0.112
89,-1,-100,-100,-100,"0,0,0",-1,0,6,0,0,3,62,65,67,50,73,12.5,33,-8.0,-28.0,-919.0,13:54:07.484537,192.168.0.112
95,-1,-100,-100,-100,"0,0,0",-1,1,7,0,0,3,62,65,71,50,72,12.64,33,-19.0,-15.0,-924.0,13:54:07.586189,192.168.0.112
100,-1,-100,-100,-100,"0,0,0",-1,2,6,0,0,2,62,65,74,50,72,12.52,33,-5.0,9.0,-906.0,13:54:07.690328,192.168.0.112
105,-1,-100,-100,-100,"0,0,0",-1,2,6,0,0,1,62,65,75,60,72,12.69,33,9.0,-4.0,-933.0,13:54:07.790099,192.168.0.112
110,-1,-100,-100,-100,"0,0,0",0,0,6,0,0,1,62,65,77,60,72,12.71,33,4.0,19.0,-996.0,13:54:07.892139,192.168.0.112
114,-1,-100,-100,-100,"0,0,0",0,0,7,0,0,0,62,65,79,60,72,12.67,33,10.0,5.0,-990.0,13:54:07.994759,192.168.0.112
120,3,37,-14,71,"0,-8,-170",0,0,7,0,0,0,62,66,81,60,72,12.76,33,-18.0,37.0,-989.0,13:54:08.096392,192.168.0.112
125,3,37,-14,71,"0,-8,-170",0,-1,7,0,0,0,62,66,81,60,72,12.7,33,19.0,1.0,-959.0,13:54:08.198050,192.168.0.112
130,3,37,-14,71,"0,-8,-170",0,-1,7,0,0,0,62,66,82,60,72,12.8,33,10.0,15.0,-996.0,13:54:08.300295,192.168.0.112
133,3,37,-14,71,"0,-8,-170",0,-1,7,0,0,0,62,66,82,60,72,12.75,34,28.0,3.0,-982.0,13:54:08.351474,192.168.0.112
138,3,40,-6,76,"0,-5,180",1,0,7,0,0,0,62,66,82,60,72,12.63,34,27.0,7.0,-964.0,13:54:08.453498,192.168.0.112
143,3,40,-6,76,"0,-5,180",2,0,6,-1,0,0,62,66,83,60,72,12.67,34,31.0,-9.0,-1007.0,13:54:08.555710,192.168.0.112
148,3,40,-6,76,"0,-5,180",2,0,6,0,0,0,62,66,84,60,72,12.77,34,3.0,20.0,-1028.0,13:54:08.657501,192.168.0.112
153,3,40,-6,76,"0,-5,180",2,0,6,0,0,0,62,66,84,70,72,12.73,34,17.0,-37.0,-996.0,13:54:08.759654,192.168.0.112
158,3,40,-6,76,"0,-5,180",2,1,6,0,0,0,62,66,85,70,72,12.82,34,19.0,-15.0,-953.0,13:54:08.864699,192.168.0.112
163,3,40,-6,76,"0,-5,180",1,1,6,0,0,0,62,66,85,70,72,12.83,34,15.0,-26.0,-994.0,13:54:08.963554,192.168.0.112
168,3,40,-6,76,"0,-5,180",1,2,5,0,0,0,62,65,85,70,72,12.91,34,18.0,-21.0,-988.0,13:54:09.065685,192.168.0.112
173,3,40,-6,76,"0,-5,180",0,1,5,0,0,0,62,65,85,70,72,12.82,34,5.0,-39.0,-975.0,13:54:09.167401,192.168.0.112
178,3,40,-6,76,"0,-5,180",1,2,5,0,0,0,62,65,84,70,72,12.8,35,11.0,-3.0,-982.0,13:54:09.269503,192.168.0.112
183,3,40,-6,76,"0,-5,180",1,2,5,0,0,0,62,65,84,70,72,12.79,35,26.0,-5.0,-1051.0,13:54:09.371514,192.168.0.112
188,3,40,-6,76,"0,-5,180",0,2,5,0,0,0,62,65,83,70,72,12.73,35,11.0,-12.0,-1026.0,13:54:09.473740,192.168.0.112
193,3,40,-6,76,"0,-5,180",0,1,6,0,0,0,62,65,83,70,72,12.65,35,13.0,-28.0,-994.0,13:54:09.575405,192.168.0.112
198,3,40,-6,76,"0,-5,180",0,0,6,0,0,0,62,65,83,70,72,12.8,35,9.0,-31.0,-1029.0,13:54:09.677328,192.168.0.112
203,3,40,-6,76,"0,-5,180",1,1,6,0,0,0,62,65,82,70,72,12.71,35,19.0,-41.0,-1015.0,13:54:09.780403,192.168.0.112
209,3,40,-6,76,"0,-5,180",0,2,6,0,0,0,62,65,83,70,72,12.59,35,-5.0,-35.0,-1020.0,13:54:09.881631,192.168.0.112
214,3,40,-6,76,"0,-5,180",0,2,6,0,0,0,62,65,84,70,72,12.77,35,0.0,-29.0,-971.0,13:54:09.983550,192.168.0.112
219,3,40,-6,76,"0,-5,180",0,2,6,0,0,0,62,65,84,70,72,12.65,35,3.0,-23.0,-971.0,13:54:10.085482,192.168.0.112
224,3,40,-6,76,"0,-5,180",0,1,6,0,0,0,62,65,84,70,72,12.78,35,7.0,-22.0,-1019.0,13:54:10.188803,192.168.0.112
229,3,40,-6,76,"0,-5,180",0,1,6,0,0,0,62,65,85,70,72,12.64,36,17.0,-27.0,-950.0,13:54:10.290058,192.168.0.112
234,3,40,-6,76,"0,-5,180",0,1,6,0,0,0,62,65,85,70,72,12.86,36,18.0,-33.0,-1000.0,13:54:10.391589,192.168.0.112
239,3,40,-6,76,"0,-5,180",1,2,6,0,0,0,62,65,84,70,72,12.76,36,6.0,-20.0,-1004.0,13:54:10.493540,192.168.0.112
244,3,40,-6,76,"0,-5,180",1,1,6,0,0,0,62,65,84,70,72,12.79,36,28.0,-39.0,-1011.0,13:54:10.595526,192.168.0.112
250,3,40,-6,76,"0,-5,180",0,1,6,0,0,0,62,65,83,70,72,12.71,36,21.0,-32.0,-981.0,13:54:10.697363,192.168.0.112
255,3,40,-6,76,"0,-5,180",0,2,6,0,0,0,62,65,84,70,72,12.63,36,8.0,-30.0,-1029.0,13:54:10.799147,192.168.0.112
260,3,40,-6,76,"0,-5,180",0,2,6,0,0,0,62,65,84,70,72,12.59,36,-1.0,-13.0,-983.0,13:54:10.901277,192.168.0.112
265,3,40,-6,76,"0,-5,180",0,1,6,0,0,0,62,65,84,70,72,12.64,36,-6.0,-5.0,-999.0,13:54:11.003552,192.168.0.112
270,3,40,-6,76,"0,-5,180",0,0,6,0,0,0,62,65,83,70,72,12.74,36,-7.0,2.0,-995.0,13:54:11.105349,192.168.0.112
275,3,40,-6,76,"0,-5,180",0,0,6,0,0,0,62,65,83,70,72,12.65,36,-5.0,-4.0,-993.0,13:54:11.207357,192.168.0.112
280,3,40,-6,76,"0,-5,180",0,0,6,0,0,0,62,65,83,70,72,12.54,37,-37.0,3.0,-986.0,13:54:11.309405,192.168.0.112
285,3,40,-6,76,"0,-5,180",-1,0,6,0,0,0,62,65,84,70,72,12.54,37,2.0,-1.0,-1004.0,13:54:11.411286,192.168.0.112
290,3,40,-6,76,"0,-5,180",-1,0,6,0,0,0,62,65,85,70,72,12.59,37,-7.0,0.0,-1011.0,13:54:11.513269,192.168.0.112
295,3,40,-6,76,"0,-5,180",-1,0,6,0,0,0,62,65,85,70,72,12.58,37,-17.0,3.0,-975.0,13:54:11.615474,192.168.0.112
300,3,40,-14,82,"-1,-6,-175",-1,-1,6,0,0,0,62,65,86,70,72,12.48,37,-28.0,-23.0,-992.0,13:54:11.717372,192.168.0.112
305,3,40,-14,82,"-1,-6,-175",-1,0,6,0,0,0,62,65,85,70,72,12.52,37,-39.0,-4.0,-991.0,13:54:11.819471,192.168.0.112
310,3,40,-14,82,"-1,-6,-175",-1,0,6,0,0,0,62,65,85,70,72,12.53,37,-39.0,15.0,-1013.0,13:54:11.921097,192.168.0.112
313,3,40,-14,82,"-1,-6,-175",-2,0,6,0,0,0,62,65,85,70,72,12.71,37,-35.0,22.0,-957.0,13:54:11.975019,192.168.0.112
320,3,31,-23,84,"-4,-8,-172",-2,0,6,0,0,0,62,65,86,70,72,12.72,37,-32.0,15.0,-983.0,13:54:12.125380,192.168.0.112
323,3,31,-23,84,"-4,-8,-172",-2,-1,6,0,0,0,62,65,85,70,72,12.5,37,-50.0,8.0,-972.0,13:54:12.176455,192.168.0.112
328,3,31,-23,84,"-4,-8,-172",-2,-1,6,0,0,0,62,65,85,70,72,12.56,38,-47.0,4.0,-1008.0,13:54:12.278568,192.168.0.112
333,3,31,-23,84,"-4,-8,-172",-3,-1,6,0,0,0,62,65,85,70,72,12.55,38,-57.0,23.0,-987.0,13:54:12.380446,192.168.0.112
338,3,15,-29,86,"-11,-10,-166",-3,0,7,0,0,0,62,65,85,70,72,12.66,38,-29.0,14.0,-989.0,13:54:12.482468,192.168.0.112
343,3,15,-29,86,"-11,-10,-166",-2,0,6,0,0,0,62,65,84,70,72,12.59,38,-8.0,11.0,-1008.0,13:54:12.584626,192.168.0.112
348,3,15,-29,86,"-11,-10,-166",-1,0,6,0,0,0,62,65,84,70,72,12.48,38,-16.0,33.0,-1025.0,13:54:12.686639,192.168.0.112
353,3,30,-18,82,"0,-5,-174",-1,-1,6,0,0,0,62,65,83,70,72,12.43,38,-36.0,15.0,-1039.0,13:54:12.788918,192.168.0.112
358,3,30,-18,82,"0,-5,-174",-1,-1,6,0,0,0,62,65,83,70,72,12.65,38,-39.0,2.0,-963.0,13:54:12.890665,192.168.0.112
364,3,30,-18,82,"0,-5,-174",-1,-1,6,0,0,0,62,65,84,70,72,12.75,38,-45.0,37.0,-988.0,13:54:13.006258,192.168.0.112
369,3,30,-18,82,"0,-5,-174",-1,-1,6,0,0,0,62,65,83,70,72,12.78,38,-13.0,23.0,-1013.0,13:54:13.094635,192.168.0.112
374,3,30,-23,80,"-1,-7,-173",-1,0,6,0,0,0,62,65,83,70,72,12.66,38,-10.0,28.0,-1001.0,13:54:13.199873,192.168.0.112
379,3,30,-23,80,"-1,-7,-173",-1,-1,6,0,0,0,62,65,83,70,72,12.71,39,-38.0,15.0,-1001.0,13:54:13.298563,192.168.0.112
384,3,30,-23,80,"-1,-7,-173",-1,-2,5,0,0,0,62,65,84,70,72,12.7,39,-45.0,-3.0,-967.0,13:54:13.400461,192.168.0.112
389,3,30,-23,80,"-1,-7,-173",-1,-1,5,0,0,0,62,65,83,70,72,12.51,39,-57.0,8.0,-1055.0,13:54:13.502588,192.168.0.112
394,3,33,-23,79,"0,-8,-173",-1,0,5,0,0,0,62,65,83,70,72,12.29,39,-35.0,2.0,-1003.0,13:54:13.604546,192.168.0.112
399,3,33,-23,79,"0,-8,-173",-1,-1,5,0,0,0,62,65,84,70,72,12.5,39,-48.0,-23.0,-1004.0,13:54:13.706499,192.168.0.112
404,3,33,-23,79,"0,-8,-173",-1,0,5,0,1,0,62,65,83,70,72,12.44,39,-32.0,-22.0,-1005.0,13:54:13.808617,192.168.0.112
409,3,33,-23,79,"0,-8,-173",-2,2,6,0,0,0,62,65,83,70,72,12.41,39,-27.0,2.0,-1000.0,13:54:13.910680,192.168.0.112
415,3,39,-22,77,"2,-6,-175",-2,0,6,0,0,0,62,65,84,70,72,12.49,39,-25.0,-5.0,-992.0,13:54:14.012462,192.168.0.112
420,3,39,-22,77,"2,-6,-175",-1,0,7,0,0,0,62,65,84,70,72,12.55,39,-26.0,-12.0,-992.0,13:54:14.114321,192.168.0.112
424,3,39,-22,77,"2,-6,-175",-1,2,7,0,0,0,62,65,85,70,72,13.06,39,-37.0,38.0,-975.0,13:54:14.216464,192.168.0.112
430,3,38,-12,79,"1,-5,-175",-2,0,7,0,0,0,62,65,84,70,72,12.86,40,-13.0,5.0,-979.0,13:54:14.318185,192.168.0.112
435,3,38,-12,79,"1,-5,-175",-1,0,7,0,0,0,62,65,84,70,72,12.79,40,-38.0,23.0,-998.0,13:54:14.420153,192.168.0.112
440,3,38,-12,79,"1,-5,-175",-2,0,7,0,0,0,62,65,85,70,72,12.76,40,-18.0,24.0,-1031.0,13:54:14.523291,192.168.0.112
445,3,38,-12,79,"1,-5,-175",-2,-1,7,0,0,0,62,65,84,70,72,12.89,40,-2.0,-23.0,-895.0,13:54:14.625810,192.168.0.112
450,3,37,-14,80,"1,-7,-174",0,-1,7,0,0,0,62,65,83,70,72,12.81,40,-11.0,-50.0,-1005.0,13:54:14.726217,192.168.0.112
455,3,37,-14,80,"1,-7,-174",0,2,6,0,1,0,62,65,83,70,72,12.7,40,-27.0,-25.0,-1064.0,13:54:14.828538,192.168.0.112
460,3,37,-14,80,"1,-7,-174",-1,3,6,0,0,0,62,65,83,70,72,12.79,40,-7.0,-5.0,-1041.0,13:54:14.931283,192.168.0.112
465,3,37,-14,80,"1,-7,-174",-2,3,6,-1,0,0,62,65,82,70,72,12.74,40,2.0,-9.0,-1024.0,13:54:15.032376,192.168.0.112
470,3,38,-18,80,"1,-9,-174",-2,1,5,-1,0,0,62,65,83,70,72,12.58,40,-33.0,-8.0,-956.0,13:54:15.134352,192.168.0.112
475,3,38,-18,80,"1,-9,-174",-2,1,6,-1,0,0,62,65,83,70,72,12.71,40,-19.0,-9.0,-1003.0,13:54:15.236460,192.168.0.112
480,3,38,-18,80,"1,-9,-174",-3,1,6,-1,0,0,62,65,84,70,72,12.77,41,-40.0,37.0,-998.0,13:54:15.338379,192.168.0.112
483,3,42,-16,80,"0,-8,-168",-3,0,6,-2,-1,0,62,65,84,70,72,12.46,41,-66.0,21.0,-992.0,13:54:15.389713,192.168.0.112
488,3,42,-16,80,"0,-8,-168",-2,-1,6,-2,-1,0,62,65,84,70,72,12.63,41,-61.0,12.0,-1020.0,13:54:15.491631,192.168.0.112
493,3,42,-16,80,"0,-8,-168",-2,0,6,-2,0,0,62,65,85,70,72,12.58,41,-41.0,7.0,-971.0,13:54:15.593566,192.168.0.112
498,3,42,-16,80,"0,-8,-168",-2,0,5,-2,-1,0,62,65,84,70,72,12.6,41,-45.0,22.0,-995.0,13:54:15.695701,192.168.0.112
503,3,42,-16,80,"0,-8,-168",-2,-1,5,-2,-1,0,62,65,85,70,72,12.54,41,-45.0,14.0,-1005.0,13:54:15.797445,192.168.0.112
508,3,42,-16,80,"0,-8,-168",-2,-2,5,-2,0,0,62,65,85,70,72,12.7,41,-33.0,-8.0,-997.0,13:54:15.899769,192.168.0.112
513,3,42,-16,80,"0,-8,-168",-1,-2,5,-2,0,0,62,65,85,70,72,12.85,41,-28.0,-29.0,-971.0,13:54:16.002126,192.168.0.112
518,3,42,-16,80,"0,-8,-168",-2,-1,6,-2,0,0,62,65,85,70,72,12.69,41,-21.0,-14.0,-1041.0,13:54:16.103586,192.168.0.112
524,3,42,-16,80,"0,-8,-168",-2,0,7,-3,0,0,62,65,85,70,72,12.62,41,-46.0,-17.0,-1022.0,13:54:16.205675,192.168.0.112
529,3,42,-16,80,"0,-8,-168",-1,1,7,-3,0,0,62,65,86,70,72,12.65,42,-46.0,2.0,-979.0,13:54:16.307569,192.168.0.112
534,3,42,-16,80,"0,-8,-168",0,2,7,-2,0,0,62,65,85,70,72,12.6,42,-37.0,13.0,-1007.0,13:54:16.409760,192.168.0.112
539,3,42,-16,80,"0,-8,-168",-2,0,6,-2,0,0,62,65,85,70,72,12.63,42,-34.0,-1.0,-1045.0,13:54:16.511716,192.168.0.112
544,3,42,-16,80,"0,-8,-168",-2,0,5,-3,0,0,62,65,86,70,72,12.78,42,-39.0,-3.0,-1015.0,13:54:16.614070,192.168.0.112
549,3,42,-16,80,"0,-8,-168",-1,0,5,-3,0,0,62,65,86,70,72,12.7,42,-25.0,0.0,-960.0,13:54:16.716646,192.168.0.112
554,3,42,-16,80,"0,-8,-168",-1,0,6,-3,0,0,62,65,86,70,72,12.81,42,-21.0,15.0,-1023.0,13:54:16.818902,192.168.0.112
559,3,42,-16,80,"0,-8,-168",0,0,6,-3,0,0,62,65,86,70,72,12.79,42,-21.0,28.0,-1009.0,13:54:16.921216,192.168.0.112
564,3,42,-16,80,"0,-8,-168",0,0,6,-3,-1,0,62,65,86,70,72,12.89,42,-8.0,32.0,-975.0,13:54:17.023569,192.168.0.112
569,3,42,-16,80,"0,-8,-168",0,-2,6,-3,-1,0,62,65,86,70,72,12.61,42,-21.0,42.0,-993.0,13:54:17.125952,192.168.0.112
574,3,42,-16,80,"0,-8,-168",0,-2,6,-3,-1,0,62,65,86,70,72,12.78,42,-1.0,33.0,-1019.0,13:54:17.225528,192.168.0.112
579,3,42,-16,80,"0,-8,-168",0,-2,6,-3,0,0,62,65,86,70,72,12.65,43,-4.0,25.0,-1007.0,13:54:17.327508,192.168.0.112
584,3,42,-16,80,"0,-8,-168",0,-2,6,-3,0,0,62,65,86,70,72,12.69,43,-3.0,23.0,-1000.0,13:54:17.429643,192.168.0.112
590,3,42,-16,80,"0,-8,-168",0,-1,6,-3,0,0,62,65,86,70,72,12.68,43,-11.0,5.0,-1024.0,13:54:17.531283,192.168.0.112
595,3,42,-16,80,"0,-8,-168",0,-1,6,-3,0,0,62,65,87,70,72,12.68,43,-7.0,13.0,-1004.0,13:54:17.633384,192.168.0.112
600,3,42,-16,80,"0,-8,-168",0,-1,6,-3,0,0,62,65,88,70,72,12.69,43,-3.0,14.0,-999.0,13:54:17.735598,192.168.0.112
605,3,42,-16,80,"0,-8,-168",0,0,6,-2,0,0,62,65,87,70,72,12.77,43,-35.0,16.0,-996.0,13:54:17.839399,192.168.0.112
610,3,42,-16,80,"0,-8,-168",1,0,6,-2,0,0,62,65,87,70,72,12.81,43,-40.0,19.0,-979.0,13:54:17.939490,192.168.0.112
615,3,42,-16,80,"0,-8,-168",5,0,6,-2,0,0,62,65,87,70,72,12.76,43,-3.0,25.0,-966.0,13:54:18.041607,192.168.0.112
620,3,42,-16,80,"0,-8,-168",3,0,5,-1,0,0,62,65,86,70,72,12.85,43,-9.0,13.0,-993.0,13:54:18.143405,192.168.0.112
624,3,42,-16,80,"0,-8,-168",1,0,6,0,0,0,62,65,86,70,72,12.74,43,-20.0,20.0,-1007.0,13:54:18.245693,192.168.0.112
630,3,42,-16,80,"0,-8,-168",1,-1,6,0,0,0,62,65,86,70,72,12.78,44,-15.0,18.0,-1016.0,13:54:18.347207,192.168.0.112
635,3,42,-16,80,"0,-8,-168",1,-1,6,0,0,0,62,65,86,70,72,12.62,44,5.0,28.0,-1018.0,13:54:18.449072,192.168.0.112
640,3,42,-16,80,"0,-8,-168",0,-1,6,0,0,0,62,65,86,70,72,12.64,44,-19.0,21.0,-1009.0,13:54:18.551530,192.168.0.112
643,3,42,-16,80,"0,-8,-168",0,-1,6,0,0,0,62,65,86,70,72,12.88,44,2.0,0.0,-994.0,13:54:18.602559,192.168.0.112
648,3,42,-16,80,"0,-8,-168",0,-1,7,0,0,0,62,65,86,70,72,12.81,44,-9.0,14.0,-994.0,13:54:18.704554,192.168.0.112
653,3,42,-16,80,"0,-8,-168",0,-1,7,0,0,0,62,65,85,70,72,12.88,44,6.0,-13.0,-988.0,13:54:18.806538,192.168.0.112
658,3,42,-16,80,"0,-8,-168",0,0,7,0,0,0,62,65,85,70,72,12.87,44,-20.0,10.0,-1007.0,13:54:18.908565,192.168.0.112
663,3,42,-16,80,"0,-8,-168",0,0,6,0,0,0,62,65,85,70,72,12.7,44,10.0,11.0,-1017.0,13:54:19.010724,192.168.0.112
668,3,42,-16,80,"0,-8,-168",0,0,7,0,0,0,62,64,85,70,72,12.85,44,2.0,-2.0,-996.0,13:54:19.123248,192.168.0.112
673,3,42,-16,80,"0,-8,-168",0,0,6,0,0,0,62,64,85,70,72,12.77,44,-22.0,13.0,-1003.0,13:54:19.214715,192.168.0.112
678,3,42,-16,80,"0,-8,-168",1,0,6,0,0,0,62,64,85,70,72,12.79,45,12.0,-14.0,-1018.0,13:54:19.317703,192.168.0.112
683,3,42,-16,80,"0,-8,-168",0,0,6,0,0,0,62,64,84,70,72,12.79,45,2.0,4.0,-1013.0,13:54:19.418563,192.168.0.112
688,3,42,-16,80,"0,-8,-168",0,0,6,0,0,0,62,64,84,70,72,12.74,45,-12.0,25.0,-1012.0,13:54:19.520566,192.168.0.112
693,3,42,-16,80,"0,-8,-168",0,0,6,0,0,0,62,64,84,70,72,12.72,45,-21.0,10.0,-978.0,13:54:19.622339,192.168.0.112
698,3,42,-16,80,"0,-8,-168",0,0,6,0,0,0,62,64,85,70,72,12.74,45,-11.0,15.0,-1001.0,13:54:19.724616,192.168.0.112
703,3,42,-16,80,"0,-8,-168",0,0,6,0,0,0,62,64,85,70,72,12.59,45,-25.0,5.0,-1000.0,13:54:19.826624,192.168.0.112
708,3,42,-16,80,"0,-8,-168",0,-1,5,0,0,0,62,64,84,70,72,12.67,45,-58.0,6.0,-1011.0,13:54:19.928475,192.168.0.112
714,3,42,-16,80,"0,-8,-168",0,0,6,0,0,0,62,64,84,70,72,12.79,45,-16.0,19.0,-1007.0,13:54:20.030480,192.168.0.112
719,3,42,-16,80,"0,-8,-168",-1,-1,6,0,0,0,62,65,85,70,72,12.86,45,-22.0,1.0,-993.0,13:54:20.132596,192.168.0.112
724,3,42,-16,80,"0,-8,-168",-1,-1,5,0,0,0,62,65,84,70,72,12.95,45,-13.0,-8.0,-1019.0,13:54:20.234674,192.168.0.112
729,3,42,-16,80,"0,-8,-168",-1,0,4,0,0,0,62,65,85,70,72,12.85,46,6.0,-14.0,-961.0,13:54:20.336561,192.168.0.112
734,3,42,-16,80,"0,-8,-168",0,0,4,0,0,0,62,65,84,70,72,12.88,46,-13.0,7.0,-882.0,13:54:20.439726,192.168.0.112
739,-1,-100,-100,-100,"0,0,0",0,0,5,0,0,-1,62,65,84,70,72,12.83,46,-20.0,20.0,-886.0,13:54:20.540593,192.168.0.112
744,-1,-100,-100,-100,"0,0,0",0,-1,5,0,0,-2,62,65,82,60,72,12.85,46,-23.0,23.0,-953.0,13:54:20.643297,192.168.0.112
749,-1,-100,-100,-100,"0,0,0",0,0,5,0,0,-3,62,65,79,60,72,12.7,46,-5.0,21.0,-902.0,13:54:20.744589,192.168.0.112
755,-1,-100,-100,-100,"0,0,0",-1,0,5,0,0,-3,62,65,75,60,72,12.78,46,-12.0,-4.0,-959.0,13:54:20.846353,192.168.0.112
760,-1,-100,-100,-100,"0,0,0",-1,0,5,0,0,-4,62,65,71,50,72,12.59,46,-22.0,37.0,-953.0,13:54:20.948394,192.168.0.112
765,-1,-100,-100,-100,"0,0,0",0,-1,6,0,0,-4,62,65,66,50,72,12.56,46,-43.0,26.0,-1010.0,13:54:21.050169,192.168.0.112
770,-1,-100,-100,-100,"0,0,0",0,-2,6,0,0,-4,62,65,62,50,72,12.53,46,-25.0,37.0,-980.0,13:54:21.152468,192.168.0.112
775,-1,-100,-100,-100,"0,0,0",-1,-1,6,0,0,-4,62,65,57,40,72,12.41,46,-21.0,30.0,-1007.0,13:54:21.254498,192.168.0.112
780,-1,-100,-100,-100,"0,0,0",-1,-2,6,0,0,-4,62,65,52,40,72,12.39,47,-28.0,54.0,-973.0,13:54:21.356344,192.168.0.112
785,-1,-100,-100,-100,"0,0,0",-1,-1,6,0,0,-4,62,65,48,30,72,12.49,47,-48.0,50.0,-1011.0,13:54:21.458508,192.168.0.112
790,-1,-100,-100,-100,"0,0,0",-1,-2,6,0,0,-4,62,65,44,30,72,12.5,47,-12.0,18.0,-980.0,13:54:21.560254,192.168.0.112
795,-1,-100,-100,-100,"0,0,0",-1,-2,6,0,0,-4,62,65,39,20,72,12.32,47,-44.0,18.0,-1045.0,13:54:21.662204,192.168.0.112
800,-1,-100,-100,-100,"0,0,0",-1,-1,6,0,0,-4,62,65,34,20,72,12.13,47,-61.0,23.0,-987.0,13:54:21.764470,192.168.0.112
805,-1,-100,-100,-100,"0,0,0",-1,-1,6,0,0,-4,62,65,29,10,72,12.34,47,-69.0,7.0,-987.0,13:54:21.869912,192.168.0.112
810,-1,-100,-100,-100,"0,0,0",-1,0,6,0,0,-4,62,65,24,10,72,11.96,47,-52.0,10.0,-994.0,13:54:21.970171,192.168.0.112
813,-1,-100,-100,-100,"0,0,0",-1,0,6,0,0,-4,62,65,19,0,72,11.84,47,-90.0,3.0,-1041.0,13:54:22.020004,192.168.0.112
818,-1,-100,-100,-100,"0,0,0",-3,0,6,1,0,-4,62,64,14,0,72,11.67,47,-52.0,5.0,-978.0,13:54:22.121603,192.168.0.112
823,-1,-100,-100,-100,"0,0,0",-4,0,6,1,0,-4,62,64,12,0,72,11.11,47,-81.0,-24.0,-1015.0,13:54:22.223597,192.168.0.112
828,-1,-100,-100,-100,"0,0,0",-4,0,6,0,0,-3,62,64,10,0,72,10.45,48,-15.0,-11.0,-1029.0,13:54:22.325550,192.168.0.112
833,-1,-100,-100,-100,"0,0,0",-3,0,6,0,0,-3,62,64,10,0,72,9.01,48,-8.0,-9.0,-1034.0,13:54:22.427643,192.168.0.112
838,-1,-100,-100,-100,"0,0,0",1,0,7,0,0,-3,62,64,10,-10,72,9.09,48,33.0,-25.0,-996.0,13:54:22.529439,192.168.0.112
843,-1,-100,-100,-100,"0,0,0",-2,2,5,0,0,0,62,64,10,-10,72,9.47,48,-27.0,-27.0,-1139.0,13:54:22.631612,192.168.0.112
848,-1,-100,-100,-100,"0,0,0",2,0,6,0,0,0,62,64,10,0,72,9.68,48,52.0,37.0,-915.0,13:54:22.733685,192.168.0.112
853,-1,-100,-100,-100,"0,0,0",2,0,6,0,0,0,62,64,10,0,72,10.28,48,38.0,-29.0,-1040.0,13:54:22.835652,192.168.0.112
858,-1,-100,-100,-100,"0,0,0",2,0,7,0,0,0,62,64,10,0,72,10.74,48,50.0,6.0,-1007.0,13:54:22.937438,192.168.0.112
863,-1,-100,-100,-100,"0,0,0",2,0,7,0,0,0,62,64,10,0,72,10.87,48,40.0,-11.0,-1007.0,13:54:23.039627,192.168.0.112
868,-1,-100,-100,-100,"0,0,0",2,0,7,0,0,0,62,64,10,0,72,10.89,48,45.0,-1.0,-997.0,13:54:23.141663,192.168.0.112
873,-1,-100,-100,-100,"0,0,0",2,0,7,0,0,0,62,64,10,0,72,10.87,48,46.0,-6.0,-997.0,13:54:23.243624,192.168.0.112
879,-1,-100,-100,-100,"0,0,0",2,0,7,1,0,0,62,64,10,0,72,10.98,49,51.0,-2.0,-999.0,13:54:23.345402,192.168.0.112
884,-1,-100,-100,-100,"0,0,0",2,0,7,1,0,0,62,64,10,0,72,11.08,49,41.0,0.0,-1001.0,13:54:23.447695,192.168.0.112
889,-1,-100,-100,-100,"0,0,0",2,0,7,1,0,0,62,64,10,0,72,11.34,49,48.0,-5.0,-993.0,13:54:23.549604,192.168.0.112
894,-1,-100,-100,-100,"0,0,0",2,0,7,1,0,0,62,64,10,0,72,11.5,49,48.0,2.0,-994.0,13:54:23.651842,192.168.0.112
