,mid,x,y,z,mpry,pitch,roll,yaw,vgx,vgy,vgz,templ,temph,tof,h,bat,baro,time,agx,agy,agz,timestamp,address
4,-1,-100,-100,-100,"-1,-1,-1",0,0,-2,0,0,0,88,91,10,0,100,-56.0,0,-4.0,7.0,-999.0,15:06:13.672139,192.168.0.114
10,-1,-100,-100,-100,"-1,-1,-1",0,0,-2,0,0,0,88,91,10,0,100,-55.93,0,-4.0,6.0,-997.0,15:06:13.774572,192.168.0.114
15,-1,-100,-100,-100,"-1,-1,-1",0,0,-2,0,0,0,88,91,10,0,100,-55.93,0,-5.0,5.0,-999.0,15:06:13.876505,192.168.0.114
21,-1,-100,-100,-100,"-1,-1,-1",0,0,-2,0,0,0,88,91,10,0,100,-55.95,0,-5.0,5.0,-1003.0,15:06:13.978289,192.168.0.114
26,-1,-100,-100,-100,"-1,-1,-1",0,0,-2,0,0,0,88,91,10,0,100,-55.95,0,-5.0,3.0,-1000.0,15:06:14.080286,192.168.0.114
31,-1,-100,-100,-100,"-1,-1,-1",0,0,-2,0,0,0,88,91,10,0,100,-55.95,0,-16.0,12.0,-986.0,15:06:14.182290,192.168.0.114
36,-1,-100,-100,-100,"-1,-1,-1",0,0,-1,0,0,0,88,91,10,0,100,-55.95,0,-13.0,30.0,-971.0,15:06:14.284257,192.168.0.114
41,-1,-100,-100,-100,"-1,-1,-1",0,0,-1,0,0,0,88,91,10,0,100,-55.95,0,13.0,6.0,-1204.0,15:06:14.386254,192.168.0.114
47,-1,-100,-100,-100,"-1,-1,-1",0,0,-1,0,0,-1,88,91,10,0,100,-55.95,0,-25.0,13.0,-1320.0,15:06:14.488341,192.168.0.114
52,-1,-100,-100,-100,"-1,-1,-1",0,0,-1,0,0,-4,88,91,10,0,100,-55.85,0,-31.0,18.0,-1113.0,15:06:14.590268,192.168.0.114
57,-1,-100,-100,-100,"-1,-1,-1",0,-1,-1,0,0,-6,88,91,19,0,100,-55.47,0,-33.0,-5.0,-1066.0,15:06:14.691800,192.168.0.114
62,-1,-100,-100,-100,"-1,-1,-1",-1,0,-1,0,0,-7,88,91,28,10,100,-55.55,0,-44.0,13.0,-988.0,15:06:14.794213,192.168.0.114
67,-1,-100,-100,-100,"-1,-1,-1",-2,0,-1,0,0,-7,88,91,36,20,100,-55.49,0,-25.0,-18.0,-969.0,15:06:14.896266,192.168.0.114
72,4,14,-1,35,"3,-1,179",-2,0,-1,0,0,-7,88,91,44,20,100,-55.4,1,-6.0,-6.0,-932.0,15:06:14.998309,192.168.0.114
77,4,14,-3,39,"3,-1,-179",-2,0,-1,0,0,-6,88,91,51,30,100,-55.37,1,-17.0,-17.0,-890.0,15:06:15.100300,192.168.0.114
82,4,12,-3,51,"1,-1,-179",-2,0,-1,0,0,-6,88,91,58,40,100,-55.33,1,-16.0,3.0,-900.0,15:06:15.202945,192.168.0.114
87,4,11,-3,57,"0,-1,-178",-1,0,-1,0,0,-4,88,91,63,40,100,-55.25,1,0.0,-3.0,-871.0,15:06:15.304331,192.168.0.114
92,4,11,-4,64,"0,-2,-177",0,0,-1,0,0,-2,88,91,69,50,100,-55.18,1,-26.0,5.0,-914.0,15:06:15.406289,192.168.0.114
97,4,12,-4,66,"-1,-2,-177",0,0,-1,0,0,-1,88,91,72,50,100,-55.13,1,-25.0,6.0,-929.0,15:06:15.508303,192.168.0.114
102,4,12,-5,71,"0,-2,-176",-1,0,-1,0,0,-1,88,91,75,50,100,-55.16,1,-19.0,16.0,-946.0,15:06:15.610277,192.168.0.114
107,4,12,-4,72,"0,-2,-177",-1,0,-1,0,0,0,88,91,76,50,100,-55.22,1,-21.0,-16.0,-967.0,15:06:15.712178,192.168.0.114
112,4,12,-3,74,"0,-1,-178",-1,0,-1,0,0,0,88,91,78,60,100,-55.09,1,-44.0,-8.0,-975.0,15:06:15.814390,192.168.0.114
117,4,12,-2,76,"0,-2,-178",-1,0,-1,0,0,0,88,91,79,60,100,-55.07,2,-25.0,-8.0,-989.0,15:06:15.916222,192.168.0.114
122,4,11,-4,77,"0,-2,-177",-2,0,-1,0,0,0,88,91,81,60,100,-55.16,2,-45.0,14.0,-991.0,15:06:16.018152,192.168.0.114
127,4,10,-4,78,"0,-2,-177",-2,0,-1,0,0,0,88,91,82,60,100,-55.1,2,-34.0,14.0,-956.0,15:06:16.120248,192.168.0.114
132,4,9,-5,79,"0,-2,-177",-1,-1,-1,0,0,0,88,91,82,60,100,-55.1,2,-30.0,-9.0,-975.0,15:06:16.222168,192.168.0.114
137,4,14,-5,78,"2,-2,-178",-1,0,-1,0,0,0,88,91,82,60,100,-55.16,2,-24.0,13.0,-980.0,15:06:16.324062,192.168.0.114
142,4,10,-3,80,"0,-1,-178",-1,0,-1,0,0,0,89,91,83,60,100,-55.12,2,-25.0,3.0,-1012.0,15:06:16.426273,192.168.0.114
147,4,10,-4,81,"0,-1,-177",-1,0,-1,0,0,0,89,91,83,60,100,-55.17,2,-44.0,0.0,-995.0,15:06:16.528050,192.168.0.114
152,4,10,-5,81,"0,-2,-177",-1,0,-1,0,0,0,89,91,84,60,100,-55.08,2,-42.0,5.0,-981.0,15:06:16.630308,192.168.0.114
157,4,9,-5,82,"0,-2,-177",-1,0,-1,0,0,0,89,91,84,60,100,-55.08,2,-44.0,1.0,-993.0,15:06:16.733440,192.168.0.114
162,4,9,-5,82,"0,-2,-177",-2,0,-1,0,0,0,89,91,81,60,100,-55.08,2,-45.0,3.0,-979.0,15:06:16.834206,192.168.0.114
167,4,10,-4,82,"1,-1,-177",-2,0,-1,0,0,0,89,91,81,60,100,-55.05,3,-32.0,11.0,-980.0,15:06:16.936195,192.168.0.114
172,4,9,-3,82,"1,-1,-178",-2,0,-1,0,0,0,89,91,81,60,100,-55.1,3,-34.0,2.0,-997.0,15:06:17.039733,192.168.0.114
177,4,9,-3,82,"0,-1,-179",-2,0,-1,0,0,0,89,91,81,60,100,-55.08,3,-37.0,4.0,-1017.0,15:06:17.140227,192.168.0.114
182,4,9,-4,82,"1,-1,-179",-2,0,-1,0,0,0,89,91,82,60,100,-55.0,3,-55.0,18.0,-1023.0,15:06:17.242087,192.168.0.114
187,4,9,-5,82,"2,-1,-178",-2,0,-1,0,0,0,89,91,81,60,100,-55.0,3,-47.0,5.0,-1012.0,15:06:17.344150,192.168.0.114
192,4,9,-2,82,"2,-1,179",-3,0,-1,0,0,0,88,91,80,60,100,-55.03,3,-58.0,10.0,-1011.0,15:06:17.446600,192.168.0.114
197,4,9,-3,82,"3,-1,-179",-3,0,-1,0,0,0,88,91,81,60,100,-55.07,3,-56.0,0.0,-996.0,15:06:17.548129,192.168.0.114
202,4,7,-1,83,"3,-1,-179",-3,0,-1,0,0,0,88,91,80,60,100,-54.98,3,-65.0,5.0,-1007.0,15:06:17.650004,192.168.0.114
207,4,7,-1,83,"3,-1,-179",-3,0,-1,0,0,0,88,91,81,60,100,-55.01,3,-27.0,-13.0,-1002.0,15:06:17.752297,192.168.0.114
212,4,7,-1,83,"3,-1,-178",-3,0,-1,0,0,0,88,91,82,60,100,-55.08,3,-40.0,-4.0,-1026.0,15:06:17.854100,192.168.0.114
216,4,6,-2,83,"2,-1,-178",-3,0,-1,0,0,0,88,91,81,60,100,-55.13,4,-70.0,-14.0,-975.0,15:06:17.905146,192.168.0.114
221,4,6,-1,84,"2,-1,-179",-3,0,-1,0,0,0,88,91,82,60,100,-55.06,4,-64.0,-10.0,-980.0,15:06:18.007033,192.168.0.114
227,4,6,-1,84,"2,-1,-179",-3,0,-1,0,0,0,88,91,82,60,100,-55.03,4,-74.0,18.0,-992.0,15:06:18.111734,192.168.0.114
232,4,7,0,84,"3,-1,-179",-3,0,-1,0,0,0,88,91,83,60,100,-55.17,4,-34.0,-25.0,-961.0,15:06:18.211149,192.168.0.114
237,4,5,0,84,"3,-1,-179",-3,0,-1,0,0,0,88,91,83,60,100,-55.02,4,-57.0,-13.0,-976.0,15:06:18.313142,192.168.0.114
242,4,5,0,84,"3,-1,-179",-3,0,-1,0,0,0,88,91,82,60,100,-55.06,4,-52.0,4.0,-975.0,15:06:18.466048,192.168.0.114
247,4,6,0,84,"3,-1,-179",-3,0,-1,0,0,0,88,91,83,60,100,-55.05,4,-48.0,-14.0,-977.0,15:06:18.517116,192.168.0.114
252,4,6,0,83,"3,-1,-178",-3,0,-1,0,0,0,88,91,83,60,100,-55.06,4,-46.0,-1.0,-1002.0,15:06:18.619186,192.168.0.114
257,4,4,0,84,"2,-1,-178",-3,0,-1,0,0,0,88,91,82,60,100,-54.99,4,-62.0,9.0,-988.0,15:06:18.721186,192.168.0.114
262,4,4,1,83,"2,-1,-179",-3,0,-1,0,0,0,88,91,82,60,100,-55.15,4,-36.0,-17.0,-967.0,15:06:18.822964,192.168.0.114
267,4,4,0,83,"2,-1,-178",-3,0,-1,0,0,0,88,91,81,60,100,-55.09,5,-46.0,-5.0,-981.0,15:06:18.925331,192.168.0.114
272,4,5,0,83,"2,-1,-178",-2,1,-1,0,0,0,88,91,81,60,100,-55.09,5,-30.0,-6.0,-1019.0,15:06:19.026947,192.168.0.114
277,4,4,0,83,"0,-1,-177",-2,0,-1,0,0,0,88,91,81,60,100,-55.04,5,-30.0,-12.0,-980.0,15:06:19.129101,192.168.0.114
282,4,5,0,83,"0,-1,-177",-1,1,-1,0,0,0,88,91,81,60,100,-55.05,5,-43.0,-7.0,-993.0,15:06:19.231162,192.168.0.114
287,4,5,0,83,"0,-1,-177",-1,0,-1,0,0,0,88,91,81,60,100,-55.04,5,-24.0,-8.0,-997.0,15:06:19.333074,192.168.0.114
292,4,6,-1,82,"0,-1,-176",-1,0,-1,0,0,0,88,91,82,60,100,-55.02,5,-35.0,-11.0,-991.0,15:06:19.435240,192.168.0.114
297,4,6,0,82,"0,-1,-177",-1,0,-1,0,0,0,88,91,81,60,100,-54.96,5,-23.0,-16.0,-988.0,15:06:19.537110,192.168.0.114
302,4,5,0,82,"0,-1,-177",-1,0,-1,0,0,0,88,91,81,60,100,-55.06,5,-5.0,-18.0,-992.0,15:06:19.639289,192.168.0.114
307,4,7,0,82,"0,-1,-177",-1,0,0,0,0,0,88,91,81,60,100,-55.11,5,-25.0,-16.0,-1018.0,15:06:19.741110,192.168.0.114
312,4,6,-1,82,"0,-2,-176",-1,1,0,0,0,0,88,91,81,60,100,-55.12,5,-21.0,3.0,-1013.0,15:06:19.842986,192.168.0.114
317,4,6,-1,82,"0,-2,-176",-1,0,0,0,0,0,88,91,81,60,100,-55.12,6,-45.0,-1.0,-1008.0,15:06:19.945257,192.168.0.114
322,4,7,-1,82,"0,-2,-176",-2,0,-1,0,0,0,88,91,81,60,100,-55.2,6,-58.0,-21.0,-990.0,15:06:20.046942,192.168.0.114
327,4,7,-2,82,"0,-2,-177",-3,0,0,0,0,0,88,91,80,60,100,-55.05,6,-52.0,-1.0,-1018.0,15:06:20.149163,192.168.0.114
332,4,6,-1,82,"1,-2,-178",-2,0,-1,0,0,0,88,91,81,60,100,-55.13,6,-46.0,-20.0,-970.0,15:06:20.250858,192.168.0.114
337,4,6,0,82,"1,-2,-178",-3,0,-1,0,0,0,88,91,80,60,100,-55.15,6,-48.0,-37.0,-981.0,15:06:20.353007,192.168.0.114
342,4,7,0,81,"2,-1,-177",-3,1,-1,0,0,0,88,92,80,60,100,-55.1,6,-43.0,-15.0,-1027.0,15:06:20.456432,192.168.0.114
347,4,6,0,81,"2,-1,-177",-3,1,-1,0,0,0,88,92,79,60,100,-55.08,6,-39.0,-34.0,-1016.0,15:06:20.556873,192.168.0.114
352,4,6,0,81,"2,-1,-176",-2,1,-1,0,0,0,88,92,79,60,100,-55.0,6,-35.0,-18.0,-1014.0,15:06:20.659157,192.168.0.114
357,4,5,0,81,"0,-1,-176",-2,1,-1,0,0,0,88,92,79,60,100,-55.02,6,-39.0,-27.0,-987.0,15:06:20.760893,192.168.0.114
362,4,6,0,81,"0,-1,-176",-2,1,-1,0,0,0,88,92,79,60,100,-55.09,6,-43.0,-20.0,-991.0,15:06:20.862995,192.168.0.114
367,4,5,0,81,"0,-1,-176",-2,1,-1,0,0,0,88,92,79,60,100,-55.01,7,-20.0,-30.0,-1030.0,15:06:20.964984,192.168.0.114
372,4,6,0,81,"0,-1,-176",-2,1,-1,0,0,0,88,92,80,60,100,-55.08,7,-33.0,-15.0,-992.0,15:06:21.066990,192.168.0.114
377,4,6,0,81,"0,-1,-176",-2,1,-1,0,0,0,88,92,80,60,100,-55.09,7,-37.0,-12.0,-1026.0,15:06:21.174273,192.168.0.114
382,4,7,0,81,"0,-1,-176",-2,2,-1,0,0,0,88,92,80,60,100,-55.08,7,-46.0,-6.0,-990.0,15:06:21.270960,192.168.0.114
387,4,7,0,81,"0,-1,-175",-2,1,-1,0,0,0,88,92,80,60,100,-55.17,7,-21.0,-12.0,-988.0,15:06:21.373108,192.168.0.114
392,4,8,0,81,"1,-1,-176",-2,0,-1,0,0,0,88,91,80,60,100,-55.1,7,-24.0,-4.0,-993.0,15:06:21.475066,192.168.0.114
397,4,8,0,81,"0,-2,-178",-2,0,0,0,0,0,88,91,81,60,100,-55.08,7,-43.0,4.0,-981.0,15:06:21.577018,192.168.0.114
402,4,7,0,81,"0,-2,-178",-1,0,0,0,0,0,88,91,80,60,100,-54.91,7,-21.0,14.0,-962.0,15:06:21.679136,192.168.0.114
407,4,8,-1,81,"0,-2,-177",-2,0,0,0,0,0,88,91,80,60,100,-55.06,7,-14.0,2.0,-990.0,15:06:21.781556,192.168.0.114
412,4,8,-1,81,"0,-2,-178",-2,0,0,0,0,0,88,91,80,60,100,-55.03,7,-4.0,5.0,-1023.0,15:06:21.883056,192.168.0.114
417,4,8,-1,80,"0,-2,-179",-1,0,-1,0,0,0,88,91,80,60,100,-55.07,8,-30.0,5.0,-991.0,15:06:21.985206,192.168.0.114
422,4,8,-2,80,"-1,-2,-178",-1,0,-1,0,0,0,88,91,79,60,100,-55.18,8,-33.0,4.0,-1008.0,15:06:22.087163,192.168.0.114
427,4,9,-4,80,"0,-2,-177",-1,0,-1,0,0,0,88,91,79,60,100,-55.13,8,-10.0,4.0,-1013.0,15:06:22.188868,192.168.0.114
432,4,19,-2,77,"5,-2,179",-1,0,0,0,0,0,88,91,79,60,100,-55.18,8,-52.0,24.0,-1017.0,15:06:22.290964,192.168.0.114
437,4,12,-5,79,"0,-2,-178",-1,-1,-1,0,0,0,88,91,80,60,100,-55.08,8,-36.0,7.0,-993.0,15:06:22.392972,192.168.0.114
442,4,13,-6,79,"0,-2,-178",-1,-2,-1,0,0,0,88,92,80,60,100,-55.02,8,-23.0,13.0,-1008.0,15:06:22.494951,192.168.0.114
447,4,14,-7,79,"1,-2,-178",-1,-1,-1,0,0,0,88,92,80,60,100,-55.11,8,-17.0,20.0,-1022.0,15:06:22.596991,192.168.0.114
452,4,13,-7,80,"1,-2,-178",-1,-1,0,0,0,0,88,92,81,60,100,-55.14,8,-11.0,16.0,-994.0,15:06:22.649277,192.168.0.114
457,4,13,-7,80,"1,-2,-178",-1,-1,0,0,0,0,88,92,81,60,100,-55.11,8,-26.0,7.0,-987.0,15:06:22.756332,192.168.0.114
462,4,13,-7,80,"1,-2,-178",-1,-1,0,0,0,0,88,92,81,60,100,-55.27,8,-22.0,16.0,-967.0,15:06:22.907112,192.168.0.114
467,4,14,-8,80,"1,-2,-177",0,0,0,0,0,0,88,92,80,60,100,-55.23,9,-47.0,19.0,-978.0,15:06:23.004908,192.168.0.114
472,4,14,-8,80,"1,-2,-177",1,-2,-1,0,0,0,88,92,79,60,100,-55.13,9,-36.0,17.0,-992.0,15:06:23.055739,192.168.0.114
479,4,12,-7,79,"0,-2,179",0,-2,-1,0,0,0,88,92,78,60,100,-55.18,9,-27.0,11.0,-998.0,15:06:23.208779,192.168.0.114
484,4,12,-7,79,"0,-2,179",0,-2,-1,-1,0,0,88,92,78,60,100,-55.13,9,0.0,5.0,-1010.0,15:06:23.311030,192.168.0.114
487,4,12,-7,79,"0,-2,179",0,-1,-1,-1,0,0,88,92,77,60,100,-55.17,9,-9.0,11.0,-969.0,15:06:23.361944,192.168.0.114
492,4,9,-6,78,"0,-2,-179",0,0,-1,-1,0,1,88,90,75,60,100,-55.04,9,-24.0,18.0,-988.0,15:06:23.463806,192.168.0.114
497,4,9,-6,78,"0,-2,-179",-1,0,-1,-1,0,1,88,90,74,60,100,-55.18,9,-9.0,18.0,-1004.0,15:06:23.565809,192.168.0.114
502,4,6,-2,75,"0,-1,-179",-1,0,-1,0,0,0,88,90,73,50,100,-55.15,9,-6.0,10.0,-1010.0,15:06:23.668071,192.168.0.114
507,4,6,-2,75,"0,-1,-179",-1,0,-1,0,0,0,88,90,72,50,100,-55.12,9,-22.0,20.0,-1001.0,15:06:23.771088,192.168.0.114
512,4,3,-1,74,"0,-1,-178",-2,0,-1,0,0,0,88,90,71,50,100,-55.05,9,5.0,9.0,-1015.0,15:06:23.872984,192.168.0.114
517,4,3,-1,74,"0,-1,-178",-3,0,-1,0,0,0,88,90,71,50,100,-55.14,10,-7.0,-5.0,-1015.0,15:06:23.975295,192.168.0.114
522,4,2,0,72,"1,-1,-179",-1,0,-1,0,0,0,88,90,70,50,100,-55.2,10,-10.0,0.0,-1019.0,15:06:24.077823,192.168.0.114
527,4,2,0,72,"1,-1,-179",-1,0,-1,0,0,0,88,90,71,50,100,-55.2,10,-20.0,0.0,-1017.0,15:06:24.180487,192.168.0.114
532,4,2,0,72,"1,-1,-179",-1,0,-1,0,0,0,88,90,70,50,100,-55.24,10,1.0,2.0,-1019.0,15:06:24.282484,192.168.0.114
537,4,1,0,72,"1,-1,-179",-1,0,-1,0,0,0,88,90,71,50,100,-55.19,10,-14.0,8.0,-988.0,15:06:24.384922,192.168.0.114
542,4,1,0,72,"1,-1,-179",-1,0,-1,0,0,0,87,90,71,50,100,-55.15,10,-17.0,3.0,-1011.0,15:06:24.487218,192.168.0.114
547,4,1,0,73,"1,-1,-179",-1,0,-1,0,0,0,87,90,71,50,100,-55.15,10,-19.0,-8.0,-994.0,15:06:24.586903,192.168.0.114
552,4,1,0,73,"1,-1,-179",-1,0,-1,0,0,0,87,90,72,50,100,-55.18,10,-17.0,-4.0,-1006.0,15:06:24.688408,192.168.0.114
557,4,1,0,73,"1,-1,-179",-1,0,-1,0,0,0,87,90,73,50,100,-55.15,10,-12.0,-11.0,-1005.0,15:06:24.791431,192.168.0.114
562,4,1,0,73,"1,-1,-179",-1,0,-1,0,0,0,87,90,73,50,100,-55.22,10,-13.0,0.0,-987.0,15:06:24.892912,192.168.0.114
567,4,1,0,74,"0,-1,-179",0,0,-1,0,0,0,87,90,74,50,100,-55.21,11,-12.0,-11.0,-1005.0,15:06:24.994840,192.168.0.114
572,4,1,0,74,"0,-1,-179",0,0,-1,0,0,0,87,90,74,50,100,-55.15,11,-8.0,-10.0,-979.0,15:06:25.096881,192.168.0.114
577,4,1,0,74,"0,-1,-179",0,0,-1,0,0,0,87,90,74,50,100,-55.21,11,-12.0,0.0,-1025.0,15:06:25.199157,192.168.0.114
582,4,0,0,75,"0,-1,-178",0,0,-1,0,0,0,87,90,74,50,100,-55.14,11,-11.0,0.0,-999.0,15:06:25.300975,192.168.0.114
587,4,0,0,75,"0,-1,-178",0,0,-1,0,0,0,87,90,74,50,100,-55.19,11,-12.0,-10.0,-990.0,15:06:25.402837,192.168.0.114
592,4,2,0,75,"0,-1,-179",0,0,-1,0,0,0,87,90,74,50,100,-55.15,11,-15.0,-7.0,-982.0,15:06:25.504649,192.168.0.114
597,4,2,0,75,"0,-1,-179",0,0,-1,0,0,0,87,90,74,50,100,-55.21,11,-6.0,0.0,-998.0,15:06:25.606983,192.168.0.114
602,4,2,0,75,"0,-1,-178",0,0,-1,0,0,0,87,90,73,50,100,-55.18,11,-3.0,11.0,-1007.0,15:06:25.708719,192.168.0.114
607,4,2,0,75,"0,-1,-178",-1,0,-1,0,0,0,87,90,74,50,100,-55.16,11,0.0,34.0,-984.0,15:06:25.810871,192.168.0.114
612,4,3,0,74,"0,-1,179",0,0,-1,0,0,0,87,90,73,50,100,-55.18,11,-17.0,22.0,-973.0,15:06:25.912808,192.168.0.114
617,4,3,0,74,"0,-1,179",0,-1,-1,0,0,0,87,90,73,50,100,-55.15,12,-4.0,19.0,-988.0,15:06:26.014803,192.168.0.114
621,4,3,-1,74,"0,-1,179",0,-1,-1,0,0,0,87,90,73,50,100,-55.24,12,-24.0,5.0,-1019.0,15:06:26.065742,192.168.0.114
626,4,3,-1,74,"0,-1,179",-1,-1,-1,0,0,0,87,90,73,50,100,-55.25,12,-36.0,3.0,-1006.0,15:06:26.167916,192.168.0.114
631,4,3,-1,74,"0,-1,179",-1,-1,-1,0,0,0,87,90,73,50,100,-55.28,12,-33.0,5.0,-1006.0,15:06:26.270016,192.168.0.114
636,4,1,0,74,"0,-1,177",-1,-1,-1,0,0,0,87,90,73,50,100,-55.18,12,-25.0,11.0,-1022.0,15:06:26.371830,192.168.0.114
641,4,1,0,74,"0,-1,177",-1,-1,-1,0,0,0,86,89,74,50,100,-55.23,12,-15.0,10.0,-994.0,15:06:26.473935,192.168.0.114
646,4,2,-2,74,"1,-1,179",-1,-1,-1,0,0,0,86,89,74,50,100,-55.19,12,-22.0,13.0,-1024.0,15:06:26.580698,192.168.0.114
651,4,2,-2,74,"1,-1,179",-2,-1,-1,0,0,0,86,89,74,50,100,-55.14,12,-35.0,20.0,-1002.0,15:06:26.677794,192.168.0.114
656,4,0,-1,74,"2,-1,178",-1,0,-1,0,0,0,86,89,74,50,100,-55.24,12,-10.0,8.0,-969.0,15:06:26.779383,192.168.0.114
661,4,0,-1,74,"2,-1,178",-2,0,0,0,0,0,86,89,74,50,100,-55.27,12,-33.0,18.0,-1002.0,15:06:26.881785,192.168.0.114
666,4,0,-1,74,"2,-1,178",-2,0,0,0,0,0,86,89,74,50,100,-55.2,13,-20.0,13.0,-1009.0,15:06:26.983791,192.168.0.114
671,4,0,-1,74,"2,-1,178",-2,0,0,0,0,0,86,89,73,50,100,-55.3,13,-15.0,13.0,-1005.0,15:06:27.085719,192.168.0.114
676,4,0,-1,73,"3,-1,178",-2,-1,-1,0,0,0,86,89,73,50,100,-55.18,13,-19.0,22.0,-986.0,15:06:27.187845,192.168.0.114
681,4,0,-1,73,"3,-1,178",-2,-1,-1,0,0,0,86,89,73,50,100,-55.18,13,-46.0,20.0,-994.0,15:06:27.289772,192.168.0.114
686,4,0,-1,73,"3,-1,178",-2,-1,-1,0,0,0,86,89,73,50,100,-55.22,13,-21.0,22.0,-997.0,15:06:27.391818,192.168.0.114
691,4,0,-2,73,"5,-1,177",-3,-1,-1,0,0,0,86,90,73,50,100,-55.15,13,-32.0,14.0,-988.0,15:06:27.493813,192.168.0.114
696,4,0,-2,73,"5,-1,177",-3,-1,-1,0,0,0,86,90,74,50,100,-55.24,13,-44.0,19.0,-1005.0,15:06:27.595791,192.168.0.114
701,4,-1,-2,73,"5,-1,177",-2,-1,-1,0,0,0,86,90,74,50,100,-55.25,13,-21.0,5.0,-985.0,15:06:27.697722,192.168.0.114
706,4,-1,-2,73,"5,-1,177",-2,-1,-1,0,0,0,86,90,74,50,100,-55.14,13,-41.0,23.0,-984.0,15:06:27.799906,192.168.0.114
712,4,-1,-3,73,"4,-1,177",-2,-1,-1,0,0,0,86,90,74,50,100,-55.19,13,-44.0,23.0,-993.0,15:06:27.901676,192.168.0.114
716,4,-1,-3,73,"4,-1,177",-2,-1,-1,0,0,0,86,90,74,50,100,-55.21,14,-32.0,15.0,-998.0,15:06:28.003509,192.168.0.114
721,4,-2,-1,74,"3,-1,176",-2,-1,-1,0,0,0,86,90,74,50,100,-55.17,14,-47.0,21.0,-1010.0,15:06:28.113137,192.168.0.114
726,4,-2,-1,74,"3,-1,176",-1,-1,-1,0,0,0,86,90,75,50,100,-55.26,14,-60.0,7.0,-974.0,15:06:28.207769,192.168.0.114
732,4,-1,-3,75,"4,-1,177",-2,-1,-1,0,0,0,86,90,75,50,100,-55.28,14,-30.0,21.0,-1005.0,15:06:28.309635,192.168.0.114
737,4,-1,-3,75,"4,-1,177",-2,-1,-1,0,0,0,86,90,75,50,100,-55.23,14,-52.0,16.0,-997.0,15:06:28.417545,192.168.0.114
742,4,-1,-3,75,"4,-1,177",-3,-1,-1,0,0,0,87,90,75,50,100,-55.13,14,-62.0,12.0,-1003.0,15:06:28.513670,192.168.0.114
747,4,-1,-3,75,"4,-1,177",-8,0,-1,0,0,0,87,90,75,50,100,-55.15,14,-14.0,7.0,-982.0,15:06:28.615694,192.168.0.114
752,4,-1,-3,75,"4,-1,177",-9,0,-1,1,0,0,87,90,76,50,100,-55.16,14,-59.0,0.0,-998.0,15:06:28.718006,192.168.0.114
757,4,-1,-3,74,"10,-1,179",-8,0,-1,2,0,0,87,90,75,50,100,-55.15,14,-42.0,2.0,-997.0,15:06:28.819466,192.168.0.114
762,4,-1,-3,74,"10,-1,179",-8,0,-1,3,0,0,87,90,75,50,100,-55.15,15,-40.0,-4.0,-989.0,15:06:28.921722,192.168.0.114
767,4,3,-3,74,"10,-1,178",-8,0,-1,4,0,0,87,90,75,50,100,-55.16,15,-48.0,-10.0,-985.0,15:06:29.023677,192.168.0.114
772,4,3,-3,74,"10,-1,178",-8,0,-1,5,0,0,87,90,73,50,100,-55.25,15,-45.0,23.0,-1038.0,15:06:29.125662,192.168.0.114
776,4,10,-4,73,"9,-1,-179",-8,0,-1,6,0,0,87,90,72,50,100,-55.26,15,-47.0,5.0,-1016.0,15:06:29.227766,192.168.0.114
781,4,10,-4,73,"9,-1,-179",-8,0,-1,7,0,0,87,90,74,50,100,-55.15,15,-58.0,3.0,-1007.0,15:06:29.336158,192.168.0.114
786,4,24,-9,73,"8,-2,-177",-8,0,-1,8,0,0,87,90,74,50,100,-55.25,15,-90.0,6.0,-1020.0,15:06:29.431743,192.168.0.114
791,4,24,-9,73,"8,-2,-177",-7,-1,-1,8,0,0,86,90,75,50,100,-55.35,15,-80.0,0.0,-1004.0,15:06:29.534209,192.168.0.114
796,4,24,-9,73,"8,-2,-177",-7,0,0,8,0,0,86,90,75,50,100,-55.31,15,-85.0,-1.0,-971.0,15:06:29.637759,192.168.0.114
801,4,46,-15,68,"11,-4,-175",-6,0,-1,9,0,0,86,90,75,50,100,-55.43,15,-86.0,21.0,-976.0,15:06:29.737721,192.168.0.114
806,4,46,-15,68,"11,-4,-175",-6,0,0,9,0,0,86,90,74,50,100,-55.42,15,-80.0,17.0,-988.0,15:06:29.839668,192.168.0.114
811,4,46,-15,68,"11,-4,-175",-6,0,0,9,0,0,86,90,74,50,100,-55.43,16,-112.0,25.0,-995.0,15:06:29.941696,192.168.0.114
817,4,46,-15,68,"11,-4,-175",-6,-1,-1,9,0,0,86,90,74,50,100,-55.45,16,-57.0,6.0,-999.0,15:06:30.043707,192.168.0.114
822,4,46,-15,68,"11,-4,-175",-5,-2,-1,9,0,0,86,90,74,50,100,-55.42,16,-93.0,0.0,-1001.0,15:06:30.145549,192.168.0.114
827,4,46,-15,68,"11,-4,-175",-5,-2,-1,9,0,0,86,90,73,50,100,-55.49,16,-82.0,-11.0,-1017.0,15:06:30.247613,192.168.0.114
832,4,46,-15,68,"11,-4,-175",-5,-1,-1,9,0,0,86,90,73,50,100,-55.46,16,-109.0,14.0,-1010.0,15:06:30.349669,192.168.0.114
837,4,46,-15,68,"11,-4,-175",-5,-1,-1,9,0,0,86,90,73,50,100,-55.47,16,-102.0,22.0,-989.0,15:06:30.452005,192.168.0.114
842,4,46,-15,68,"11,-4,-175",-4,-1,-1,10,0,0,86,90,72,50,100,-55.55,16,-95.0,3.0,-1003.0,15:06:30.553650,192.168.0.114
848,4,46,-15,68,"11,-4,-175",-2,0,-1,9,0,0,86,90,71,50,100,-55.48,16,-95.0,-16.0,-993.0,15:06:30.655797,192.168.0.114
850,4,46,-15,68,"11,-4,-175",0,1,0,9,0,0,86,90,72,50,100,-55.48,16,-95.0,-2.0,-978.0,15:06:30.706350,192.168.0.114
855,4,46,-15,68,"11,-4,-175",2,1,-1,8,0,0,86,90,72,50,100,-55.42,16,-58.0,11.0,-1014.0,15:06:30.808681,192.168.0.114
861,8,-35,-14,72,"-1,0,-175",4,0,-1,7,0,0,86,90,71,50,100,-55.38,17,-63.0,2.0,-1008.0,15:06:30.911838,192.168.0.114
866,8,-35,-14,72,"-1,0,-175",4,0,-1,5,0,0,86,90,71,50,100,-55.33,17,-59.0,-6.0,-1024.0,15:06:31.012623,192.168.0.114
870,8,-18,-12,72,"-2,0,-177",2,0,-1,4,0,0,86,90,71,50,100,-55.38,17,-81.0,-7.0,-1015.0,15:06:31.114568,192.168.0.114
875,8,-18,-12,72,"-2,0,-177",2,0,-1,4,0,0,86,90,71,50,100,-55.4,17,-38.0,-13.0,-982.0,15:06:31.216481,192.168.0.114
880,8,-4,-10,71,"0,-1,-178",5,0,-1,3,0,0,86,90,72,50,100,-55.36,17,-52.0,-17.0,-1023.0,15:06:31.318804,192.168.0.114
885,8,-4,-10,71,"0,-1,-178",4,1,-1,1,0,0,86,90,72,50,100,-55.37,17,-27.0,-11.0,-1045.0,15:06:31.420482,192.168.0.114
894,8,0,-8,71,"-1,-1,-177",0,1,-1,1,0,0,86,90,71,50,100,-55.37,17,-2.0,-16.0,-984.0,15:06:31.573251,192.168.0.114
898,8,0,-8,71,"-1,-1,-177",0,1,-1,0,0,0,86,90,71,50,100,-55.26,17,-10.0,-10.0,-1003.0,15:06:31.675887,192.168.0.114
900,8,2,-8,71,"1,-1,-177",0,0,-1,0,0,0,86,90,72,50,100,-55.18,17,-4.0,-4.0,-987.0,15:06:31.726396,192.168.0.114
905,8,2,-8,71,"1,-1,-177",0,0,-1,0,0,0,86,90,72,50,100,-55.18,17,-4.0,-16.0,-991.0,15:06:31.828373,192.168.0.114
911,8,2,-8,71,"1,-1,-177",0,0,-1,0,0,0,86,90,71,50,100,-55.18,18,-24.0,-14.0,-983.0,15:06:31.930525,192.168.0.114
916,8,4,-7,71,"1,-1,-177",0,0,-1,0,0,0,86,90,71,50,100,-55.13,18,-11.0,0.0,-1009.0,15:06:32.032423,192.168.0.114
921,8,4,-7,71,"1,-1,-177",0,0,-1,0,0,0,86,90,72,50,100,-55.19,18,0.0,-7.0,-998.0,15:06:32.136745,192.168.0.114
926,8,4,-7,70,"1,-1,-177",0,0,-1,0,0,0,86,90,71,50,100,-55.18,18,7.0,-15.0,-999.0,15:06:32.236535,192.168.0.114
931,8,4,-7,70,"1,-1,-177",0,0,-1,0,0,0,86,90,70,50,100,-55.15,18,-21.0,-4.0,-1008.0,15:06:32.338939,192.168.0.114
936,8,3,-7,70,"0,-1,-176",0,0,-1,0,0,0,86,90,71,50,100,-55.17,18,-5.0,6.0,-1010.0,15:06:32.440488,192.168.0.114
941,8,3,-7,70,"0,-1,-176",0,0,-1,0,0,0,86,89,71,50,100,-55.2,18,-17.0,-5.0,-1003.0,15:06:32.542544,192.168.0.114
946,8,4,-7,70,"0,-1,-176",0,0,-1,0,0,0,86,89,71,50,100,-55.16,18,4.0,-10.0,-977.0,15:06:32.644517,192.168.0.114
951,8,4,-7,70,"0,-1,-176",0,-2,-1,0,0,0,86,89,71,50,100,-55.17,18,-27.0,1.0,-1006.0,15:06:32.746524,192.168.0.114
956,8,6,-6,70,"1,-2,179",1,-1,-1,0,0,0,86,89,71,50,100,-55.22,18,-2.0,5.0,-1013.0,15:06:32.848585,192.168.0.114
961,8,6,-6,70,"1,-2,179",0,0,-1,0,0,0,86,89,71,50,100,-55.15,19,-7.0,-1.0,-997.0,15:06:32.950518,192.168.0.114
966,8,5,-5,70,"0,-2,-177",0,0,-1,0,0,0,86,89,70,50,100,-55.23,19,-9.0,1.0,-1008.0,15:06:33.056347,192.168.0.114
971,8,5,-5,70,"0,-2,-177",-2,1,-1,0,0,0,86,89,69,50,100,-55.18,19,-15.0,19.0,-979.0,15:06:33.155301,192.168.0.114
979,8,5,-4,69,"3,-1,-175",-1,1,-1,0,0,0,86,89,70,50,100,-55.19,19,0.0,-4.0,-1002.0,15:06:33.309055,192.168.0.114
984,8,5,-4,69,"3,-1,-175",-1,0,-1,0,0,0,86,89,69,50,100,-55.24,19,-23.0,-3.0,-1011.0,15:06:33.409193,192.168.0.114
988,8,6,-4,69,"3,-1,-176",-1,0,-1,0,0,0,86,89,69,50,100,-55.19,19,-12.0,-3.0,-1009.0,15:06:33.511617,192.168.0.114
992,8,6,-4,69,"3,-1,-176",-1,0,-1,0,0,0,86,90,69,50,100,-55.21,19,-18.0,-3.0,-997.0,15:06:33.562438,192.168.0.114
997,8,6,-4,69,"3,-1,-176",0,0,-1,0,0,0,86,90,69,50,100,-55.16,19,-7.0,5.0,-1016.0,15:06:33.664547,192.168.0.114
1001,8,5,-3,70,"1,-1,-176",0,0,-1,0,0,0,86,90,70,50,100,-55.14,19,-18.0,-12.0,-979.0,15:06:33.767131,192.168.0.114
1006,8,5,-3,70,"1,-1,-176",0,0,-1,0,0,0,86,90,71,50,100,-55.13,19,-6.0,-1.0,-1006.0,15:06:33.868256,192.168.0.114
1011,8,5,-3,70,"1,-1,-176",0,0,-1,0,0,0,86,90,70,50,100,-55.08,20,-11.0,-8.0,-1000.0,15:06:33.970546,192.168.0.114
1016,8,5,-3,70,"1,-1,-176",0,0,-1,0,0,0,86,90,71,50,100,-55.08,20,-23.0,26.0,-1004.0,15:06:34.072293,192.168.0.114
1021,8,6,-4,71,"1,-2,-176",0,0,-1,0,0,0,86,90,71,50,100,-55.11,20,-9.0,12.0,-996.0,15:06:34.174472,192.168.0.114
1027,8,6,-4,71,"1,-2,-176",0,0,-1,0,0,0,86,90,71,50,100,-55.15,20,-27.0,12.0,-971.0,15:06:34.276302,192.168.0.114
1032,8,7,-3,71,"0,-1,-178",0,-1,-1,0,0,0,86,90,71,50,100,-55.12,20,-30.0,-1.0,-990.0,15:06:34.378658,192.168.0.114
1037,8,7,-3,71,"0,-1,-178",0,0,-1,0,0,0,86,90,71,50,100,-55.13,20,-24.0,3.0,-998.0,15:06:34.480417,192.168.0.114
1042,8,7,-4,71,"1,-1,-177",0,0,-1,0,0,0,87,89,72,50,100,-55.1,20,-15.0,-4.0,-1009.0,15:06:34.586841,192.168.0.114
1047,8,7,-4,71,"1,-1,-177",0,0,-1,0,0,0,87,89,71,50,100,-55.14,20,-16.0,-2.0,-1003.0,15:06:34.683963,192.168.0.114
1052,8,8,-3,71,"0,-1,-177",0,0,-1,0,0,0,87,89,71,50,100,-55.09,20,-19.0,11.0,-1001.0,15:06:34.786393,192.168.0.114
1057,8,8,-3,71,"0,-1,-177",0,0,-1,0,0,0,87,89,71,50,100,-55.06,20,-23.0,12.0,-981.0,15:06:34.888359,192.168.0.114
1062,8,9,-3,71,"1,-1,-178",0,0,-1,0,0,0,87,89,72,50,100,-55.06,21,-19.0,-4.0,-990.0,15:06:34.994430,192.168.0.114
1068,8,9,-3,71,"1,-1,-178",0,0,-1,0,0,0,87,89,71,50,100,-55.16,21,-28.0,16.0,-1008.0,15:06:35.095783,192.168.0.114
1073,8,9,-3,71,"1,-1,-178",0,0,-1,0,0,0,87,89,71,50,100,-55.13,21,-32.0,21.0,-1005.0,15:06:35.195299,192.168.0.114
1078,8,8,-3,71,"0,-2,-177",0,0,-1,0,0,0,87,89,71,50,100,-55.17,21,-16.0,0.0,-988.0,15:06:35.296314,192.168.0.114
1083,8,8,-3,71,"0,-2,-177",0,0,-1,0,0,0,87,89,71,50,100,-55.13,21,-9.0,7.0,-998.0,15:06:35.398557,192.168.0.114
1088,8,10,-3,71,"0,-2,-177",0,0,-1,0,0,0,87,89,71,50,100,-55.1,21,-23.0,6.0,-1003.0,15:06:35.500300,192.168.0.114
1093,8,10,-3,71,"0,-2,-177",0,0,-1,0,0,0,86,89,71,50,100,-55.15,21,-29.0,17.0,-1009.0,15:06:35.602378,192.168.0.114
1098,8,11,-3,70,"0,-2,-176",0,0,-1,0,0,0,86,89,70,50,100,-55.11,21,-13.0,4.0,-990.0,15:06:35.706479,192.168.0.114
1103,8,11,-3,70,"0,-2,-176",0,0,-1,0,0,0,86,89,70,50,100,-55.05,21,-20.0,3.0,-1004.0,15:06:35.806367,192.168.0.114
1108,8,11,-3,70,"0,-2,-176",0,0,-1,0,0,0,86,89,71,50,100,-55.18,21,2.0,5.0,-986.0,15:06:35.908344,192.168.0.114
1113,8,11,-3,70,"0,-2,-176",0,0,-1,0,0,0,86,89,71,50,100,-55.16,22,-13.0,15.0,-1005.0,15:06:36.010362,192.168.0.114
1118,8,10,-3,70,"0,-2,-176",0,0,-1,0,0,0,86,89,71,50,100,-55.17,22,-7.0,6.0,-999.0,15:06:36.112362,192.168.0.114
1123,8,10,-3,70,"0,-2,-176",0,0,-1,0,0,0,86,89,70,50,100,-55.13,22,-16.0,12.0,-1017.0,15:06:36.213912,192.168.0.114
1128,8,10,-3,70,"0,-2,-176",0,0,-1,0,0,0,86,89,70,50,100,-55.05,22,-10.0,4.0,-982.0,15:06:36.316129,192.168.0.114
1133,8,8,-3,70,"0,-1,-177",0,0,-1,0,0,0,86,89,71,50,100,-55.08,22,-31.0,-5.0,-969.0,15:06:36.418195,192.168.0.114
1138,8,8,-3,70,"0,-1,-177",-1,-1,-1,0,0,0,86,89,70,50,100,-54.95,22,-15.0,-15.0,-976.0,15:06:36.519996,192.168.0.114
1143,8,8,-4,70,"1,-1,-178",-1,-1,-1,0,0,0,86,89,70,50,100,-54.99,22,-41.0,-3.0,-1017.0,15:06:36.622306,192.168.0.114
1148,8,8,-4,70,"1,-1,-178",-1,0,-1,0,0,0,86,89,70,50,100,-55.09,22,-11.0,-6.0,-1046.0,15:06:36.724269,192.168.0.114
1153,8,8,-5,69,"3,-1,-176",-2,0,-1,0,0,0,86,89,69,50,100,-55.14,22,-18.0,-5.0,-1018.0,15:06:36.825889,192.168.0.114
1158,8,8,-5,69,"3,-1,-176",-2,0,-1,0,0,0,86,89,69,50,100,-55.08,22,-18.0,3.0,-1019.0,15:06:36.927988,192.168.0.114
1163,8,7,-5,69,"3,-2,-175",-1,0,-1,0,0,0,86,89,70,50,100,-55.15,23,-2.0,12.0,-1010.0,15:06:37.029885,192.168.0.114
1168,8,7,-5,69,"3,-2,-175",-1,0,-1,0,0,0,86,89,70,50,100,-55.14,23,-21.0,16.0,-1010.0,15:06:37.131915,192.168.0.114
1174,8,7,-5,69,"3,-2,-175",0,0,-1,0,0,0,86,89,71,50,100,-55.14,23,-26.0,12.0,-993.0,15:06:37.233873,192.168.0.114
1176,8,6,-4,70,"1,-2,-178",0,-1,-1,0,0,0,86,89,71,50,100,-55.1,23,-5.0,7.0,-983.0,15:06:37.287268,192.168.0.114
1181,8,6,-4,70,"1,-2,-178",0,0,-1,0,0,0,86,89,72,50,100,-55.1,23,-2.0,3.0,-992.0,15:06:37.389778,192.168.0.114
1186,8,6,-4,71,"1,-2,-178",0,0,-1,0,0,0,86,89,72,50,100,-55.12,23,2.0,-6.0,-970.0,15:06:37.489561,192.168.0.114
1194,8,6,-4,71,"1,-2,-178",0,0,0,0,0,0,85,89,72,50,100,-55.19,23,-14.0,15.0,-942.0,15:06:37.642234,192.168.0.114
1199,8,7,-4,71,"1,-2,-178",0,0,0,0,0,0,85,89,71,50,100,-55.15,23,-27.0,23.0,-917.0,15:06:37.744091,192.168.0.114
1201,8,7,-4,71,"1,-2,-178",0,0,0,0,0,1,85,89,70,50,100,-55.2,23,-24.0,1.0,-906.0,15:06:37.794952,192.168.0.114
1206,8,8,-4,69,"0,-2,-177",0,0,0,0,0,2,85,89,67,50,100,-55.18,24,-15.0,0.0,-899.0,15:06:37.896807,192.168.0.114
1211,8,8,-4,69,"0,-2,-177",0,0,-1,0,0,3,85,89,63,40,100,-55.21,24,3.0,4.0,-940.0,15:06:37.998849,192.168.0.114
1216,8,8,-3,64,"0,-2,-177",0,0,-1,0,0,3,85,89,60,40,100,-55.18,24,9.0,12.0,-919.0,15:06:38.100959,192.168.0.114
1221,8,8,-3,64,"0,-2,-177",0,0,-1,0,0,4,85,89,56,40,100,-55.26,24,3.0,9.0,-985.0,15:06:38.203360,192.168.0.114
1226,8,9,-2,54,"0,-2,-177",0,0,-1,0,0,4,85,89,51,30,100,-55.3,24,-8.0,15.0,-960.0,15:06:38.305016,192.168.0.114
1231,8,9,-2,54,"0,-2,-177",0,0,-1,0,0,4,85,89,46,30,100,-55.33,24,-21.0,0.0,-954.0,15:06:38.407357,192.168.0.114
1237,8,9,-2,54,"0,-2,-177",0,0,-1,0,0,4,85,89,41,20,100,-55.42,24,-13.0,-14.0,-991.0,15:06:38.509068,192.168.0.114
1242,8,10,-2,44,"0,-2,-177",0,0,-1,0,0,4,85,89,36,20,100,-55.51,24,3.0,-9.0,-1004.0,15:06:38.610854,192.168.0.114
1247,8,10,-2,44,"0,-2,-177",0,0,-1,0,0,4,85,89,31,10,100,-55.49,24,-24.0,-5.0,-990.0,15:06:38.712872,192.168.0.114
1252,8,13,1,31,"2,-1,-179",0,0,-1,0,0,4,85,89,26,10,100,-55.45,24,1.0,-5.0,-977.0,15:06:38.814904,192.168.0.114
1257,8,13,1,31,"2,-1,-179",0,0,-1,0,0,4,85,89,21,0,100,-55.51,25,-15.0,-9.0,-987.0,15:06:38.916938,192.168.0.114
1262,8,13,1,31,"2,-1,-179",0,0,-1,0,0,4,85,89,18,0,100,-55.63,25,-23.0,-38.0,-1019.0,15:06:39.018977,192.168.0.114
1267,8,13,1,31,"2,-1,-179",0,1,-1,0,0,4,85,89,12,0,100,-55.96,25,-19.0,32.0,-1006.0,15:06:39.130593,192.168.0.114
1272,8,13,1,31,"2,-1,-179",-1,0,-1,0,0,4,85,89,10,0,100,-56.71,25,-1.0,2.0,-1010.0,15:06:39.223564,192.168.0.114
1277,8,13,1,31,"2,-1,-179",0,1,0,0,0,3,85,89,10,-10,100,-58.08,25,26.0,-28.0,-1025.0,15:06:39.325097,192.168.0.114
1282,8,13,1,31,"2,-1,-179",3,-4,-1,0,0,-1,85,89,10,-10,100,-58.97,25,-356.0,174.0,-2641.0,15:06:39.426961,192.168.0.114
1287,8,13,1,31,"2,-1,-179",0,-1,-1,-1,-1,0,85,89,10,-10,100,-57.91,25,-2.0,-6.0,-731.0,15:06:39.528759,192.168.0.114
1292,8,13,1,31,"2,-1,-179",-1,0,-1,-1,0,0,85,89,10,-10,100,-59.13,25,-41.0,235.0,-1385.0,15:06:39.630725,192.168.0.114
1297,8,13,1,31,"2,-1,-179",0,0,-3,0,0,0,85,89,10,-10,100,-58.54,25,-17.0,1.0,-850.0,15:06:39.734018,192.168.0.114
1302,8,13,1,31,"2,-1,-179",0,0,-2,0,0,0,85,89,10,-10,100,-57.87,25,-17.0,58.0,-1037.0,15:06:39.834864,192.168.0.114
1307,8,13,1,31,"2,-1,-179",0,0,-2,0,0,0,85,89,10,-10,100,-57.19,26,5.0,-3.0,-984.0,15:06:39.937186,192.168.0.114
1312,8,13,1,31,"2,-1,-179",0,0,-2,0,0,0,85,89,10,-10,100,-56.94,26,-7.0,-2.0,-991.0,15:06:40.039330,192.168.0.114
1317,8,13,1,31,"2,-1,-179",0,0,-2,-1,0,0,85,89,10,-10,100,-57.03,26,13.0,-1.0,-1009.0,15:06:40.141432,192.168.0.114
1324,8,13,1,31,"2,-1,-179",0,0,-2,-1,0,0,85,89,10,-10,100,-56.98,26,-9.0,9.0,-993.0,15:06:40.243185,192.168.0.114
1329,8,13,1,31,"2,-1,-179",0,0,-2,-1,0,0,85,89,10,-10,100,-56.83,26,-10.0,17.0,-1000.0,15:06:40.344962,192.168.0.114
1334,8,13,1,31,"2,-1,-179",0,0,-2,-1,0,1,85,89,10,0,100,-56.65,26,1.0,0.0,-992.0,15:06:40.446802,192.168.0.114
1339,-2,-200,-200,-200,"-1,-1,-1",0,0,-2,-1,0,2,85,89,10,0,100,-56.4,26,0.0,15.0,-995.0,15:06:40.551433,192.168.0.114
