,mid,x,y,z,mpry,pitch,roll,yaw,vgx,vgy,vgz,templ,temph,tof,h,bat,baro,time,agx,agy,agz,timestamp,address
3,-2,-200,-200,-200,"0,0,0",0,0,0,0,0,0,82,84,10,0,61,-55.62,0,0.0,-2.0,-999.0,15:06:13.664165,192.168.0.111
8,-2,-200,-200,-200,"0,0,0",0,0,0,0,0,0,82,84,10,0,61,-55.63,0,-1.0,-3.0,-998.0,15:06:13.766145,192.168.0.111
13,-2,-200,-200,-200,"0,0,0",0,0,0,0,0,0,82,84,10,0,61,-55.64,0,-3.0,-1.0,-997.0,15:06:13.868233,192.168.0.111
19,-2,-200,-200,-200,"0,0,0",0,0,0,0,0,0,82,84,10,0,61,-55.65,0,-10.0,-7.0,-1002.0,15:06:13.970096,192.168.0.111
24,-2,-200,-200,-200,"0,0,0",0,0,0,0,0,0,82,84,10,0,61,-55.65,0,0.0,1.0,-1000.0,15:06:14.072097,192.168.0.111
29,-2,-200,-200,-200,"0,0,0",0,0,0,0,0,0,82,84,10,0,61,-55.65,0,-2.0,-5.0,-1007.0,15:06:14.174359,192.168.0.111
34,-2,-200,-200,-200,"0,0,0",0,0,0,0,0,0,82,84,10,0,61,-55.65,0,-3.0,11.0,-1003.0,15:06:14.276494,192.168.0.111
39,-2,-200,-200,-200,"0,0,0",0,0,0,0,0,0,82,84,10,0,61,-55.65,0,-3.0,13.0,-1074.0,15:06:14.378122,192.168.0.111
45,-2,-200,-200,-200,"0,0,0",0,0,0,0,0,0,82,84,10,0,61,-55.65,0,6.0,16.0,-1171.0,15:06:14.480251,192.168.0.111
50,-2,-200,-200,-200,"0,0,0",0,0,0,0,0,2,82,85,10,0,61,-55.65,0,-3.0,15.0,-1284.0,15:06:14.582123,192.168.0.111
55,-2,-200,-200,-200,"0,0,0",0,0,0,0,0,6,82,85,10,0,61,-55.65,0,-18.0,0.0,-1174.0,15:06:14.683541,192.168.0.111
60,-2,-200,-200,-200,"0,0,0",0,-1,0,0,0,7,82,85,10,10,61,-55.3,0,-2.0,3.0,-1061.0,15:06:14.786090,192.168.0.111
65,-2,-200,-200,-200,"0,0,0",0,-2,0,0,0,8,82,85,22,20,61,-55.2,0,11.0,-16.0,-1037.0,15:06:14.888100,192.168.0.111
70,-2,-200,-200,-200,"0,0,0",0,-1,0,0,0,8,82,85,36,30,61,-55.17,1,6.0,6.0,-955.0,15:06:14.990090,192.168.0.111
75,-2,-200,-200,-200,"0,0,0",0,0,0,0,0,8,82,85,44,40,61,-55.03,1,19.0,4.0,-914.0,15:06:15.092026,192.168.0.111
80,-2,-200,-200,-200,"0,0,0",0,0,0,0,0,7,82,85,50,40,61,-55.04,1,15.0,4.0,-884.0,15:06:15.194075,192.168.0.111
85,-2,-200,-200,-200,"0,0,0",1,0,0,0,0,6,82,85,56,50,61,-54.94,1,9.0,6.0,-865.0,15:06:15.296140,192.168.0.111
90,-2,-200,-200,-200,"0,0,0",1,0,0,0,0,5,82,85,61,60,61,-54.88,1,3.0,22.0,-884.0,15:06:15.398069,192.168.0.111
95,-2,-200,-200,-200,"0,0,0",0,0,0,0,0,3,82,85,65,60,61,-54.89,1,10.0,8.0,-880.0,15:06:15.500256,192.168.0.111
100,-2,-200,-200,-200,"0,0,0",0,0,0,0,0,2,82,85,67,60,61,-54.85,1,19.0,12.0,-916.0,15:06:15.602108,192.168.0.111
105,-2,-200,-200,-200,"0,0,0",0,0,0,0,0,1,82,85,69,70,61,-54.83,1,1.0,18.0,-943.0,15:06:15.703832,192.168.0.111
110,1,19,-3,57,"0,-2,-179",0,0,0,0,0,1,82,85,71,70,61,-54.75,1,21.0,7.0,-972.0,15:06:15.806015,192.168.0.111
115,1,19,-3,57,"0,-2,-179",0,0,0,0,0,0,82,85,71,70,61,-54.77,1,0.0,10.0,-979.0,15:06:15.907929,192.168.0.111
118,1,19,-3,57,"0,-2,-179",0,0,0,0,0,0,82,85,72,70,61,-54.88,2,19.0,4.0,-992.0,15:06:15.958853,192.168.0.111
123,1,19,-3,57,"0,-2,-179",0,0,0,0,0,0,82,85,72,70,61,-54.8,2,11.0,10.0,-1004.0,15:06:16.060981,192.168.0.111
128,1,17,1,71,"-2,-1,177",0,0,0,0,0,0,82,85,72,70,61,-54.82,2,14.0,7.0,-1009.0,15:06:16.163008,192.168.0.111
133,1,17,1,71,"-2,-1,177",0,0,0,0,0,0,82,85,73,70,61,-54.77,2,15.0,0.0,-1018.0,15:06:16.265226,192.168.0.111
138,1,17,1,71,"-2,-1,177",0,0,0,0,0,0,82,85,73,70,61,-54.79,2,11.0,4.0,-1005.0,15:06:16.367233,192.168.0.111
143,1,17,1,71,"-2,-1,177",0,0,0,0,0,0,82,85,74,70,61,-54.73,2,0.0,11.0,-1007.0,15:06:16.469079,192.168.0.111
149,1,17,1,71,"-2,-1,177",0,0,0,0,0,0,82,85,75,70,61,-54.69,2,10.0,2.0,-1007.0,15:06:16.571351,192.168.0.111
154,1,18,2,73,"-2,-1,178",0,0,0,0,0,0,82,85,75,70,61,-54.76,2,0.0,5.0,-986.0,15:06:16.673083,192.168.0.111
159,1,18,2,73,"-2,-1,178",0,0,0,0,0,0,82,85,75,70,61,-54.75,2,14.0,5.0,-1000.0,15:06:16.776303,192.168.0.111
164,1,18,2,73,"-2,-1,178",0,0,0,0,0,0,82,85,76,70,61,-54.74,2,2.0,4.0,-993.0,15:06:16.876967,192.168.0.111
169,1,18,2,73,"-2,-1,178",0,0,0,0,0,0,82,85,77,70,61,-54.76,3,17.0,-4.0,-987.0,15:06:16.979195,192.168.0.111
174,1,18,2,73,"-2,-1,178",1,0,0,0,0,0,82,85,77,70,61,-54.74,3,12.0,4.0,-991.0,15:06:17.080973,192.168.0.111
179,1,19,4,76,"-1,-1,177",1,0,0,0,0,0,82,85,78,80,61,-54.68,3,0.0,13.0,-988.0,15:06:17.182967,192.168.0.111
184,1,19,4,76,"-1,-1,177",0,0,0,0,0,0,82,85,78,80,61,-54.7,3,8.0,5.0,-996.0,15:06:17.284722,192.168.0.111
189,1,19,4,76,"-1,-1,177",0,0,0,0,0,0,82,85,79,80,61,-54.68,3,16.0,3.0,-999.0,15:06:17.387404,192.168.0.111
194,1,19,4,76,"-1,-1,177",0,0,0,0,0,0,82,85,79,80,61,-54.69,3,19.0,3.0,-1007.0,15:06:17.489053,192.168.0.111
199,1,19,5,80,"-2,0,177",0,0,0,0,0,0,82,84,81,80,61,-54.69,3,-4.0,7.0,-996.0,15:06:17.590792,192.168.0.111
204,1,19,5,80,"-2,0,177",1,0,0,0,0,0,82,84,81,80,61,-54.67,3,11.0,0.0,-990.0,15:06:17.692917,192.168.0.111
209,1,19,5,80,"-2,0,177",1,0,0,0,0,0,82,84,81,80,61,-54.61,3,3.0,8.0,-978.0,15:06:17.794910,192.168.0.111
213,1,19,5,80,"-2,0,177",1,0,0,0,0,0,82,84,82,80,61,-54.65,3,7.0,3.0,-996.0,15:06:17.897064,192.168.0.111
219,1,19,5,80,"-2,0,177",1,0,0,0,0,0,82,84,82,80,61,-54.68,4,11.0,3.0,-995.0,15:06:17.998903,192.168.0.111
225,1,20,2,83,"-2,-1,179",0,0,0,0,0,0,82,84,82,80,61,-54.67,4,0.0,5.0,-998.0,15:06:18.100904,192.168.0.111
230,1,20,2,83,"-2,-1,179",0,0,0,0,0,0,82,84,82,80,61,-54.65,4,21.0,6.0,-994.0,15:06:18.202954,192.168.0.111
235,1,20,2,83,"-2,-1,179",1,0,0,0,0,0,82,84,82,80,61,-54.68,4,15.0,-3.0,-996.0,15:06:18.305032,192.168.0.111
240,1,20,2,83,"-2,-1,179",1,0,0,0,0,0,82,84,82,80,61,-54.75,4,4.0,7.0,-999.0,15:06:18.406725,192.168.0.111
245,1,20,2,83,"-2,-1,179",1,0,0,0,0,0,82,84,82,80,61,-54.65,4,11.0,9.0,-1004.0,15:06:18.512392,192.168.0.111
250,1,24,2,84,"0,-1,179",1,0,0,0,0,0,81,84,82,80,61,-54.79,4,15.0,3.0,-1006.0,15:06:18.610937,192.168.0.111
255,1,24,2,84,"0,-1,179",1,0,0,0,0,0,81,84,82,80,61,-54.7,4,14.0,7.0,-1010.0,15:06:18.713000,192.168.0.111
260,1,24,2,84,"0,-1,179",1,0,0,0,0,0,81,84,81,80,61,-54.65,4,8.0,13.0,-1013.0,15:06:18.814964,192.168.0.111
266,1,24,2,84,"0,-1,179",1,0,0,0,0,0,81,84,81,80,61,-54.77,4,15.0,9.0,-995.0,15:06:18.917045,192.168.0.111
271,1,24,7,84,"-1,0,177",1,0,0,0,0,0,81,84,81,80,61,-54.73,5,12.0,17.0,-1006.0,15:06:19.025574,192.168.0.111
276,1,24,7,84,"-1,0,177",1,0,0,0,0,0,81,84,81,80,61,-54.75,5,4.0,12.0,-1005.0,15:06:19.120880,192.168.0.111
281,1,24,7,84,"-1,0,177",1,0,0,0,0,0,81,84,81,80,61,-54.77,5,11.0,12.0,-1012.0,15:06:19.222867,192.168.0.111
283,1,24,7,84,"-1,0,177",1,0,0,0,0,0,81,84,81,80,61,-54.73,5,14.0,2.0,-1013.0,15:06:19.273852,192.168.0.111
288,1,24,7,84,"-1,0,177",1,0,0,0,0,0,81,84,81,80,61,-54.76,5,3.0,17.0,-1003.0,15:06:19.376059,192.168.0.111
293,1,24,6,84,"-2,0,177",1,0,0,0,0,0,81,84,81,80,61,-54.69,5,12.0,7.0,-996.0,15:06:19.478003,192.168.0.111
298,1,24,6,84,"-2,0,177",1,0,0,0,0,0,81,84,81,80,61,-54.66,5,15.0,10.0,-996.0,15:06:19.579929,192.168.0.111
303,1,24,6,84,"-2,0,177",1,0,0,0,0,0,81,84,81,80,61,-54.76,5,-2.0,7.0,-1000.0,15:06:19.683183,192.168.0.111
308,1,24,6,84,"-2,0,177",1,0,0,0,0,0,81,84,80,80,61,-54.79,5,0.0,15.0,-1004.0,15:06:19.783858,192.168.0.111
313,1,27,7,83,"-1,0,177",1,0,0,0,0,0,81,84,81,80,61,-54.78,5,4.0,8.0,-1004.0,15:06:19.885798,192.168.0.111
318,1,27,7,83,"-1,0,177",1,0,0,0,0,0,81,84,81,80,61,-54.77,6,0.0,15.0,-1005.0,15:06:19.991686,192.168.0.111
323,1,27,7,83,"-1,0,177",1,0,0,0,0,0,81,84,81,80,61,-54.8,6,7.0,4.0,-999.0,15:06:20.089725,192.168.0.111
328,1,27,7,83,"-1,0,177",1,0,0,0,0,0,81,84,80,80,61,-54.77,6,14.0,2.0,-1000.0,15:06:20.191974,192.168.0.111
333,1,27,7,83,"-1,0,177",1,0,0,0,0,0,81,84,81,80,61,-54.8,6,17.0,-1.0,-997.0,15:06:20.293846,192.168.0.111
339,1,30,1,83,"0,-2,-179",1,0,0,0,0,0,81,84,81,80,61,-54.73,6,19.0,-9.0,-1000.0,15:06:20.395896,192.168.0.111
344,1,30,1,83,"0,-2,-179",1,0,0,0,0,0,81,84,80,80,61,-54.78,6,14.0,7.0,-999.0,15:06:20.497814,192.168.0.111
349,1,30,1,83,"0,-2,-179",1,0,0,0,0,0,82,84,81,80,61,-54.78,6,10.0,8.0,-996.0,15:06:20.599921,192.168.0.111
354,1,30,1,83,"0,-2,-179",1,0,0,0,0,0,82,84,80,80,61,-54.76,6,21.0,8.0,-1006.0,15:06:20.701606,192.168.0.111
359,1,30,1,83,"0,-2,-179",2,0,0,0,0,0,82,84,81,80,61,-54.74,6,18.0,5.0,-991.0,15:06:20.803906,192.168.0.111
364,1,28,10,84,"-2,0,175",2,0,0,0,0,0,82,84,81,80,61,-54.7,6,18.0,10.0,-1001.0,15:06:20.905729,192.168.0.111
369,1,28,10,84,"-2,0,175",2,0,0,0,0,0,82,84,81,80,61,-54.73,7,15.0,6.0,-991.0,15:06:21.007911,192.168.0.111
374,1,28,10,84,"-2,0,175",2,0,0,0,0,0,82,84,81,80,61,-54.69,7,26.0,2.0,-1011.0,15:06:21.109854,192.168.0.111
379,1,28,10,84,"-2,0,175",2,0,0,0,0,0,82,84,81,80,61,-54.84,7,23.0,10.0,-1007.0,15:06:21.211789,192.168.0.111
384,1,30,9,85,"-3,0,177",2,0,0,0,0,0,82,84,81,80,61,-54.76,7,3.0,5.0,-992.0,15:06:21.313885,192.168.0.111
389,1,30,9,85,"-3,0,177",1,0,0,0,0,0,82,84,80,80,61,-54.78,7,15.0,7.0,-992.0,15:06:21.415855,192.168.0.111
394,1,30,9,85,"-3,0,177",1,0,0,0,0,0,82,84,81,80,61,-54.71,7,21.0,0.0,-1006.0,15:06:21.518079,192.168.0.111
399,1,30,9,85,"-3,0,177",2,0,0,0,0,0,81,84,81,80,61,-54.72,7,10.0,13.0,-995.0,15:06:21.619939,192.168.0.111
404,1,30,9,85,"-3,0,177",2,0,0,0,0,0,81,84,80,80,61,-54.71,7,23.0,2.0,-1005.0,15:06:21.722425,192.168.0.111
409,1,33,9,84,"-2,0,177",2,0,0,0,0,0,81,84,81,80,61,-54.78,7,12.0,-1.0,-988.0,15:06:21.824914,192.168.0.111
414,1,33,9,84,"-2,0,177",2,0,0,0,0,0,81,84,81,80,61,-54.7,8,20.0,9.0,-990.0,15:06:21.927337,192.168.0.111
419,1,33,9,84,"-2,0,177",2,0,0,0,0,0,81,84,82,80,61,-54.77,8,27.0,3.0,-996.0,15:06:22.029764,192.168.0.111
424,1,33,9,84,"-2,0,177",2,0,0,0,0,0,81,84,81,80,61,-54.71,8,13.0,14.0,-1012.0,15:06:22.132124,192.168.0.111
430,1,33,9,84,"-2,0,177",1,0,0,0,0,0,81,84,82,80,61,-54.77,8,15.0,7.0,-1000.0,15:06:22.232000,192.168.0.111
435,1,37,5,84,"0,-2,179",1,0,0,0,0,0,81,84,82,80,61,-54.77,8,16.0,12.0,-1004.0,15:06:22.334142,192.168.0.111
440,1,37,5,84,"0,-2,179",2,0,0,0,0,0,81,84,82,80,61,-54.75,8,28.0,7.0,-997.0,15:06:22.436621,192.168.0.111
445,1,37,5,84,"0,-2,179",2,0,0,0,0,0,81,84,82,80,61,-54.83,8,19.0,4.0,-993.0,15:06:22.549887,192.168.0.111
450,1,37,5,84,"0,-2,179",2,0,0,0,0,0,81,83,82,80,61,-54.75,8,23.0,8.0,-1002.0,15:06:22.639791,192.168.0.111
455,1,38,3,84,"0,-2,-178",2,0,0,0,0,0,81,83,81,80,61,-54.76,8,16.0,14.0,-1004.0,15:06:22.741737,192.168.0.111
460,1,38,3,84,"0,-2,-178",2,0,0,0,0,0,81,83,82,80,61,-54.78,8,19.0,7.0,-1003.0,15:06:22.844966,192.168.0.111
465,1,38,3,84,"0,-2,-178",5,0,0,0,0,0,81,83,82,80,61,-54.8,9,24.0,3.0,-931.0,15:06:22.946012,192.168.0.111
470,1,38,3,84,"0,-2,-178",8,0,0,1,0,0,81,83,82,80,61,-54.8,9,9.0,7.0,-981.0,15:06:23.047800,192.168.0.111
473,1,38,3,84,"0,-2,-178",6,0,0,2,0,-1,81,83,81,80,61,-54.88,9,26.0,14.0,-988.0,15:06:23.100477,192.168.0.111
477,1,36,13,85,"-3,0,175",4,0,0,2,0,-1,81,83,79,80,61,-54.87,9,31.0,8.0,-994.0,15:06:23.200388,192.168.0.111
482,1,36,13,85,"-3,0,175",3,0,0,2,0,-1,81,83,78,70,61,-54.87,9,31.0,11.0,-986.0,15:06:23.302896,192.168.0.111
488,1,36,13,85,"-3,0,175",2,0,0,2,0,-1,81,83,77,70,61,-54.84,9,39.0,6.0,-993.0,15:06:23.404640,192.168.0.111
493,1,36,13,85,"-3,0,175",2,0,0,2,0,-1,81,83,76,70,61,-54.77,9,35.0,5.0,-1010.0,15:06:23.506798,192.168.0.111
498,1,36,13,85,"-3,0,175",2,0,0,2,0,0,81,84,75,70,61,-54.8,9,29.0,6.0,-1011.0,15:06:23.608714,192.168.0.111
503,1,36,13,85,"-3,0,175",2,0,0,2,0,0,81,84,76,70,61,-54.88,9,27.0,2.0,-1012.0,15:06:23.710727,192.168.0.111
508,1,36,13,85,"-3,0,175",1,0,0,2,0,0,81,84,74,70,61,-54.85,9,18.0,21.0,-1017.0,15:06:23.812826,192.168.0.111
513,1,33,10,80,"-2,0,179",1,0,0,2,0,0,81,84,73,70,61,-54.89,10,24.0,7.0,-1010.0,15:06:23.914969,192.168.0.111
518,1,33,10,80,"-2,0,179",1,0,0,2,0,0,81,84,73,70,61,-54.89,10,25.0,11.0,-1006.0,15:06:24.017139,192.168.0.111
523,1,33,10,80,"-2,0,179",1,0,0,1,0,0,81,84,72,70,61,-54.89,10,31.0,2.0,-1003.0,15:06:24.119879,192.168.0.111
528,1,33,10,80,"-2,0,179",1,0,0,1,0,0,81,84,71,70,61,-54.93,10,30.0,15.0,-1007.0,15:06:24.220780,192.168.0.111
533,1,33,10,80,"-2,0,179",2,0,0,1,0,0,81,84,71,70,61,-54.91,10,24.0,23.0,-1001.0,15:06:24.322654,192.168.0.111
538,1,33,10,80,"-2,0,179",2,0,0,1,0,0,81,84,71,70,61,-54.85,10,31.0,14.0,-994.0,15:06:24.424668,192.168.0.111
543,1,20,7,75,"-1,-1,179",2,0,0,1,0,0,81,84,71,70,61,-54.96,10,25.0,7.0,-988.0,15:06:24.526723,192.168.0.111
548,1,20,7,75,"-1,-1,179",2,0,0,1,0,0,81,83,71,70,61,-54.97,10,25.0,15.0,-1001.0,15:06:24.628648,192.168.0.111
553,1,20,7,75,"-1,-1,179",2,-1,0,1,0,0,81,83,71,70,61,-54.9,10,26.0,14.0,-994.0,15:06:24.730674,192.168.0.111
558,1,20,7,75,"-1,-1,179",2,-1,0,1,0,0,81,83,70,70,61,-54.99,10,19.0,14.0,-1005.0,15:06:24.832825,192.168.0.111
563,1,20,7,75,"-1,-1,179",2,0,0,1,0,0,81,83,69,70,61,-55.02,11,24.0,12.0,-990.0,15:06:24.934748,192.168.0.111
568,1,20,7,75,"-1,-1,179",2,0,0,1,0,0,81,83,69,70,61,-54.98,11,26.0,8.0,-1002.0,15:06:25.037176,192.168.0.111
573,1,20,7,75,"-1,-1,179",2,0,0,0,0,0,81,83,69,60,61,-54.99,11,23.0,17.0,-1006.0,15:06:25.138700,192.168.0.111
578,1,16,8,72,"-2,0,176",2,0,0,0,0,0,81,83,68,60,61,-54.88,11,23.0,12.0,-1002.0,15:06:25.240671,192.168.0.111
583,1,16,8,72,"-2,0,176",2,0,0,0,0,0,81,83,69,60,61,-54.91,11,20.0,18.0,-1003.0,15:06:25.342801,192.168.0.111
589,1,16,8,72,"-2,0,176",2,0,0,0,0,0,81,83,70,60,61,-54.97,11,31.0,16.0,-1006.0,15:06:25.444636,192.168.0.111
594,1,16,8,72,"-2,0,176",2,0,0,0,0,0,81,83,70,60,61,-54.96,11,18.0,11.0,-992.0,15:06:25.546633,192.168.0.111
599,1,16,8,72,"-2,0,176",3,0,0,0,0,0,81,83,71,60,61,-54.87,11,16.0,12.0,-993.0,15:06:25.648633,192.168.0.111
603,1,16,8,72,"-2,0,176",2,0,0,0,0,0,81,83,69,60,61,-54.88,11,18.0,10.0,-983.0,15:06:25.750609,192.168.0.111
609,1,16,8,72,"-2,0,176",3,0,0,0,0,0,81,83,69,60,61,-54.9,11,14.0,0.0,-999.0,15:06:25.852737,192.168.0.111
614,1,16,7,70,"-2,-1,179",3,0,0,0,0,0,81,83,70,60,61,-54.9,12,20.0,17.0,-989.0,15:06:25.954513,192.168.0.111
619,1,16,7,70,"-2,-1,179",2,0,0,0,0,0,81,83,69,60,61,-54.93,12,13.0,13.0,-1011.0,15:06:26.056813,192.168.0.111
624,1,16,7,70,"-2,-1,179",2,0,0,0,0,0,81,83,70,60,61,-54.91,12,18.0,6.0,-986.0,15:06:26.162799,192.168.0.111
629,1,16,7,70,"-2,-1,179",3,0,0,1,0,0,81,83,70,60,61,-54.93,12,39.0,-1.0,-1004.0,15:06:26.260533,192.168.0.111
634,1,16,7,70,"-2,-1,179",3,0,0,1,0,0,81,83,69,60,61,-54.91,12,25.0,1.0,-998.0,15:06:26.362641,192.168.0.111
639,1,16,7,70,"-2,-1,179",3,-1,0,1,0,0,81,83,69,60,61,-54.91,12,19.0,1.0,-1002.0,15:06:26.464499,192.168.0.111
644,1,16,7,70,"-2,-1,179",2,0,0,1,0,0,81,83,69,60,61,-54.87,12,18.0,3.0,-993.0,15:06:26.566579,192.168.0.111
649,1,16,8,69,"-2,-1,177",2,1,0,1,0,0,80,82,70,60,61,-54.86,12,28.0,7.0,-991.0,15:06:26.668539,192.168.0.111
654,1,16,8,69,"-2,-1,177",3,2,0,1,0,0,80,82,72,60,61,-54.87,12,35.0,5.0,-993.0,15:06:26.770551,192.168.0.111
659,1,16,8,69,"-2,-1,177",3,1,0,1,0,0,80,82,70,60,61,-54.94,12,37.0,0.0,-995.0,15:06:26.872465,192.168.0.111
663,1,16,8,69,"-2,-1,177",3,0,0,1,0,0,80,82,70,60,61,-54.96,13,29.0,2.0,-997.0,15:06:26.923681,192.168.0.111
668,1,16,8,69,"-2,-1,177",3,0,0,1,0,0,80,82,69,60,61,-54.92,13,22.0,8.0,-983.0,15:06:27.025568,192.168.0.111
673,1,16,8,69,"-2,-1,177",3,-1,0,1,0,0,80,82,68,60,61,-54.98,13,29.0,-5.0,-1011.0,15:06:27.127667,192.168.0.111
678,1,14,7,69,"-3,-1,-178",3,0,0,1,0,0,80,82,68,60,61,-54.91,13,30.0,3.0,-1002.0,15:06:27.229513,192.168.0.111
683,1,14,7,69,"-3,-1,-178",2,1,0,1,0,0,80,82,69,60,61,-54.93,13,28.0,0.0,-996.0,15:06:27.331715,192.168.0.111
688,1,14,7,69,"-3,-1,-178",2,2,0,1,0,0,80,82,69,60,61,-54.96,13,31.0,7.0,-1010.0,15:06:27.433600,192.168.0.111
693,1,14,7,69,"-3,-1,-178",2,1,0,1,0,0,80,82,67,60,61,-54.87,13,24.0,0.0,-1007.0,15:06:27.535822,192.168.0.111
698,1,14,7,69,"-3,-1,-178",2,0,0,1,0,0,79,82,66,60,61,-54.94,13,32.0,1.0,-999.0,15:06:27.637506,192.168.0.111
703,1,14,7,69,"-3,-1,-178",2,-1,0,1,0,0,79,82,66,60,61,-54.98,13,18.0,0.0,-1022.0,15:06:27.739679,192.168.0.111
708,1,14,7,69,"-3,-1,-178",2,0,0,1,0,0,79,82,66,60,61,-54.94,13,29.0,10.0,-1008.0,15:06:27.841547,192.168.0.111
713,1,10,8,67,"-3,0,179",2,0,0,1,0,0,79,82,66,60,61,-54.95,14,23.0,13.0,-1006.0,15:06:27.943899,192.168.0.111
718,1,10,8,67,"-3,0,179",2,0,0,1,0,0,79,82,67,60,61,-54.96,14,21.0,19.0,-1001.0,15:06:28.046042,192.168.0.111
723,1,10,8,67,"-3,0,179",2,0,0,1,0,0,79,82,66,60,61,-54.96,14,22.0,14.0,-1003.0,15:06:28.147457,192.168.0.111
728,1,10,8,67,"-3,0,179",2,0,0,1,0,0,79,82,67,60,61,-55.03,14,12.0,16.0,-1009.0,15:06:28.249599,192.168.0.111
733,1,10,8,67,"-3,0,179",2,0,0,1,0,0,79,82,66,60,61,-55.0,14,20.0,21.0,-999.0,15:06:28.351543,192.168.0.111
738,1,10,8,67,"-3,0,179",1,0,0,1,0,0,79,82,67,60,61,-55.0,14,17.0,14.0,-1005.0,15:06:28.453423,192.168.0.111
743,1,10,8,67,"-3,0,179",-2,0,0,0,0,0,79,82,67,60,61,-55.01,14,18.0,8.0,-998.0,15:06:28.555750,192.168.0.111
748,1,5,4,68,"-3,-1,179",-6,0,0,0,0,0,79,83,69,60,61,-54.9,14,16.0,8.0,-996.0,15:06:28.657559,192.168.0.111
753,1,5,4,68,"-3,-1,179",-7,0,0,-1,0,0,79,83,68,60,61,-54.96,14,0.0,-2.0,-1006.0,15:06:28.759519,192.168.0.111
758,1,5,4,68,"-3,-1,179",-7,0,0,-3,0,0,79,83,68,60,61,-54.95,14,-14.0,5.0,-995.0,15:06:28.862744,192.168.0.111
763,1,5,4,68,"-3,-1,179",-6,0,0,-4,0,0,79,83,65,60,61,-54.93,15,-25.0,2.0,-1004.0,15:06:28.963496,192.168.0.111
768,1,5,4,68,"-3,-1,179",-5,0,0,-5,0,0,79,83,66,60,61,-54.89,15,-26.0,2.0,-1013.0,15:06:29.065489,192.168.0.111
773,1,5,4,68,"-3,-1,179",-5,0,0,-6,0,0,79,83,66,60,61,-54.93,15,-30.0,0.0,-1009.0,15:06:29.167630,192.168.0.111
778,1,5,4,68,"-3,-1,179",-4,0,0,-7,0,0,79,83,67,60,61,-54.92,15,-42.0,0.0,-989.0,15:06:29.269268,192.168.0.111
783,1,12,5,70,"7,-1,179",-4,0,0,-7,0,0,79,83,66,60,61,-54.9,15,-45.0,3.0,-1004.0,15:06:29.371471,192.168.0.111
788,1,12,5,70,"7,-1,179",-4,0,0,-8,0,0,79,83,66,60,61,-54.93,15,-41.0,5.0,-999.0,15:06:29.476045,192.168.0.111
793,1,12,5,70,"7,-1,179",-3,0,0,-8,0,0,79,83,66,60,61,-54.87,15,-50.0,8.0,-996.0,15:06:29.598481,192.168.0.111
799,1,12,5,70,"7,-1,179",-3,0,0,-9,0,0,80,82,65,60,61,-54.92,15,-59.0,7.0,-999.0,15:06:29.677319,192.168.0.111
803,1,12,5,70,"7,-1,179",-2,0,0,-9,0,0,80,82,65,60,61,-54.97,15,-66.0,2.0,-1002.0,15:06:29.779395,192.168.0.111
808,1,12,5,70,"7,-1,179",-2,0,0,-9,0,0,80,82,63,60,61,-54.96,15,-62.0,-15.0,-999.0,15:06:29.883096,192.168.0.111
813,1,12,5,70,"7,-1,179",-2,0,0,-9,0,0,80,82,64,60,61,-54.96,16,-63.0,-13.0,-1022.0,15:06:29.983430,192.168.0.111
818,1,12,5,70,"7,-1,179",-3,0,0,-9,0,0,80,82,63,60,61,-55.06,16,-78.0,-1.0,-1004.0,15:06:30.085253,192.168.0.111
823,1,12,5,70,"7,-1,179",-3,1,0,-9,0,0,80,82,64,60,61,-55.04,16,-76.0,2.0,-996.0,15:06:30.187375,192.168.0.111
828,1,12,5,70,"7,-1,179",-3,1,0,-9,0,0,80,82,64,60,61,-54.95,16,-89.0,10.0,-992.0,15:06:30.289375,192.168.0.111
833,1,12,5,70,"7,-1,179",-2,1,0,-9,0,0,80,82,64,60,61,-55.1,16,-95.0,8.0,-1003.0,15:06:30.391406,192.168.0.111
838,1,12,5,70,"7,-1,179",0,1,0,-9,0,0,80,82,64,60,61,-55.07,16,-81.0,12.0,-1003.0,15:06:30.493612,192.168.0.111
843,1,12,5,70,"7,-1,179",2,0,0,-8,0,0,80,82,65,60,61,-55.04,16,-76.0,5.0,-999.0,15:06:30.595570,192.168.0.111
849,1,12,5,70,"7,-1,179",4,0,0,-7,0,0,80,83,66,60,61,-55.03,16,-76.0,8.0,-1001.0,15:06:30.697283,192.168.0.111
854,1,12,5,70,"7,-1,179",5,-1,0,-6,0,0,80,83,66,60,61,-54.95,16,-66.0,-14.0,-1024.0,15:06:30.799548,192.168.0.111
860,1,12,5,70,"7,-1,179",5,-2,0,-5,0,0,80,83,66,60,61,-55.02,16,-56.0,0.0,-1003.0,15:06:30.901410,192.168.0.111
865,1,12,5,70,"7,-1,179",5,0,0,-4,0,0,80,83,66,60,61,-54.95,17,-51.0,4.0,-996.0,15:06:31.003529,192.168.0.111
868,1,12,5,70,"7,-1,179",6,0,0,-3,0,0,80,83,67,60,61,-54.85,17,-39.0,3.0,-1001.0,15:06:31.105461,192.168.0.111
873,1,12,5,70,"7,-1,179",6,0,0,-2,0,0,80,83,67,70,61,-54.82,17,-38.0,4.0,-1000.0,15:06:31.207677,192.168.0.111
878,5,2,-1,67,"-3,-4,176",4,0,0,-1,0,0,80,83,67,70,61,-54.83,17,-30.0,1.0,-992.0,15:06:31.258363,192.168.0.111
883,5,2,-1,67,"-3,-4,176",2,2,0,0,0,0,80,83,67,70,61,-54.79,17,-16.0,5.0,-982.0,15:06:31.360439,192.168.0.111
888,5,2,-1,67,"-3,-4,176",1,3,0,0,0,0,80,83,66,70,61,-54.83,17,-9.0,-4.0,-981.0,15:06:31.462422,192.168.0.111
892,5,2,-1,67,"-3,-4,176",1,1,0,0,-1,0,80,83,67,70,61,-54.8,17,-3.0,-12.0,-997.0,15:06:31.564277,192.168.0.111
897,5,2,-1,67,"-3,-4,176",3,-2,0,0,0,0,79,82,66,60,61,-54.78,17,-16.0,2.0,-1024.0,15:06:31.666731,192.168.0.111
903,5,2,-1,67,"-3,-4,176",5,-1,0,0,0,0,79,82,66,60,61,-54.76,17,0.0,4.0,-1007.0,15:06:31.768366,192.168.0.111
908,5,2,-1,67,"-3,-4,176",4,0,0,0,0,0,79,82,66,60,61,-54.81,17,2.0,11.0,-1001.0,15:06:31.870394,192.168.0.111
912,5,34,0,66,"3,-3,-179",2,0,0,1,0,0,79,82,66,60,61,-54.89,18,6.0,10.0,-1007.0,15:06:31.972436,192.168.0.111
918,5,34,0,66,"3,-3,-179",1,0,0,1,0,0,79,82,65,60,61,-54.85,18,14.0,9.0,-1000.0,15:06:32.074485,192.168.0.111
923,5,34,0,66,"3,-3,-179",1,0,0,1,0,0,79,82,65,60,61,-54.9,18,3.0,12.0,-1013.0,15:06:32.176444,192.168.0.111
928,5,34,0,66,"3,-3,-179",1,0,0,1,0,0,79,82,66,60,61,-54.88,18,8.0,15.0,-1004.0,15:06:32.279147,192.168.0.111
933,5,34,0,66,"3,-3,-179",2,0,0,1,0,0,79,82,66,60,61,-54.89,18,5.0,13.0,-1005.0,15:06:32.380668,192.168.0.111
938,5,34,0,66,"3,-3,-179",2,0,0,1,0,0,79,82,65,60,61,-54.9,18,0.0,10.0,-1009.0,15:06:32.483513,192.168.0.111
943,5,34,0,66,"3,-3,-179",1,0,0,1,0,0,79,82,66,60,61,-54.98,18,19.0,8.0,-1024.0,15:06:32.585792,192.168.0.111
948,5,36,-5,64,"3,-4,179",1,0,0,0,0,0,78,82,65,60,61,-54.91,18,22.0,12.0,-1001.0,15:06:32.687342,192.168.0.111
953,5,36,-5,64,"3,-4,179",6,0,0,1,0,0,78,82,66,60,61,-54.93,18,-2.0,22.0,-1038.0,15:06:32.789854,192.168.0.111
958,5,36,-5,64,"3,-4,179",6,0,0,1,0,0,78,82,66,60,61,-54.89,18,23.0,13.0,-1012.0,15:06:32.891310,192.168.0.111
962,5,36,-5,64,"3,-4,179",4,0,0,2,0,0,78,82,67,60,61,-54.84,19,27.0,6.0,-1002.0,15:06:32.995994,192.168.0.111
968,5,36,-5,64,"3,-4,179",2,0,0,2,0,0,78,82,68,60,61,-54.96,19,25.0,15.0,-989.0,15:06:33.095539,192.168.0.111
973,5,36,-5,64,"3,-4,179",2,0,0,2,0,0,78,82,68,60,61,-54.9,19,34.0,16.0,-991.0,15:06:33.197269,192.168.0.111
977,5,36,-5,64,"3,-4,179",2,0,0,2,0,0,78,82,69,60,61,-54.89,19,21.0,18.0,-994.0,15:06:33.299633,192.168.0.111
982,5,36,-5,64,"3,-4,179",2,0,0,2,0,0,78,82,69,70,61,-54.95,19,26.0,18.0,-990.0,15:06:33.401230,192.168.0.111
987,5,36,-5,64,"3,-4,179",2,0,0,2,0,0,78,82,69,70,61,-54.87,19,19.0,17.0,-978.0,15:06:33.503197,192.168.0.111
993,5,36,-5,64,"3,-4,179",2,0,0,2,0,0,78,82,69,70,61,-54.9,19,20.0,22.0,-995.0,15:06:33.605428,192.168.0.111
998,5,36,-5,64,"3,-4,179",2,0,0,1,0,0,80,82,69,70,61,-54.92,19,25.0,20.0,-988.0,15:06:33.707319,192.168.0.111
1003,5,36,-5,64,"3,-4,179",2,0,0,1,0,0,80,82,70,70,61,-54.81,19,19.0,14.0,-997.0,15:06:33.809299,192.168.0.111
1008,5,36,-5,64,"3,-4,179",2,0,0,1,0,0,80,82,70,70,61,-54.86,19,28.0,15.0,-1005.0,15:06:33.923881,192.168.0.111
1013,5,22,-4,69,"2,-4,-179",2,0,0,1,0,0,80,82,70,70,61,-54.87,20,22.0,12.0,-987.0,15:06:34.013258,192.168.0.111
1018,5,22,-4,69,"2,-4,-179",1,0,0,1,0,0,80,82,70,70,61,-54.92,20,18.0,8.0,-994.0,15:06:34.115384,192.168.0.111
1023,5,22,-4,69,"2,-4,-179",1,0,0,1,0,0,80,82,70,70,61,-54.88,20,14.0,13.0,-1002.0,15:06:34.217129,192.168.0.111
1028,5,22,-4,69,"2,-4,-179",2,0,0,1,0,0,80,82,70,70,61,-54.88,20,18.0,15.0,-1001.0,15:06:34.319296,192.168.0.111
1033,5,22,-4,69,"2,-4,-179",2,0,0,1,0,0,80,82,69,70,61,-54.9,20,10.0,6.0,-983.0,15:06:34.421275,192.168.0.111
1039,5,22,-4,69,"2,-4,-179",1,0,0,1,0,0,80,82,70,70,61,-54.87,20,10.0,0.0,-994.0,15:06:34.523276,192.168.0.111
1044,5,22,-4,69,"2,-4,-179",1,0,0,1,0,0,80,82,69,70,61,-54.81,20,3.0,16.0,-991.0,15:06:34.625185,192.168.0.111
1049,5,14,-2,71,"0,-4,179",1,0,0,1,0,0,80,82,70,70,61,-54.86,20,15.0,1.0,-994.0,15:06:34.727331,192.168.0.111
1053,5,14,-2,71,"0,-4,179",1,0,0,1,0,0,80,82,69,70,61,-54.83,20,4.0,7.0,-1000.0,15:06:34.829857,192.168.0.111
1059,5,14,-2,71,"0,-4,179",2,0,0,1,0,0,80,82,70,70,61,-54.83,20,22.0,6.0,-992.0,15:06:34.933377,192.168.0.111
1064,5,14,-2,71,"0,-4,179",2,0,0,1,0,0,80,82,70,70,61,-54.81,21,11.0,5.0,-983.0,15:06:35.034659,192.168.0.111
1067,5,14,-2,71,"0,-4,179",1,0,0,1,0,0,80,82,70,70,61,-54.79,21,20.0,10.0,-1012.0,15:06:35.095494,192.168.0.111
1072,5,14,-2,71,"0,-4,179",1,0,0,1,0,0,80,82,70,70,61,-54.77,21,0.0,11.0,-993.0,15:06:35.186306,192.168.0.111
1077,5,14,-2,71,"0,-4,179",1,0,0,1,0,0,80,82,70,70,61,-54.78,21,17.0,7.0,-994.0,15:06:35.288204,192.168.0.111
1082,5,8,0,72,"-1,-4,-179",1,0,0,1,0,0,80,82,70,70,61,-54.81,21,2.0,8.0,-1004.0,15:06:35.390411,192.168.0.111
1087,5,8,0,72,"-1,-4,-179",1,0,0,1,0,0,80,82,70,70,61,-54.84,21,15.0,-1.0,-1011.0,15:06:35.492194,192.168.0.111
1092,5,8,0,72,"-1,-4,-179",1,0,0,1,0,0,80,82,71,70,61,-54.85,21,0.0,7.0,-1002.0,15:06:35.594243,192.168.0.111
1097,5,8,0,72,"-1,-4,-179",1,0,0,0,0,0,79,80,70,70,61,-54.75,21,8.0,0.0,-991.0,15:06:35.696245,192.168.0.111
1102,5,8,0,72,"-1,-4,-179",1,1,0,1,0,0,79,80,71,70,61,-54.83,21,-4.0,8.0,-992.0,15:06:35.798130,192.168.0.111
1107,5,8,0,72,"-1,-4,-179",1,2,0,1,0,0,79,80,71,70,61,-54.9,22,-3.0,7.0,-996.0,15:06:35.900843,192.168.0.111
1112,5,6,2,73,"1,-3,-179",1,1,0,1,0,0,79,80,71,70,61,-54.83,22,-5.0,4.0,-987.0,15:06:36.002597,192.168.0.111
1117,5,6,2,73,"1,-3,-179",0,-1,0,1,0,0,79,80,71,70,61,-54.85,22,-10.0,-3.0,-1015.0,15:06:36.107539,192.168.0.111
1122,5,6,2,73,"1,-3,-179",-1,-1,0,0,0,0,79,80,71,70,61,-54.84,22,9.0,-10.0,-1003.0,15:06:36.206784,192.168.0.111
1127,5,6,2,73,"1,-3,-179",0,0,0,0,0,0,79,80,71,70,61,-54.87,22,-14.0,-4.0,-1003.0,15:06:36.307878,192.168.0.111
1132,5,6,2,73,"1,-3,-179",0,0,0,0,0,0,79,80,71,70,61,-54.86,22,-8.0,4.0,-1012.0,15:06:36.409834,192.168.0.111
1137,5,6,2,73,"1,-3,-179",0,0,0,0,0,0,79,80,71,70,61,-54.85,22,-15.0,-11.0,-995.0,15:06:36.511851,192.168.0.111
1142,5,6,2,73,"1,-3,-179",0,0,0,0,0,0,79,80,71,70,61,-54.85,22,-1.0,-11.0,-994.0,15:06:36.614099,192.168.0.111
1147,5,4,3,73,"3,-3,177",0,0,0,0,0,0,79,82,71,70,61,-54.79,22,-4.0,-6.0,-1014.0,15:06:36.716007,192.168.0.111
1152,5,4,3,73,"3,-3,177",0,0,0,0,0,0,79,82,71,70,61,-54.76,22,-18.0,-2.0,-996.0,15:06:36.817765,192.168.0.111
1157,5,4,3,73,"3,-3,177",0,0,0,0,0,0,79,82,70,70,61,-54.83,23,-14.0,0.0,-994.0,15:06:36.920185,192.168.0.111
1162,5,4,3,73,"3,-3,177",0,0,0,0,0,0,79,82,70,70,61,-54.74,23,-7.0,-7.0,-993.0,15:06:37.023960,192.168.0.111
1167,5,4,3,73,"3,-3,177",0,0,0,0,0,0,79,82,71,70,61,-54.77,23,-9.0,4.0,-1003.0,15:06:37.123981,192.168.0.111
1172,5,4,3,73,"3,-3,177",1,0,0,0,0,0,79,82,70,70,61,-54.76,23,-8.0,-9.0,-981.0,15:06:37.225666,192.168.0.111
1178,5,4,3,73,"3,-3,177",1,0,0,0,0,0,79,82,70,70,61,-54.82,23,-9.0,5.0,-987.0,15:06:37.327918,192.168.0.111
1183,5,8,2,73,"1,-4,-177",1,0,0,0,0,0,79,82,69,70,61,-54.84,23,0.0,1.0,-991.0,15:06:37.430313,192.168.0.111
1188,5,8,2,73,"1,-4,-177",1,0,0,0,0,0,79,82,69,70,61,-54.86,23,-4.0,0.0,-959.0,15:06:37.531888,192.168.0.111
1192,5,8,2,73,"1,-4,-177",1,0,0,0,0,0,79,82,69,70,61,-54.86,23,-22.0,11.0,-947.0,15:06:37.634158,192.168.0.111
1197,5,8,2,73,"1,-4,-177",1,0,0,0,0,-1,79,81,67,60,61,-54.87,23,-11.0,8.0,-930.0,15:06:37.735988,192.168.0.111
1203,5,8,2,73,"1,-4,-177",0,0,0,0,0,-2,79,81,65,60,61,-54.89,23,-3.0,5.0,-904.0,15:06:37.837967,192.168.0.111
1208,5,8,2,73,"1,-4,-177",0,0,0,0,0,-2,79,81,62,60,61,-54.92,24,-5.0,13.0,-935.0,15:06:37.939888,192.168.0.111
1213,5,8,2,73,"1,-4,-177",0,0,0,0,0,-3,79,81,59,60,61,-54.94,24,-22.0,15.0,-935.0,15:06:38.041633,192.168.0.111
1218,5,12,4,71,"1,-4,-178",0,0,0,0,0,-4,79,81,54,50,61,-54.97,24,5.0,-7.0,-983.0,15:06:38.144052,192.168.0.111
1223,5,12,4,71,"1,-4,-178",0,0,0,0,0,-4,79,81,50,50,61,-55.07,24,-11.0,20.0,-987.0,15:06:38.246156,192.168.0.111
1228,5,12,4,71,"1,-4,-178",0,0,0,0,0,-4,79,81,45,40,61,-55.04,24,10.0,-9.0,-1009.0,15:06:38.347836,192.168.0.111
1233,5,12,4,71,"1,-4,-178",0,0,0,0,0,-4,79,81,40,40,61,-55.1,24,-9.0,10.0,-994.0,15:06:38.449819,192.168.0.111
1238,5,12,4,71,"1,-4,-178",0,0,0,0,0,-4,79,81,35,30,61,-55.11,24,-3.0,14.0,-986.0,15:06:38.552172,192.168.0.111
1243,5,12,4,71,"1,-4,-178",1,0,0,0,0,-4,79,81,35,30,61,-55.2,24,0.0,8.0,-1002.0,15:06:38.653660,192.168.0.111
1248,5,15,7,47,"1,-3,178",0,0,0,0,0,-4,78,80,30,30,61,-55.26,24,-16.0,16.0,-1022.0,15:06:38.756060,192.168.0.111
1254,5,15,7,47,"1,-3,178",1,0,0,0,0,-4,78,80,24,20,61,-55.32,24,4.0,4.0,-1001.0,15:06:38.857821,192.168.0.111
1259,5,15,7,47,"1,-3,178",1,0,0,0,0,-4,78,80,19,20,61,-55.45,25,-6.0,15.0,-1016.0,15:06:38.959731,192.168.0.111
1264,5,15,7,47,"1,-3,178",1,0,0,0,0,-4,78,80,11,10,61,-55.88,25,3.0,15.0,-992.0,15:06:39.061881,192.168.0.111
1270,5,15,7,47,"1,-3,178",1,0,0,0,0,-4,78,80,10,10,61,-56.63,25,-1.0,22.0,-1003.0,15:06:39.172058,192.168.0.111
1274,5,15,7,47,"1,-3,178",1,0,0,0,0,-3,78,80,10,0,61,-57.77,25,-7.0,11.0,-1037.0,15:06:39.265961,192.168.0.111
1279,5,15,7,47,"1,-3,178",0,0,0,0,0,-2,78,80,10,0,61,-59.11,25,6.0,13.0,-1059.0,15:06:39.368003,192.168.0.111
1284,5,15,7,47,"1,-3,178",0,-1,-1,1,0,1,78,80,10,0,61,-57.86,25,-15.0,20.0,-1071.0,15:06:39.469672,192.168.0.111
1289,5,15,7,47,"1,-3,178",0,0,-3,1,0,0,78,80,10,0,61,-58.37,25,-49.0,-127.0,-1930.0,15:06:39.571743,192.168.0.111
1294,5,15,7,47,"1,-3,178",0,1,-3,1,0,0,78,80,10,0,61,-57.76,25,-5.0,0.0,-838.0,15:06:39.673567,192.168.0.111
1299,5,15,7,47,"1,-3,178",1,1,-3,1,0,0,78,80,10,0,61,-57.39,25,-26.0,-23.0,-908.0,15:06:39.775665,192.168.0.111
1304,5,15,7,47,"1,-3,178",1,1,-4,2,0,0,78,80,10,0,61,-56.97,25,3.0,-25.0,-995.0,15:06:39.878067,192.168.0.111
1309,5,15,7,47,"1,-3,178",1,1,-4,2,0,0,78,80,10,0,61,-56.69,26,11.0,-33.0,-1000.0,15:06:39.980131,192.168.0.111
1314,5,15,7,47,"1,-3,178",1,1,-4,2,0,0,78,80,10,0,61,-56.71,26,-2.0,-26.0,-1002.0,15:06:40.081977,192.168.0.111
1319,5,15,7,47,"1,-3,178",1,1,-4,2,0,0,78,80,10,0,61,-56.48,26,-5.0,-21.0,-1002.0,15:06:40.183998,192.168.0.111
1322,5,15,7,47,"1,-3,178",1,1,-4,2,0,0,78,80,10,0,61,-56.42,26,1.0,-22.0,-999.0,15:06:40.236070,192.168.0.111
1327,5,15,7,47,"1,-3,178",1,1,-4,2,0,0,78,80,10,0,61,-56.29,26,-3.0,-26.0,-1002.0,15:06:40.337779,192.168.0.111
1332,5,15,7,47,"1,-3,178",1,1,-4,3,0,0,78,80,10,0,61,-56.04,26,0.0,-23.0,-994.0,15:06:40.439927,192.168.0.111
1337,-2,-200,-200,-200,"-1,-1,-1",1,1,-4,3,0,-1,78,80,10,0,61,-55.87,26,4.0,-25.0,-995.0,15:06:40.541629,192.168.0.111
