,mid,x,y,z,mpry,pitch,roll,yaw,vgx,vgy,vgz,templ,temph,tof,h,bat,baro,time,agx,agy,agz,timestamp,address
1,-1,-100,-100,-100,"-1,-1,-1",0,0,0,0,0,0,77,79,10,0,94,-56.05,0,-7.0,-4.0,-1000.0,15:06:13.608990,192.168.0.113
6,-1,-100,-100,-100,"-1,-1,-1",0,0,0,0,0,0,77,79,10,0,94,-56.03,0,-6.0,-4.0,-1001.0,15:06:13.711336,192.168.0.113
12,-1,-100,-100,-100,"-1,-1,-1",0,0,0,0,0,0,77,79,10,0,94,-56.06,0,-6.0,-5.0,-999.0,15:06:13.813489,192.168.0.113
17,-1,-100,-100,-100,"-1,-1,-1",0,0,0,0,0,0,77,79,10,0,94,-56.06,0,-6.0,-6.0,-1001.0,15:06:13.915307,192.168.0.113
18,-1,-100,-100,-100,"-1,-1,-1",0,0,0,0,0,0,77,79,10,0,94,-56.06,0,-5.0,-6.0,-1002.0,15:06:13.968335,192.168.0.113
23,-1,-100,-100,-100,"-1,-1,-1",0,0,0,0,0,0,77,79,10,0,94,-56.06,0,-6.0,-5.0,-999.0,15:06:14.070148,192.168.0.113
28,-1,-100,-100,-100,"-1,-1,-1",0,0,0,0,0,0,77,79,10,0,94,-56.06,0,-6.0,-14.0,-998.0,15:06:14.174065,192.168.0.113
33,-1,-100,-100,-100,"-1,-1,-1",0,0,0,0,0,0,77,79,10,0,94,-56.06,0,0.0,13.0,-999.0,15:06:14.272317,192.168.0.113
38,-1,-100,-100,-100,"-1,-1,-1",0,0,1,0,0,0,77,79,10,0,94,-56.06,0,2.0,7.0,-1195.0,15:06:14.374600,192.168.0.113
44,-1,-100,-100,-100,"-1,-1,-1",0,0,1,0,0,0,77,79,10,0,94,-56.06,0,-36.0,14.0,-1380.0,15:06:14.476216,192.168.0.113
49,-1,-100,-100,-100,"-1,-1,-1",0,0,1,0,0,-3,77,79,10,0,94,-56.06,0,-72.0,-19.0,-1200.0,15:06:14.578340,192.168.0.113
54,-1,-100,-100,-100,"-1,-1,-1",0,0,0,0,0,-6,77,79,17,0,94,-55.76,0,-49.0,13.0,-1046.0,15:06:14.679826,192.168.0.113
59,-1,-100,-100,-100,"-1,-1,-1",-2,0,1,-1,0,-6,77,79,23,0,94,-55.73,0,-54.0,-6.0,-1019.0,15:06:14.782410,192.168.0.113
64,-1,-100,-100,-100,"-1,-1,-1",-3,0,1,-1,0,-7,78,79,32,0,94,-55.59,0,-61.0,-13.0,-988.0,15:06:14.884325,192.168.0.113
69,3,13,0,36,"3,3,-179",-4,0,0,-1,0,-6,78,79,41,10,94,-55.68,1,-61.0,12.0,-931.0,15:06:14.986280,192.168.0.113
74,3,10,0,45,"1,3,-178",-4,0,1,-1,0,-6,78,79,49,10,94,-55.52,1,-41.0,-26.0,-933.0,15:06:15.089010,192.168.0.113
79,3,9,-1,49,"1,3,-176",-4,0,1,-1,0,-5,78,79,57,20,94,-55.38,1,-39.0,-17.0,-911.0,15:06:15.190828,192.168.0.113
84,3,7,-2,58,"1,3,-176",-4,0,1,0,0,-4,78,79,66,20,94,-55.3,1,-32.0,-2.0,-898.0,15:06:15.292361,192.168.0.113
89,3,4,-3,68,"0,3,-175",-3,0,1,0,0,-3,78,79,72,20,94,-55.2,1,-14.0,-15.0,-913.0,15:06:15.394451,192.168.0.113
94,3,5,-2,72,"0,3,-176",-3,0,1,0,0,-2,78,79,78,30,94,-55.19,1,-61.0,-36.0,-911.0,15:06:15.496344,192.168.0.113
99,3,4,-1,77,"0,3,-177",-2,0,0,0,0,-2,78,79,84,30,94,-55.13,1,-44.0,-13.0,-903.0,15:06:15.598258,192.168.0.113
104,3,4,-2,80,"0,3,-177",-3,0,0,0,0,-1,78,79,88,30,94,-55.23,1,-39.0,-6.0,-943.0,15:06:15.700992,192.168.0.113
109,3,3,-3,87,"0,3,-175",-3,1,0,0,0,0,78,79,91,30,94,-55.2,1,-58.0,10.0,-953.0,15:06:15.803681,192.168.0.113
114,3,3,-3,87,"0,3,-175",-2,1,1,0,0,0,77,80,95,40,94,-55.19,1,-63.0,18.0,-959.0,15:06:15.904243,192.168.0.113
120,3,-13,-14,92,"-11,3,-169",-2,0,1,0,0,0,77,80,97,40,94,-55.06,2,-43.0,-9.0,-934.0,15:06:16.006447,192.168.0.113
125,3,0,-8,97,"-1,3,-173",-3,0,1,0,0,0,77,80,100,40,94,-55.0,2,-38.0,13.0,-955.0,15:06:16.108631,192.168.0.113
130,3,1,-10,98,"0,3,-172",-3,0,1,0,0,0,77,80,101,40,94,-55.12,2,-52.0,-17.0,-934.0,15:06:16.214389,192.168.0.113
135,3,3,-4,100,"0,3,-176",-3,0,1,0,0,0,77,80,103,40,94,-54.94,2,-34.0,-15.0,-934.0,15:06:16.312368,192.168.0.113
141,3,2,-5,102,"0,3,-176",-3,0,1,0,0,0,77,80,104,50,94,-54.97,2,-38.0,1.0,-958.0,15:06:16.414286,192.168.0.113
146,3,1,-4,102,"0,3,-177",-2,0,1,0,0,1,77,80,104,50,94,-55.02,2,-66.0,31.0,-977.0,15:06:16.516191,192.168.0.113
148,3,4,-4,102,"0,3,-178",-2,-1,1,0,0,1,77,80,103,50,94,-55.05,2,-45.0,16.0,-978.0,15:06:16.567241,192.168.0.113
153,3,0,-7,101,"-3,3,-177",-2,-1,1,0,0,1,77,80,102,50,94,-54.94,2,-31.0,25.0,-970.0,15:06:16.669257,192.168.0.113
158,3,4,-5,101,"0,3,-178",-2,0,1,0,0,1,77,80,101,50,94,-54.97,2,-37.0,16.0,-977.0,15:06:16.771230,192.168.0.113
163,3,4,-7,100,"0,3,-177",-2,-1,1,0,0,1,77,80,100,50,94,-55.15,2,-27.0,15.0,-979.0,15:06:16.873352,192.168.0.113
168,3,3,-5,99,"-2,3,-178",-1,-1,1,0,0,2,77,80,97,50,94,-55.21,3,-36.0,3.0,-996.0,15:06:16.975110,192.168.0.113
173,3,-6,-14,97,"-8,2,-174",-1,-1,1,0,0,2,77,80,96,50,94,-55.33,3,-57.0,11.0,-1018.0,15:06:17.078094,192.168.0.113
178,3,6,-4,96,"0,3,179",-2,-1,1,0,0,1,77,80,95,50,94,-55.13,3,-41.0,13.0,-988.0,15:06:17.180356,192.168.0.113
183,3,6,-6,93,"0,3,-179",-3,0,1,0,0,1,77,80,93,40,94,-55.1,3,-47.0,20.0,-1017.0,15:06:17.284500,192.168.0.113
188,3,6,-8,91,"0,3,-177",-2,-1,1,0,0,1,77,80,91,40,94,-55.28,3,-67.0,16.0,-1008.0,15:06:17.386115,192.168.0.113
193,3,7,-9,90,"0,3,-177",-2,-1,0,0,0,1,77,80,90,40,94,-55.25,3,-70.0,4.0,-979.0,15:06:17.485201,192.168.0.113
198,3,7,-5,89,"0,3,178",-3,-1,0,0,0,1,77,80,87,40,94,-55.2,3,-80.0,12.0,-1008.0,15:06:17.587178,192.168.0.113
203,3,6,-5,88,"0,3,178",-3,-1,1,0,0,1,77,80,86,40,94,-55.24,3,-50.0,38.0,-1030.0,15:06:17.689146,192.168.0.113
208,3,8,-5,86,"2,3,-179",-3,0,1,0,0,1,77,80,85,40,94,-55.19,3,-53.0,12.0,-1013.0,15:06:17.790951,192.168.0.113
214,3,8,-5,84,"1,3,-179",-2,0,1,0,0,1,76,80,83,40,94,-55.17,4,-50.0,15.0,-1018.0,15:06:17.897285,192.168.0.113
218,3,8,-6,82,"0,3,-179",-2,0,1,0,0,0,76,80,81,40,94,-55.18,4,-64.0,31.0,-1002.0,15:06:17.995289,192.168.0.113
224,3,5,-10,81,"-1,2,-176",-3,-1,1,0,0,0,76,80,80,40,94,-55.23,4,-65.0,-8.0,-1003.0,15:06:18.097667,192.168.0.113
229,3,9,-6,80,"1,3,-179",-3,-1,1,0,0,0,76,80,79,30,94,-55.27,4,-45.0,-26.0,-1002.0,15:06:18.199369,192.168.0.113
234,3,7,-5,79,"1,3,179",-3,0,1,0,0,0,76,80,78,30,94,-55.24,4,-24.0,7.0,-1034.0,15:06:18.301115,192.168.0.113
239,3,6,-9,78,"0,3,-176",-3,0,1,0,0,0,76,80,77,30,94,-55.22,4,-26.0,13.0,-978.0,15:06:18.404485,192.168.0.113
244,3,5,-8,77,"-1,3,-176",-1,0,1,0,0,0,76,80,76,30,94,-55.05,4,-20.0,15.0,-1013.0,15:06:18.512195,192.168.0.113
249,3,7,-10,76,"-1,2,-175",-1,0,1,0,0,0,76,80,75,30,94,-55.13,4,-4.0,14.0,-1015.0,15:06:18.607001,192.168.0.113
254,3,9,-7,75,"-1,2,-177",0,-1,1,1,0,0,76,80,74,30,94,-55.22,4,-2.0,30.0,-1001.0,15:06:18.709197,192.168.0.113
259,3,9,-8,75,"-2,2,-177",0,-2,1,1,0,0,76,80,73,30,94,-55.22,4,1.0,-4.0,-989.0,15:06:18.811250,192.168.0.113
265,3,10,-8,74,"-4,2,-178",0,0,1,1,0,0,77,80,72,30,94,-55.29,5,1.0,10.0,-1027.0,15:06:18.913295,192.168.0.113
270,3,0,-14,74,"-14,1,-173",1,0,1,1,0,0,77,80,72,30,94,-55.13,5,14.0,15.0,-999.0,15:06:19.015133,192.168.0.113
275,3,22,-3,71,"0,3,179",2,0,1,1,0,0,77,80,72,30,94,-55.03,5,23.0,0.0,-1007.0,15:06:19.117119,192.168.0.113
280,3,20,-10,71,"-3,1,-175",1,-1,1,1,0,0,77,80,71,30,94,-55.14,5,0.0,4.0,-1013.0,15:06:19.219104,192.168.0.113
286,3,22,-10,71,"-2,1,-175",1,-1,1,1,0,0,77,80,71,30,94,-55.06,5,27.0,-9.0,-996.0,15:06:19.321111,192.168.0.113
291,3,24,-12,70,"-1,1,-175",2,-1,1,1,0,0,77,80,71,30,94,-55.17,5,25.0,-5.0,-1003.0,15:06:19.422976,192.168.0.113
296,3,25,-12,71,"-2,1,-176",2,0,1,1,0,0,77,80,71,30,94,-55.19,5,5.0,24.0,-1030.0,15:06:19.525044,192.168.0.113
301,3,24,-7,72,"-4,2,-178",2,0,1,0,0,0,77,80,71,30,94,-55.22,5,34.0,6.0,-1003.0,15:06:19.627176,192.168.0.113
306,3,26,-11,71,"-4,1,-175",3,0,1,0,0,0,77,80,71,30,94,-55.46,5,8.0,6.0,-1029.0,15:06:19.728957,192.168.0.113
311,3,28,-11,71,"-4,0,-175",2,0,1,0,0,0,77,80,71,30,94,-55.43,5,3.0,23.0,-1018.0,15:06:19.830837,192.168.0.113
316,3,28,-9,73,"-4,1,-175",2,0,1,0,0,0,77,79,72,30,94,-55.55,6,-21.0,0.0,-1019.0,15:06:19.933880,192.168.0.113
321,3,31,-4,72,"-2,2,-179",1,0,1,0,0,0,77,79,73,30,94,-55.29,6,0.0,4.0,-1007.0,15:06:20.034844,192.168.0.113
326,3,29,-11,73,"-3,1,-174",0,0,1,0,0,0,77,79,74,30,94,-55.25,6,-31.0,14.0,-999.0,15:06:20.137134,192.168.0.113
331,3,30,-6,73,"0,2,-178",0,0,1,-1,0,0,77,79,74,30,94,-55.34,6,-63.0,16.0,-1004.0,15:06:20.239076,192.168.0.113
336,3,28,-9,75,"0,2,-176",-2,-1,0,-1,0,0,77,79,75,30,94,-55.23,6,-69.0,23.0,-976.0,15:06:20.341002,192.168.0.113
338,3,5,-19,79,"-15,0,-171",-2,-1,1,-1,0,0,77,79,76,30,94,-55.13,6,-48.0,34.0,-1010.0,15:06:20.392008,192.168.0.113
343,3,26,-11,75,"2,2,-176",-3,-1,1,-1,0,0,77,79,76,30,94,-55.17,6,-39.0,40.0,-961.0,15:06:20.494037,192.168.0.113
348,3,26,-7,75,"3,3,-179",-3,-2,1,-1,0,0,77,79,76,30,94,-55.31,6,-65.0,36.0,-1005.0,15:06:20.596083,192.168.0.113
353,3,21,-14,75,"1,2,-176",-3,-2,1,-1,0,0,77,79,77,30,94,-55.32,6,-70.0,54.0,-1001.0,15:06:20.698403,192.168.0.113
358,3,21,-12,76,"1,2,-178",-3,-2,0,-1,0,0,77,79,77,30,94,-55.1,6,-51.0,17.0,-971.0,15:06:20.800784,192.168.0.113
363,3,19,-12,76,"1,2,-178",-4,-2,1,-1,0,0,77,80,77,30,94,-55.21,7,-36.0,24.0,-986.0,15:06:20.903367,192.168.0.113
368,3,18,-10,77,"2,3,179",-3,-1,1,0,0,0,77,80,77,30,94,-55.19,7,-54.0,23.0,-1026.0,15:06:21.005619,192.168.0.113
373,3,18,-9,77,"3,3,179",-3,-2,1,0,0,0,77,80,78,30,94,-55.15,7,-22.0,26.0,-1016.0,15:06:21.108161,192.168.0.113
378,3,17,-9,77,"2,3,179",-2,-2,1,0,0,0,77,80,78,30,94,-55.2,7,-18.0,27.0,-982.0,15:06:21.210555,192.168.0.113
383,3,17,-12,77,"1,2,-178",-2,-2,1,0,0,0,77,80,79,30,94,-55.23,7,-54.0,22.0,-980.0,15:06:21.309852,192.168.0.113
388,3,18,-14,77,"1,2,-177",-2,-2,1,0,0,0,77,80,79,30,94,-55.24,7,-51.0,27.0,-973.0,15:06:21.411996,192.168.0.113
393,3,16,-12,78,"0,2,-178",-2,-1,1,0,0,0,77,80,78,30,94,-55.23,7,-38.0,13.0,-1004.0,15:06:21.514113,192.168.0.113
398,3,17,-11,78,"0,2,-178",-1,-1,1,0,0,0,77,80,79,30,94,-55.22,7,-49.0,8.0,-993.0,15:06:21.615631,192.168.0.113
403,3,19,-10,78,"1,2,-178",-1,-1,0,0,0,0,77,80,78,30,94,-55.35,7,-40.0,0.0,-1006.0,15:06:21.717956,192.168.0.113
408,3,18,-11,78,"0,2,-177",-1,0,0,0,0,0,77,80,79,30,94,-55.36,7,-30.0,-8.0,-1007.0,15:06:21.820178,192.168.0.113
413,3,20,-6,78,"0,3,-179",-1,0,0,0,0,0,77,79,78,30,94,-55.24,8,-23.0,-27.0,-1013.0,15:06:21.922469,192.168.0.113
418,3,21,-11,78,"0,2,-175",-1,0,0,0,-1,0,77,79,78,30,94,-55.27,8,-52.0,-7.0,-1029.0,15:06:22.024034,192.168.0.113
423,3,20,-5,79,"0,3,-178",-1,0,0,0,-1,0,77,79,79,30,94,-55.35,8,-81.0,-27.0,-989.0,15:06:22.126353,192.168.0.113
429,3,21,-11,78,"0,2,-173",-1,1,1,0,0,0,77,79,79,30,94,-55.43,8,-83.0,-7.0,-1035.0,15:06:22.228041,192.168.0.113
434,3,16,-7,81,"-2,2,-174",-2,0,1,0,0,0,77,79,80,30,94,-55.46,8,-52.0,-8.0,-998.0,15:06:22.330385,192.168.0.113
439,3,-3,-14,82,"-15,1,-170",-2,0,1,0,0,0,77,79,80,30,94,-55.25,8,-67.0,0.0,-1011.0,15:06:22.435098,192.168.0.113
444,3,16,-7,82,"-1,2,-174",-2,0,1,0,0,0,77,79,81,30,94,-55.29,8,-32.0,4.0,-1004.0,15:06:22.534094,192.168.0.113
449,3,20,0,81,"0,3,-178",-1,0,1,0,0,0,77,79,82,30,94,-55.34,8,-37.0,-2.0,-998.0,15:06:22.636042,192.168.0.113
454,3,20,0,81,"0,3,-178",-2,0,1,0,0,0,77,79,82,30,94,-55.19,8,-50.0,21.0,-988.0,15:06:22.737812,192.168.0.113
459,3,20,0,81,"0,3,-178",-2,0,1,0,0,0,77,79,82,30,94,-55.15,8,-16.0,-6.0,-987.0,15:06:22.844753,192.168.0.113
464,3,11,-6,85,"-7,2,-175",0,0,1,0,0,0,77,80,81,30,94,-55.36,9,-28.0,-1.0,-957.0,15:06:22.942202,192.168.0.113
469,3,11,-6,85,"-7,2,-175",4,0,1,0,0,0,77,80,81,30,94,-55.26,9,-28.0,-29.0,-1003.0,15:06:23.044018,192.168.0.113
475,3,11,-6,85,"-7,2,-175",2,0,1,0,0,1,77,80,81,30,94,-55.22,9,-28.0,-13.0,-1004.0,15:06:23.146002,192.168.0.113
481,3,24,-7,80,"-4,1,-174",1,0,1,-1,0,1,77,80,79,30,94,-55.32,9,-26.0,-12.0,-991.0,15:06:23.248006,192.168.0.113
486,3,24,-7,80,"-4,1,-174",0,0,1,-1,0,1,77,80,78,30,94,-55.37,9,-17.0,-9.0,-998.0,15:06:23.349984,192.168.0.113
491,3,23,-2,79,"-1,2,-177",0,0,1,-1,0,0,77,80,77,30,94,-55.44,9,-7.0,-5.0,-990.0,15:06:23.451956,192.168.0.113
496,3,23,-2,79,"-1,2,-177",0,0,1,-1,0,0,77,80,76,30,94,-55.3,9,-23.0,6.0,-986.0,15:06:23.553922,192.168.0.113
501,3,23,-4,76,"0,2,-175",0,0,0,-1,0,0,77,80,76,30,94,-55.37,9,-13.0,-4.0,-1007.0,15:06:23.655956,192.168.0.113
506,3,23,-4,76,"0,2,-175",0,0,0,-1,0,0,77,80,75,30,94,-55.51,9,-23.0,-19.0,-982.0,15:06:23.757866,192.168.0.113
511,3,22,-1,74,"0,3,-178",0,0,0,-1,0,0,77,80,75,30,94,-55.34,9,-23.0,-3.0,-1025.0,15:06:23.859839,192.168.0.113
516,3,22,-1,74,"0,3,-178",0,0,0,-1,0,0,77,79,74,30,94,-55.36,10,5.0,-11.0,-969.0,15:06:23.962009,192.168.0.113
521,3,18,-7,73,"0,3,-175",0,0,0,-1,0,0,77,79,72,30,94,-55.29,10,-7.0,12.0,-1025.0,15:06:24.063899,192.168.0.113
526,3,18,-7,73,"0,3,-175",0,0,0,-1,0,0,77,79,72,30,94,-55.32,10,-7.0,18.0,-1017.0,15:06:24.167245,192.168.0.113
531,3,18,-7,73,"0,3,-175",0,0,0,0,0,0,77,79,71,30,94,-55.27,10,6.0,9.0,-1011.0,15:06:24.268128,192.168.0.113
536,3,-1,-15,73,"-17,1,-171",0,-1,0,-1,0,0,77,79,71,20,94,-55.31,10,9.0,-10.0,-1009.0,15:06:24.370039,192.168.0.113
541,3,-1,-15,73,"-17,1,-171",0,-2,1,-1,0,0,77,79,71,20,94,-55.32,10,-47.0,39.0,-991.0,15:06:24.471934,192.168.0.113
546,3,17,-7,72,"-1,2,-179",0,-1,1,-1,0,0,77,79,71,20,94,-55.27,10,-8.0,24.0,-983.0,15:06:24.573912,192.168.0.113
551,3,17,-7,72,"-1,2,-179",0,-1,1,-1,0,0,77,79,71,20,94,-55.28,10,-21.0,21.0,-989.0,15:06:24.675381,192.168.0.113
556,3,14,-9,72,"-2,2,-177",0,-1,1,-1,0,0,77,79,70,20,94,-55.23,10,4.0,15.0,-998.0,15:06:24.777863,192.168.0.113
561,3,14,-9,72,"-2,2,-177",0,-1,1,0,0,0,77,79,71,20,94,-55.26,10,4.0,11.0,-1005.0,15:06:24.879931,192.168.0.113
566,3,14,-9,72,"-2,2,-177",0,-2,1,0,0,0,76,79,70,20,94,-55.3,11,1.0,19.0,-981.0,15:06:24.981913,192.168.0.113
571,3,14,-9,72,"-2,2,-177",0,-1,1,0,0,0,76,79,70,20,94,-55.27,11,-8.0,10.0,-976.0,15:06:25.083971,192.168.0.113
576,3,17,-5,71,"-1,2,-178",1,0,1,0,0,0,76,79,70,20,94,-55.31,11,4.0,14.0,-997.0,15:06:25.185958,192.168.0.113
581,3,17,-5,71,"-1,2,-178",0,0,0,0,0,0,76,79,70,20,94,-55.28,11,-25.0,12.0,-983.0,15:06:25.287752,192.168.0.113
586,3,17,-4,71,"-1,3,-178",0,-1,0,0,0,0,76,79,70,20,94,-55.31,11,-18.0,-1.0,-979.0,15:06:25.389856,192.168.0.113
591,3,17,-4,71,"-1,3,-178",0,0,0,0,0,0,76,79,70,20,94,-55.46,11,-20.0,-11.0,-1050.0,15:06:25.491893,192.168.0.113
596,3,17,-4,71,"-1,3,-178",0,1,1,-1,0,0,76,79,70,20,94,-55.51,11,-33.0,-1.0,-1015.0,15:06:25.593920,192.168.0.113
601,3,17,-5,70,"-1,2,-175",0,0,1,-1,0,0,76,79,70,20,94,-55.33,11,-38.0,2.0,-1004.0,15:06:25.695679,192.168.0.113
606,3,17,-5,70,"-1,2,-175",0,0,1,-1,0,0,76,79,70,20,94,-55.31,11,-32.0,-3.0,-961.0,15:06:25.797903,192.168.0.113
611,3,14,-3,71,"-1,2,-175",0,0,1,-1,0,0,76,79,70,20,94,-55.41,12,-40.0,-4.0,-996.0,15:06:25.899965,192.168.0.113
616,3,14,-3,71,"-1,2,-175",0,0,1,-1,0,0,77,79,69,20,94,-55.33,12,-33.0,-19.0,-1016.0,15:06:26.001829,192.168.0.113
622,3,11,-1,71,"-2,3,-178",-1,0,1,-1,0,0,77,79,69,20,94,-55.32,12,-45.0,9.0,-1015.0,15:06:26.106453,192.168.0.113
627,3,11,-1,71,"-2,3,-178",-1,0,1,-1,0,0,77,79,69,20,94,-55.34,12,-48.0,16.0,-1001.0,15:06:26.205800,192.168.0.113
632,3,11,-1,71,"-2,3,-178",-2,0,1,-1,0,0,77,79,69,20,94,-55.3,12,-44.0,11.0,-963.0,15:06:26.307854,192.168.0.113
637,3,8,-4,70,"0,3,-176",-2,0,1,-1,0,0,77,79,69,20,94,-55.26,12,-37.0,8.0,-991.0,15:06:26.409804,192.168.0.113
642,3,8,-4,70,"0,3,-176",-1,0,1,-1,0,0,77,79,68,20,94,-55.33,12,-57.0,-10.0,-1021.0,15:06:26.511859,192.168.0.113
647,3,6,-2,70,"0,3,-177",-2,1,1,-1,0,0,77,79,68,20,94,-55.33,12,-43.0,0.0,-1022.0,15:06:26.613799,192.168.0.113
652,3,6,-2,70,"0,3,-177",-1,0,1,-1,0,0,77,79,68,20,94,-55.28,12,-54.0,6.0,-998.0,15:06:26.715902,192.168.0.113
657,3,4,-3,69,"-1,3,-175",-3,0,1,-1,0,0,77,79,68,20,94,-55.1,12,-24.0,10.0,-1005.0,15:06:26.818736,192.168.0.113
662,3,4,-3,69,"-1,3,-175",-3,0,1,0,0,0,77,79,67,20,94,-55.26,13,-33.0,31.0,-1004.0,15:06:26.920609,192.168.0.113
667,3,6,-2,69,"1,2,-177",-2,0,1,0,0,0,78,79,68,20,94,-55.22,13,-26.0,3.0,-995.0,15:06:27.022739,192.168.0.113
672,3,6,-2,69,"1,2,-177",-2,-1,1,0,0,0,78,79,68,20,94,-55.46,13,-69.0,42.0,-1037.0,15:06:27.124849,192.168.0.113
677,3,7,-3,69,"0,3,-179",-1,-1,1,0,0,0,78,79,69,20,94,-55.33,13,-38.0,39.0,-1020.0,15:06:27.226779,192.168.0.113
682,3,7,-3,69,"0,3,-179",-1,-1,1,0,0,0,78,79,69,20,94,-55.31,13,-25.0,20.0,-973.0,15:06:27.328651,192.168.0.113
687,3,7,-3,69,"0,3,-179",0,-2,0,0,0,0,78,79,68,20,94,-55.27,13,-47.0,12.0,-1009.0,15:06:27.430745,192.168.0.113
692,3,10,-5,68,"0,3,-178",-1,-2,0,0,0,0,78,79,68,20,94,-55.42,13,-50.0,-3.0,-1004.0,15:06:27.534562,192.168.0.113
697,3,10,-5,68,"0,3,-178",0,-2,0,0,0,0,78,79,68,20,94,-55.36,13,-73.0,11.0,-1001.0,15:06:27.634851,192.168.0.113
702,3,13,-4,69,"0,3,179",-1,-1,0,0,0,0,78,79,67,20,94,-55.4,13,-59.0,-26.0,-1007.0,15:06:27.736845,192.168.0.113
707,3,13,-4,69,"0,3,179",-1,0,1,0,0,0,78,79,67,20,94,-55.43,13,-36.0,20.0,-1008.0,15:06:27.838791,192.168.0.113
711,3,14,-5,68,"0,3,-176",-1,0,1,0,0,0,78,79,68,20,94,-55.39,14,-45.0,16.0,-1035.0,15:06:27.889683,192.168.0.113
717,3,14,-5,68,"0,3,-176",-1,0,1,0,0,0,77,79,68,20,94,-55.36,14,-55.0,-3.0,-993.0,15:06:28.042710,192.168.0.113
722,3,16,-4,69,"0,2,-175",-1,0,1,0,0,0,77,79,68,20,94,-55.46,14,-34.0,-1.0,-1002.0,15:06:28.144644,192.168.0.113
727,3,16,-4,69,"0,2,-175",-1,0,1,0,0,0,77,79,69,20,94,-55.49,14,-40.0,22.0,-993.0,15:06:28.246699,192.168.0.113
731,3,3,-8,71,"-11,1,-172",0,0,1,0,0,0,77,79,69,20,94,-55.52,14,-37.0,-1.0,-1006.0,15:06:28.297598,192.168.0.113
736,3,3,-8,71,"-11,1,-172",0,0,1,0,0,0,77,79,69,20,94,-55.38,14,-48.0,30.0,-984.0,15:06:28.399762,192.168.0.113
741,3,3,-8,71,"-11,1,-172",-1,-1,1,0,0,0,77,79,69,20,94,-55.34,14,-67.0,28.0,-1014.0,15:06:28.501871,192.168.0.113
746,3,20,-5,69,"0,2,-176",-8,-1,1,0,0,0,77,79,69,20,94,-55.32,14,-14.0,-3.0,-927.0,15:06:28.603646,192.168.0.113
751,3,20,-5,69,"0,2,-176",-8,-1,1,1,0,0,77,79,70,20,94,-55.48,14,-64.0,0.0,-1012.0,15:06:28.705657,192.168.0.113
756,3,18,-3,71,"5,2,-179",-8,0,1,2,0,0,77,79,69,20,94,-55.52,14,-89.0,-22.0,-993.0,15:06:28.807464,192.168.0.113
761,3,18,-3,71,"5,2,-179",-8,0,1,3,0,0,77,79,69,20,94,-55.46,15,-70.0,-1.0,-986.0,15:06:28.909562,192.168.0.113
766,3,13,-12,76,"-5,1,-172",-8,0,1,4,0,0,77,79,70,20,94,-55.43,15,-82.0,31.0,-1008.0,15:06:29.011644,192.168.0.113
771,3,13,-12,76,"-5,1,-172",-8,0,1,4,0,0,77,79,70,20,94,-55.49,15,-82.0,-12.0,-990.0,15:06:29.113593,192.168.0.113
777,3,39,-10,71,"6,0,-174",-8,0,1,5,0,0,77,79,70,20,94,-55.7,15,-102.0,-20.0,-992.0,15:06:29.266849,192.168.0.113
782,3,39,-10,71,"6,0,-174",-8,0,1,6,0,0,77,79,70,20,94,-55.6,15,-107.0,15.0,-996.0,15:06:29.368515,192.168.0.113
787,3,39,-10,71,"6,0,-174",-9,0,1,7,0,0,77,79,70,20,94,-55.57,15,-84.0,7.0,-979.0,15:06:29.470607,192.168.0.113
792,3,39,-10,71,"6,0,-174",-9,0,1,7,0,0,77,79,69,20,94,-55.49,15,-78.0,21.0,-989.0,15:06:29.572949,192.168.0.113
798,3,39,-10,71,"6,0,-174",-8,0,1,8,0,0,77,79,68,20,94,-55.57,15,-62.0,15.0,-978.0,15:06:29.676361,192.168.0.113
802,3,39,-10,71,"6,0,-174",-6,0,1,9,0,0,77,79,68,20,94,-55.53,15,-94.0,22.0,-983.0,15:06:29.776580,192.168.0.113
807,3,39,-10,71,"6,0,-174",-5,-1,1,9,0,0,77,79,68,20,94,-55.48,15,-103.0,37.0,-1039.0,15:06:29.878560,192.168.0.113
812,3,39,-10,71,"6,0,-174",-5,-2,1,9,0,0,77,79,67,20,94,-55.64,16,-150.0,5.0,-1030.0,15:06:29.980454,192.168.0.113
816,3,39,-10,71,"6,0,-174",-5,-2,1,9,0,0,77,80,67,20,94,-55.54,16,-114.0,32.0,-951.0,15:06:30.031679,192.168.0.113
821,3,39,-10,71,"6,0,-174",-6,-1,0,9,0,0,77,80,67,20,94,-55.54,16,-163.0,16.0,-1001.0,15:06:30.134772,192.168.0.113
826,3,39,-10,71,"6,0,-174",-7,-2,0,9,0,0,77,80,65,20,94,-55.53,16,-161.0,13.0,-957.0,15:06:30.235621,192.168.0.113
831,3,39,-10,71,"6,0,-174",-7,-2,0,9,0,0,77,80,67,20,94,-55.58,16,-134.0,-37.0,-991.0,15:06:30.337553,192.168.0.113
836,3,39,-10,71,"6,0,-174",-6,0,0,9,0,0,77,80,66,20,94,-55.65,16,-95.0,-17.0,-1010.0,15:06:30.439883,192.168.0.113
841,3,39,-10,71,"6,0,-174",-3,0,1,9,0,0,77,80,66,20,94,-55.71,16,-121.0,6.0,-1025.0,15:06:30.543223,192.168.0.113
846,7,-22,-13,66,"2,-4,178",0,0,0,9,0,0,77,80,66,20,94,-55.82,16,-140.0,-14.0,-1004.0,15:06:30.643744,192.168.0.113
852,7,-22,-13,66,"2,-4,178",1,0,0,7,0,0,77,80,67,20,94,-55.82,16,-91.0,2.0,-987.0,15:06:30.745580,192.168.0.113
857,7,-22,-13,66,"2,-4,178",2,0,1,6,0,0,77,80,67,20,94,-55.81,16,-106.0,-3.0,-1000.0,15:06:30.847644,192.168.0.113
862,7,2,-13,68,"-1,-2,176",2,0,1,5,0,0,77,80,68,20,94,-55.74,17,-112.0,17.0,-1034.0,15:06:30.949693,192.168.0.113
867,7,2,-13,68,"-1,-2,176",2,0,1,4,0,0,77,79,69,20,94,-55.52,17,-83.0,-18.0,-1018.0,15:06:31.051476,192.168.0.113
872,7,18,-11,70,"0,-2,176",4,0,1,3,0,0,77,79,70,20,94,-55.81,17,-75.0,-25.0,-1009.0,15:06:31.153579,192.168.0.113
877,7,18,-11,70,"0,-2,176",4,0,1,2,0,0,77,79,71,20,94,-55.59,17,-57.0,-6.0,-991.0,15:06:31.255566,192.168.0.113
882,7,31,-3,72,"-1,0,171",0,0,1,1,0,0,77,79,72,30,94,-55.59,17,-72.0,7.0,-993.0,15:06:31.357906,192.168.0.113
887,7,31,-3,72,"-1,0,171",0,0,1,0,0,0,77,79,72,30,94,-55.64,17,-31.0,-33.0,-979.0,15:06:31.460753,192.168.0.113
891,7,36,2,73,"1,2,167",0,0,1,0,0,0,77,79,72,30,94,-55.45,17,-29.0,-36.0,-974.0,15:06:31.561462,192.168.0.113
896,7,36,2,73,"1,2,167",0,0,1,0,0,0,77,79,72,30,94,-55.4,17,-30.0,-8.0,-972.0,15:06:31.663513,192.168.0.113
902,7,39,-11,72,"2,-1,178",0,0,0,0,0,0,77,79,72,30,94,-55.48,17,-49.0,-3.0,-997.0,15:06:31.766482,192.168.0.113
907,7,39,-11,72,"2,-1,178",0,0,1,0,0,0,77,79,71,30,94,-55.43,17,-35.0,-4.0,-982.0,15:06:31.867425,192.168.0.113
913,7,39,-11,72,"2,-1,178",0,0,1,0,0,0,77,79,71,30,94,-55.39,18,-37.0,-5.0,-981.0,15:06:31.973664,192.168.0.113
917,7,39,-11,72,"2,-1,178",0,0,1,0,0,0,77,78,70,30,94,-55.5,18,-32.0,2.0,-1010.0,15:06:32.071912,192.168.0.113
922,7,39,-11,72,"2,-1,178",0,0,0,0,0,0,77,78,69,30,94,-55.48,18,-52.0,-19.0,-988.0,15:06:32.173567,192.168.0.113
927,7,39,-11,72,"2,-1,178",0,0,0,0,0,0,77,78,68,20,94,-55.54,18,-60.0,-19.0,-1009.0,15:06:32.275744,192.168.0.113
932,7,39,-11,72,"2,-1,178",0,0,1,0,0,0,77,78,68,20,94,-55.53,18,-43.0,-38.0,-1013.0,15:06:32.377544,192.168.0.113
937,7,39,-11,72,"2,-1,178",0,2,1,0,0,0,77,78,67,20,94,-55.65,18,-49.0,1.0,-1031.0,15:06:32.479541,192.168.0.113
942,7,39,-11,72,"2,-1,178",0,2,1,0,0,0,77,78,66,20,94,-55.58,18,-56.0,14.0,-1001.0,15:06:32.581601,192.168.0.113
947,7,39,-11,72,"2,-1,178",0,0,1,0,0,0,77,78,66,20,94,-55.62,18,-67.0,29.0,-982.0,15:06:32.683706,192.168.0.113
952,7,39,-11,72,"2,-1,178",8,-2,0,-1,0,0,77,78,66,20,94,-55.57,18,-89.0,23.0,-1044.0,15:06:32.785463,192.168.0.113
957,7,39,-11,72,"2,-1,178",6,-2,0,-3,0,0,77,78,66,20,94,-55.51,18,-80.0,-5.0,-1062.0,15:06:32.887679,192.168.0.113
963,7,39,-11,72,"2,-1,178",1,-2,0,-4,0,0,77,78,67,20,94,-55.43,19,-52.0,4.0,-1016.0,15:06:32.996227,192.168.0.113
967,7,39,-11,72,"2,-1,178",0,-1,1,-4,0,0,76,79,66,20,94,-55.43,19,-41.0,17.0,-1014.0,15:06:33.091473,192.168.0.113
972,7,39,-11,72,"2,-1,178",-2,-1,1,-4,0,0,76,79,66,20,94,-55.43,19,-18.0,0.0,-950.0,15:06:33.193559,192.168.0.113
976,7,39,-11,72,"2,-1,178",-1,-1,0,-3,0,0,76,79,66,20,94,-55.46,19,-30.0,6.0,-995.0,15:06:33.295644,192.168.0.113
981,7,39,-11,72,"2,-1,178",-1,-1,0,-3,0,0,76,79,67,20,94,-55.52,19,0.0,-3.0,-984.0,15:06:33.397471,192.168.0.113
986,7,39,-11,72,"2,-1,178",-1,0,1,-3,0,0,76,79,67,20,94,-55.34,19,-77.0,83.0,-1038.0,15:06:33.499569,192.168.0.113
991,7,36,-8,66,"4,0,176",-3,0,0,-3,0,0,76,79,67,20,94,-55.47,19,-73.0,48.0,-974.0,15:06:33.550329,192.168.0.113
996,7,36,-8,66,"4,0,176",-2,-3,0,-3,0,0,76,79,67,20,94,-55.41,19,-46.0,-7.0,-951.0,15:06:33.652608,192.168.0.113
1002,7,28,-11,66,"5,-1,174",-3,-2,0,-3,0,0,76,79,67,20,94,-55.59,19,-60.0,-16.0,-956.0,15:06:33.805775,192.168.0.113
1007,7,28,-11,66,"5,-1,174",-3,0,0,-3,-1,0,76,79,67,20,94,-55.42,19,-52.0,-26.0,-1012.0,15:06:33.908144,192.168.0.113
1012,7,26,0,66,"6,0,170",-3,0,1,-3,0,0,76,79,67,20,94,-55.49,20,-42.0,-7.0,-1091.0,15:06:34.010568,192.168.0.113
1017,7,26,0,66,"6,0,170",-4,-2,1,-3,0,0,76,79,68,20,94,-55.53,20,-93.0,44.0,-1015.0,15:06:34.113174,192.168.0.113
1022,7,26,0,66,"6,0,170",-4,-2,0,-2,0,0,76,79,67,20,94,-55.44,20,-62.0,9.0,-963.0,15:06:34.215450,192.168.0.113
1026,7,20,-3,67,"6,-1,171",-3,0,0,-2,-1,0,76,79,66,20,94,-55.45,20,-66.0,25.0,-1043.0,15:06:34.264300,192.168.0.113
1031,7,20,-3,67,"6,-1,171",-3,0,1,-2,0,0,76,79,66,20,94,-55.34,20,-73.0,35.0,-979.0,15:06:34.366373,192.168.0.113
1036,7,16,-6,67,"5,-3,177",-4,1,1,-2,0,0,76,79,66,20,94,-55.5,20,-68.0,33.0,-1005.0,15:06:34.468321,192.168.0.113
1041,7,16,-6,67,"5,-3,177",-3,0,1,-1,0,0,76,79,66,20,94,-55.4,20,-57.0,-12.0,-1012.0,15:06:34.570419,192.168.0.113
1046,7,12,-2,67,"4,-2,172",-4,0,1,-1,0,0,76,79,66,20,94,-55.38,20,-63.0,10.0,-1004.0,15:06:34.676830,192.168.0.113
1051,7,12,-2,67,"4,-2,172",-3,0,1,-1,0,0,76,79,66,20,94,-55.43,20,-37.0,14.0,-979.0,15:06:34.774444,192.168.0.113
1056,7,12,-4,67,"4,-3,176",-3,0,1,-1,0,0,76,79,67,20,94,-55.42,20,-41.0,21.0,-1024.0,15:06:34.876336,192.168.0.113
1061,7,12,-4,67,"4,-3,176",-1,0,1,0,0,0,76,79,66,20,94,-55.32,21,-30.0,17.0,-980.0,15:06:34.979473,192.168.0.113
1066,7,13,-10,66,"2,-3,178",0,-1,1,0,0,0,76,79,66,20,94,-55.41,21,-53.0,13.0,-1018.0,15:06:35.080821,192.168.0.113
1071,7,13,-10,66,"2,-3,178",0,-1,1,0,0,0,76,79,66,20,94,-55.44,21,-46.0,17.0,-1011.0,15:06:35.183927,192.168.0.113
1076,7,13,-10,66,"2,-3,178",0,-1,1,-1,0,0,76,79,66,20,94,-55.53,21,-69.0,19.0,-1028.0,15:06:35.284308,192.168.0.113
1081,7,15,-10,66,"2,-3,177",0,-1,1,-1,0,0,76,79,67,20,94,-55.42,21,-45.0,7.0,-998.0,15:06:35.386349,192.168.0.113
1086,7,15,-10,66,"2,-3,177",0,-1,1,-1,0,0,76,79,68,20,94,-55.56,21,-32.0,27.0,-999.0,15:06:35.488345,192.168.0.113
1091,7,15,-9,67,"2,-3,176",0,-2,1,-1,0,0,76,79,68,20,94,-55.39,21,-42.0,14.0,-1007.0,15:06:35.590342,192.168.0.113
1096,7,15,-9,67,"2,-3,176",0,-1,1,-1,0,0,76,79,68,20,94,-55.29,21,-9.0,-3.0,-977.0,15:06:35.692345,192.168.0.113
1101,7,13,-9,67,"1,-3,177",0,-2,1,-1,0,0,76,79,68,20,94,-55.4,21,-13.0,15.0,-1005.0,15:06:35.794295,192.168.0.113
1106,7,13,-9,67,"1,-3,177",0,-1,1,-1,0,0,76,79,68,20,94,-55.37,21,-22.0,-1.0,-995.0,15:06:35.896340,192.168.0.113
1111,7,13,-5,68,"1,-2,174",0,-1,1,-1,0,0,76,79,68,20,94,-55.2,22,-40.0,-9.0,-990.0,15:06:35.998393,192.168.0.113
1116,7,13,-5,68,"1,-2,174",0,1,1,-1,0,0,76,79,67,20,94,-55.38,22,-31.0,20.0,-993.0,15:06:36.100679,192.168.0.113
1121,7,12,-4,68,"0,-3,177",0,1,1,-1,0,0,76,79,67,20,94,-55.46,22,-42.0,21.0,-1059.0,15:06:36.202089,192.168.0.113
1126,7,12,-4,68,"0,-3,177",0,0,1,-1,0,0,76,79,67,20,94,-55.28,22,-52.0,45.0,-1003.0,15:06:36.304216,192.168.0.113
1131,7,9,-4,68,"0,-3,176",0,-2,1,-1,0,0,76,79,68,20,94,-55.52,22,-50.0,22.0,-1001.0,15:06:36.406134,192.168.0.113
1136,7,9,-4,68,"0,-3,176",-1,0,1,-1,0,0,76,79,68,20,94,-55.2,22,-40.0,60.0,-1013.0,15:06:36.508562,192.168.0.113
1141,7,9,-4,68,"0,-3,176",-1,-2,1,-1,0,0,76,79,68,20,94,-55.33,22,-25.0,-3.0,-1021.0,15:06:36.610154,192.168.0.113
1146,7,8,-4,68,"3,-3,176",-1,-2,1,-1,0,0,76,79,68,20,94,-55.31,22,-35.0,4.0,-980.0,15:06:36.712312,192.168.0.113
1151,7,8,-4,68,"3,-3,176",0,-3,1,-1,0,0,76,79,69,20,94,-55.52,22,-54.0,43.0,-990.0,15:06:36.813781,192.168.0.113
1156,7,5,-5,69,"1,-3,174",-4,-4,1,-1,0,0,76,79,69,20,94,-55.34,23,-21.0,19.0,-1009.0,15:06:36.916349,192.168.0.113
1161,7,5,-5,69,"1,-3,174",-4,0,1,0,0,0,76,79,69,20,94,-55.37,23,-32.0,12.0,-986.0,15:06:37.017915,192.168.0.113
1166,7,5,-2,70,"4,-3,174",-2,0,1,0,0,0,77,79,69,20,94,-55.42,23,-27.0,33.0,-996.0,15:06:37.119847,192.168.0.113
1171,7,5,-2,70,"4,-3,174",-1,0,1,0,0,0,77,79,69,20,94,-55.31,23,-34.0,7.0,-998.0,15:06:37.221806,192.168.0.113
1177,7,9,-1,69,"1,-3,174",0,0,1,0,0,0,77,79,68,20,94,-55.4,23,-41.0,1.0,-1016.0,15:06:37.324084,192.168.0.113
1182,7,9,-1,69,"1,-3,174",0,0,1,0,0,0,77,79,68,20,94,-55.31,23,-51.0,24.0,-970.0,15:06:37.426284,192.168.0.113
1187,7,13,-6,69,"1,-3,178",0,0,1,0,0,0,77,79,69,20,94,-55.34,23,-39.0,41.0,-997.0,15:06:37.528077,192.168.0.113
1191,7,13,-6,69,"1,-3,178",0,-1,1,0,0,0,77,79,69,20,94,-55.45,23,-63.0,16.0,-940.0,15:06:37.630180,192.168.0.113
1196,7,13,-6,69,"1,-3,178",0,-2,1,0,0,1,77,79,68,20,94,-55.35,23,-42.0,9.0,-950.0,15:06:37.732574,192.168.0.113
1202,7,17,-3,68,"1,-2,173",0,-1,1,0,0,2,77,79,66,20,94,-55.29,23,-52.0,35.0,-869.0,15:06:37.833970,192.168.0.113
1207,7,17,-3,68,"1,-2,173",-1,-1,1,0,0,3,77,79,62,20,94,-55.56,24,-47.0,26.0,-908.0,15:06:37.935782,192.168.0.113
1212,7,19,-4,63,"2,-2,173",-1,-2,1,0,0,3,77,79,59,20,94,-55.6,24,-53.0,7.0,-986.0,15:06:38.038437,192.168.0.113
1217,7,19,-4,63,"2,-2,173",-1,0,1,0,0,3,76,79,54,10,94,-55.63,24,-58.0,3.0,-996.0,15:06:38.140316,192.168.0.113
1222,7,21,-5,56,"2,-2,174",-2,0,1,0,0,3,76,79,51,10,94,-55.52,24,-89.0,69.0,-951.0,15:06:38.242048,192.168.0.113
1227,7,21,-5,56,"2,-2,174",-3,-1,1,0,0,4,76,79,46,0,94,-55.75,24,-70.0,32.0,-936.0,15:06:38.343972,192.168.0.113
1232,7,21,-10,48,"4,-2,176",-2,-3,0,0,0,4,76,79,42,0,94,-55.73,24,-68.0,24.0,-951.0,15:06:38.446153,192.168.0.113
1236,7,21,-10,48,"4,-2,176",-3,-3,0,0,0,4,76,79,37,0,94,-55.74,24,-83.0,16.0,-967.0,15:06:38.496770,192.168.0.113
1241,7,21,-10,48,"4,-2,176",-3,0,0,0,0,4,76,79,32,0,94,-55.82,24,-64.0,42.0,-1068.0,15:06:38.599133,192.168.0.113
1246,7,21,-10,48,"4,-2,176",-4,0,0,0,0,4,76,79,27,-10,94,-55.94,24,-16.0,-28.0,-1015.0,15:06:38.700989,192.168.0.113
1251,7,21,-10,48,"4,-2,176",-2,0,0,0,0,4,76,79,22,-10,94,-55.63,24,-30.0,41.0,-936.0,15:06:38.802952,192.168.0.113
1256,7,21,-10,48,"4,-2,176",-2,-1,0,0,0,4,76,79,20,-20,94,-55.58,25,-37.0,13.0,-1024.0,15:06:38.905236,192.168.0.113
1261,7,21,-10,48,"4,-2,176",0,0,0,0,0,4,76,79,13,-20,94,-56.05,25,-22.0,-4.0,-1025.0,15:06:39.006751,192.168.0.113
1266,7,21,-10,48,"4,-2,176",0,0,0,0,0,4,77,78,10,-20,94,-56.17,25,13.0,18.0,-936.0,15:06:39.109170,192.168.0.113
1271,7,21,-10,48,"4,-2,176",1,0,1,1,0,4,77,78,10,-30,94,-57.84,25,0.0,24.0,-1063.0,15:06:39.213362,192.168.0.113
1276,7,21,-10,48,"4,-2,176",1,-1,1,0,0,3,77,78,10,-30,94,-59.96,25,-6.0,47.0,-1164.0,15:06:39.313050,192.168.0.113
1281,7,21,-10,48,"4,-2,176",0,-2,1,0,0,-1,77,78,10,-30,94,-57.94,25,-17.0,22.0,-842.0,15:06:39.426274,192.168.0.113
1286,7,21,-10,48,"4,-2,176",0,0,1,0,0,1,77,78,10,-30,94,-59.31,25,24.0,8.0,-720.0,15:06:39.516709,192.168.0.113
1291,7,21,-10,48,"4,-2,176",-2,-1,2,-1,0,0,77,78,10,-30,94,-58.26,25,-7.0,0.0,-828.0,15:06:39.618677,192.168.0.113
1296,7,21,-10,48,"4,-2,176",0,0,1,-2,0,0,77,78,10,-30,94,-58.28,25,-126.0,11.0,-984.0,15:06:39.720755,192.168.0.113
1301,7,21,-10,48,"4,-2,176",1,0,1,-2,0,0,77,78,10,-30,94,-57.66,25,-13.0,19.0,-1015.0,15:06:39.822656,192.168.0.113
1306,7,21,-10,48,"4,-2,176",1,0,1,-2,0,0,77,78,10,-30,94,-57.2,26,15.0,4.0,-1001.0,15:06:39.925157,192.168.0.113
1311,7,21,-10,48,"4,-2,176",1,0,1,-2,0,0,77,78,10,-30,94,-57.24,26,-8.0,8.0,-1001.0,15:06:40.027196,192.168.0.113
1316,7,21,-10,48,"4,-2,176",1,0,1,-3,0,0,76,78,10,-30,94,-57.28,26,3.0,-3.0,-1005.0,15:06:40.129174,192.168.0.113
1321,7,21,-10,48,"4,-2,176",1,0,1,-3,0,0,76,78,10,-30,94,-57.09,26,-12.0,0.0,-995.0,15:06:40.231577,192.168.0.113
1326,7,21,-10,48,"4,-2,176",1,0,1,-3,0,0,76,78,10,-30,94,-56.89,26,9.0,6.0,-1005.0,15:06:40.333060,192.168.0.113
1331,7,21,-10,48,"4,-2,176",1,0,1,-3,0,2,76,78,10,0,94,-56.73,26,0.0,-7.0,-994.0,15:06:40.434692,192.168.0.113
1336,7,21,-10,48,"4,-2,176",1,0,1,-4,0,3,76,78,10,0,94,-56.49,26,1.0,10.0,-994.0,15:06:40.536817,192.168.0.113
