,mid,x,y,z,mpry,pitch,roll,yaw,vgx,vgy,vgz,templ,temph,tof,h,bat,baro,time,agx,agy,agz,timestamp,address
1,-1,-100,-100,-100,"-1,-1,-1",0,0,0,0,0,0,77,80,10,0,83,9.25,0,-6.0,0.0,-999.0,16:53:56.575037,192.168.0.115
6,-1,-100,-100,-100,"-1,-1,-1",0,0,0,0,0,0,77,80,10,0,83,9.29,0,-6.0,0.0,-999.0,16:53:56.677253,192.168.0.115
11,-1,-100,-100,-100,"-1,-1,-1",0,0,0,0,0,0,77,80,10,0,83,9.3,0,-5.0,0.0,-1000.0,16:53:56.780490,192.168.0.115
16,-1,-100,-100,-100,"-1,-1,-1",0,0,0,0,0,0,77,80,10,0,83,9.33,0,-5.0,-1.0,-1000.0,16:53:56.882183,192.168.0.115
21,-1,-100,-100,-100,"-1,-1,-1",0,0,0,0,0,0,77,80,10,0,83,9.33,0,3.0,2.0,-997.0,16:53:56.984152,192.168.0.115
26,-1,-100,-100,-100,"-1,-1,-1",0,0,0,0,0,0,77,80,10,0,83,9.33,0,-5.0,15.0,-1004.0,16:53:57.085977,192.168.0.115
31,-1,-100,-100,-100,"-1,-1,-1",0,0,0,0,0,0,77,80,10,0,83,9.33,0,9.0,-8.0,-990.0,16:53:57.188167,192.168.0.115
35,-1,-100,-100,-100,"-1,-1,-1",0,0,0,0,0,0,77,80,10,0,83,9.33,0,9.0,-13.0,-998.0,16:53:57.239338,192.168.0.115
40,-1,-100,-100,-100,"-1,-1,-1",0,0,0,0,0,0,77,80,10,0,83,9.33,0,-11.0,-18.0,-1125.0,16:53:57.341737,192.168.0.115
45,-1,-100,-100,-100,"-1,-1,-1",0,0,0,0,0,-1,77,80,10,0,83,9.33,0,-4.0,-15.0,-1258.0,16:53:57.443475,192.168.0.115
50,-1,-100,-100,-100,"-1,-1,-1",0,0,0,0,0,-5,77,80,10,0,83,9.33,0,-26.0,11.0,-1328.0,16:53:57.550634,192.168.0.115
55,-1,-100,-100,-100,"-1,-1,-1",0,0,0,0,0,-7,77,80,16,10,83,9.44,0,7.0,-33.0,-1164.0,16:53:57.647431,192.168.0.115
60,-1,-100,-100,-100,"-1,-1,-1",0,0,0,0,0,-8,77,80,26,10,83,9.69,0,2.0,-10.0,-1054.0,16:53:57.749477,192.168.0.115
65,-1,-100,-100,-100,"-1,-1,-1",0,1,0,0,0,-8,77,80,31,20,83,9.78,1,-5.0,-10.0,-986.0,16:53:57.851229,192.168.0.115
70,-1,-100,-100,-100,"-1,-1,-1",0,0,0,0,0,-8,77,80,40,30,83,9.8,1,10.0,8.0,-933.0,16:53:57.953447,192.168.0.115
75,1,-1,2,44,"-1,-7,-178",0,0,0,0,0,-7,77,80,48,40,83,9.86,1,-5.0,-10.0,-907.0,16:53:58.055279,192.168.0.115
80,1,-2,3,48,"-1,-7,-178",0,0,0,0,0,-5,77,80,55,40,83,9.94,1,-1.0,-5.0,-886.0,16:53:58.157442,192.168.0.115
85,1,-1,3,55,"-1,-7,-178",0,0,0,0,0,-4,77,80,62,50,83,10.07,1,-6.0,-11.0,-883.0,16:53:58.259539,192.168.0.115
90,1,-2,2,64,"-2,-7,-177",0,0,0,0,0,-3,77,80,66,50,83,10.09,1,9.0,-1.0,-895.0,16:53:58.361510,192.168.0.115
95,1,-2,2,66,"-2,-7,-177",0,0,0,0,0,-2,77,81,70,50,83,10.19,1,8.0,-1.0,-904.0,16:53:58.463639,192.168.0.115
100,1,-1,3,70,"-2,-7,-179",0,0,0,0,0,-1,77,81,72,60,83,10.11,1,7.0,-6.0,-924.0,16:53:58.565378,192.168.0.115
105,1,-3,2,74,"-3,-7,-177",0,0,0,0,0,-1,77,81,75,60,83,10.22,1,2.0,-3.0,-942.0,16:53:58.667314,192.168.0.115
110,1,-2,3,75,"-2,-7,-178",0,0,0,0,0,0,77,81,76,60,83,10.18,1,4.0,-2.0,-963.0,16:53:58.769310,192.168.0.115
115,1,-3,2,77,"-3,-7,-177",0,0,0,0,0,0,77,81,78,60,83,10.24,2,8.0,2.0,-971.0,16:53:58.871166,192.168.0.115
120,1,-2,3,79,"-2,-7,-178",0,0,0,0,0,0,77,81,79,60,83,10.21,2,0.0,-3.0,-982.0,16:53:58.973362,192.168.0.115
125,1,-4,4,79,"-3,-7,-178",0,0,0,0,0,0,77,81,80,60,83,10.24,2,19.0,1.0,-994.0,16:53:59.077331,192.168.0.115
130,1,0,3,80,"-1,-7,-178",0,0,0,0,0,0,77,81,80,60,83,10.28,2,11.0,-11.0,-992.0,16:53:59.177304,192.168.0.115
135,1,-3,4,81,"-3,-7,-178",0,0,0,0,0,0,77,81,81,70,83,10.2,2,11.0,-14.0,-992.0,16:53:59.279196,192.168.0.115
140,1,-2,4,82,"-2,-7,-178",0,0,0,0,0,0,77,81,82,70,83,10.26,2,1.0,-10.0,-990.0,16:53:59.381543,192.168.0.115
145,1,-3,5,82,"-3,-7,-178",0,0,0,0,0,0,77,82,83,70,83,10.28,2,14.0,0.0,-984.0,16:53:59.483386,192.168.0.115
150,1,-2,4,83,"-3,-7,-177",0,0,0,0,0,0,77,82,83,70,83,10.28,2,7.0,4.0,-989.0,16:53:59.585513,192.168.0.115
155,1,-2,5,84,"-3,-7,-178",0,0,0,0,0,0,77,82,84,70,83,10.26,2,11.0,-6.0,-995.0,16:53:59.687669,192.168.0.115
160,1,-2,5,84,"-3,-7,-178",0,0,0,0,0,0,77,82,84,70,83,10.32,2,9.0,1.0,-993.0,16:53:59.789467,192.168.0.115
165,1,-1,5,84,"-2,-7,-178",0,0,0,0,0,0,77,82,84,70,83,10.27,3,5.0,-4.0,-989.0,16:53:59.891215,192.168.0.115
170,1,-2,4,85,"-3,-7,-177",0,0,0,0,0,0,77,82,84,70,83,10.34,3,5.0,1.0,-987.0,16:53:59.993684,192.168.0.115
175,1,-1,6,85,"-2,-7,-179",0,0,0,0,0,0,77,82,84,70,83,10.27,3,15.0,-13.0,-983.0,16:54:00.095242,192.168.0.115
180,1,-2,4,85,"-3,-7,-177",0,0,0,0,0,0,77,82,84,70,83,10.29,3,9.0,-14.0,-997.0,16:54:00.197377,192.168.0.115
185,1,-2,6,85,"-3,-7,-179",0,0,0,0,0,0,77,82,84,70,83,10.27,3,8.0,12.0,-1001.0,16:54:00.299433,192.168.0.115
191,1,-3,4,84,"-4,-7,-177",0,0,0,0,0,0,77,82,84,70,83,10.28,3,33.0,-3.0,-1002.0,16:54:00.401387,192.168.0.115
196,1,0,5,84,"-2,-7,-178",0,0,0,0,0,0,78,81,84,70,83,10.27,3,7.0,9.0,-991.0,16:54:00.503168,192.168.0.115
201,1,-2,4,84,"-3,-7,-177",0,0,0,0,0,0,78,81,83,70,83,10.29,3,3.0,-2.0,-1000.0,16:54:00.605282,192.168.0.115
206,1,0,2,84,"-2,-7,-176",0,0,0,0,0,0,78,81,83,70,83,10.22,3,3.0,1.0,-1011.0,16:54:00.707545,192.168.0.115
211,1,0,5,83,"-3,-7,-178",0,0,0,0,0,0,78,81,82,70,83,10.28,3,-1.0,1.0,-1002.0,16:54:00.809356,192.168.0.115
216,1,0,6,83,"-2,-7,-179",0,0,0,0,0,0,78,81,83,70,83,10.26,4,-3.0,0.0,-1008.0,16:54:00.911336,192.168.0.115
221,1,0,5,83,"-2,-7,-177",0,0,0,0,0,0,78,81,82,70,83,10.24,4,11.0,-5.0,-998.0,16:54:01.013298,192.168.0.115
225,1,0,6,83,"-2,-7,-179",0,0,0,0,0,0,78,81,82,70,83,10.25,4,24.0,-13.0,-990.0,16:54:01.064161,192.168.0.115
230,1,0,5,83,"-3,-7,-178",0,0,0,0,0,0,78,81,82,70,83,10.18,4,-1.0,-10.0,-1001.0,16:54:01.166053,192.168.0.115
235,1,0,6,82,"-2,-7,-178",0,0,0,0,0,0,78,81,82,70,83,10.22,4,6.0,-24.0,-1000.0,16:54:01.268391,192.168.0.115
240,1,-1,5,82,"-3,-7,-177",0,0,0,0,0,0,78,81,82,70,83,10.21,4,8.0,-9.0,-990.0,16:54:01.370508,192.168.0.115
245,1,-1,5,82,"-3,-7,-178",0,0,0,0,0,0,78,82,82,70,83,10.22,4,3.0,5.0,-1002.0,16:54:01.472044,192.168.0.115
250,1,0,5,82,"-2,-7,-178",0,0,0,0,0,0,78,82,81,70,83,10.21,4,12.0,-3.0,-1005.0,16:54:01.573629,192.168.0.115
255,1,0,6,82,"-3,-7,-178",0,0,0,0,0,0,78,82,81,70,83,10.28,4,9.0,-6.0,-1002.0,16:54:01.676018,192.168.0.115
260,1,-1,5,82,"-3,-7,-177",0,0,0,0,0,0,78,82,81,70,83,10.16,4,4.0,-9.0,-1000.0,16:54:01.778455,192.168.0.115
265,1,-1,4,82,"-3,-7,-177",0,0,0,0,0,0,78,82,81,70,83,10.21,5,0.0,-19.0,-990.0,16:54:01.880558,192.168.0.115
270,1,0,4,82,"-2,-7,-177",0,0,0,0,0,0,78,82,82,70,83,10.24,5,-9.0,-5.0,-999.0,16:54:01.982218,192.168.0.115
275,1,-1,4,82,"-3,-7,-177",0,0,0,0,0,0,78,82,81,70,83,10.23,5,6.0,0.0,-994.0,16:54:02.083732,192.168.0.115
280,1,0,5,82,"-3,-7,-178",0,0,0,0,0,0,78,82,81,70,83,10.22,5,19.0,-13.0,-985.0,16:54:02.186138,192.168.0.115
285,1,0,6,81,"-3,-7,-178",0,0,0,0,0,0,78,82,81,70,83,10.17,5,0.0,-6.0,-998.0,16:54:02.288133,192.168.0.115
290,1,0,6,81,"-2,-7,-178",0,0,0,0,0,0,78,82,81,70,83,10.19,5,9.0,-6.0,-985.0,16:54:02.390011,192.168.0.115
295,1,0,4,82,"-2,-7,-177",0,0,0,0,0,0,78,81,81,70,83,10.26,5,0.0,-7.0,-996.0,16:54:02.491930,192.168.0.115
300,1,0,7,81,"-3,-7,-178",0,0,0,0,0,0,78,81,81,70,83,10.22,5,-3.0,-4.0,-988.0,16:54:02.594068,192.168.0.115
305,1,0,7,81,"-3,-7,-178",0,0,0,0,0,0,78,81,81,70,83,10.21,5,0.0,-5.0,-1000.0,16:54:02.695891,192.168.0.115
310,1,0,5,81,"-3,-7,-177",0,0,0,0,0,0,78,81,81,70,83,10.28,5,-13.0,16.0,-1005.0,16:54:02.798152,192.168.0.115
315,1,0,7,81,"-3,-7,-179",0,0,0,0,0,0,78,81,81,70,83,10.3,6,-12.0,5.0,-995.0,16:54:02.900013,192.168.0.115
320,1,-1,5,81,"-3,-7,-177",0,0,0,0,0,0,78,81,80,70,83,10.29,6,-10.0,7.0,-996.0,16:54:03.002062,192.168.0.115
325,1,0,5,82,"-3,-7,-177",0,0,0,0,0,0,78,81,81,70,83,10.27,6,-8.0,7.0,-997.0,16:54:03.104299,192.168.0.115
330,1,0,7,81,"-3,-7,-179",0,0,0,0,0,0,78,81,81,70,83,10.22,6,5.0,5.0,-995.0,16:54:03.205893,192.168.0.115
335,1,0,5,81,"-2,-7,-178",0,0,0,0,0,0,78,81,80,70,83,10.22,6,-7.0,-8.0,-1004.0,16:54:03.307909,192.168.0.115
340,1,0,5,81,"-2,-7,-178",-1,0,0,0,0,0,78,81,81,70,83,10.22,6,-16.0,8.0,-1016.0,16:54:03.410005,192.168.0.115
345,1,1,5,82,"1,-7,-178",-7,0,0,0,0,0,78,81,82,70,83,10.22,6,-3.0,6.0,-989.0,16:54:03.515544,192.168.0.115
350,1,1,5,82,"1,-7,-178",-8,0,0,1,0,0,78,81,82,70,83,10.13,6,-12.0,13.0,-1012.0,16:54:03.613963,192.168.0.115
355,1,7,1,82,"8,-7,-176",-8,0,0,3,0,0,78,81,82,70,83,10.12,6,-14.0,-7.0,-996.0,16:54:03.716029,192.168.0.115
360,1,7,1,82,"8,-7,-176",-8,0,0,4,0,0,78,81,81,70,83,10.13,6,-30.0,-9.0,-1007.0,16:54:03.818220,192.168.0.115
365,1,7,1,82,"8,-7,-176",-7,0,0,5,0,0,78,81,81,70,83,10.16,7,-50.0,0.0,-1001.0,16:54:03.920068,192.168.0.115
370,1,12,5,83,"4,-7,-179",-6,0,0,6,0,0,78,81,81,70,83,10.18,7,-40.0,7.0,-995.0,16:54:04.021951,192.168.0.115
375,1,12,5,83,"4,-7,-179",-6,0,0,7,0,0,78,81,81,70,83,10.15,7,-53.0,-8.0,-1004.0,16:54:04.123970,192.168.0.115
380,1,32,7,82,"5,-6,178",-6,0,0,7,0,0,78,81,80,70,83,10.24,7,-37.0,-29.0,-1003.0,16:54:04.225991,192.168.0.115
385,1,32,7,82,"5,-6,178",-5,0,0,8,0,0,78,81,81,70,83,10.16,7,-76.0,-9.0,-986.0,16:54:04.327857,192.168.0.115
390,1,50,8,86,"1,-5,179",-5,0,0,8,0,0,78,81,80,70,83,9.97,7,-70.0,-7.0,-993.0,16:54:04.430036,192.168.0.115
395,1,50,8,86,"1,-5,179",-5,0,0,8,0,0,78,81,80,70,83,10.01,7,-101.0,-19.0,-981.0,16:54:04.534097,192.168.0.115
400,1,50,8,86,"1,-5,179",-5,1,0,8,0,0,78,81,80,70,83,10.19,7,-102.0,22.0,-983.0,16:54:04.639473,192.168.0.115
406,1,50,8,86,"1,-5,179",-5,0,0,8,0,0,78,81,80,70,83,10.04,7,-110.0,22.0,-989.0,16:54:04.735961,192.168.0.115
411,1,50,8,86,"1,-5,179",-5,0,0,9,0,0,78,81,80,70,83,9.89,8,-77.0,9.0,-983.0,16:54:04.837905,192.168.0.115
416,1,50,8,86,"1,-5,179",-5,0,0,9,0,0,78,81,80,70,83,9.94,8,-79.0,23.0,-1012.0,16:54:04.939981,192.168.0.115
421,1,50,8,86,"1,-5,179",-4,0,0,9,0,0,78,81,79,70,83,10.0,8,-89.0,30.0,-1001.0,16:54:05.041954,192.168.0.115
426,1,50,8,86,"1,-5,179",-4,0,1,9,0,0,78,81,79,70,83,10.01,8,-75.0,28.0,-1002.0,16:54:05.143881,192.168.0.115
431,1,50,8,86,"1,-5,179",-3,0,1,9,0,0,78,81,79,70,83,10.0,8,-78.0,35.0,-1006.0,16:54:05.245897,192.168.0.115
437,1,50,8,86,"1,-5,179",-1,-1,1,9,1,0,78,81,79,70,83,10.04,8,-63.0,15.0,-1024.0,16:54:05.348067,192.168.0.115
442,1,50,8,86,"1,-5,179",0,-2,0,8,0,0,78,81,80,70,83,9.93,8,-41.0,10.0,-986.0,16:54:05.460472,192.168.0.115
447,1,50,8,86,"1,-5,179",3,-1,0,8,0,0,79,82,79,70,83,10.0,8,-49.0,1.0,-1000.0,16:54:05.552518,192.168.0.115
452,1,50,8,86,"1,-5,179",5,0,0,7,0,0,79,82,80,70,83,10.0,8,-52.0,0.0,-1014.0,16:54:05.653875,192.168.0.115
457,5,-21,4,80,"-7,-8,168",6,0,0,6,0,0,79,82,80,70,83,10.09,8,-35.0,-6.0,-1013.0,16:54:05.755854,192.168.0.115
462,5,-21,4,80,"-7,-8,168",5,0,0,4,0,0,79,82,79,70,83,10.06,9,-34.0,-4.0,-1014.0,16:54:05.858219,192.168.0.115
467,5,-12,-10,80,"-11,-7,-179",4,0,0,3,0,0,79,82,80,70,83,10.15,9,-29.0,0.0,-1012.0,16:54:05.959918,192.168.0.115
472,5,-12,-10,80,"-11,-7,-179",4,0,0,3,0,0,79,82,80,70,83,10.12,9,-28.0,12.0,-1003.0,16:54:06.061813,192.168.0.115
477,5,-12,-10,80,"-11,-7,-179",4,0,0,2,0,0,79,82,80,70,83,10.17,9,-20.0,3.0,-999.0,16:54:06.163863,192.168.0.115
482,5,7,-13,80,"-3,-7,-179",3,0,0,1,0,0,79,82,80,70,83,10.09,9,-23.0,-16.0,-997.0,16:54:06.265732,192.168.0.115
488,5,7,-13,80,"-3,-7,-179",2,0,0,0,0,0,79,82,80,70,83,10.16,9,-20.0,0.0,-1001.0,16:54:06.367856,192.168.0.115
494,5,13,-14,80,"0,-7,-179",1,0,0,0,0,0,79,82,80,70,83,10.22,9,-16.0,2.0,-996.0,16:54:06.469469,192.168.0.115
499,5,13,-14,80,"0,-7,-179",0,0,0,0,0,0,78,83,80,70,83,10.11,9,-9.0,-10.0,-995.0,16:54:06.571857,192.168.0.115
504,5,14,-13,80,"0,-7,-179",0,0,0,0,0,0,78,83,80,70,83,10.13,9,-10.0,-22.0,-1000.0,16:54:06.673871,192.168.0.115
509,5,14,-13,80,"0,-7,-179",0,0,0,0,0,0,78,83,80,70,83,10.19,9,4.0,-25.0,-1002.0,16:54:06.775527,192.168.0.115
514,5,14,-13,80,"0,-7,-179",0,0,0,0,0,0,78,83,80,70,83,10.17,10,-10.0,-7.0,-1002.0,16:54:06.879060,192.168.0.115
519,5,18,-16,78,"3,-8,-177",0,0,0,0,0,0,78,83,79,70,83,10.14,10,5.0,-24.0,-928.0,16:54:06.979928,192.168.0.115
524,5,18,-16,78,"3,-8,-177",3,0,0,0,0,0,78,83,79,70,83,10.15,10,-23.0,3.0,-1002.0,16:54:07.081861,192.168.0.115
529,5,21,-12,78,"0,-7,-179",3,0,0,0,0,0,78,83,78,60,83,10.22,10,-14.0,18.0,-994.0,16:54:07.183868,192.168.0.115
534,5,21,-12,78,"0,-7,-179",2,0,0,-1,0,0,78,83,78,60,83,10.16,10,9.0,-6.0,-999.0,16:54:07.285841,192.168.0.115
539,5,19,-14,75,"2,-8,-175",1,0,0,-1,-1,0,78,83,77,60,83,10.23,10,13.0,-6.0,-990.0,16:54:07.392409,192.168.0.115
544,5,19,-14,75,"2,-8,-175",0,1,0,-1,-1,0,78,83,75,60,83,10.13,10,10.0,5.0,-998.0,16:54:07.490358,192.168.0.115
549,5,19,-14,75,"2,-8,-175",1,1,0,-1,0,0,78,83,75,60,83,10.21,10,2.0,11.0,-991.0,16:54:07.592770,192.168.0.115
554,5,13,-8,75,"-1,-7,-176",1,1,0,-1,0,0,78,83,74,60,83,10.18,10,9.0,4.0,-1003.0,16:54:07.695188,192.168.0.115
559,5,13,-8,75,"-1,-7,-176",0,1,0,-1,0,0,78,83,73,60,83,10.12,10,7.0,-11.0,-1010.0,16:54:07.797493,192.168.0.115
564,5,11,-5,74,"0,-7,-175",1,0,0,-1,0,0,78,83,72,60,83,10.12,11,25.0,4.0,-1017.0,16:54:07.899911,192.168.0.115
569,5,11,-5,74,"0,-7,-175",0,0,0,-1,0,0,78,83,71,60,83,10.12,11,24.0,-4.0,-1009.0,16:54:08.002329,192.168.0.115
574,5,7,0,73,"-2,-7,179",0,0,0,-1,0,0,78,83,71,60,83,10.08,11,1.0,0.0,-1014.0,16:54:08.101778,192.168.0.115
579,5,7,0,73,"-2,-7,179",0,0,0,-1,0,0,78,83,71,60,83,10.16,11,16.0,-3.0,-1012.0,16:54:08.203651,192.168.0.115
584,5,7,-3,72,"0,-7,-177",0,0,0,-1,0,0,78,83,70,60,83,10.17,11,13.0,-6.0,-990.0,16:54:08.305736,192.168.0.115
589,5,7,-3,72,"0,-7,-177",0,0,0,-1,0,0,78,83,70,60,83,10.12,11,14.0,-2.0,-1004.0,16:54:08.407787,192.168.0.115
594,5,7,-3,72,"0,-7,-177",0,0,0,-1,0,0,78,83,70,60,83,10.12,11,15.0,-2.0,-999.0,16:54:08.509732,192.168.0.115
599,5,5,-1,72,"0,-7,-178",0,0,0,0,0,0,77,83,70,60,83,10.11,11,-2.0,4.0,-1009.0,16:54:08.611649,192.168.0.115
604,5,5,-1,72,"0,-7,-178",0,0,0,0,0,0,77,83,70,60,83,10.16,11,6.0,4.0,-1008.0,16:54:08.713893,192.168.0.115
609,5,3,0,72,"0,-7,-177",0,0,0,0,0,0,77,83,70,60,83,10.14,11,-5.0,6.0,-1005.0,16:54:08.816872,192.168.0.115
614,5,3,0,72,"0,-7,-177",-1,0,0,0,0,0,77,83,70,60,83,10.09,12,-2.0,5.0,-1008.0,16:54:08.917925,192.168.0.115
619,5,4,0,71,"2,-7,-179",0,0,0,0,0,0,77,83,70,60,83,10.11,12,5.0,1.0,-1003.0,16:54:09.019817,192.168.0.115
624,5,4,0,71,"2,-7,-179",0,0,0,0,0,0,77,83,70,60,83,10.09,12,-1.0,-10.0,-990.0,16:54:09.121716,192.168.0.115
629,5,4,0,71,"2,-7,-179",0,0,0,0,0,0,77,83,70,60,83,10.14,12,-15.0,-9.0,-985.0,16:54:09.223740,192.168.0.115
631,5,4,0,71,"0,-7,-178",0,0,0,0,0,0,77,83,70,60,83,10.14,12,13.0,-14.0,-1007.0,16:54:09.274845,192.168.0.115
636,5,4,0,71,"0,-7,-178",0,0,0,0,0,0,77,83,70,60,83,10.2,12,-6.0,4.0,-1003.0,16:54:09.377244,192.168.0.115
641,5,4,0,72,"0,-7,-178",0,0,0,0,0,0,77,83,70,60,83,10.09,12,-3.0,-2.0,-1001.0,16:54:09.478885,192.168.0.115
646,5,4,0,72,"0,-7,-178",0,0,0,0,0,0,79,82,70,60,83,10.05,12,6.0,7.0,-1014.0,16:54:09.581760,192.168.0.115
652,5,4,0,72,"0,-7,-178",0,0,0,0,0,0,79,82,70,60,83,10.11,12,9.0,-12.0,-1016.0,16:54:09.683085,192.168.0.115
657,5,4,0,72,"0,-7,-178",0,0,0,0,0,0,79,82,70,60,83,10.12,12,5.0,-8.0,-999.0,16:54:09.785365,192.168.0.115
662,5,4,0,72,"0,-7,-178",0,0,0,0,0,0,79,82,70,60,83,10.07,13,0.0,-5.0,-996.0,16:54:09.887120,192.168.0.115
668,5,6,0,72,"0,-7,-177",0,0,0,0,0,0,79,82,70,60,83,10.17,13,-16.0,-3.0,-1004.0,16:54:09.988980,192.168.0.115
672,5,6,0,72,"0,-7,-177",0,0,0,0,0,0,79,82,71,60,83,10.12,13,-10.0,7.0,-995.0,16:54:10.097766,192.168.0.115
678,5,6,0,72,"0,-7,-177",0,0,0,0,0,0,79,82,71,60,83,10.16,13,23.0,-10.0,-1008.0,16:54:10.193023,192.168.0.115
684,5,6,0,72,"0,-7,-177",0,0,0,0,0,0,79,82,71,60,83,10.15,13,4.0,-1.0,-1005.0,16:54:10.294980,192.168.0.115
688,5,5,2,73,"-2,-7,-179",0,0,0,0,0,0,79,82,71,60,83,10.18,13,8.0,-11.0,-1003.0,16:54:10.396932,192.168.0.115
693,5,5,2,73,"-2,-7,-179",1,0,0,0,0,0,79,82,71,60,83,10.2,13,8.0,-13.0,-991.0,16:54:10.499992,192.168.0.115
698,5,5,2,73,"-2,-7,-179",1,0,0,0,0,0,79,82,71,60,83,10.17,13,0.0,-5.0,-1006.0,16:54:10.601253,192.168.0.115
704,5,7,1,73,"-2,-7,-178",1,0,0,0,0,0,79,82,71,60,83,10.11,13,-15.0,6.0,-1004.0,16:54:10.704424,192.168.0.115
709,5,7,1,73,"-2,-7,-178",1,0,0,0,0,0,79,82,71,60,83,10.06,13,5.0,-5.0,-1000.0,16:54:10.804883,192.168.0.115
714,5,10,-2,72,"0,-8,-176",1,0,0,0,0,0,79,82,72,60,83,10.12,14,15.0,-15.0,-1000.0,16:54:10.907712,192.168.0.115
719,5,10,-2,72,"0,-8,-176",1,0,0,0,0,0,79,82,72,60,83,10.12,14,0.0,-6.0,-995.0,16:54:11.013960,192.168.0.115
724,5,10,0,73,"0,-7,-177",1,0,0,0,0,0,79,82,71,60,83,10.14,14,2.0,-7.0,-993.0,16:54:11.110989,192.168.0.115
729,5,10,0,73,"0,-7,-177",1,0,0,0,0,0,79,82,71,60,83,10.16,14,14.0,-13.0,-1005.0,16:54:11.212970,192.168.0.115
734,5,11,0,72,"0,-7,-177",1,0,0,0,0,0,79,82,71,60,83,10.2,14,6.0,-7.0,-996.0,16:54:11.314937,192.168.0.115
739,5,11,0,72,"0,-7,-177",1,0,0,0,0,0,79,82,71,60,83,10.06,14,1.0,-6.0,-1015.0,16:54:11.416897,192.168.0.115
744,5,12,0,72,"0,-7,-176",1,0,0,0,0,0,79,82,71,60,83,10.15,14,0.0,-23.0,-995.0,16:54:11.519217,192.168.0.115
749,5,12,0,72,"0,-7,-176",1,1,0,0,0,0,79,82,71,60,83,10.2,14,16.0,-30.0,-985.0,16:54:11.621454,192.168.0.115
754,5,12,0,72,"0,-7,-176",1,1,0,0,0,0,79,82,71,60,83,10.09,14,25.0,3.0,-1005.0,16:54:11.723656,192.168.0.115
759,5,12,0,72,"0,-7,-176",1,1,0,0,0,0,79,82,71,60,83,10.16,14,10.0,-16.0,-991.0,16:54:11.825789,192.168.0.115
764,5,12,0,72,"0,-7,-176",1,0,0,0,0,0,79,82,71,60,83,10.18,15,-5.0,-10.0,-1000.0,16:54:11.927835,192.168.0.115
769,5,12,0,72,"0,-7,-176",1,0,0,0,0,0,79,82,71,60,83,10.16,15,-3.0,-5.0,-1004.0,16:54:12.029730,192.168.0.115
774,5,12,0,72,"0,-7,-176",1,1,0,0,0,0,79,82,70,60,83,10.17,15,24.0,-9.0,-985.0,16:54:12.131639,192.168.0.115
779,5,12,0,72,"0,-7,-176",1,0,0,0,0,0,79,82,70,60,83,10.17,15,4.0,-8.0,-1000.0,16:54:12.233690,192.168.0.115
784,5,12,0,72,"0,-7,-176",1,0,0,0,0,0,79,82,70,60,83,10.14,15,3.0,-15.0,-1001.0,16:54:12.335703,192.168.0.115
789,5,12,0,72,"0,-7,-176",1,0,0,0,0,0,79,82,70,60,83,10.1,15,19.0,-16.0,-1003.0,16:54:12.438078,192.168.0.115
794,5,12,0,71,"0,-7,-176",1,0,0,0,0,0,79,82,70,60,83,10.13,15,-11.0,-2.0,-1006.0,16:54:12.539631,192.168.0.115
799,5,12,0,71,"0,-7,-176",1,0,0,0,0,0,78,82,70,60,83,10.1,15,2.0,-19.0,-1002.0,16:54:12.641655,192.168.0.115
804,5,13,1,71,"0,-7,-177",0,1,0,0,0,0,78,82,70,60,83,10.08,15,24.0,-5.0,-1005.0,16:54:12.743584,192.168.0.115
809,5,13,1,71,"0,-7,-177",0,1,0,0,0,0,78,82,69,60,83,10.11,15,33.0,-21.0,-981.0,16:54:12.845722,192.168.0.115
814,5,13,0,71,"0,-7,-176",1,1,0,0,0,0,78,82,69,60,83,10.11,16,-2.0,0.0,-1004.0,16:54:12.947663,192.168.0.115
819,5,13,0,71,"0,-7,-176",1,1,0,0,0,0,78,82,69,60,83,10.09,16,0.0,-3.0,-989.0,16:54:13.049746,192.168.0.115
824,5,12,2,71,"-2,-7,-177",1,0,0,0,0,0,78,82,69,60,83,10.1,16,23.0,-7.0,-1015.0,16:54:13.151558,192.168.0.115
829,5,12,2,71,"-2,-7,-177",1,0,0,0,0,0,78,82,69,60,83,10.08,16,7.0,-9.0,-1007.0,16:54:13.253656,192.168.0.115
834,5,12,2,71,"-2,-7,-177",1,0,0,0,0,0,78,82,69,60,83,10.1,16,4.0,-1.0,-998.0,16:54:13.355655,192.168.0.115
839,5,12,2,71,"-2,-7,-177",1,0,0,0,0,0,78,82,69,60,83,10.14,16,16.0,-4.0,-1001.0,16:54:13.457829,192.168.0.115
844,5,12,2,71,"-2,-7,-177",1,0,0,0,0,0,78,82,69,60,83,10.12,16,8.0,9.0,-965.0,16:54:13.564860,192.168.0.115
849,5,12,1,70,"-1,-8,-178",1,0,0,0,0,0,78,83,68,50,83,10.04,16,11.0,-5.0,-931.0,16:54:13.662756,192.168.0.115
851,5,12,1,70,"-1,-8,-178",1,0,0,0,0,1,78,83,68,50,83,10.07,16,2.0,0.0,-921.0,16:54:13.714087,192.168.0.115
859,5,12,0,68,"0,-8,-178",0,0,0,0,0,2,78,83,65,50,83,10.09,17,-3.0,0.0,-929.0,16:54:13.895301,192.168.0.115
864,5,12,0,68,"0,-8,-178",0,0,0,0,0,2,78,83,62,50,83,10.0,17,14.0,1.0,-912.0,16:54:14.109779,192.168.0.115
869,5,12,0,68,"0,-8,-178",0,0,0,0,0,3,78,83,59,50,83,10.07,17,9.0,5.0,-944.0,16:54:14.110747,192.168.0.115
874,5,11,0,63,"0,-7,-179",0,0,1,0,0,4,78,83,54,40,83,10.17,17,0.0,-4.0,-960.0,16:54:14.316091,192.168.0.115
879,5,11,0,63,"0,-7,-179",0,0,1,0,0,4,78,83,50,40,83,10.0,17,4.0,-14.0,-980.0,16:54:14.317029,192.168.0.115
884,5,13,0,52,"0,-7,-179",0,0,0,0,0,4,78,83,45,30,83,10.01,17,18.0,-1.0,-993.0,16:54:14.375766,192.168.0.115
889,5,13,0,52,"0,-7,-179",0,0,0,0,0,4,78,83,40,30,83,9.96,17,14.0,-1.0,-995.0,16:54:14.477853,192.168.0.115
894,5,14,0,42,"1,-7,-178",1,0,0,0,0,4,78,83,36,20,83,9.84,17,14.0,-6.0,-990.0,16:54:14.724019,192.168.0.115
899,5,14,0,42,"1,-7,-178",1,0,0,0,0,4,79,83,31,20,83,9.82,17,-1.0,5.0,-1001.0,16:54:14.724855,192.168.0.115
904,5,14,0,42,"1,-7,-178",1,0,0,0,0,4,79,83,26,10,83,9.72,17,-6.0,0.0,-1013.0,16:54:14.930094,192.168.0.115
909,5,14,0,42,"1,-7,-178",0,0,0,0,0,4,79,83,21,10,83,9.69,18,6.0,2.0,-1006.0,16:54:14.931028,192.168.0.115
914,5,14,0,42,"1,-7,-178",0,0,0,0,0,4,79,83,18,10,83,9.55,18,-9.0,3.0,-1016.0,16:54:15.136809,192.168.0.115
919,5,14,0,42,"1,-7,-178",0,0,0,0,0,4,79,83,13,0,83,9.17,18,10.0,-11.0,-1031.0,16:54:15.137750,192.168.0.115
924,5,14,0,42,"1,-7,-178",0,0,0,0,0,4,79,83,10,0,83,8.66,18,27.0,-10.0,-1011.0,16:54:15.342176,192.168.0.115
929,5,14,0,42,"1,-7,-178",0,0,0,0,0,3,79,83,10,0,83,7.96,18,16.0,-15.0,-1024.0,16:54:15.343128,192.168.0.115
935,5,14,0,42,"1,-7,-178",0,0,0,0,0,3,79,83,10,0,83,5.91,18,-7.0,4.0,-1105.0,16:54:15.548111,192.168.0.115
940,5,14,0,42,"1,-7,-178",-2,0,0,0,0,0,79,83,10,0,83,7.44,18,-9.0,22.0,-627.0,16:54:15.549291,192.168.0.115
945,5,14,0,42,"1,-7,-178",0,0,-1,0,0,1,79,83,10,0,83,8.26,18,-129.0,-24.0,-272.0,16:54:15.754506,192.168.0.115
949,5,14,0,42,"1,-7,-178",0,0,0,0,0,0,79,83,10,0,83,8.76,18,-39.0,-32.0,-990.0,16:54:15.755361,192.168.0.115
954,5,14,0,42,"1,-7,-178",0,0,0,0,0,0,79,83,10,0,83,8.97,18,-8.0,-14.0,-989.0,16:54:15.962922,192.168.0.115
960,5,14,0,42,"1,-7,-178",0,0,0,0,0,0,79,83,10,0,83,9.12,18,-11.0,-4.0,-1003.0,16:54:15.963981,192.168.0.115
965,5,14,0,42,"1,-7,-178",0,0,0,0,0,0,79,83,10,0,83,9.15,18,-12.0,-4.0,-996.0,16:54:16.007601,192.168.0.115
970,5,14,0,42,"1,-7,-178",0,0,0,0,0,0,79,83,10,0,83,9.2,18,-16.0,-4.0,-1000.0,16:54:16.109421,192.168.0.115
975,5,14,0,42,"1,-7,-178",0,0,0,-1,0,0,79,83,10,0,83,9.22,18,-16.0,-11.0,-1004.0,16:54:16.211585,192.168.0.115
980,5,14,0,42,"1,-7,-178",0,0,0,-1,0,0,79,83,10,0,83,9.23,18,-25.0,-8.0,-1007.0,16:54:16.313507,192.168.0.115
984,5,14,0,42,"1,-7,-178",0,0,0,-1,0,0,79,83,10,0,83,9.22,18,-8.0,0.0,-997.0,16:54:16.364622,192.168.0.115
989,5,14,0,42,"1,-7,-178",0,0,0,-1,0,0,79,83,10,0,83,9.22,18,-2.0,-1.0,-991.0,16:54:16.480264,192.168.0.115
994,5,14,0,42,"1,-7,-178",0,0,0,-1,0,0,78,82,10,0,83,9.25,18,-5.0,-3.0,-1002.0,16:54:16.568641,192.168.0.115
999,5,14,0,42,"1,-7,-178",0,0,0,-1,0,0,78,82,10,0,83,9.24,18,-7.0,-2.0,-1001.0,16:54:16.670609,192.168.0.115
