,mid,x,y,z,mpry,pitch,roll,yaw,vgx,vgy,vgz,templ,temph,tof,h,bat,baro,time,agx,agy,agz,timestamp,address
0,-1,-100,-100,-100,"-1,-1,-1",0,0,-72,0,0,0,71,73,10,0,76,-105.46,0,0.0,0.0,-1000.0,16:43:11.668431,192.168.0.114
1,-1,-100,-100,-100,"-1,-1,-1",0,0,-72,0,0,0,71,73,10,0,76,-105.49,0,0.0,-1.0,-998.0,16:43:11.770477,192.168.0.114
2,-1,-100,-100,-100,"-1,-1,-1",0,0,-72,0,0,0,71,73,10,0,76,-105.46,0,0.0,0.0,-1000.0,16:43:11.872239,192.168.0.114
3,-1,-100,-100,-100,"-1,-1,-1",0,0,-72,0,0,0,71,73,10,0,76,-105.47,0,0.0,0.0,-1000.0,16:43:11.974385,192.168.0.114
4,-1,-100,-100,-100,"-1,-1,-1",0,0,-72,0,0,0,71,73,10,0,76,-105.47,0,0.0,-1.0,-999.0,16:43:12.076595,192.168.0.114
5,-1,-100,-100,-100,"-1,-1,-1",0,0,-72,0,0,0,71,74,10,0,76,-105.47,0,-7.0,4.0,-1001.0,16:43:12.178128,192.168.0.114
6,-1,-100,-100,-100,"-1,-1,-1",0,0,-72,0,0,0,71,74,10,0,76,-105.47,0,0.0,10.0,-1002.0,16:43:12.230674,192.168.0.114
7,-1,-100,-100,-100,"-1,-1,-1",0,0,-72,0,0,0,71,74,10,0,76,-105.47,0,-8.0,6.0,-1002.0,16:43:12.341506,192.168.0.114
8,-1,-100,-100,-100,"-1,-1,-1",0,1,-71,0,0,0,71,74,10,0,76,-105.47,0,-14.0,-3.0,-1005.0,16:43:12.435579,192.168.0.114
9,-1,-100,-100,-100,"-1,-1,-1",0,0,-71,0,0,-3,71,74,10,0,76,-105.47,0,5.0,1.0,-1081.0,16:43:12.537275,192.168.0.114
10,-1,-100,-100,-100,"-1,-1,-1",0,-1,-71,0,0,-6,71,74,10,0,76,-105.47,0,1.0,9.0,-1204.0,16:43:12.641006,192.168.0.114
11,-1,-100,-100,-100,"-1,-1,-1",0,-1,-71,0,0,-8,71,74,17,10,76,-105.1,0,-11.0,-4.0,-1044.0,16:43:12.738940,192.168.0.114
12,-1,-100,-100,-100,"-1,-1,-1",0,0,-71,0,0,-8,71,74,26,20,76,-105.05,0,-17.0,-4.0,-996.0,16:43:12.841065,192.168.0.114
13,-1,-100,-100,-100,"-1,-1,-1",0,0,-71,0,0,-8,71,74,34,20,76,-105.0,1,-1.0,-2.0,-939.0,16:43:12.943101,192.168.0.114
14,-1,-100,-100,-100,"-1,-1,-1",0,0,-71,0,0,-7,71,74,42,30,76,-104.93,1,-1.0,0.0,-908.0,16:43:13.045460,192.168.0.114
15,4,20,0,45,"0,0,-179",0,0,-71,0,0,-6,72,74,50,40,76,-104.88,1,-9.0,1.0,-880.0,16:43:13.147003,192.168.0.114
16,4,21,-1,48,"1,0,-178",0,0,-71,0,0,-5,72,74,56,40,76,-104.79,1,-4.0,1.0,-876.0,16:43:13.249473,192.168.0.114
17,4,20,-1,58,"0,0,-179",0,0,-71,0,0,-4,72,74,62,50,76,-104.67,1,-2.0,-9.0,-901.0,16:43:13.350888,192.168.0.114
18,4,20,-1,63,"1,0,-178",0,0,-71,0,0,-3,72,74,65,50,76,-104.71,1,2.0,-2.0,-903.0,16:43:13.452880,192.168.0.114
19,4,23,-1,65,"4,0,-179",0,0,-71,0,0,-2,72,74,69,50,76,-104.6,1,-1.0,6.0,-930.0,16:43:13.554679,192.168.0.114
20,4,18,-3,70,"1,0,-177",0,0,-71,0,0,-1,72,74,71,60,76,-104.61,1,-1.0,10.0,-953.0,16:43:13.656984,192.168.0.114
21,4,16,-2,73,"0,0,-178",0,0,-71,0,0,-1,72,74,73,60,76,-104.59,1,-10.0,0.0,-957.0,16:43:13.758876,192.168.0.114
22,4,15,-2,76,"-1,0,-178",0,0,-71,0,0,0,72,74,74,60,76,-104.6,1,-2.0,10.0,-978.0,16:43:13.860899,192.168.0.114
23,4,15,-3,77,"0,0,-177",0,0,-71,0,0,0,72,74,76,60,76,-104.59,2,-7.0,2.0,-982.0,16:43:13.962873,192.168.0.114
24,4,15,-3,78,"0,0,-177",0,0,-71,0,0,0,72,74,77,60,76,-104.55,2,-1.0,-4.0,-993.0,16:43:14.064993,192.168.0.114
25,4,14,0,80,"-1,0,-179",0,0,-71,0,0,0,72,74,79,60,76,-104.59,2,3.0,2.0,-997.0,16:43:14.167480,192.168.0.114
26,4,15,-2,80,"0,0,-178",0,0,-71,0,0,0,72,74,80,60,76,-104.57,2,-17.0,1.0,-996.0,16:43:14.269238,192.168.0.114
27,4,15,-1,82,"0,0,-178",0,0,-71,0,0,0,72,74,81,70,76,-104.55,2,-4.0,3.0,-988.0,16:43:14.370602,192.168.0.114
28,4,13,-2,83,"0,0,-177",0,0,-71,0,0,0,72,74,82,70,76,-104.5,2,-8.0,5.0,-992.0,16:43:14.472563,192.168.0.114
29,4,12,-2,84,"-1,0,-177",0,0,-71,0,0,0,72,74,82,70,76,-104.49,2,-12.0,-2.0,-980.0,16:43:14.574674,192.168.0.114
30,4,12,-2,85,"-1,0,-178",0,0,-71,0,0,0,72,74,84,70,76,-104.49,2,-5.0,3.0,-985.0,16:43:14.676726,192.168.0.114
31,4,11,-1,86,"-1,0,-178",0,0,-71,0,0,0,72,74,84,70,76,-104.57,2,-5.0,-1.0,-990.0,16:43:14.778763,192.168.0.114
32,4,12,-3,87,"0,0,-177",0,0,-71,0,0,0,72,74,85,70,76,-104.55,2,-2.0,0.0,-977.0,16:43:14.880687,192.168.0.114
33,4,11,-1,87,"-1,0,-178",0,0,-71,0,0,0,72,74,85,70,76,-104.5,3,-12.0,3.0,-996.0,16:43:14.982648,192.168.0.114
34,4,11,-3,87,"0,0,-177",0,0,-71,0,0,0,72,74,85,70,76,-104.5,3,-2.0,3.0,-981.0,16:43:15.084935,192.168.0.114
35,4,11,-4,87,"0,0,-177",0,0,-71,0,0,0,72,75,86,70,76,-104.52,3,6.0,-2.0,-996.0,16:43:15.186892,192.168.0.114
36,4,11,-3,88,"0,0,-177",0,0,-71,0,0,0,72,75,86,70,76,-104.54,3,-11.0,-2.0,-981.0,16:43:15.237771,192.168.0.114
37,4,10,-3,88,"-1,0,-177",0,0,-71,0,0,0,72,75,86,70,76,-104.49,3,-5.0,-2.0,-1003.0,16:43:15.341385,192.168.0.114
38,4,10,-3,88,"-1,0,-177",0,0,-71,0,0,0,72,75,86,70,76,-104.52,3,-8.0,4.0,-1008.0,16:43:15.441976,192.168.0.114
39,4,10,-2,88,"-1,0,-178",0,0,-71,0,0,0,72,75,85,70,76,-104.46,3,-16.0,-4.0,-984.0,16:43:15.543986,192.168.0.114
40,4,11,-2,87,"0,0,-177",0,0,-71,0,0,0,72,75,85,70,76,-104.45,3,-13.0,3.0,-1000.0,16:43:15.645829,192.168.0.114
41,4,11,-3,87,"0,0,-177",0,0,-71,0,0,0,72,75,85,70,76,-104.51,3,-6.0,-3.0,-986.0,16:43:15.747913,192.168.0.114
42,4,13,-1,86,"0,0,-178",0,0,-71,0,0,0,72,75,85,70,76,-104.47,3,0.0,0.0,-999.0,16:43:15.953175,192.168.0.114
43,4,11,-3,86,"0,0,-177",0,0,-71,0,0,0,72,75,84,70,76,-104.42,4,-11.0,-9.0,-986.0,16:43:15.953358,192.168.0.114
44,4,10,-2,86,"0,0,-178",0,0,-71,0,0,0,72,75,83,70,76,-104.5,4,-11.0,1.0,-1010.0,16:43:16.053904,192.168.0.114
45,4,9,-3,85,"-1,0,-177",0,0,-71,0,0,0,72,75,83,70,76,-104.47,4,-3.0,-2.0,-1002.0,16:43:16.155888,192.168.0.114
46,4,10,-3,85,"0,0,-177",0,0,-71,0,0,0,72,75,83,70,76,-104.51,4,-13.0,-1.0,-995.0,16:43:16.257635,192.168.0.114
47,4,9,-2,85,"-1,0,-178",0,0,-71,0,0,0,72,75,82,70,76,-104.45,4,-11.0,2.0,-1007.0,16:43:16.360116,192.168.0.114
48,4,10,-1,84,"0,0,-178",0,0,-71,0,0,0,72,75,82,70,76,-104.53,4,-3.0,-1.0,-1009.0,16:43:16.463321,192.168.0.114
49,4,11,-5,83,"0,0,-176",0,0,-71,0,0,0,72,75,82,70,76,-104.54,4,-7.0,-1.0,-992.0,16:43:16.563980,192.168.0.114
50,4,10,-2,83,"-1,0,-178",0,0,-71,0,0,0,72,75,81,70,76,-104.51,4,-14.0,5.0,-988.0,16:43:16.665673,192.168.0.114
51,4,9,-3,83,"-1,0,-177",0,0,-71,0,0,0,72,75,81,70,76,-104.52,4,-3.0,-5.0,-1005.0,16:43:16.770845,192.168.0.114
52,4,9,-2,83,"-1,0,-178",0,0,-71,0,0,0,72,75,80,70,76,-104.53,4,-8.0,-5.0,-1010.0,16:43:16.869554,192.168.0.114
53,4,10,-4,82,"0,0,-177",0,0,-71,0,0,0,72,75,81,70,76,-104.5,5,0.0,4.0,-1003.0,16:43:16.971794,192.168.0.114
54,4,10,-4,82,"0,0,-177",0,0,-71,0,0,0,72,75,80,70,76,-104.46,5,-14.0,-6.0,-984.0,16:43:17.073662,192.168.0.114
55,4,11,-3,82,"0,0,-178",0,0,-71,0,0,0,72,74,80,70,76,-104.54,5,-4.0,0.0,-1003.0,16:43:17.175663,192.168.0.114
56,4,11,-3,82,"0,0,-178",0,0,-71,0,0,0,72,74,80,70,76,-104.53,5,-5.0,-9.0,-989.0,16:43:17.277886,192.168.0.114
57,4,10,-3,81,"0,0,-177",0,0,-71,0,0,0,72,74,79,70,76,-104.52,5,-11.0,-4.0,-1009.0,16:43:17.383039,192.168.0.114
58,4,13,-3,80,"1,0,-177",0,0,-71,0,0,0,72,74,79,70,76,-104.51,5,-10.0,-4.0,-998.0,16:43:17.481684,192.168.0.114
59,4,11,-3,81,"0,0,-178",0,0,-71,0,0,0,72,74,79,70,76,-104.5,5,4.0,11.0,-1025.0,16:43:17.583710,192.168.0.114
60,4,10,-2,81,"0,0,-178",0,0,-71,0,0,0,72,74,79,70,76,-104.53,5,4.0,-7.0,-999.0,16:43:17.765106,192.168.0.114
61,4,10,-3,81,"-1,0,-178",0,0,-71,0,0,0,72,74,80,70,76,-104.53,5,-15.0,-8.0,-991.0,16:43:17.787593,192.168.0.114
62,4,10,-3,81,"-1,0,-178",0,0,-71,0,0,0,72,74,79,70,76,-104.53,5,-6.0,0.0,-1008.0,16:43:17.889568,192.168.0.114
63,4,9,-3,81,"-1,0,-178",0,0,-71,0,0,0,72,74,79,70,76,-104.58,6,-7.0,-9.0,-1008.0,16:43:17.991495,192.168.0.114
64,4,10,-4,80,"0,0,-177",0,0,-71,0,0,0,72,74,79,70,76,-104.49,6,-17.0,0.0,-993.0,16:43:18.093598,192.168.0.114
65,4,10,-3,81,"0,0,-178",0,0,-71,0,0,0,72,75,79,70,76,-104.47,6,5.0,0.0,-1005.0,16:43:18.195627,192.168.0.114
66,4,13,-3,80,"1,0,-178",0,0,-71,0,0,0,72,75,79,70,76,-104.53,6,-2.0,4.0,-1007.0,16:43:18.297891,192.168.0.114
67,4,11,-4,80,"0,0,-177",0,0,-71,0,0,0,72,75,79,70,76,-104.58,6,0.0,2.0,-1007.0,16:43:18.399362,192.168.0.114
68,4,10,-5,80,"0,0,-177",0,0,-71,0,0,0,72,75,79,70,76,-104.56,6,-3.0,0.0,-1009.0,16:43:18.503262,192.168.0.114
69,4,10,-5,80,"0,0,-177",0,0,-71,0,0,0,72,75,79,70,76,-104.49,6,-5.0,1.0,-1005.0,16:43:18.603128,192.168.0.114
70,4,8,-4,81,"-1,0,-177",0,0,-71,0,0,0,72,75,79,70,76,-104.52,6,-12.0,5.0,-1010.0,16:43:18.705473,192.168.0.114
71,4,8,-4,81,"-1,0,-177",0,0,-71,0,0,0,72,75,79,70,76,-104.5,6,-6.0,-4.0,-1012.0,16:43:18.807623,192.168.0.114
72,4,8,-4,81,"-1,0,-177",-2,0,-71,0,0,0,72,75,80,70,76,-104.57,6,-7.0,-2.0,-1010.0,16:43:18.990564,192.168.0.114
73,4,11,-2,80,"2,0,-179",-3,0,-71,0,0,0,72,75,79,70,76,-104.57,7,-8.0,0.0,-973.0,16:43:19.011692,192.168.0.114
74,4,11,-2,80,"2,0,-179",-2,0,-71,0,0,0,72,75,78,70,76,-104.56,7,-12.0,0.0,-970.0,16:43:19.113425,192.168.0.114
75,4,11,-3,79,"1,0,-178",-1,0,-71,0,-1,0,72,75,76,60,76,-104.54,7,-16.0,8.0,-999.0,16:43:19.215496,192.168.0.114
76,4,11,-3,79,"1,0,-178",-1,0,-71,0,-1,0,72,75,75,60,76,-104.61,7,-13.0,0.0,-1009.0,16:43:19.317416,192.168.0.114
77,4,13,-4,76,"0,0,-177",0,0,-71,0,-1,0,72,75,74,60,76,-104.59,7,-19.0,13.0,-1022.0,16:43:19.419455,192.168.0.114
78,4,13,-4,76,"0,0,-177",0,0,-71,0,-1,0,72,75,73,60,76,-104.63,7,-4.0,14.0,-1000.0,16:43:19.521636,192.168.0.114
79,4,15,-2,74,"0,0,-178",0,0,-71,0,-1,0,72,75,73,60,76,-104.58,7,-29.0,7.0,-1003.0,16:43:19.623353,192.168.0.114
80,4,15,-2,74,"0,0,-178",0,0,-71,0,-1,0,72,75,72,60,76,-104.57,7,-2.0,10.0,-996.0,16:43:19.725569,192.168.0.114
81,4,15,-2,74,"0,0,-178",0,0,-71,0,-1,0,72,75,72,60,76,-104.6,7,-12.0,5.0,-1039.0,16:43:19.827216,192.168.0.114
82,4,18,-3,72,"0,0,-176",1,0,-71,0,0,0,72,75,71,60,76,-104.58,7,-3.0,3.0,-1029.0,16:43:19.929377,192.168.0.114
83,4,18,-3,72,"0,0,-176",0,0,-71,0,0,0,72,75,71,60,76,-104.58,8,-7.0,10.0,-1022.0,16:43:20.031368,192.168.0.114
84,4,19,-3,71,"0,0,-176",-1,0,-71,0,0,0,72,75,71,60,76,-104.6,8,-3.0,1.0,-1008.0,16:43:20.086731,192.168.0.114
85,4,19,-3,71,"0,0,-176",-2,0,-71,0,0,0,73,75,71,60,76,-104.55,8,-5.0,-2.0,-1009.0,16:43:20.314691,192.168.0.114
86,4,18,-3,71,"1,0,-177",-1,0,-71,0,0,0,73,75,71,60,76,-104.61,8,-17.0,-10.0,-1015.0,16:43:20.344921,192.168.0.114
87,4,18,-3,71,"1,0,-177",-1,0,-71,0,0,0,73,75,71,60,76,-104.67,8,-12.0,1.0,-998.0,16:43:20.439316,192.168.0.114
88,4,20,-4,71,"1,0,-177",-1,0,-71,0,-1,0,73,75,70,60,76,-104.64,8,-9.0,-10.0,-1003.0,16:43:20.541410,192.168.0.114
89,4,20,-4,71,"1,0,-177",-1,0,-71,0,-1,0,73,75,71,60,76,-104.62,8,-7.0,-6.0,-994.0,16:43:20.643514,192.168.0.114
90,4,24,-7,70,"3,-1,-176",-1,0,-71,0,-1,0,73,75,71,60,76,-104.65,8,-14.0,-1.0,-1000.0,16:43:20.745411,192.168.0.114
91,4,24,-7,70,"3,-1,-176",-1,0,-71,0,-1,0,73,75,72,60,76,-104.6,8,-25.0,0.0,-992.0,16:43:20.847370,192.168.0.114
92,4,27,-6,70,"3,-1,-176",-1,0,-71,0,-1,0,73,75,71,60,76,-104.62,9,-16.0,0.0,-998.0,16:43:20.951676,192.168.0.114
93,4,27,-6,70,"3,-1,-176",-1,0,-71,0,-1,0,73,75,71,60,76,-104.68,9,-12.0,0.0,-1007.0,16:43:21.051359,192.168.0.114
94,4,27,-6,70,"3,-1,-176",-1,0,-71,0,-1,0,73,75,71,60,76,-104.63,9,-13.0,3.0,-1018.0,16:43:21.102060,192.168.0.114
95,4,28,-8,71,"2,-1,-176",-1,0,-71,0,-1,0,73,75,72,60,76,-104.53,9,-37.0,8.0,-971.0,16:43:21.204446,192.168.0.114
96,4,28,-8,71,"2,-1,-176",-1,0,-71,0,-1,0,73,75,72,60,76,-104.57,9,-12.0,7.0,-999.0,16:43:21.306161,192.168.0.114
97,4,34,-8,70,"3,-1,-177",-1,0,-71,0,-1,0,73,75,71,60,76,-104.63,9,-17.0,1.0,-999.0,16:43:21.408234,192.168.0.114
98,4,34,-8,70,"3,-1,-177",-1,0,-71,0,-1,0,73,75,72,60,76,-104.6,9,-17.0,1.0,-990.0,16:43:21.510102,192.168.0.114
99,4,38,-9,69,"4,-1,-177",-1,0,-71,0,-1,0,73,75,72,60,76,-104.59,9,-34.0,16.0,-1001.0,16:43:21.614316,192.168.0.114
100,4,38,-9,69,"4,-1,-177",-1,0,-71,0,-1,0,73,75,72,60,76,-104.7,9,-19.0,12.0,-996.0,16:43:21.713972,192.168.0.114
101,4,38,-9,69,"4,-1,-177",-1,0,-71,0,-1,0,73,75,72,60,76,-104.72,9,-32.0,10.0,-991.0,16:43:21.816059,192.168.0.114
102,4,39,-11,71,"2,-1,-177",-1,0,-71,0,-1,0,73,75,72,60,76,-104.67,10,-17.0,13.0,-1006.0,16:43:21.918407,192.168.0.114
103,4,39,-11,71,"2,-1,-177",-1,0,-71,0,-1,0,73,75,72,60,76,-104.62,10,-24.0,-7.0,-985.0,16:43:22.019979,192.168.0.114
104,4,45,-14,70,"3,-2,-176",-1,0,-71,0,-1,0,73,75,72,60,76,-104.61,10,-29.0,6.0,-995.0,16:43:22.123187,192.168.0.114
105,4,45,-14,70,"3,-2,-176",-1,0,-71,0,-1,0,73,76,72,60,76,-104.62,10,-24.0,2.0,-998.0,16:43:22.224092,192.168.0.114
106,4,45,-14,70,"3,-2,-176",-1,0,-71,0,-1,0,73,76,72,60,76,-104.64,10,-24.0,13.0,-984.0,16:43:22.326030,192.168.0.114
107,4,45,-14,70,"3,-2,-176",-1,0,-71,0,-1,0,73,76,72,60,76,-104.63,10,-21.0,7.0,-994.0,16:43:22.427912,192.168.0.114
108,1,-24,33,71,"-2,-3,178",-1,0,-71,0,-1,0,73,76,73,60,76,-104.59,10,-24.0,2.0,-1004.0,16:43:22.529936,192.168.0.114
109,1,-24,33,71,"-2,-3,178",-1,0,-71,0,-1,0,73,76,73,60,76,-104.58,10,-42.0,2.0,-971.0,16:43:22.631837,192.168.0.114
110,1,-19,21,77,"0,-1,-174",-1,0,-71,0,-1,0,73,76,73,60,76,-104.65,10,-23.0,9.0,-1001.0,16:43:22.882346,192.168.0.114
111,1,-19,21,77,"0,-1,-174",-1,0,-71,0,-1,0,73,76,73,60,76,-104.59,10,-13.0,8.0,-998.0,16:43:22.887000,192.168.0.114
112,1,-19,21,77,"0,-1,-174",-1,0,-71,0,-1,0,73,76,73,60,76,-104.53,11,-14.0,18.0,-994.0,16:43:22.937627,192.168.0.114
113,1,-19,21,77,"0,-1,-174",-1,0,-71,0,-1,0,73,76,73,60,76,-104.59,11,-31.0,6.0,-986.0,16:43:23.039758,192.168.0.114
114,1,-19,21,77,"0,-1,-174",-1,0,-71,0,-1,0,73,76,72,60,76,-104.54,11,-8.0,19.0,-997.0,16:43:23.142071,192.168.0.114
115,1,-13,27,72,"-2,-2,179",-1,0,-71,0,-1,0,73,75,72,60,76,-104.67,11,-18.0,9.0,-999.0,16:43:23.244756,192.168.0.114
116,1,-13,27,72,"-2,-2,179",-1,0,-71,0,-1,0,73,75,72,60,76,-104.72,11,-20.0,5.0,-1002.0,16:43:23.452710,192.168.0.114
117,1,-7,23,74,"0,-2,-178",-1,0,-71,0,-1,0,73,75,72,60,76,-104.66,11,-23.0,3.0,-984.0,16:43:23.452933,192.168.0.114
118,1,-7,23,74,"0,-2,-178",-1,0,-72,0,-1,0,73,75,72,60,76,-104.67,11,-21.0,11.0,-1009.0,16:43:23.549776,192.168.0.114
119,1,-3,24,73,"0,-2,-179",-1,0,-72,0,-1,0,73,75,72,60,76,-104.59,11,-22.0,8.0,-995.0,16:43:23.700690,192.168.0.114
120,1,-3,24,73,"0,-2,-179",-1,0,-72,0,-1,0,73,75,71,60,76,-104.65,11,-26.0,13.0,-1005.0,16:43:23.753749,192.168.0.114
121,1,-3,24,73,"0,-2,-179",-1,0,-72,0,-1,0,73,75,72,60,76,-104.64,11,-29.0,3.0,-994.0,16:43:23.855643,192.168.0.114
122,1,0,22,74,"0,-3,-178",-1,0,-72,0,-1,0,73,75,71,60,76,-104.61,12,-20.0,-2.0,-987.0,16:43:23.957657,192.168.0.114
123,1,0,22,74,"0,-3,-178",-1,0,-71,0,-1,0,73,75,71,60,76,-104.6,12,-26.0,0.0,-1000.0,16:43:24.059657,192.168.0.114
124,1,5,22,73,"0,-3,-179",-1,0,-71,0,-1,0,73,75,72,60,76,-104.6,12,-20.0,2.0,-985.0,16:43:24.162478,192.168.0.114
125,1,5,22,73,"0,-3,-179",-1,0,-71,0,-1,0,73,75,72,60,76,-104.67,12,-13.0,-1.0,-1007.0,16:43:24.263880,192.168.0.114
126,1,10,22,73,"1,-3,-179",-1,0,-71,0,-1,0,73,75,72,60,76,-104.65,12,3.0,-15.0,-1002.0,16:43:24.417729,192.168.0.114
127,1,10,22,73,"1,-3,-179",-1,0,-71,0,-1,0,73,75,72,60,76,-104.59,12,-5.0,5.0,-974.0,16:43:24.467851,192.168.0.114
128,1,12,23,74,"0,-3,179",-1,0,-71,0,-1,0,73,75,72,60,76,-104.64,12,-35.0,0.0,-989.0,16:43:24.569498,192.168.0.114
129,1,12,23,74,"0,-3,179",-1,0,-71,0,-1,0,73,75,73,60,76,-104.58,12,-29.0,1.0,-988.0,16:43:24.671624,192.168.0.114
130,1,12,23,74,"0,-3,179",-1,0,-71,0,-1,0,73,75,73,60,76,-104.56,12,-15.0,5.0,-1001.0,16:43:24.773698,192.168.0.114
131,1,16,25,73,"0,-2,178",-1,0,-71,0,-1,0,73,75,73,60,76,-104.53,12,-18.0,6.0,-988.0,16:43:24.875534,192.168.0.114
132,1,16,25,73,"0,-2,178",-1,0,-71,0,-1,0,73,75,73,60,76,-104.57,13,-15.0,-11.0,-988.0,16:43:24.977786,192.168.0.114
133,1,22,21,74,"1,-3,-179",-1,0,-71,0,-1,0,73,75,73,60,76,-104.51,13,-30.0,0.0,-994.0,16:43:25.079526,192.168.0.114
134,1,22,21,74,"1,-3,-179",-1,0,-71,0,-1,0,73,75,73,60,76,-104.48,13,-19.0,4.0,-994.0,16:43:25.181609,192.168.0.114
135,1,23,22,75,"0,-3,-179",-1,0,-71,0,-1,0,73,76,73,60,76,-104.6,13,-20.0,10.0,-1006.0,16:43:25.302312,192.168.0.114
136,1,23,22,75,"0,-3,-179",-1,0,-71,0,-1,0,73,76,73,60,76,-104.55,13,-14.0,8.0,-997.0,16:43:25.385538,192.168.0.114
137,1,28,18,76,"0,-4,-178",-1,0,-71,0,-1,0,73,76,73,60,76,-104.58,13,-4.0,-5.0,-1004.0,16:43:25.487528,192.168.0.114
138,1,28,18,76,"0,-4,-178",-1,0,-71,0,-1,0,73,76,73,60,76,-104.59,13,-20.0,2.0,-1000.0,16:43:25.589497,192.168.0.114
139,1,28,18,76,"0,-4,-178",-1,0,-71,0,-1,0,73,76,73,60,76,-104.58,13,-17.0,7.0,-996.0,16:43:25.691322,192.168.0.114
140,1,30,19,77,"-1,-3,-178",-1,0,-71,0,-1,0,73,76,73,60,76,-104.64,13,-10.0,6.0,-1003.0,16:43:25.793469,192.168.0.114
141,1,30,19,77,"-1,-3,-178",-1,0,-71,0,-1,0,73,76,73,60,76,-104.62,13,-21.0,1.0,-1003.0,16:43:25.895225,192.168.0.114
142,1,34,18,77,"0,-3,-178",-1,0,-71,0,-1,0,73,76,73,60,76,-104.64,14,-27.0,0.0,-982.0,16:43:25.997533,192.168.0.114
143,1,34,18,77,"0,-3,-178",-1,0,-71,0,-1,0,73,76,73,60,76,-104.69,14,-22.0,6.0,-1010.0,16:43:26.099489,192.168.0.114
144,1,37,20,76,"-1,-3,179",-1,0,-71,0,-1,0,73,76,73,60,76,-104.69,14,-19.0,5.0,-995.0,16:43:26.201378,192.168.0.114
145,1,37,20,76,"-1,-3,179",-1,0,-71,0,-1,0,73,75,73,60,76,-104.73,14,-17.0,7.0,-988.0,16:43:26.303828,192.168.0.114
146,1,37,20,76,"-1,-3,179",-1,0,-71,0,-1,0,73,75,73,60,76,-104.62,14,-20.0,4.0,-1005.0,16:43:26.405470,192.168.0.114
147,1,45,27,69,"2,0,174",-1,0,-71,0,-1,0,73,75,72,60,76,-104.62,14,-14.0,17.0,-1007.0,16:43:26.567647,192.168.0.114
148,1,45,27,69,"2,0,174",-1,0,-71,0,-1,0,73,75,72,60,76,-104.64,14,-20.0,2.0,-997.0,16:43:26.609446,192.168.0.114
149,1,45,27,69,"2,0,174",-1,0,-71,0,-1,0,73,75,72,60,76,-104.68,14,-12.0,2.0,-996.0,16:43:26.711377,192.168.0.114
150,1,45,27,69,"2,0,174",-1,0,-71,0,-1,0,73,75,72,60,76,-104.59,14,-13.0,22.0,-1022.0,16:43:26.813418,192.168.0.114
151,1,45,27,69,"2,0,174",-1,0,-71,0,-1,0,73,75,72,60,76,-104.56,14,-12.0,20.0,-989.0,16:43:26.915355,192.168.0.114
152,1,45,27,69,"2,0,174",-1,0,-71,0,-1,0,73,75,71,60,76,-104.49,15,4.0,3.0,-1019.0,16:43:26.968110,192.168.0.114
153,1,45,27,69,"2,0,174",-1,0,-71,0,-1,0,73,75,71,60,76,-104.56,15,-19.0,11.0,-996.0,16:43:27.068701,192.168.0.114
154,1,45,27,69,"2,0,174",-1,-1,-71,0,-1,0,73,75,71,60,76,-104.59,15,-16.0,7.0,-999.0,16:43:27.170579,192.168.0.114
155,1,45,27,69,"2,0,174",-1,-1,-71,0,-1,0,74,76,71,60,76,-104.56,15,-17.0,9.0,-1003.0,16:43:27.272815,192.168.0.114
156,1,45,27,69,"2,0,174",-1,0,-71,0,-1,0,74,76,71,60,76,-104.6,15,-11.0,-1.0,-995.0,16:43:27.374635,192.168.0.114
157,1,45,27,69,"2,0,174",-1,0,-71,0,-1,0,74,76,71,60,76,-104.61,15,-19.0,0.0,-1007.0,16:43:27.476517,192.168.0.114
158,1,45,27,69,"2,0,174",-1,0,-71,0,-1,0,74,76,71,60,76,-104.64,15,-24.0,7.0,-1014.0,16:43:27.578585,192.168.0.114
159,1,45,27,69,"2,0,174",-1,0,-71,0,-1,0,74,76,70,60,76,-104.62,15,-12.0,13.0,-994.0,16:43:27.680516,192.168.0.114
160,1,45,27,69,"2,0,174",-1,0,-71,0,-1,0,74,76,71,60,76,-104.65,15,-14.0,7.0,-1000.0,16:43:27.782522,192.168.0.114
161,1,45,27,69,"2,0,174",-1,0,-71,0,-1,0,74,76,70,60,76,-104.6,15,-19.0,2.0,-1003.0,16:43:27.884523,192.168.0.114
162,1,45,27,69,"2,0,174",-1,0,-71,0,-1,0,74,76,70,60,76,-104.62,16,-21.0,7.0,-1005.0,16:43:27.986559,192.168.0.114
163,1,45,27,69,"2,0,174",-1,0,-71,0,-1,0,74,76,71,60,76,-104.58,16,-15.0,3.0,-1002.0,16:43:28.094578,192.168.0.114
164,1,45,27,69,"2,0,174",-1,0,-71,0,-1,0,74,76,71,60,76,-104.57,16,-26.0,4.0,-1002.0,16:43:28.190474,192.168.0.114
165,1,45,27,69,"2,0,174",-1,0,-71,0,-1,0,73,75,70,60,76,-104.59,16,-20.0,9.0,-1011.0,16:43:28.292449,192.168.0.114
166,1,45,27,69,"2,0,174",-1,0,-71,0,-1,0,73,75,71,60,76,-104.53,16,-29.0,-1.0,-1001.0,16:43:28.394195,192.168.0.114
167,1,45,27,69,"2,0,174",-1,0,-71,0,-1,0,73,75,71,60,76,-104.57,16,-19.0,-1.0,-1007.0,16:43:28.496368,192.168.0.114
168,1,45,27,69,"2,0,174",-1,0,-71,0,-1,0,73,75,71,60,76,-104.58,16,-5.0,-6.0,-991.0,16:43:28.598557,192.168.0.114
169,1,45,27,69,"2,0,174",-1,0,-71,0,-1,0,73,75,71,60,76,-104.64,16,9.0,-6.0,-991.0,16:43:28.823709,192.168.0.114
170,1,45,27,69,"2,0,174",-1,0,-71,0,-1,0,73,75,71,60,76,-104.57,16,-3.0,-11.0,-1009.0,16:43:28.823923,192.168.0.114
171,1,45,27,69,"2,0,174",-1,0,-71,0,-1,0,73,75,71,60,76,-104.52,16,-13.0,13.0,-1004.0,16:43:28.905042,192.168.0.114
172,1,45,27,69,"2,0,174",-1,0,-71,0,-1,0,73,75,72,60,76,-104.53,17,-22.0,6.0,-1020.0,16:43:29.006607,192.168.0.114
173,1,45,27,69,"2,0,174",-1,0,-71,0,-1,0,73,75,72,60,76,-104.52,17,-7.0,-2.0,-988.0,16:43:29.110144,192.168.0.114
174,1,45,27,69,"2,0,174",-1,0,-72,0,-1,0,73,75,71,60,76,-104.51,17,-34.0,6.0,-1009.0,16:43:29.210520,192.168.0.114
175,1,45,27,69,"2,0,174",-1,0,-72,0,-1,0,73,77,72,60,76,-104.54,17,-28.0,-8.0,-1003.0,16:43:29.312390,192.168.0.114
176,1,45,27,69,"2,0,174",-1,0,-72,0,-1,0,73,77,72,60,76,-104.47,17,-16.0,-3.0,-1010.0,16:43:29.414410,192.168.0.114
177,1,45,27,69,"2,0,174",-1,0,-72,0,-1,0,73,77,72,60,76,-104.53,17,-23.0,3.0,-1000.0,16:43:29.516213,192.168.0.114
178,1,45,27,69,"2,0,174",-1,0,-72,0,-1,0,73,77,72,60,76,-104.57,17,3.0,-10.0,-1010.0,16:43:29.618265,192.168.0.114
179,1,45,27,69,"2,0,174",-1,0,-72,0,-1,0,73,77,72,60,76,-104.64,17,-23.0,-13.0,-1004.0,16:43:29.720372,192.168.0.114
180,1,45,27,69,"2,0,174",-1,0,-72,0,-1,0,73,77,71,60,76,-104.61,17,-33.0,0.0,-1029.0,16:43:29.822122,192.168.0.114
181,1,45,27,69,"2,0,174",-1,0,-71,0,-1,0,73,77,71,60,76,-104.62,17,-8.0,9.0,-1012.0,16:43:29.924411,192.168.0.114
182,1,45,27,69,"2,0,174",-1,0,-71,0,-1,0,73,77,71,60,76,-104.66,18,8.0,-20.0,-993.0,16:43:30.027342,192.168.0.114
183,1,45,27,69,"2,0,174",-1,0,-71,0,-2,0,73,77,70,60,76,-104.65,18,-29.0,2.0,-998.0,16:43:30.128244,192.168.0.114
184,1,45,27,69,"2,0,174",-1,0,-71,0,-1,0,73,77,70,60,76,-104.61,18,-5.0,-8.0,-1015.0,16:43:30.230233,192.168.0.114
185,1,45,27,69,"2,0,174",-1,0,-71,0,-1,0,74,76,70,60,76,-104.61,18,-23.0,-4.0,-1004.0,16:43:30.332205,192.168.0.114
186,1,45,27,69,"2,0,174",-1,0,-71,0,-1,0,74,76,70,60,76,-104.5,18,-23.0,-2.0,-988.0,16:43:30.434242,192.168.0.114
187,1,45,27,69,"2,0,174",-1,0,-71,0,-1,0,74,76,70,60,76,-104.48,18,-6.0,-16.0,-986.0,16:43:30.536173,192.168.0.114
188,1,45,27,69,"2,0,174",-2,0,-71,0,-1,0,74,76,70,60,76,-104.55,18,-4.0,-12.0,-1006.0,16:43:30.586970,192.168.0.114
189,1,45,27,69,"2,0,174",-1,0,-71,0,-1,0,74,76,70,60,76,-104.57,18,-16.0,-4.0,-1000.0,16:43:30.689015,192.168.0.114
190,1,45,27,69,"2,0,174",-1,0,-71,0,-1,0,74,76,70,60,76,-104.5,18,-15.0,-7.0,-1007.0,16:43:30.790876,192.168.0.114
191,1,45,27,69,"2,0,174",-1,0,-71,0,-1,0,74,76,70,60,76,-104.51,18,-17.0,-15.0,-1005.0,16:43:30.893136,192.168.0.114
192,1,45,27,69,"2,0,174",-1,0,-71,0,-1,0,74,76,70,60,76,-104.56,19,-23.0,5.0,-994.0,16:43:30.994882,192.168.0.114
193,1,45,27,69,"2,0,174",-1,0,-71,0,-1,0,74,76,70,60,76,-104.54,19,-35.0,3.0,-1001.0,16:43:31.096897,192.168.0.114
194,1,45,27,69,"2,0,174",-1,0,-71,0,-1,0,74,76,70,60,76,-104.51,19,-24.0,-6.0,-1008.0,16:43:31.198833,192.168.0.114
195,1,45,27,69,"2,0,174",-1,0,-71,0,-1,0,74,76,70,60,76,-104.55,19,-17.0,7.0,-1006.0,16:43:31.300841,192.168.0.114
196,1,45,27,69,"2,0,174",-1,0,-71,0,-1,0,74,76,70,60,76,-104.47,19,-10.0,-8.0,-995.0,16:43:31.482498,192.168.0.114
197,-1,-100,-100,-100,"-1,-1,-1",-1,0,-71,0,-1,0,74,76,71,60,76,-104.52,19,5.0,0.0,-1017.0,16:43:31.504951,192.168.0.114
198,-1,-100,-100,-100,"-1,-1,-1",-1,0,-71,0,-1,0,74,76,70,60,76,-104.52,19,0.0,0.0,-1007.0,16:43:31.606845,192.168.0.114
199,-1,-100,-100,-100,"-1,-1,-1",-1,0,-71,0,-1,0,74,76,71,60,76,-104.58,19,1.0,0.0,-989.0,16:43:31.708908,192.168.0.114
200,-1,-100,-100,-100,"-1,-1,-1",-1,0,-71,0,-1,0,74,76,71,60,76,-104.52,19,-30.0,3.0,-995.0,16:43:31.810957,192.168.0.114
201,-1,-100,-100,-100,"-1,-1,-1",-1,0,-71,0,-1,0,74,76,71,60,76,-104.56,20,-13.0,0.0,-987.0,16:43:31.912828,192.168.0.114
202,-1,-100,-100,-100,"-1,-1,-1",-1,0,-71,0,-1,0,74,76,72,60,76,-104.46,20,-30.0,-4.0,-990.0,16:43:32.015204,192.168.0.114
203,-1,-100,-100,-100,"-1,-1,-1",-1,0,-72,0,-1,0,74,76,72,60,76,-104.49,20,-13.0,-12.0,-984.0,16:43:32.116656,192.168.0.114
204,-1,-100,-100,-100,"-1,-1,-1",-1,0,-72,0,-1,0,74,76,71,60,76,-104.47,20,-10.0,-5.0,-978.0,16:43:32.218747,192.168.0.114
205,-1,-100,-100,-100,"-1,-1,-1",-1,0,-72,0,-1,0,74,76,71,60,76,-104.43,20,4.0,-18.0,-986.0,16:43:32.320631,192.168.0.114
206,-1,-100,-100,-100,"-1,-1,-1",-1,0,-71,0,-1,0,74,76,71,60,76,-104.48,20,-24.0,3.0,-1005.0,16:43:32.423052,192.168.0.114
207,-1,-100,-100,-100,"-1,-1,-1",-1,0,-71,0,-1,0,74,76,71,60,76,-104.45,20,-22.0,1.0,-1012.0,16:43:32.524623,192.168.0.114
208,-1,-100,-100,-100,"-1,-1,-1",-1,0,-71,0,-1,0,74,76,71,60,76,-104.59,20,-17.0,10.0,-1012.0,16:43:32.626723,192.168.0.114
209,-1,-100,-100,-100,"-1,-1,-1",-1,0,-71,0,-1,0,74,76,71,60,76,-104.61,20,-22.0,4.0,-1014.0,16:43:32.728569,192.168.0.114
210,-1,-100,-100,-100,"-1,-1,-1",-1,0,-71,0,-1,0,74,76,72,60,76,-104.63,20,-25.0,7.0,-1005.0,16:43:32.830956,192.168.0.114
211,-1,-100,-100,-100,"-1,-1,-1",-1,0,-71,0,-1,0,74,76,72,60,76,-104.58,21,-14.0,18.0,-992.0,16:43:32.933202,192.168.0.114
212,-1,-100,-100,-100,"-1,-1,-1",-1,0,-71,0,-1,0,74,76,72,60,76,-104.61,21,-14.0,1.0,-993.0,16:43:33.034618,192.168.0.114
213,-1,-100,-100,-100,"-1,-1,-1",-1,0,-71,0,-1,0,74,76,72,60,76,-104.57,21,-20.0,10.0,-987.0,16:43:33.136715,192.168.0.114
214,-1,-100,-100,-100,"-1,-1,-1",-1,0,-71,0,-1,0,74,76,72,60,76,-104.57,21,-14.0,10.0,-998.0,16:43:33.238703,192.168.0.114
215,-1,-100,-100,-100,"-1,-1,-1",-1,0,-71,0,-1,0,75,76,72,60,76,-104.58,21,-23.0,15.0,-1002.0,16:43:33.340549,192.168.0.114
216,-1,-100,-100,-100,"-1,-1,-1",-1,0,-71,0,-1,0,75,76,72,60,76,-104.53,21,-15.0,15.0,-998.0,16:43:33.633722,192.168.0.114
217,-1,-100,-100,-100,"-1,-1,-1",-1,0,-71,0,-1,0,75,76,72,60,76,-104.57,21,-41.0,8.0,-997.0,16:43:33.633964,192.168.0.114
218,-1,-100,-100,-100,"-1,-1,-1",-1,0,-71,0,-1,0,75,76,72,60,76,-104.57,21,0.0,3.0,-1002.0,16:43:33.646680,192.168.0.114
219,-1,-100,-100,-100,"-1,-1,-1",-1,0,-71,0,-2,0,75,76,72,60,76,-104.52,21,-7.0,18.0,-999.0,16:43:33.748538,192.168.0.114
220,-1,-100,-100,-100,"-1,-1,-1",-1,0,-71,0,-2,0,75,76,72,60,76,-104.58,21,-1.0,1.0,-987.0,16:43:33.850675,192.168.0.114
221,-1,-100,-100,-100,"-1,-1,-1",-1,0,-71,0,-2,0,75,76,72,60,76,-104.51,22,3.0,-5.0,-987.0,16:43:33.952267,192.168.0.114
222,-1,-100,-100,-100,"-1,-1,-1",0,0,-71,0,-2,0,75,76,72,60,76,-104.5,22,-2.0,3.0,-1001.0,16:43:34.054512,192.168.0.114
223,-1,-100,-100,-100,"-1,-1,-1",0,0,-72,0,-2,0,75,76,72,60,76,-104.51,22,6.0,4.0,-987.0,16:43:34.105842,192.168.0.114
224,-1,-100,-100,-100,"-1,-1,-1",0,0,-72,0,-2,0,75,76,72,60,76,-104.5,22,-11.0,5.0,-1004.0,16:43:34.207946,192.168.0.114
225,-1,-100,-100,-100,"-1,-1,-1",0,0,-72,0,-2,0,74,77,72,60,76,-104.46,22,0.0,-7.0,-997.0,16:43:34.456689,192.168.0.114
226,-1,-100,-100,-100,"-1,-1,-1",0,0,-71,0,-2,0,74,77,72,60,76,-104.43,22,-7.0,0.0,-1007.0,16:43:34.462728,192.168.0.114
227,5,-53,2,59,"-10,-3,-179",0,0,-71,0,-2,0,74,77,72,60,76,-104.46,22,4.0,-10.0,-1001.0,16:43:34.564473,192.168.0.114
228,5,-53,2,59,"-10,-3,-179",0,0,-71,0,-2,0,74,77,71,60,76,-104.49,22,-8.0,11.0,-1001.0,16:43:34.666570,192.168.0.114
229,5,-37,3,71,"-1,-4,178",0,0,-71,0,-2,0,74,77,72,60,76,-104.46,22,-1.0,-2.0,-1003.0,16:43:34.768676,192.168.0.114
230,5,-37,3,71,"-1,-4,178",0,0,-71,0,-1,0,74,77,72,60,76,-104.48,22,3.0,-16.0,-998.0,16:43:34.870519,192.168.0.114
231,5,-37,3,71,"-1,-4,178",-1,0,-71,0,-1,0,74,77,72,60,76,-104.48,23,-8.0,-6.0,-1007.0,16:43:34.972479,192.168.0.114
232,5,-35,3,70,"-2,-4,178",-1,0,-71,0,-1,0,74,77,71,60,76,-104.45,23,-9.0,0.0,-1005.0,16:43:35.168606,192.168.0.114
233,5,-35,3,70,"-2,-4,178",-1,0,-71,0,-1,0,74,77,72,60,76,-104.5,23,3.0,-2.0,-1007.0,16:43:35.176506,192.168.0.114
234,5,-31,0,71,"-1,-4,-179",-1,0,-71,0,-1,0,74,77,72,60,76,-104.51,23,-8.0,0.0,-979.0,16:43:35.283020,192.168.0.114
235,5,-31,0,71,"-1,-4,-179",-1,0,-71,0,-1,0,74,76,72,60,76,-104.57,23,-10.0,7.0,-1004.0,16:43:35.380503,192.168.0.114
236,5,-29,2,70,"-3,-4,178",-1,0,-71,0,-1,0,74,76,72,60,76,-104.57,23,7.0,2.0,-995.0,16:43:35.482980,192.168.0.114
237,5,-29,2,70,"-3,-4,178",-1,0,-71,0,-1,0,74,76,73,60,76,-104.62,23,-13.0,5.0,-999.0,16:43:35.585022,192.168.0.114
238,5,-24,1,72,"-1,-4,178",-1,0,-71,0,-1,0,74,76,72,60,76,-104.57,23,-6.0,12.0,-995.0,16:43:35.686478,192.168.0.114
239,5,-24,1,72,"-1,-4,178",-1,0,-71,0,-1,0,74,76,72,60,76,-104.61,23,4.0,19.0,-999.0,16:43:35.788394,192.168.0.114
240,5,-20,0,73,"0,-4,179",-1,-1,-71,0,-1,0,74,76,72,60,76,-104.56,23,-11.0,13.0,-1001.0,16:43:35.987960,192.168.0.114
241,5,-20,0,73,"0,-4,179",-1,-1,-71,0,-1,0,74,76,72,60,76,-104.54,24,-6.0,13.0,-1006.0,16:43:35.993403,192.168.0.114
242,5,-20,0,73,"0,-4,179",-1,-1,-71,0,-1,0,74,76,72,60,76,-104.54,24,-9.0,16.0,-989.0,16:43:36.094315,192.168.0.114
243,5,-15,0,73,"1,-4,178",-1,-1,-71,0,-1,0,74,76,72,60,76,-104.51,24,-11.0,9.0,-1003.0,16:43:36.196353,192.168.0.114
244,5,-15,0,73,"1,-4,178",-1,-1,-71,0,-1,0,74,76,72,60,76,-104.54,24,-7.0,8.0,-1002.0,16:43:36.298746,192.168.0.114
245,5,-15,0,73,"1,-4,178",-1,-1,-71,0,-1,0,74,78,72,60,76,-104.66,24,2.0,11.0,-1000.0,16:43:36.400313,192.168.0.114
246,5,-15,0,73,"1,-4,178",-1,-1,-71,0,-1,0,74,78,71,60,76,-104.63,24,-16.0,14.0,-1004.0,16:43:36.502625,192.168.0.114
247,5,-15,0,73,"1,-4,178",-1,-1,-71,0,-1,0,74,78,71,60,76,-104.48,24,-2.0,15.0,-1001.0,16:43:36.604610,192.168.0.114
248,5,-15,0,73,"1,-4,178",-1,-1,-71,0,-1,0,74,78,72,60,76,-104.54,24,-4.0,13.0,-1011.0,16:43:36.706379,192.168.0.114
249,5,-15,0,73,"1,-4,178",-1,-1,-71,0,-1,0,74,78,72,60,76,-104.59,24,-16.0,8.0,-1007.0,16:43:36.808394,192.168.0.114
250,5,-6,-1,73,"1,-4,177",-1,-1,-71,0,-1,0,74,78,72,60,76,-104.59,24,-17.0,4.0,-1002.0,16:43:36.910267,192.168.0.114
251,5,-6,-1,73,"1,-4,177",-1,-1,-71,0,-1,0,74,78,71,60,76,-104.57,25,4.0,23.0,-1016.0,16:43:37.012259,192.168.0.114
252,5,-1,-1,73,"2,-4,176",-1,-1,-71,0,-1,0,74,78,72,60,76,-104.6,25,-7.0,18.0,-1009.0,16:43:37.063466,192.168.0.114
253,5,-1,-1,73,"2,-4,176",-1,-1,-71,0,-1,0,74,78,71,60,76,-104.57,25,-8.0,14.0,-1008.0,16:43:37.165407,192.168.0.114
254,5,1,-4,73,"3,-4,179",-1,-1,-71,0,-1,0,74,78,72,60,76,-104.59,25,-15.0,14.0,-993.0,16:43:37.268151,192.168.0.114
255,5,1,-4,73,"3,-4,179",-1,-1,-71,0,-1,0,75,77,72,60,76,-104.61,25,-9.0,11.0,-1005.0,16:43:37.369180,192.168.0.114
256,5,1,-4,73,"3,-4,179",-1,-1,-71,0,-1,0,75,77,72,60,76,-104.54,25,-5.0,8.0,-992.0,16:43:37.471550,192.168.0.114
257,5,2,-6,73,"1,-4,-179",-1,-1,-71,0,-1,0,75,77,71,60,76,-104.56,25,1.0,13.0,-983.0,16:43:37.573803,192.168.0.114
258,5,2,-6,73,"1,-4,-179",-1,-1,-71,0,-1,0,75,77,72,60,76,-104.59,25,-8.0,7.0,-1005.0,16:43:37.675426,192.168.0.114
259,5,5,-7,72,"0,-4,-179",-1,-1,-71,0,-1,0,75,77,72,60,76,-104.54,25,-20.0,8.0,-1000.0,16:43:37.834901,192.168.0.114
260,5,5,-7,72,"0,-4,-179",-1,-1,-71,0,-1,0,75,77,72,60,76,-104.53,25,-10.0,19.0,-1007.0,16:43:37.879180,192.168.0.114
261,5,8,-7,72,"0,-4,-179",-1,-1,-71,0,-1,0,75,77,72,60,76,-104.52,26,-16.0,19.0,-983.0,16:43:37.981303,192.168.0.114
262,5,8,-7,72,"0,-4,-179",-1,-1,-71,0,-1,0,75,77,72,60,76,-104.53,26,-10.0,21.0,-1003.0,16:43:38.083366,192.168.0.114
263,5,10,-8,72,"0,-4,-178",-1,-1,-71,0,-1,0,75,77,72,60,76,-104.54,26,-10.0,6.0,-993.0,16:43:38.185263,192.168.0.114
264,5,10,-8,72,"0,-4,-178",-1,-1,-71,0,-1,0,75,77,72,60,76,-104.55,26,-24.0,6.0,-1011.0,16:43:38.287350,192.168.0.114
265,5,10,-8,72,"0,-4,-178",-1,-1,-71,0,-1,0,75,78,72,60,76,-104.52,26,-2.0,1.0,-1012.0,16:43:38.389016,192.168.0.114
266,5,10,-8,72,"0,-4,-178",-1,-1,-71,0,-1,0,75,78,72,60,76,-104.57,26,-13.0,22.0,-997.0,16:43:38.491050,192.168.0.114
267,5,10,-8,72,"0,-4,-178",-1,-1,-71,0,-1,0,75,78,72,60,76,-104.56,26,-3.0,10.0,-1002.0,16:43:38.593097,192.168.0.114
268,5,10,-8,72,"0,-4,-178",-1,-1,-71,0,-1,0,75,78,72,60,76,-104.56,26,-5.0,14.0,-1007.0,16:43:38.695006,192.168.0.114
269,5,10,-8,72,"0,-4,-178",-1,-1,-71,0,-1,0,75,78,72,60,76,-104.61,26,0.0,6.0,-987.0,16:43:38.796972,192.168.0.114
270,5,19,-7,72,"0,-4,-179",-1,-1,-71,0,-1,0,75,78,72,60,76,-104.54,26,-5.0,6.0,-1004.0,16:43:38.898994,192.168.0.114
271,5,19,-7,72,"0,-4,-179",-1,0,-71,0,-1,0,75,78,72,60,76,-104.56,27,-14.0,6.0,-1012.0,16:43:39.001250,192.168.0.114
272,5,22,-4,73,"0,-4,179",-1,0,-71,0,-1,0,75,78,72,60,76,-104.55,27,-5.0,7.0,-992.0,16:43:39.170207,192.168.0.114
273,5,22,-4,73,"0,-4,179",-1,0,-71,0,-1,0,75,78,72,60,76,-104.56,27,7.0,9.0,-1005.0,16:43:39.205269,192.168.0.114
274,5,22,-4,73,"0,-4,179",-1,0,-71,0,-1,0,75,78,73,60,76,-104.57,27,-16.0,-6.0,-988.0,16:43:39.307333,192.168.0.114
275,5,31,-7,69,"5,-5,-177",-1,0,-71,0,-1,0,76,77,72,60,76,-104.63,27,-7.0,16.0,-980.0,16:43:39.409333,192.168.0.114
276,5,31,-7,69,"5,-5,-177",-1,0,-71,0,-1,0,76,77,73,60,76,-104.56,27,-12.0,4.0,-1004.0,16:43:39.511276,192.168.0.114
277,5,31,-7,69,"5,-5,-177",-1,0,-71,0,-1,0,76,77,73,60,76,-104.54,27,-11.0,11.0,-1013.0,16:43:39.613216,192.168.0.114
278,5,31,-7,69,"5,-5,-177",-1,0,-71,0,-1,0,76,77,72,60,76,-104.52,27,-17.0,4.0,-997.0,16:43:39.715186,192.168.0.114
279,5,35,-2,70,"4,-3,179",-1,0,-71,0,-1,0,76,77,72,60,76,-104.47,27,-8.0,12.0,-990.0,16:43:39.778171,192.168.0.114
280,5,35,-2,70,"4,-3,179",-1,0,-71,0,-1,0,76,77,73,60,76,-104.41,27,-5.0,6.0,-1013.0,16:43:39.868460,192.168.0.114
281,5,35,-2,70,"4,-3,179",-1,0,-71,0,-1,0,76,77,73,60,76,-104.37,28,-10.0,9.0,-1012.0,16:43:39.970750,192.168.0.114
282,5,36,-6,70,"3,-5,-177",-1,0,-71,0,-1,0,76,77,73,60,76,-104.49,28,-3.0,1.0,-1015.0,16:43:40.071945,192.168.0.114
283,5,36,-6,70,"3,-5,-177",-1,0,-71,0,-2,0,76,77,72,60,76,-104.45,28,3.0,9.0,-1003.0,16:43:40.173936,192.168.0.114
284,5,40,-6,69,"4,-5,-177",0,0,-71,0,-2,0,76,77,73,60,76,-104.41,28,-1.0,-2.0,-996.0,16:43:40.275871,192.168.0.114
285,5,40,-6,69,"4,-5,-177",0,0,-71,0,-1,0,75,78,73,60,76,-104.5,28,-16.0,-10.0,-1000.0,16:43:40.377904,192.168.0.114
286,5,41,1,71,"2,-3,178",-1,0,-71,0,-1,0,75,78,72,60,76,-104.5,28,-1.0,4.0,-996.0,16:43:40.479953,192.168.0.114
287,5,41,1,71,"2,-3,178",-2,0,-71,0,-1,0,75,78,72,60,76,-104.5,28,-3.0,15.0,-1009.0,16:43:40.582024,192.168.0.114
288,5,44,-6,70,"4,-6,-176",-2,0,-71,0,-2,0,75,78,72,60,76,-104.56,28,-5.0,4.0,-996.0,16:43:40.684372,192.168.0.114
289,5,44,-6,70,"4,-6,-176",-2,0,-71,0,-2,0,75,78,72,60,76,-104.6,28,-15.0,3.0,-1001.0,16:43:40.785803,192.168.0.114
290,5,44,-6,70,"4,-6,-176",-1,0,-71,0,-2,0,75,78,72,60,76,-104.58,28,-16.0,-1.0,-1001.0,16:43:41.019516,192.168.0.114
291,5,44,-6,70,"4,-6,-176",-1,0,-71,0,-2,0,75,78,71,60,76,-104.57,29,-21.0,10.0,-996.0,16:43:41.019702,192.168.0.114
292,5,44,-6,70,"4,-6,-176",-1,0,-71,0,-2,0,75,78,72,60,76,-104.6,29,-18.0,3.0,-1011.0,16:43:41.091773,192.168.0.114
293,5,44,-6,70,"4,-6,-176",-1,0,-71,0,-2,0,75,78,72,60,76,-104.53,29,-9.0,6.0,-985.0,16:43:41.193776,192.168.0.114
294,5,44,-6,70,"4,-6,-176",-1,0,-71,0,-2,0,75,78,72,60,76,-104.61,29,-13.0,3.0,-1006.0,16:43:41.296043,192.168.0.114
295,5,44,-6,70,"4,-6,-176",-1,0,-71,0,-2,0,75,78,71,60,76,-104.56,29,-16.0,0.0,-990.0,16:43:41.397695,192.168.0.114
296,5,44,-6,70,"4,-6,-176",-1,0,-71,0,-2,0,75,78,70,60,76,-104.54,29,-27.0,16.0,-992.0,16:43:41.499776,192.168.0.114
297,5,44,-6,70,"4,-6,-176",-1,0,-71,0,-2,0,75,78,70,60,76,-104.52,29,-13.0,9.0,-1003.0,16:43:41.602032,192.168.0.114
298,5,44,-6,70,"4,-6,-176",-1,-1,-71,0,-2,0,75,78,69,60,76,-104.62,29,-13.0,21.0,-1013.0,16:43:41.703740,192.168.0.114
299,5,44,-6,70,"4,-6,-176",-1,-1,-71,0,-2,0,75,78,70,60,76,-104.57,29,-1.0,15.0,-1008.0,16:43:41.805710,192.168.0.114
300,5,44,-6,70,"4,-6,-176",-1,-1,-71,0,-2,0,75,78,70,60,76,-104.53,29,-26.0,5.0,-1003.0,16:43:41.907545,192.168.0.114
301,5,44,-6,70,"4,-6,-176",-1,-1,-71,0,-2,0,75,78,71,60,76,-104.52,30,-3.0,18.0,-1000.0,16:43:42.009710,192.168.0.114
302,5,44,-6,70,"4,-6,-176",-1,-1,-71,0,-2,0,75,78,70,60,76,-104.54,30,-13.0,17.0,-998.0,16:43:42.112085,192.168.0.114
303,5,44,-6,70,"4,-6,-176",-1,-1,-71,0,-2,0,75,78,70,60,76,-104.53,30,-13.0,24.0,-1006.0,16:43:42.213738,192.168.0.114
304,5,44,-6,70,"4,-6,-176",-1,-1,-71,0,-2,0,75,78,70,60,76,-104.54,30,-7.0,23.0,-1009.0,16:43:42.315782,192.168.0.114
305,8,-18,-37,63,"-5,-3,-172",-1,-1,-71,0,-2,0,75,78,69,60,76,-104.58,30,-13.0,14.0,-1009.0,16:43:42.417738,192.168.0.114
306,8,-18,-37,63,"-5,-3,-172",-1,-1,-71,0,-2,0,75,78,68,60,76,-104.58,30,-11.0,23.0,-1001.0,16:43:42.519619,192.168.0.114
307,8,-5,-38,63,"1,-3,-171",-1,-1,-71,0,-2,0,75,78,68,60,76,-104.53,30,-9.0,14.0,-1002.0,16:43:42.746948,192.168.0.114
308,8,-5,-38,63,"1,-3,-171",-1,-1,-71,0,-2,0,75,78,68,60,76,-104.55,30,-12.0,17.0,-1013.0,16:43:42.747137,192.168.0.114
309,8,-5,-38,63,"1,-3,-171",-1,-1,-71,0,-2,0,75,78,69,60,76,-104.54,30,2.0,11.0,-997.0,16:43:42.825778,192.168.0.114
310,8,18,-21,69,"13,-4,174",0,-1,-71,0,-2,0,75,78,69,60,76,-104.59,31,-21.0,8.0,-1000.0,16:43:42.927580,192.168.0.114
311,8,18,-21,69,"13,-4,174",0,0,-71,0,-2,0,75,78,69,60,76,-104.54,31,-8.0,13.0,-1007.0,16:43:43.029536,192.168.0.114
312,8,16,-28,67,"8,-4,-179",2,0,-71,0,-1,0,75,78,69,60,76,-104.55,31,0.0,1.0,-978.0,16:43:43.131574,192.168.0.114
313,8,16,-28,67,"8,-4,-179",3,0,-71,0,-1,0,75,78,70,60,76,-104.53,31,-13.0,18.0,-1010.0,16:43:43.233551,192.168.0.114
314,8,8,-31,68,"-2,-4,-175",1,0,-71,0,0,0,75,78,69,60,76,-104.49,31,25.0,3.0,-1002.0,16:43:43.335377,192.168.0.114
315,8,8,-31,68,"-2,-4,-175",0,0,-71,0,0,0,76,78,69,60,76,-104.58,31,3.0,15.0,-990.0,16:43:43.437654,192.168.0.114
316,8,5,-33,68,"-1,-5,-175",0,-1,-71,0,0,0,76,78,69,60,76,-104.54,31,7.0,11.0,-998.0,16:43:43.539681,192.168.0.114
317,8,5,-33,68,"-1,-5,-175",-1,-4,-71,0,0,0,76,78,71,60,76,-104.59,31,19.0,8.0,-1027.0,16:43:43.641917,192.168.0.114
318,8,5,-33,68,"-1,-5,-175",-1,-4,-71,0,0,0,76,78,71,60,76,-104.57,31,6.0,11.0,-994.0,16:43:43.743667,192.168.0.114
319,8,5,-33,68,"-1,-5,-175",0,-3,-71,-1,0,0,76,78,71,60,76,-104.55,31,4.0,10.0,-992.0,16:43:43.845630,192.168.0.114
320,8,5,-33,68,"-1,-5,-175",0,-2,-71,-1,0,0,76,78,71,60,76,-104.56,32,3.0,13.0,-981.0,16:43:43.950038,192.168.0.114
321,8,5,-33,68,"-1,-5,-175",0,-2,-71,-1,0,0,76,78,70,60,76,-104.51,32,-5.0,19.0,-984.0,16:43:44.050018,192.168.0.114
322,8,7,-33,67,"1,-5,-175",0,-2,-71,-1,0,0,76,78,70,60,76,-104.52,32,10.0,28.0,-1010.0,16:43:44.100470,192.168.0.114
323,8,7,-33,67,"1,-5,-175",-1,-2,-71,-1,0,0,76,78,70,60,76,-104.59,32,-2.0,9.0,-994.0,16:43:44.202882,192.168.0.114
324,8,7,-33,67,"1,-5,-175",-1,-1,-71,-1,0,0,76,78,71,60,76,-104.59,32,10.0,18.0,-996.0,16:43:44.304570,192.168.0.114
325,8,7,-27,69,"1,-4,-178",-1,-1,-71,-1,0,0,75,78,70,60,76,-104.52,32,2.0,16.0,-1006.0,16:43:44.406612,192.168.0.114
326,8,7,-27,69,"1,-4,-178",-1,-2,-71,-1,0,0,75,78,71,60,76,-104.54,32,-1.0,15.0,-977.0,16:43:44.508625,192.168.0.114
327,8,8,-25,69,"3,-4,-177",-1,-2,-71,-1,-1,0,75,78,70,60,76,-104.59,32,0.0,18.0,-1002.0,16:43:44.610723,192.168.0.114
328,8,8,-25,69,"3,-4,-177",-1,-1,-71,-1,-1,0,75,78,70,60,76,-104.53,32,-14.0,30.0,-998.0,16:43:44.712758,192.168.0.114
329,8,8,-20,69,"2,-4,-178",-1,-1,-71,-1,-1,0,75,78,70,60,76,-104.59,32,1.0,20.0,-1002.0,16:43:44.814679,192.168.0.114
330,8,8,-20,69,"2,-4,-178",0,-1,-71,-1,-1,0,75,78,71,60,76,-104.56,33,-22.0,30.0,-1002.0,16:43:44.916614,192.168.0.114
331,8,8,-15,70,"1,-4,-179",-1,0,-71,-1,-1,0,75,78,70,60,76,-104.61,33,-4.0,22.0,-986.0,16:43:45.018284,192.168.0.114
332,8,8,-15,70,"1,-4,-179",-1,0,-71,-1,-1,0,75,78,70,60,76,-104.62,33,-11.0,20.0,-996.0,16:43:45.120660,192.168.0.114
333,8,9,-14,69,"1,-5,-177",-1,0,-71,-1,-1,0,75,78,70,60,76,-104.49,33,-14.0,20.0,-993.0,16:43:45.222356,192.168.0.114
334,8,9,-14,69,"1,-5,-177",0,0,-71,-1,-1,0,75,78,70,60,76,-104.63,33,-14.0,14.0,-1001.0,16:43:45.324399,192.168.0.114
335,8,9,-10,70,"1,-4,-178",-1,0,-71,-1,0,0,75,77,70,60,76,-104.59,33,-11.0,14.0,-1001.0,16:43:45.426603,192.168.0.114
336,8,9,-10,70,"1,-4,-178",-2,-1,-71,0,-1,0,75,77,69,60,76,-104.6,33,0.0,20.0,-1012.0,16:43:45.612981,192.168.0.114
337,8,10,-9,69,"2,-4,-177",-1,-1,-71,0,-1,0,75,77,69,60,76,-104.52,33,-11.0,21.0,-1012.0,16:43:45.630373,192.168.0.114
338,8,10,-9,69,"2,-4,-177",-1,0,-71,0,-1,0,75,77,69,60,76,-104.56,33,-3.0,7.0,-999.0,16:43:45.732323,192.168.0.114
339,8,8,-7,69,"0,-5,-177",0,0,-71,0,-1,0,75,77,69,60,76,-104.52,33,-14.0,21.0,-1002.0,16:43:45.834271,192.168.0.114
340,8,8,-7,69,"0,-5,-177",-1,0,-71,0,-1,0,75,77,69,60,76,-104.56,34,6.0,30.0,-1010.0,16:43:45.936460,192.168.0.114
341,8,10,-6,69,"0,-5,-176",-1,0,-71,0,-1,0,75,77,69,50,76,-104.56,34,-8.0,20.0,-1000.0,16:43:46.039035,192.168.0.114
342,8,10,-6,69,"0,-5,-176",-1,0,-71,0,-1,0,75,77,68,50,76,-104.52,34,-11.0,13.0,-983.0,16:43:46.140495,192.168.0.114
343,8,11,-6,69,"0,-5,-176",-1,-1,-71,0,0,0,75,77,68,50,76,-104.5,34,1.0,9.0,-1006.0,16:43:46.242191,192.168.0.114
344,8,11,-6,69,"0,-5,-176",-1,-1,-71,0,0,0,75,77,68,50,76,-104.54,34,-19.0,18.0,-1004.0,16:43:46.344503,192.168.0.114
345,8,13,-5,68,"1,-5,-177",-1,-1,-71,0,0,0,76,79,68,50,76,-104.57,34,-5.0,-4.0,-1010.0,16:43:46.446236,192.168.0.114
346,8,13,-5,68,"1,-5,-177",-1,-1,-71,0,-1,0,76,79,68,50,76,-104.57,34,-3.0,7.0,-995.0,16:43:46.548115,192.168.0.114
347,8,15,-7,68,"1,-5,-176",0,-2,-71,0,-1,0,76,79,69,50,76,-104.59,34,-4.0,4.0,-996.0,16:43:46.650204,192.168.0.114
348,8,15,-7,68,"1,-5,-176",0,-4,-71,0,0,0,76,79,68,50,76,-104.59,34,-10.0,3.0,-1009.0,16:43:46.752144,192.168.0.114
349,8,19,-8,67,"2,-5,-179",0,-3,-71,0,0,0,76,79,68,50,76,-104.6,34,0.0,6.0,-994.0,16:43:46.854124,192.168.0.114
350,8,19,-8,67,"2,-5,-179",1,-1,-71,0,0,0,76,79,68,50,76,-104.58,35,-12.0,2.0,-1011.0,16:43:46.905142,192.168.0.114
351,8,19,-7,67,"0,-5,-176",0,0,-71,0,0,0,76,79,68,50,76,-104.54,35,-10.0,21.0,-1003.0,16:43:47.007411,192.168.0.114
352,8,19,-7,67,"0,-5,-176",0,0,-71,0,0,0,76,79,69,50,76,-104.56,35,-17.0,16.0,-1034.0,16:43:47.109121,192.168.0.114
353,8,16,-7,69,"0,-5,-175",-1,0,-71,0,0,0,76,79,69,50,76,-104.58,35,-3.0,19.0,-1006.0,16:43:47.361121,192.168.0.114
354,8,16,-7,69,"0,-5,-175",0,0,-71,0,0,0,76,79,69,60,76,-104.6,35,-6.0,-1.0,-991.0,16:43:47.364053,192.168.0.114
355,8,16,-6,69,"1,-5,-176",0,0,-71,0,0,0,75,79,69,60,76,-104.53,35,0.0,13.0,-999.0,16:43:47.466048,192.168.0.114
356,8,16,-6,69,"1,-5,-176",0,0,-71,0,0,0,75,79,69,60,76,-104.6,35,5.0,-2.0,-975.0,16:43:47.568221,192.168.0.114
357,8,16,-6,69,"1,-5,-176",0,-1,-71,0,0,0,75,79,69,60,76,-104.56,35,1.0,15.0,-951.0,16:43:47.670092,192.168.0.114
358,8,12,-7,70,"0,-5,-176",0,-1,-71,0,0,0,75,79,69,60,76,-104.61,35,0.0,18.0,-945.0,16:43:47.772337,192.168.0.114
359,8,12,-7,70,"0,-5,-176",0,-1,-71,0,0,1,75,79,69,50,76,-104.59,35,0.0,8.0,-908.0,16:43:47.874518,192.168.0.114
360,8,12,-8,69,"0,-5,-177",0,-1,-71,0,0,1,75,79,68,50,76,-104.58,36,-1.0,8.0,-908.0,16:43:47.976303,192.168.0.114
361,8,12,-8,69,"0,-5,-177",0,-1,-71,0,0,2,75,79,65,50,76,-104.58,36,7.0,4.0,-906.0,16:43:48.078350,192.168.0.114
362,8,10,-8,64,"0,-5,-178",0,-1,-71,0,0,3,75,79,62,50,76,-104.61,36,6.0,9.0,-930.0,16:43:48.180066,192.168.0.114
363,8,10,-8,64,"0,-5,-178",0,-1,-71,0,0,4,75,79,59,50,76,-104.67,36,7.0,-7.0,-965.0,16:43:48.284123,192.168.0.114
364,8,10,-9,57,"0,-5,-178",0,-1,-71,0,0,4,75,79,54,40,76,-104.67,36,0.0,5.0,-979.0,16:43:48.384240,192.168.0.114
365,8,10,-9,57,"0,-5,-178",0,-1,-71,0,0,4,75,79,49,40,76,-104.74,36,13.0,-2.0,-987.0,16:43:48.437488,192.168.0.114
366,8,10,-9,57,"0,-5,-178",0,-1,-71,0,0,4,75,79,44,30,76,-104.68,36,17.0,1.0,-996.0,16:43:48.538497,192.168.0.114
367,8,10,-11,45,"1,-5,-177",0,-1,-71,0,0,4,75,79,40,30,76,-104.71,36,15.0,0.0,-1005.0,16:43:48.638979,192.168.0.114
368,8,10,-11,45,"1,-5,-177",0,-1,-71,0,0,4,75,79,35,20,76,-104.81,36,0.0,10.0,-1000.0,16:43:48.741022,192.168.0.114
369,8,9,-11,36,"0,-5,-177",0,0,-71,0,0,4,75,79,30,20,76,-104.89,36,13.0,3.0,-1010.0,16:43:48.843245,192.168.0.114
370,8,9,-11,36,"0,-5,-177",0,0,-71,0,0,4,75,79,26,10,76,-104.92,37,15.0,4.0,-1021.0,16:43:48.945188,192.168.0.114
371,8,9,-11,36,"0,-5,-177",0,0,-71,0,0,4,75,79,25,10,76,-104.96,37,2.0,4.0,-1011.0,16:43:49.046903,192.168.0.114
372,8,9,-11,36,"0,-5,-177",0,0,-71,0,0,4,75,79,18,10,76,-105.04,37,15.0,5.0,-1017.0,16:43:49.148792,192.168.0.114
373,8,9,-11,36,"0,-5,-177",0,0,-71,0,0,4,75,79,13,0,76,-105.32,37,1.0,15.0,-1013.0,16:43:49.250876,192.168.0.114
374,8,9,-11,36,"0,-5,-177",0,0,-71,0,0,4,75,79,10,0,76,-106.03,37,12.0,7.0,-1052.0,16:43:49.352465,192.168.0.114
375,8,9,-11,36,"0,-5,-177",0,0,-71,0,0,3,75,79,10,0,76,-107.09,37,-9.0,13.0,-1058.0,16:43:49.455186,192.168.0.114
376,8,9,-11,36,"0,-5,-177",0,0,-71,0,0,3,75,79,10,0,76,-108.52,37,-7.0,14.0,-1056.0,16:43:49.556676,192.168.0.114
377,8,9,-11,36,"0,-5,-177",0,0,-71,0,-1,0,75,79,10,0,76,-107.42,37,-3.0,-1.0,-753.0,16:43:49.658660,192.168.0.114
