,mid,x,y,z,mpry,pitch,roll,yaw,vgx,vgy,vgz,templ,temph,tof,h,bat,baro,time,agx,agy,agz,timestamp,address
0,-2,-200,-200,-200,"0,0,0",0,-1,1,0,0,0,74,76,10,0,94,-55.26,0,2.0,34.0,-999.0,15:06:13.595427,192.168.0.112
5,-2,-200,-200,-200,"0,0,0",0,-1,1,0,0,0,75,76,10,0,94,-55.29,0,3.0,34.0,-1000.0,15:06:13.697874,192.168.0.112
11,-2,-200,-200,-200,"0,0,0",0,-1,1,0,0,0,75,76,10,0,94,-55.26,0,3.0,32.0,-1000.0,15:06:13.800497,192.168.0.112
16,-2,-200,-200,-200,"0,0,0",0,-1,1,0,0,0,75,76,10,0,94,-55.3,0,4.0,34.0,-1000.0,15:06:13.901641,192.168.0.112
22,-2,-200,-200,-200,"0,0,0",0,-1,1,0,0,0,75,76,10,0,94,-55.31,0,0.0,40.0,-996.0,15:06:14.003770,192.168.0.112
27,-2,-200,-200,-200,"0,0,0",0,-1,1,0,0,0,75,76,10,0,94,-55.31,0,7.0,27.0,-1001.0,15:06:14.105742,192.168.0.112
32,-2,-200,-200,-200,"0,0,0",0,-1,1,0,0,0,75,76,10,0,94,-55.31,0,-6.0,21.0,-984.0,15:06:14.207846,192.168.0.112
37,-2,-200,-200,-200,"0,0,0",0,-1,1,0,0,0,75,76,10,0,94,-55.31,0,0.0,-11.0,-1100.0,15:06:14.309610,192.168.0.112
42,-2,-200,-200,-200,"0,0,0",0,0,1,0,0,1,75,76,10,0,94,-55.31,0,0.0,14.0,-1203.0,15:06:14.411808,192.168.0.112
43,-2,-200,-200,-200,"0,0,0",0,0,1,0,0,4,75,76,10,0,94,-55.31,0,-27.0,9.0,-1381.0,15:06:14.462934,192.168.0.112
48,-2,-200,-200,-200,"0,0,0",0,0,1,0,0,6,75,76,10,0,94,-55.31,0,-5.0,7.0,-1136.0,15:06:14.564758,192.168.0.112
53,-2,-200,-200,-200,"0,0,0",0,0,1,0,0,7,74,77,15,10,94,-55.01,0,3.0,-6.0,-1056.0,15:06:14.666369,192.168.0.112
58,-2,-200,-200,-200,"0,0,0",0,-1,1,0,0,7,74,77,24,10,94,-54.95,0,-3.0,9.0,-1008.0,15:06:14.768756,192.168.0.112
63,-2,-200,-200,-200,"0,0,0",0,0,1,0,0,7,74,77,32,20,94,-54.8,1,12.0,-5.0,-952.0,15:06:14.870841,192.168.0.112
68,-2,-200,-200,-200,"0,0,0",0,0,1,0,0,6,74,77,41,20,94,-54.79,1,10.0,-7.0,-932.0,15:06:14.972750,192.168.0.112
73,-2,-200,-200,-200,"0,0,0",0,0,1,0,0,5,74,77,49,30,94,-54.74,1,-5.0,4.0,-920.0,15:06:15.075748,192.168.0.112
78,-2,-200,-200,-200,"0,0,0",0,0,1,0,0,4,74,77,56,30,94,-54.63,1,-2.0,6.0,-879.0,15:06:15.176884,192.168.0.112
83,-2,-200,-200,-200,"0,0,0",0,0,1,0,0,3,74,77,62,40,94,-54.59,1,-34.0,17.0,-900.0,15:06:15.278720,192.168.0.112
88,2,18,0,33,"1,-1,-179",0,0,1,0,0,2,74,77,67,40,94,-54.47,1,-12.0,6.0,-903.0,15:06:15.380753,192.168.0.112
93,2,18,0,33,"1,-1,-179",0,0,1,0,0,1,74,77,72,40,94,-54.42,1,0.0,-8.0,-922.0,15:06:15.482700,192.168.0.112
98,2,18,0,33,"1,-1,-179",0,0,1,0,0,1,74,77,75,50,94,-54.47,1,-17.0,10.0,-938.0,15:06:15.584759,192.168.0.112
103,2,18,0,33,"1,-1,-179",0,0,1,0,0,0,74,78,77,50,94,-54.38,1,-14.0,7.0,-967.0,15:06:15.686746,192.168.0.112
108,2,20,0,63,"1,-1,-179",-1,0,1,0,0,0,74,78,79,50,94,-54.29,1,-2.0,-4.0,-978.0,15:06:15.788714,192.168.0.112
113,2,20,0,63,"1,-1,-179",-1,0,1,0,0,0,74,78,81,50,94,-54.33,2,-9.0,0.0,-971.0,15:06:15.890706,192.168.0.112
119,2,20,0,63,"1,-1,-179",0,0,1,0,0,0,74,78,83,50,94,-54.34,2,-8.0,10.0,-963.0,15:06:15.992763,192.168.0.112
124,2,20,0,63,"1,-1,-179",0,0,1,0,0,0,74,78,85,50,94,-54.34,2,8.0,-3.0,-980.0,15:06:16.094584,192.168.0.112
129,2,20,0,63,"1,-1,-179",0,0,1,0,0,0,74,78,86,50,94,-54.32,2,-13.0,7.0,-978.0,15:06:16.196777,192.168.0.112
134,2,17,0,77,"0,-1,-179",0,0,1,0,0,0,74,78,86,60,94,-54.27,2,0.0,17.0,-976.0,15:06:16.298703,192.168.0.112
140,2,17,0,77,"0,-1,-179",0,0,1,0,0,0,74,78,88,60,94,-54.26,2,-6.0,-3.0,-983.0,15:06:16.400870,192.168.0.112
145,2,17,0,77,"0,-1,-179",0,0,1,0,0,0,74,78,88,60,94,-54.31,2,-19.0,15.0,-969.0,15:06:16.502676,192.168.0.112
151,2,17,0,77,"0,-1,-179",0,0,1,0,0,0,74,78,88,60,94,-54.32,2,2.0,8.0,-964.0,15:06:16.604706,192.168.0.112
156,2,15,2,84,"0,-1,-178",0,0,1,0,0,0,74,77,88,60,94,-54.34,2,-3.0,20.0,-995.0,15:06:16.706662,192.168.0.112
161,2,15,2,84,"0,-1,-178",0,0,1,0,0,0,74,77,88,60,94,-54.32,2,-5.0,1.0,-990.0,15:06:16.808530,192.168.0.112
166,2,15,2,84,"0,-1,-178",0,0,1,0,0,0,74,77,88,60,94,-54.27,3,12.0,-5.0,-986.0,15:06:16.910603,192.168.0.112
171,2,15,2,84,"0,-1,-178",0,0,1,0,0,0,74,77,88,60,94,-54.34,3,0.0,0.0,-1009.0,15:06:17.012635,192.168.0.112
176,2,15,2,84,"0,-1,-178",0,0,1,0,0,0,74,77,87,60,94,-54.27,3,-8.0,14.0,-1001.0,15:06:17.114988,192.168.0.112
181,2,16,1,85,"0,-1,-179",0,0,1,0,0,0,74,77,87,60,94,-54.42,3,-17.0,0.0,-1004.0,15:06:17.216961,192.168.0.112
186,2,16,1,85,"0,-1,-179",0,0,1,0,0,0,74,77,87,60,94,-54.3,3,-15.0,12.0,-989.0,15:06:17.319247,192.168.0.112
191,2,16,1,85,"0,-1,-179",0,0,1,0,0,0,74,77,86,60,94,-54.26,3,-8.0,7.0,-979.0,15:06:17.421694,192.168.0.112
196,2,16,1,85,"0,-1,-179",0,0,1,0,0,0,74,77,87,60,94,-54.35,3,-1.0,7.0,-990.0,15:06:17.525475,192.168.0.112
201,2,19,0,83,"0,0,-179",0,0,1,0,0,0,74,77,86,60,94,-54.34,3,-5.0,2.0,-980.0,15:06:17.626469,192.168.0.112
206,2,19,0,83,"0,0,-179",0,0,1,0,0,0,74,77,86,60,94,-54.34,3,-17.0,10.0,-998.0,15:06:17.728809,192.168.0.112
211,2,19,0,83,"0,0,-179",0,0,1,0,0,0,74,77,85,60,94,-54.28,3,-15.0,5.0,-1026.0,15:06:17.828645,192.168.0.112
217,2,19,0,83,"0,0,-179",0,0,1,0,0,0,74,77,84,60,94,-54.32,4,-10.0,-1.0,-1002.0,15:06:17.930656,192.168.0.112
222,2,19,0,83,"0,0,-179",0,0,1,0,0,0,74,77,84,60,94,-54.29,4,-5.0,1.0,-988.0,15:06:18.032594,192.168.0.112
223,2,18,-1,82,"0,0,-178",0,0,1,0,0,0,74,77,83,60,94,-54.26,4,-5.0,-1.0,-993.0,15:06:18.083686,192.168.0.112
228,2,18,-1,82,"0,0,-178",0,0,1,0,0,0,74,77,82,60,94,-54.33,4,0.0,7.0,-986.0,15:06:18.185637,192.168.0.112
233,2,18,-1,82,"0,0,-178",0,0,1,0,0,0,74,77,81,60,94,-54.26,4,1.0,21.0,-997.0,15:06:18.287686,192.168.0.112
238,2,18,-1,82,"0,0,-178",0,0,1,0,0,0,74,77,81,60,94,-54.33,4,-6.0,21.0,-1012.0,15:06:18.390075,192.168.0.112
243,2,17,-1,80,"1,0,-178",0,0,1,0,0,0,74,77,80,60,94,-54.37,4,5.0,9.0,-1004.0,15:06:18.511859,192.168.0.112
248,2,17,-1,80,"1,0,-178",0,0,1,0,0,0,74,77,80,50,94,-54.36,4,-11.0,15.0,-1003.0,15:06:18.593659,192.168.0.112
253,2,17,-1,80,"1,0,-178",0,0,1,0,0,0,74,77,80,50,94,-54.38,4,-5.0,19.0,-1014.0,15:06:18.696575,192.168.0.112
258,2,17,-1,80,"1,0,-178",0,0,1,0,0,0,74,77,79,50,94,-54.33,4,-4.0,1.0,-1005.0,15:06:18.797583,192.168.0.112
264,2,17,-1,80,"1,0,-178",0,0,1,0,0,0,74,77,80,50,94,-54.32,5,-2.0,21.0,-1010.0,15:06:18.899659,192.168.0.112
269,2,17,0,77,"0,0,-179",0,0,1,0,0,0,74,77,79,50,94,-54.31,5,-8.0,13.0,-1003.0,15:06:19.002774,192.168.0.112
274,2,17,0,77,"0,0,-179",0,0,1,0,0,0,74,77,80,50,94,-54.36,5,10.0,-4.0,-1004.0,15:06:19.103551,192.168.0.112
279,2,17,0,77,"0,0,-179",0,0,1,0,0,0,74,77,79,50,94,-54.39,5,4.0,10.0,-1012.0,15:06:19.205621,192.168.0.112
285,2,17,0,77,"0,0,-179",0,0,1,0,0,0,74,77,80,50,94,-54.41,5,4.0,6.0,-1004.0,15:06:19.307429,192.168.0.112
290,2,18,0,76,"0,-1,179",0,0,1,0,0,0,74,77,80,50,94,-54.39,5,6.0,17.0,-999.0,15:06:19.409518,192.168.0.112
295,2,18,0,76,"0,-1,179",0,0,1,0,0,0,74,77,80,50,94,-54.39,5,-6.0,1.0,-1004.0,15:06:19.511420,192.168.0.112
300,2,18,0,76,"0,-1,179",0,0,1,0,0,0,74,77,79,50,94,-54.37,5,-13.0,-4.0,-1013.0,15:06:19.613617,192.168.0.112
305,2,18,0,76,"0,-1,179",0,0,1,0,0,0,74,76,80,50,94,-54.44,5,-10.0,9.0,-1002.0,15:06:19.716253,192.168.0.112
310,2,18,0,76,"0,-1,179",0,0,1,0,0,0,74,76,79,50,94,-54.42,5,4.0,0.0,-1009.0,15:06:19.817426,192.168.0.112
315,2,21,0,75,"0,0,179",0,0,1,0,0,0,74,76,79,50,94,-54.4,6,3.0,0.0,-1023.0,15:06:19.919573,192.168.0.112
320,2,21,0,75,"0,0,179",0,0,1,0,0,0,74,76,80,50,94,-54.38,6,1.0,7.0,-1002.0,15:06:20.021518,192.168.0.112
325,2,21,0,75,"0,0,179",0,0,1,0,0,0,74,76,80,50,94,-54.38,6,-4.0,7.0,-1019.0,15:06:20.123504,192.168.0.112
330,2,21,0,75,"0,0,179",0,0,1,0,0,0,74,76,80,50,94,-54.44,6,-6.0,5.0,-1025.0,15:06:20.225492,192.168.0.112
335,2,20,0,76,"0,-1,-179",0,0,1,0,0,0,74,76,81,50,94,-54.36,6,9.0,-2.0,-995.0,15:06:20.327580,192.168.0.112
341,2,20,0,76,"0,-1,-179",0,0,1,0,0,0,74,76,81,50,94,-54.47,6,-15.0,-8.0,-1001.0,15:06:20.429712,192.168.0.112
346,2,20,0,76,"0,-1,-179",-1,0,1,0,0,0,74,76,81,50,94,-54.42,6,-20.0,-10.0,-1011.0,15:06:20.531509,192.168.0.112
351,2,20,0,76,"0,-1,-179",-2,0,1,0,0,0,74,76,83,60,94,-54.39,6,-34.0,-19.0,-995.0,15:06:20.633429,192.168.0.112
356,2,20,0,76,"0,-1,-179",-2,0,1,0,0,0,74,77,82,60,94,-54.39,6,-38.0,-16.0,-1002.0,15:06:20.735426,192.168.0.112
361,2,20,0,77,"0,-1,-179",-2,0,1,0,0,0,74,77,83,60,94,-54.4,6,-18.0,-22.0,-998.0,15:06:20.837451,192.168.0.112
366,2,20,0,77,"0,-1,-179",-2,1,1,0,0,0,74,77,83,60,94,-54.44,7,-35.0,-7.0,-996.0,15:06:20.939365,192.168.0.112
371,2,20,0,77,"0,-1,-179",-2,1,1,0,0,0,74,77,83,60,94,-54.36,7,-36.0,-8.0,-978.0,15:06:21.041776,192.168.0.112
376,2,20,0,77,"0,-1,-179",-1,1,1,0,0,0,74,77,83,60,94,-54.46,7,-32.0,-18.0,-1010.0,15:06:21.143437,192.168.0.112
381,2,15,3,80,"0,0,-178",-1,2,1,0,0,0,74,77,83,60,94,-54.44,7,-31.0,-16.0,-1001.0,15:06:21.245479,192.168.0.112
386,2,15,3,80,"0,0,-178",-1,1,1,0,0,0,74,77,83,60,94,-54.43,7,-12.0,-19.0,-996.0,15:06:21.347493,192.168.0.112
391,2,15,3,80,"0,0,-178",-1,1,1,0,0,0,74,77,82,60,94,-54.39,7,-37.0,-9.0,-1000.0,15:06:21.454183,192.168.0.112
396,2,15,3,80,"0,0,-178",-1,1,1,0,0,0,74,77,83,60,94,-54.43,7,-30.0,-4.0,-995.0,15:06:21.551719,192.168.0.112
401,2,15,3,80,"0,0,-178",-1,1,1,0,0,0,74,77,82,60,94,-54.4,7,-23.0,-4.0,-992.0,15:06:21.654509,192.168.0.112
406,2,15,6,80,"1,0,-176",-1,1,1,0,0,0,75,77,82,60,94,-54.45,7,0.0,-14.0,-1006.0,15:06:21.755260,192.168.0.112
411,2,15,6,80,"1,0,-176",0,1,1,0,0,0,75,77,82,60,94,-54.4,7,0.0,-5.0,-997.0,15:06:21.857668,192.168.0.112
416,2,15,6,80,"1,0,-176",0,1,1,0,0,0,75,77,82,60,94,-54.42,8,-5.0,-15.0,-991.0,15:06:21.959499,192.168.0.112
421,2,15,6,80,"1,0,-176",0,0,1,0,0,0,75,77,81,50,94,-54.33,8,-24.0,-2.0,-1005.0,15:06:22.061532,192.168.0.112
426,2,15,6,80,"1,0,-176",0,0,1,0,0,0,75,77,82,50,94,-54.38,8,-11.0,-7.0,-1008.0,15:06:22.164356,192.168.0.112
428,2,16,6,79,"0,-1,-177",0,0,1,0,0,0,75,77,81,50,94,-54.47,8,-12.0,-2.0,-999.0,15:06:22.214477,192.168.0.112
433,2,16,6,79,"0,-1,-177",0,0,1,0,0,0,75,77,81,50,94,-54.49,8,-29.0,9.0,-1013.0,15:06:22.321219,192.168.0.112
438,2,16,6,79,"0,-1,-177",-1,0,1,0,0,0,75,77,81,50,94,-54.38,8,-17.0,19.0,-1000.0,15:06:22.418915,192.168.0.112
443,2,16,6,79,"0,-1,-177",-1,0,1,0,0,0,75,77,80,50,94,-54.45,8,-23.0,19.0,-990.0,15:06:22.526666,192.168.0.112
448,2,16,-1,78,"0,-1,-173",-1,0,1,0,0,0,75,77,80,50,94,-54.4,8,-5.0,11.0,-998.0,15:06:22.622340,192.168.0.112
453,2,16,-1,78,"0,-1,-173",-1,0,1,0,0,0,74,77,80,50,94,-54.37,8,0.0,9.0,-1015.0,15:06:22.724246,192.168.0.112
458,2,16,-1,78,"0,-1,-173",0,-1,1,0,0,0,74,77,80,50,94,-54.47,8,0.0,16.0,-1011.0,15:06:22.826657,192.168.0.112
463,2,16,-1,78,"0,-1,-173",0,-1,1,0,0,0,74,77,80,50,94,-54.43,9,5.0,16.0,-971.0,15:06:22.928399,192.168.0.112
468,2,16,-1,78,"0,-1,-173",4,-2,1,0,0,0,74,77,79,50,94,-54.41,9,8.0,2.0,-986.0,15:06:23.030496,192.168.0.112
474,2,16,2,77,"0,-1,-179",3,-2,1,0,0,0,74,77,78,50,94,-54.48,9,20.0,18.0,-1006.0,15:06:23.132452,192.168.0.112
480,2,16,2,77,"0,-1,-179",2,-1,1,0,0,0,74,77,78,50,94,-54.39,9,24.0,13.0,-994.0,15:06:23.235669,192.168.0.112
485,2,16,2,77,"0,-1,-179",1,0,1,0,0,0,74,77,77,50,94,-54.52,9,19.0,6.0,-986.0,15:06:23.340727,192.168.0.112
490,2,16,2,77,"0,-1,-179",1,0,1,0,0,0,74,77,77,50,94,-54.37,9,14.0,8.0,-997.0,15:06:23.438263,192.168.0.112
495,2,16,2,77,"0,-1,-179",1,0,1,0,0,0,74,77,76,50,94,-54.49,9,0.0,11.0,-997.0,15:06:23.540325,192.168.0.112
500,2,16,2,77,"0,-1,-179",0,0,1,1,0,0,74,77,75,50,94,-54.51,9,9.0,16.0,-997.0,15:06:23.642438,192.168.0.112
505,2,16,2,77,"0,-1,-179",1,0,1,0,0,0,74,76,74,50,94,-54.48,9,17.0,16.0,-1012.0,15:06:23.744296,192.168.0.112
510,2,20,2,73,"0,-1,-179",2,0,1,0,0,0,74,76,73,50,94,-54.5,9,12.0,14.0,-1000.0,15:06:23.846407,192.168.0.112
515,2,20,2,73,"0,-1,-179",2,0,1,1,0,0,74,76,73,50,94,-54.44,10,42.0,-9.0,-992.0,15:06:23.948303,192.168.0.112
520,2,20,2,73,"0,-1,-179",1,0,1,1,0,0,74,76,72,50,94,-54.47,10,23.0,6.0,-997.0,15:06:24.058331,192.168.0.112
525,2,20,2,73,"0,-1,-179",1,0,1,1,0,0,74,76,72,50,94,-54.46,10,25.0,2.0,-997.0,15:06:24.152326,192.168.0.112
530,2,20,2,73,"0,-1,-179",1,0,1,1,0,0,74,76,71,50,94,-54.41,10,16.0,17.0,-1011.0,15:06:24.254792,192.168.0.112
535,2,20,2,73,"0,-1,-179",1,0,1,0,0,0,74,76,71,50,94,-54.47,10,34.0,7.0,-1008.0,15:06:24.356452,192.168.0.112
540,2,11,4,70,"-2,0,-179",1,0,1,0,0,0,74,76,71,40,94,-54.49,10,22.0,2.0,-994.0,15:06:24.458342,192.168.0.112
545,2,11,4,70,"-2,0,-179",1,0,1,0,0,0,74,76,71,40,94,-54.53,10,35.0,-4.0,-1005.0,15:06:24.560281,192.168.0.112
550,2,11,4,70,"-2,0,-179",1,0,1,0,0,0,74,76,71,40,94,-54.54,10,19.0,14.0,-994.0,15:06:24.662269,192.168.0.112
555,2,11,4,70,"-2,0,-179",1,0,1,0,0,0,73,76,70,40,94,-54.49,10,21.0,-3.0,-997.0,15:06:24.764198,192.168.0.112
560,2,11,4,70,"-2,0,-179",0,0,1,0,0,0,73,76,70,40,94,-54.44,10,16.0,19.0,-991.0,15:06:24.866368,192.168.0.112
565,2,11,4,70,"-2,0,-179",-1,0,1,0,0,0,73,76,70,40,94,-54.54,11,27.0,10.0,-1016.0,15:06:24.968271,192.168.0.112
570,2,11,4,70,"-2,0,-179",0,0,1,0,0,0,73,76,70,40,94,-54.49,11,15.0,14.0,-1000.0,15:06:25.070431,192.168.0.112
575,2,5,3,68,"-2,0,-179",0,0,1,0,0,0,73,76,70,40,94,-54.45,11,11.0,0.0,-1003.0,15:06:25.172389,192.168.0.112
580,2,5,3,68,"-2,0,-179",0,0,1,0,0,0,73,76,70,40,94,-54.51,11,9.0,-6.0,-1000.0,15:06:25.274368,192.168.0.112
585,2,5,3,68,"-2,0,-179",0,0,1,0,0,0,73,76,70,40,94,-54.53,11,12.0,-16.0,-993.0,15:06:25.376423,192.168.0.112
588,2,5,3,68,"-2,0,-179",0,0,1,0,0,0,73,76,70,40,94,-54.5,11,-5.0,2.0,-1005.0,15:06:25.427452,192.168.0.112
593,2,5,3,68,"-2,0,-179",1,0,1,0,0,0,73,76,70,40,94,-54.42,11,-6.0,2.0,-979.0,15:06:25.529248,192.168.0.112
598,2,5,3,68,"-2,0,-179",1,0,1,0,0,0,73,76,70,40,94,-54.43,11,16.0,-6.0,-986.0,15:06:25.631514,192.168.0.112
605,2,6,4,68,"-2,0,-178",0,0,1,0,0,0,73,76,70,40,94,-54.48,11,5.0,-1.0,-991.0,15:06:25.784331,192.168.0.112
608,2,6,4,68,"-2,0,-178",0,0,1,0,0,0,73,76,71,40,94,-54.42,11,21.0,-6.0,-1001.0,15:06:25.835303,192.168.0.112
613,2,6,4,68,"-2,0,-178",0,0,1,0,0,0,73,76,70,40,94,-54.47,12,-15.0,28.0,-1000.0,15:06:25.937310,192.168.0.112
618,2,6,4,68,"-2,0,-178",0,0,1,0,0,0,73,76,70,40,94,-54.4,12,18.0,0.0,-1010.0,15:06:26.043467,192.168.0.112
623,2,6,4,68,"-2,0,-178",0,0,1,0,0,0,73,76,71,40,94,-54.38,12,10.0,3.0,-990.0,15:06:26.143145,192.168.0.112
628,2,6,4,68,"-2,0,-178",1,0,1,0,0,0,73,76,71,40,94,-54.51,12,-11.0,17.0,-1018.0,15:06:26.243183,192.168.0.112
633,2,6,4,68,"-2,0,-178",0,0,1,0,0,0,73,76,71,40,94,-54.43,12,-3.0,0.0,-1002.0,15:06:26.349461,192.168.0.112
638,2,8,4,68,"-2,0,-178",0,0,1,0,0,0,73,76,71,40,94,-54.54,12,-22.0,-12.0,-989.0,15:06:26.447241,192.168.0.112
643,2,8,4,68,"-2,0,-178",0,0,1,0,0,0,73,76,71,40,94,-54.5,12,-3.0,-11.0,-1003.0,15:06:26.549313,192.168.0.112
648,2,8,4,68,"-2,0,-178",0,0,1,0,0,0,73,76,71,40,94,-54.42,12,-30.0,15.0,-1017.0,15:06:26.651263,192.168.0.112
653,2,8,4,68,"-2,0,-178",0,0,1,0,0,0,74,76,71,40,94,-54.48,12,-17.0,15.0,-1004.0,15:06:26.753119,192.168.0.112
658,2,8,4,68,"-2,0,-178",-1,0,1,0,0,0,74,76,71,40,94,-54.52,12,-14.0,-4.0,-996.0,15:06:26.855340,192.168.0.112
664,2,8,4,68,"-2,0,-178",-1,0,1,0,0,0,74,76,71,40,94,-54.45,13,-14.0,9.0,-992.0,15:06:26.957421,192.168.0.112
669,2,8,4,68,"-2,0,-178",-1,0,1,0,0,0,74,76,72,40,94,-54.45,13,-19.0,14.0,-988.0,15:06:27.059268,192.168.0.112
675,2,6,2,69,"-2,-1,-177",-1,0,1,0,0,0,74,76,71,40,94,-54.52,13,-11.0,2.0,-981.0,15:06:27.161284,192.168.0.112
680,2,6,2,69,"-2,-1,-177",-1,0,1,0,0,0,74,76,71,40,94,-54.4,13,-10.0,0.0,-993.0,15:06:27.263236,192.168.0.112
685,2,6,2,69,"-2,-1,-177",-1,0,1,0,0,0,74,76,70,40,94,-54.44,13,1.0,-3.0,-1009.0,15:06:27.365207,192.168.0.112
690,2,6,2,69,"-2,-1,-177",-1,0,1,0,0,0,74,76,70,40,94,-54.36,13,-27.0,18.0,-988.0,15:06:27.467978,192.168.0.112
695,2,6,2,69,"-2,-1,-177",0,0,1,0,0,0,74,76,69,40,94,-54.42,13,-3.0,9.0,-999.0,15:06:27.569394,192.168.0.112
700,2,6,2,69,"-2,-1,-177",0,0,1,0,0,0,74,76,69,40,94,-54.38,13,-9.0,3.0,-1015.0,15:06:27.671104,192.168.0.112
705,2,3,3,69,"0,-1,-178",0,0,1,0,0,0,73,76,69,40,94,-54.43,13,6.0,-3.0,-991.0,15:06:27.773625,192.168.0.112
710,2,3,3,69,"0,-1,-178",0,0,1,0,0,0,73,76,69,40,94,-54.38,14,-1.0,1.0,-996.0,15:06:27.875196,192.168.0.112
715,2,3,3,69,"0,-1,-178",0,0,1,0,0,0,73,76,69,40,94,-54.41,14,5.0,15.0,-1019.0,15:06:27.977212,192.168.0.112
720,2,3,3,69,"0,-1,-178",0,0,1,0,0,0,73,76,69,40,94,-54.5,14,-1.0,11.0,-997.0,15:06:28.079186,192.168.0.112
725,2,3,3,69,"0,-1,-178",0,0,1,0,0,0,73,76,69,40,94,-54.45,14,-15.0,28.0,-1001.0,15:06:28.183078,192.168.0.112
730,2,3,3,69,"0,-1,-178",0,-1,1,0,0,0,73,76,69,40,94,-54.5,14,-1.0,-1.0,-1013.0,15:06:28.283435,192.168.0.112
735,2,3,3,69,"0,-1,-178",0,-1,1,0,0,0,73,76,69,40,94,-54.42,14,3.0,9.0,-985.0,15:06:28.397161,192.168.0.112
740,2,5,2,67,"0,-1,-178",0,0,1,0,0,0,73,76,69,40,94,-54.37,14,-17.0,18.0,-1018.0,15:06:28.487144,192.168.0.112
745,2,5,2,67,"0,-1,-178",-5,0,1,0,0,0,73,76,70,40,94,-54.43,14,4.0,4.0,-1008.0,15:06:28.589064,192.168.0.112
750,2,5,2,67,"0,-1,-178",-8,0,1,-1,0,0,73,76,71,40,94,-54.46,14,-8.0,-4.0,-1001.0,15:06:28.691179,192.168.0.112
755,2,5,2,67,"0,-1,-178",-8,0,1,-2,0,0,73,76,71,40,94,-54.5,14,-10.0,4.0,-1005.0,15:06:28.793103,192.168.0.112
760,2,5,2,67,"0,-1,-178",-8,0,1,-3,0,0,73,76,71,40,94,-54.45,15,-25.0,9.0,-997.0,15:06:28.895139,192.168.0.112
765,2,5,2,67,"0,-1,-178",-8,0,1,-4,0,0,73,76,71,40,94,-54.64,15,-39.0,-10.0,-1029.0,15:06:28.997127,192.168.0.112
770,2,5,2,67,"0,-1,-178",-7,0,1,-5,0,0,73,76,71,40,94,-54.67,15,-85.0,21.0,-1002.0,15:06:29.099175,192.168.0.112
775,2,8,3,68,"7,0,178",-7,0,1,-6,0,0,73,76,71,40,94,-54.73,15,-83.0,16.0,-1001.0,15:06:29.201116,192.168.0.112
780,2,8,3,68,"7,0,178",-7,0,1,-7,0,0,73,76,71,40,94,-54.55,15,-82.0,26.0,-958.0,15:06:29.302999,192.168.0.112
785,2,8,3,68,"7,0,178",-7,0,1,-7,0,0,73,76,71,40,94,-54.65,15,-55.0,-22.0,-1003.0,15:06:29.405077,192.168.0.112
790,2,8,3,68,"7,0,178",-6,0,1,-8,0,0,73,76,72,40,94,-54.65,15,-83.0,-4.0,-986.0,15:06:29.507200,192.168.0.112
795,2,8,3,68,"7,0,178",-5,0,1,-8,0,0,73,76,72,50,94,-54.75,15,-81.0,-6.0,-998.0,15:06:29.615328,192.168.0.112
797,2,8,3,68,"7,0,178",-5,0,0,-9,0,0,73,76,72,50,94,-54.6,15,-69.0,0.0,-1001.0,15:06:29.660041,192.168.0.112
805,2,41,2,65,"10,0,-179",-4,0,1,-9,0,0,74,75,71,50,94,-54.6,15,-43.0,-2.0,-972.0,15:06:29.813757,192.168.0.112
810,2,41,2,65,"10,0,-179",-4,0,1,-9,0,0,74,75,72,50,94,-54.77,16,-44.0,6.0,-1047.0,15:06:29.917442,192.168.0.112
815,2,41,2,65,"10,0,-179",-4,0,0,-10,0,0,74,75,68,50,94,-54.63,16,-49.0,3.0,-991.0,15:06:30.016982,192.168.0.112
820,2,41,2,65,"10,0,-179",-3,0,0,-10,0,0,74,75,70,40,94,-54.71,16,-53.0,-3.0,-995.0,15:06:30.119329,192.168.0.112
825,2,41,2,65,"10,0,-179",-3,0,1,-10,0,0,74,75,71,40,94,-54.65,16,-70.0,15.0,-996.0,15:06:30.221812,192.168.0.112
830,2,41,2,65,"10,0,-179",-3,0,1,-10,0,0,74,75,71,40,94,-54.64,16,-61.0,13.0,-1003.0,15:06:30.324195,192.168.0.112
835,2,41,2,65,"10,0,-179",-2,0,1,-10,0,0,74,75,71,40,94,-54.64,16,-47.0,15.0,-998.0,15:06:30.426738,192.168.0.112
840,2,41,2,65,"10,0,-179",0,0,1,-10,0,0,74,75,71,40,94,-54.63,16,-55.0,17.0,-1006.0,15:06:30.529011,192.168.0.112
845,2,41,2,65,"10,0,-179",2,-1,1,-9,0,0,74,75,70,40,94,-54.54,16,-46.0,-4.0,-1000.0,15:06:30.632679,192.168.0.112
851,2,41,2,65,"10,0,-179",4,0,1,-8,0,0,74,75,70,40,94,-54.72,16,-49.0,-11.0,-1013.0,15:06:30.731141,192.168.0.112
856,2,41,2,65,"10,0,-179",5,0,1,-7,0,0,73,76,70,40,94,-54.69,16,-57.0,9.0,-997.0,15:06:30.833214,192.168.0.112
859,2,41,2,65,"10,0,-179",6,0,1,-6,0,0,73,76,70,40,94,-54.6,17,-27.0,0.0,-1009.0,15:06:30.888082,192.168.0.112
864,2,41,2,65,"10,0,-179",7,0,1,-4,0,0,73,76,71,40,94,-54.4,17,-21.0,6.0,-1016.0,15:06:30.986118,192.168.0.112
871,6,-38,6,65,"-5,-2,177",7,0,1,-3,0,0,73,76,70,40,94,-54.48,17,-16.0,5.0,-1010.0,15:06:31.139099,192.168.0.112
876,6,-38,6,65,"-5,-2,177",5,0,1,-2,0,0,73,76,70,40,94,-54.48,17,-5.0,12.0,-1004.0,15:06:31.241046,192.168.0.112
881,6,-38,6,65,"-5,-2,177",3,0,1,-1,0,0,73,76,69,40,94,-54.44,17,-26.0,15.0,-1022.0,15:06:31.343207,192.168.0.112
886,6,-38,6,65,"-5,-2,177",1,0,1,0,0,0,73,76,69,40,94,-54.43,17,0.0,5.0,-990.0,15:06:31.445079,192.168.0.112
890,6,-38,6,65,"-5,-2,177",1,0,1,0,0,0,73,76,69,40,94,-54.37,17,-2.0,15.0,-1000.0,15:06:31.547288,192.168.0.112
895,6,-38,6,65,"-5,-2,177",0,0,1,0,0,0,73,76,70,40,94,-54.43,17,1.0,-9.0,-992.0,15:06:31.648995,192.168.0.112
901,6,-38,6,65,"-5,-2,177",0,0,1,0,0,0,73,76,70,40,94,-54.47,17,-15.0,39.0,-1004.0,15:06:31.750957,192.168.0.112
906,6,-3,2,68,"-4,-1,-178",0,0,1,0,0,0,73,76,70,40,94,-54.48,17,0.0,4.0,-996.0,15:06:31.853094,192.168.0.112
910,6,-3,2,68,"-4,-1,-178",0,0,1,0,0,0,73,76,70,40,94,-54.38,18,-9.0,6.0,-977.0,15:06:31.904093,192.168.0.112
915,6,-3,2,68,"-4,-1,-178",0,0,1,0,0,0,73,76,70,40,94,-54.41,18,-24.0,15.0,-1023.0,15:06:32.006023,192.168.0.112
919,6,-3,2,68,"-4,-1,-178",0,0,1,0,0,0,73,76,69,40,94,-54.48,18,-22.0,19.0,-992.0,15:06:32.108191,192.168.0.112
925,6,-3,2,68,"-4,-1,-178",0,0,1,0,0,0,73,76,69,40,94,-54.38,18,-6.0,22.0,-998.0,15:06:32.212230,192.168.0.112
930,6,-3,2,68,"-4,-1,-178",0,0,1,0,0,0,73,76,69,40,94,-54.45,18,10.0,0.0,-1005.0,15:06:32.312050,192.168.0.112
935,6,-3,2,68,"-4,-1,-178",0,-1,1,0,0,0,73,76,68,40,94,-54.48,18,13.0,0.0,-1023.0,15:06:32.414034,192.168.0.112
940,6,-1,3,68,"0,-1,179",0,0,1,0,0,0,73,76,69,40,94,-54.48,18,-14.0,23.0,-1005.0,15:06:32.516355,192.168.0.112
945,6,-1,3,68,"0,-1,179",1,0,1,0,0,0,73,76,70,40,94,-54.51,18,13.0,8.0,-981.0,15:06:32.617872,192.168.0.112
950,6,-1,3,68,"0,-1,179",1,0,1,0,0,0,73,76,69,40,94,-54.43,18,1.0,21.0,-1018.0,15:06:32.720081,192.168.0.112
955,6,-1,3,68,"0,-1,179",0,-1,1,0,0,0,73,76,70,40,94,-54.51,18,10.0,5.0,-999.0,15:06:32.825026,192.168.0.112
960,6,-1,3,68,"0,-1,179",1,-1,1,0,0,0,73,76,70,40,94,-54.52,19,9.0,11.0,-993.0,15:06:32.924020,192.168.0.112
965,6,-1,3,68,"0,-1,179",1,0,1,0,0,0,73,76,70,40,94,-54.49,19,7.0,0.0,-993.0,15:06:33.026101,192.168.0.112
970,6,2,4,68,"-1,-1,178",1,0,1,0,0,0,73,76,70,40,94,-54.49,19,6.0,4.0,-998.0,15:06:33.128174,192.168.0.112
975,6,2,4,68,"-1,-1,178",1,0,1,0,0,0,73,76,70,40,94,-54.5,19,20.0,-1.0,-1011.0,15:06:33.230039,192.168.0.112
980,6,2,4,68,"-1,-1,178",0,0,1,0,0,0,73,76,70,40,94,-54.52,19,7.0,2.0,-995.0,15:06:33.331906,192.168.0.112
985,6,2,4,68,"-1,-1,178",1,0,1,0,0,0,73,76,70,40,94,-54.5,19,7.0,4.0,-1005.0,15:06:33.433817,192.168.0.112
990,6,2,4,68,"-1,-1,178",1,0,1,0,0,0,73,76,70,40,94,-54.4,19,0.0,0.0,-987.0,15:06:33.536147,192.168.0.112
995,6,2,4,68,"-1,-1,178",1,0,1,0,0,0,73,76,70,40,94,-54.43,19,-8.0,12.0,-1001.0,15:06:33.644086,192.168.0.112
1000,6,2,4,68,"-1,-1,178",0,0,1,0,0,0,73,76,70,40,94,-54.43,19,17.0,-13.0,-1002.0,15:06:33.740029,192.168.0.112
1005,6,3,4,68,"-1,-1,179",0,0,1,0,0,0,73,76,70,40,94,-54.49,19,19.0,-9.0,-999.0,15:06:33.842023,192.168.0.112
1010,6,3,4,68,"-1,-1,179",0,0,1,0,0,0,73,76,71,40,94,-54.48,20,-6.0,10.0,-1011.0,15:06:33.943994,192.168.0.112
1015,6,3,4,68,"-1,-1,179",0,0,1,0,0,0,73,76,71,40,94,-54.44,20,15.0,-12.0,-998.0,15:06:34.046361,192.168.0.112
1020,6,3,4,68,"-1,-1,179",0,0,1,0,0,0,73,76,71,40,94,-54.41,20,3.0,7.0,-1009.0,15:06:34.148013,192.168.0.112
1025,6,3,4,68,"-1,-1,179",0,0,1,0,0,0,73,76,71,40,94,-54.44,20,2.0,-4.0,-1002.0,15:06:34.251575,192.168.0.112
1030,6,3,4,68,"-1,-1,179",0,0,1,0,0,0,73,76,71,40,94,-54.4,20,6.0,-3.0,-1000.0,15:06:34.352018,192.168.0.112
1035,6,3,4,68,"-1,-1,179",0,0,1,0,0,0,73,76,72,40,94,-54.38,20,-4.0,-1.0,-997.0,15:06:34.454065,192.168.0.112
1038,6,2,3,69,"-2,-1,-178",0,0,1,0,0,0,73,76,71,40,94,-54.41,20,0.0,6.0,-989.0,15:06:34.504890,192.168.0.112
1043,6,2,3,69,"-2,-1,-178",0,0,1,0,0,0,73,76,72,40,94,-54.36,20,1.0,12.0,-1002.0,15:06:34.606891,192.168.0.112
1048,6,2,3,69,"-2,-1,-178",0,0,1,0,0,0,73,76,72,40,94,-54.46,20,5.0,-13.0,-991.0,15:06:34.709711,192.168.0.112
1055,6,2,3,69,"-2,-1,-178",0,0,1,0,0,0,73,76,72,40,94,-54.4,20,12.0,-4.0,-995.0,15:06:34.862401,192.168.0.112
1058,6,2,3,69,"-2,-1,-178",0,0,1,0,0,0,73,76,72,40,94,-54.39,21,7.0,-11.0,-1000.0,15:06:34.913027,192.168.0.112
1063,6,2,3,69,"-2,-1,-178",0,0,1,0,0,0,73,76,71,40,94,-54.38,21,9.0,-8.0,-994.0,15:06:35.014952,192.168.0.112
1069,6,1,4,70,"-2,-1,-178",0,0,1,0,0,0,73,76,72,40,94,-54.45,21,6.0,-16.0,-992.0,15:06:35.117049,192.168.0.112
1074,6,1,4,70,"-2,-1,-178",0,0,1,0,0,0,73,76,72,40,94,-54.44,21,14.0,-16.0,-1009.0,15:06:35.218942,192.168.0.112
1079,6,1,4,70,"-2,-1,-178",0,0,1,0,0,0,73,76,72,40,94,-54.41,21,15.0,-1.0,-1012.0,15:06:35.320895,192.168.0.112
1084,6,1,4,70,"-2,-1,-178",0,0,1,0,0,0,73,76,71,40,94,-54.43,21,-3.0,0.0,-1005.0,15:06:35.422891,192.168.0.112
1089,6,1,4,70,"-2,-1,-178",0,0,1,0,0,0,73,76,71,40,94,-54.42,21,-2.0,4.0,-994.0,15:06:35.524902,192.168.0.112
1094,6,1,4,70,"-2,-1,-178",0,0,1,0,0,0,73,76,71,40,94,-54.41,21,-12.0,9.0,-1000.0,15:06:35.626987,192.168.0.112
1099,6,1,4,70,"-2,-1,-178",0,0,1,0,0,0,73,76,71,40,94,-54.42,21,0.0,-1.0,-1000.0,15:06:35.728923,192.168.0.112
1104,6,2,5,69,"-2,-1,-178",0,0,1,0,0,0,73,75,71,40,94,-54.36,21,7.0,-14.0,-997.0,15:06:35.834663,192.168.0.112
1109,6,2,5,69,"-2,-1,-178",0,0,1,0,0,0,73,75,71,40,94,-54.44,22,-14.0,-13.0,-995.0,15:06:35.932891,192.168.0.112
1114,6,2,5,69,"-2,-1,-178",0,0,1,0,0,0,73,75,71,40,94,-54.43,22,-11.0,-1.0,-1000.0,15:06:36.034905,192.168.0.112
1119,6,2,5,69,"-2,-1,-178",0,0,1,0,0,0,73,75,71,40,94,-54.37,22,0.0,-5.0,-982.0,15:06:36.136966,192.168.0.112
1124,6,2,5,69,"-2,-1,-178",0,0,1,0,0,0,73,75,71,40,94,-54.51,22,-16.0,-17.0,-1031.0,15:06:36.238570,192.168.0.112
1129,6,2,5,69,"-2,-1,-178",0,0,1,0,0,0,73,75,70,40,94,-54.52,22,6.0,-10.0,-1008.0,15:06:36.340587,192.168.0.112
1134,6,2,5,69,"-2,-1,-178",0,0,1,0,0,0,73,75,70,40,94,-54.5,22,-12.0,8.0,-976.0,15:06:36.443912,192.168.0.112
1139,6,1,4,69,"-1,-1,-178",0,0,1,0,0,0,73,75,70,40,94,-54.44,22,1.0,-6.0,-974.0,15:06:36.545931,192.168.0.112
1144,6,1,4,69,"-1,-1,-178",0,0,1,0,0,0,73,75,70,40,94,-54.46,22,-14.0,-2.0,-997.0,15:06:36.646824,192.168.0.112
1149,6,1,4,69,"-1,-1,-178",0,0,1,0,0,0,73,75,70,40,94,-54.45,22,0.0,-7.0,-1000.0,15:06:36.749142,192.168.0.112
1154,6,1,4,69,"-1,-1,-178",0,0,1,0,0,0,73,75,69,40,94,-54.39,22,-16.0,-11.0,-1017.0,15:06:36.850474,192.168.0.112
1159,6,1,4,69,"-1,-1,-178",0,0,1,0,0,0,73,75,70,40,94,-54.45,23,8.0,-22.0,-1014.0,15:06:36.952459,192.168.0.112
1164,6,1,4,69,"-1,-1,-178",0,0,1,0,0,0,73,75,70,40,94,-54.39,23,4.0,-8.0,-987.0,15:06:37.054412,192.168.0.112
1169,6,0,4,68,"0,-1,-177",0,0,1,0,0,0,73,75,70,40,94,-54.43,23,-9.0,1.0,-974.0,15:06:37.156611,192.168.0.112
1175,6,0,4,68,"0,-1,-177",0,0,1,0,0,0,73,75,69,40,94,-54.47,23,-12.0,-9.0,-1009.0,15:06:37.258682,192.168.0.112
1180,6,0,4,68,"0,-1,-177",0,0,1,0,0,0,73,75,69,40,94,-54.44,23,-8.0,-6.0,-991.0,15:06:37.360540,192.168.0.112
1185,6,0,4,68,"0,-1,-177",0,0,1,0,0,0,73,75,70,40,94,-54.43,23,0.0,-5.0,-987.0,15:06:37.462701,192.168.0.112
1190,6,0,4,68,"0,-1,-177",0,0,1,0,0,0,73,75,69,40,94,-54.44,23,7.0,-15.0,-959.0,15:06:37.564702,192.168.0.112
1195,6,0,4,68,"0,-1,-177",0,0,1,0,0,0,73,75,69,40,94,-54.45,23,-8.0,0.0,-936.0,15:06:37.666883,192.168.0.112
1200,6,0,4,68,"0,-1,-177",0,0,1,0,0,-1,73,75,67,40,94,-54.53,23,-1.0,-9.0,-916.0,15:06:37.768526,192.168.0.112
1205,6,0,4,68,"0,-1,-178",0,0,1,0,0,-1,72,75,65,40,94,-54.55,23,-10.0,19.0,-911.0,15:06:37.870720,192.168.0.112
1210,6,0,4,68,"0,-1,-178",0,0,1,0,0,-2,72,75,61,40,94,-54.53,24,-5.0,0.0,-919.0,15:06:37.972310,192.168.0.112
1215,6,0,4,68,"0,-1,-178",0,0,1,0,0,-3,72,75,57,40,94,-54.65,24,-15.0,18.0,-949.0,15:06:38.074634,192.168.0.112
1220,6,0,4,68,"0,-1,-178",0,0,1,0,0,-4,72,75,53,30,94,-54.66,24,-12.0,22.0,-980.0,15:06:38.176698,192.168.0.112
1225,6,0,4,68,"0,-1,-178",0,0,1,0,0,-4,72,75,49,30,94,-54.66,24,9.0,-7.0,-969.0,15:06:38.278522,192.168.0.112
1230,6,0,4,68,"0,-1,-178",0,0,1,0,0,-4,72,75,44,20,94,-54.72,24,-9.0,35.0,-979.0,15:06:38.380655,192.168.0.112
1235,6,0,4,68,"0,-1,-178",0,0,1,0,0,-4,72,75,39,20,94,-54.71,24,23.0,7.0,-984.0,15:06:38.482490,192.168.0.112
1240,6,0,4,57,"0,-1,-178",0,0,1,0,0,-4,72,75,34,10,94,-54.78,24,-18.0,22.0,-1013.0,15:06:38.587686,192.168.0.112
1245,6,0,4,57,"0,-1,-178",0,0,1,0,0,-4,72,75,29,10,94,-54.8,24,1.0,-2.0,-1002.0,15:06:38.687918,192.168.0.112
1250,6,0,4,57,"0,-1,-178",0,0,1,0,0,-4,72,75,25,0,94,-54.86,24,10.0,2.0,-1009.0,15:06:38.788498,192.168.0.112
1253,6,0,4,57,"0,-1,-178",0,0,1,0,0,-4,73,75,22,0,94,-54.82,24,6.0,30.0,-975.0,15:06:38.839397,192.168.0.112
1258,6,0,4,57,"0,-1,-178",0,0,1,0,0,-4,73,75,19,0,94,-55.11,25,4.0,45.0,-966.0,15:06:38.941403,192.168.0.112
1263,6,0,4,57,"0,-1,-178",0,0,1,0,0,-4,73,75,13,0,94,-55.3,25,19.0,17.0,-1031.0,15:06:39.043748,192.168.0.112
1268,6,0,4,57,"0,-1,-178",0,-1,1,0,0,-4,73,75,10,0,94,-55.86,25,9.0,23.0,-1058.0,15:06:39.151294,192.168.0.112
1273,6,0,4,57,"0,-1,-178",1,-1,1,0,0,-3,73,75,10,-10,94,-57.04,25,-6.0,17.0,-1046.0,15:06:39.247462,192.168.0.112
1278,6,0,4,57,"0,-1,-178",0,-1,1,0,0,-3,73,75,10,-10,94,-58.9,25,14.0,-8.0,-1109.0,15:06:39.349613,192.168.0.112
1283,6,0,4,57,"0,-1,-178",0,0,1,0,0,0,73,75,10,-10,94,-57.47,25,9.0,-12.0,-863.0,15:06:39.451438,192.168.0.112
1288,6,0,4,57,"0,-1,-178",2,-2,2,0,0,0,73,75,6553,-10,94,-57.96,25,53.0,52.0,-1033.0,15:06:39.553257,192.168.0.112
1293,6,0,4,57,"0,-1,-178",0,-1,2,0,0,0,73,75,6553,-10,94,-57.91,25,-4.0,40.0,-1262.0,15:06:39.656698,192.168.0.112
1298,6,0,4,57,"0,-1,-178",0,0,2,0,0,0,73,75,6553,-10,94,-56.75,25,-25.0,-14.0,-1004.0,15:06:39.757408,192.168.0.112
1303,6,0,4,57,"0,-1,-178",0,0,2,0,0,0,73,75,6553,-10,94,-56.32,25,-36.0,-4.0,-992.0,15:06:39.862339,192.168.0.112
1308,6,0,4,57,"0,-1,-178",0,0,2,0,0,0,73,75,6553,-10,94,-56.22,26,-23.0,-3.0,-999.0,15:06:39.961605,192.168.0.112
1313,6,0,4,57,"0,-1,-178",0,0,2,0,0,0,73,75,6553,-10,94,-56.19,26,-15.0,2.0,-1001.0,15:06:40.063793,192.168.0.112
1318,6,0,4,57,"0,-1,-178",0,0,2,0,0,0,73,75,6553,-10,94,-56.01,26,-13.0,11.0,-1002.0,15:06:40.165824,192.168.0.112
1325,6,0,4,57,"0,-1,-178",0,0,2,0,0,0,73,75,6553,-10,94,-55.95,26,-15.0,7.0,-998.0,15:06:40.267711,192.168.0.112
1330,6,0,4,57,"0,-1,-178",0,0,2,1,0,0,73,75,6553,0,94,-55.69,26,-16.0,0.0,-996.0,15:06:40.369550,192.168.0.112
1335,6,0,4,57,"0,-1,-178",0,0,2,1,0,-1,73,75,6553,0,94,-55.54,26,-20.0,3.0,-995.0,15:06:40.471806,192.168.0.112
1340,6,0,4,57,"0,-1,-178",0,0,2,1,0,-1,73,75,6553,0,94,-55.44,26,-20.0,4.0,-995.0,15:06:40.573270,192.168.0.112
