,mid,x,y,z,mpry,pitch,roll,yaw,vgx,vgy,vgz,templ,temph,tof,h,bat,baro,time,agx,agy,agz,timestamp,address
3,-1,-100,-100,-100,"-1,-1,-1",0,0,0,0,0,0,69,71,10,0,100,-58.22,0,-6.0,-7.0,-1003.0,15:51:42.357129,192.168.0.113
8,-1,-100,-100,-100,"-1,-1,-1",0,0,0,0,0,0,69,71,10,0,100,-58.24,0,-6.0,-5.0,-1001.0,15:51:42.446930,192.168.0.113
13,-1,-100,-100,-100,"-1,-1,-1",0,0,0,0,0,0,69,71,10,0,100,-58.24,0,-5.0,-5.0,-998.0,15:51:42.548729,192.168.0.113
18,-1,-100,-100,-100,"-1,-1,-1",0,0,0,0,0,0,69,71,10,0,100,-58.22,0,-7.0,-6.0,-1003.0,15:51:42.651004,192.168.0.113
23,-1,-100,-100,-100,"-1,-1,-1",0,0,0,0,0,0,69,71,10,0,100,-58.22,0,-2.0,-4.0,-997.0,15:51:42.760208,192.168.0.113
28,-1,-100,-100,-100,"-1,-1,-1",0,0,0,0,0,0,69,71,10,0,100,-58.22,0,0.0,-2.0,-1007.0,15:51:42.854550,192.168.0.113
31,-1,-100,-100,-100,"-1,-1,-1",0,0,0,0,0,0,69,71,10,0,100,-58.22,0,-2.0,17.0,-1002.0,15:51:42.908050,192.168.0.113
36,-1,-100,-100,-100,"-1,-1,-1",0,0,0,0,0,0,69,71,10,0,100,-58.22,0,-45.0,23.0,-992.0,15:51:43.009831,192.168.0.113
41,-1,-100,-100,-100,"-1,-1,-1",1,0,0,0,0,0,69,71,10,0,100,-58.22,0,-1.0,2.0,-990.0,15:51:43.109575,192.168.0.113
46,-1,-100,-100,-100,"-1,-1,-1",0,0,0,0,0,-3,69,71,10,0,100,-58.22,0,-10.0,9.0,-1089.0,15:51:43.211664,192.168.0.113
51,-1,-100,-100,-100,"-1,-1,-1",-1,0,0,0,0,-5,69,71,10,0,100,-58.22,0,-44.0,-47.0,-1107.0,15:51:43.313605,192.168.0.113
56,-1,-100,-100,-100,"-1,-1,-1",-2,0,0,-1,0,-6,69,71,17,0,100,-57.89,0,-45.0,25.0,-1332.0,15:51:43.415884,192.168.0.113
61,-1,-100,-100,-100,"-1,-1,-1",-2,0,0,0,0,-6,69,71,25,0,100,-57.67,0,-44.0,-47.0,-1107.0,15:51:43.517708,192.168.0.113
66,-1,-100,-100,-100,"-1,-1,-1",-2,1,0,0,0,-6,70,71,33,0,100,-57.69,1,-18.0,-23.0,-1066.0,15:51:43.619653,192.168.0.113
71,3,13,0,39,"1,0,-176",-1,2,0,0,0,-6,70,71,42,10,100,-57.49,1,-15.0,-32.0,-1000.0,15:51:43.722130,192.168.0.113
76,3,12,1,47,"0,1,-176",-1,2,0,0,0,-5,70,71,50,10,100,-57.64,1,-27.0,-5.0,-981.0,15:51:43.823815,192.168.0.113
81,3,12,0,52,"0,1,-175",-2,1,0,0,0,-4,70,71,59,10,100,-57.52,1,-49.0,-35.0,-933.0,15:51:43.928733,192.168.0.113
87,3,10,0,60,"0,1,-175",-2,0,0,0,0,-3,70,71,66,20,100,-57.57,1,-47.0,-30.0,-912.0,15:51:44.027741,192.168.0.113
92,3,8,-2,70,"0,0,-175",-2,0,0,0,0,-2,70,71,72,20,100,-57.37,1,-15.0,-30.0,-898.0,15:51:44.129720,192.168.0.113
97,3,6,-1,74,"-1,0,-176",-2,0,0,0,0,-1,70,71,78,20,100,-57.28,1,-31.0,3.0,-942.0,15:51:44.234764,192.168.0.113
102,3,7,-3,79,"0,0,-175",-2,0,0,0,0,-1,70,71,83,30,100,-57.25,1,-32.0,-52.0,-930.0,15:51:44.333758,192.168.0.113
107,3,7,-3,86,"-1,0,-174",-2,1,0,0,0,0,70,71,87,30,100,-57.34,1,-34.0,-16.0,-915.0,15:51:44.435732,192.168.0.113
112,3,5,-5,88,"-2,0,-173",-2,1,0,0,0,0,70,71,91,30,100,-57.3,1,-2.0,-35.0,-936.0,15:51:44.537977,192.168.0.113
117,3,5,-7,94,"-2,0,-172",-1,1,0,0,0,0,70,72,94,30,100,-57.25,2,-71.0,-12.0,-968.0,15:51:44.639510,192.168.0.113
123,3,5,-6,97,"-2,0,-173",-2,0,0,0,0,0,70,72,97,40,100,-57.2,2,-67.0,-19.0,-950.0,15:51:44.741472,192.168.0.113
128,3,-6,-11,97,"-8,0,-170",-3,0,0,0,0,0,70,72,100,40,100,-57.07,2,-55.0,-10.0,-948.0,15:51:44.844172,192.168.0.113
133,3,7,-10,100,"0,0,-171",-3,0,0,0,0,0,70,72,102,40,100,-57.05,2,-14.0,-15.0,-889.0,15:51:44.945841,192.168.0.113
138,3,5,-4,103,"0,1,-175",-2,0,0,0,0,1,70,72,103,40,100,-56.99,2,-4.0,-28.0,-926.0,15:51:45.047572,192.168.0.113
143,3,6,-7,104,"-1,1,-174",-1,0,0,0,0,1,70,72,103,40,100,-56.99,2,-7.0,-21.0,-955.0,15:51:45.150208,192.168.0.113
148,3,8,-6,103,"-1,0,-174",0,1,0,0,0,1,70,72,102,40,100,-57.02,2,-25.0,-10.0,-971.0,15:51:45.253043,192.168.0.113
153,3,4,-2,104,"-4,0,-175",0,1,0,0,0,1,70,72,101,40,100,-57.0,2,-31.0,-12.0,-984.0,15:51:45.354546,192.168.0.113
158,3,6,-10,102,"-4,0,-171",0,1,0,0,0,1,70,72,101,40,100,-57.05,2,0.0,-23.0,-986.0,15:51:45.455500,192.168.0.113
163,3,6,-7,101,"-5,0,-172",0,1,0,0,0,1,70,72,99,40,100,-57.15,2,-45.0,-7.0,-992.0,15:51:45.557543,192.168.0.113
168,3,10,-8,100,"-3,0,-172",0,1,0,0,0,1,70,72,98,40,100,-57.17,3,-36.0,-32.0,-990.0,15:51:45.659490,192.168.0.113
173,3,8,-8,100,"-4,0,-172",-1,1,0,0,0,1,70,72,96,40,100,-57.13,3,-35.0,-16.0,-968.0,15:51:45.762530,192.168.0.113
178,3,8,-8,100,"-4,0,-172",-1,0,0,0,0,1,70,72,95,40,100,-57.16,3,-29.0,-38.0,-979.0,15:51:45.863516,192.168.0.113
183,3,6,-7,96,"-6,0,-174",0,0,0,0,0,1,70,72,93,40,100,-57.2,3,-34.0,-17.0,-1005.0,15:51:45.965527,192.168.0.113
188,3,11,-9,94,"-2,0,-173",0,0,0,0,0,1,70,72,91,40,100,-57.21,3,-28.0,-8.0,-1011.0,15:51:46.067662,192.168.0.113
193,3,6,-6,93,"-6,0,-174",-1,1,0,0,0,1,70,72,90,40,100,-57.33,3,-19.0,-18.0,-1007.0,15:51:46.171442,192.168.0.113
198,3,13,-7,89,"-1,0,-172",-1,1,1,0,0,1,70,72,87,40,100,-57.24,3,-25.0,-5.0,-1017.0,15:51:46.271544,192.168.0.113
203,3,12,-8,88,"-1,0,-173",-1,0,1,0,0,1,70,72,85,40,100,-57.23,3,-39.0,25.0,-993.0,15:51:46.373635,192.168.0.113
208,3,12,-5,87,"-2,0,-175",-1,0,1,0,0,1,70,72,84,40,100,-57.34,3,-22.0,0.0,-1036.0,15:51:46.477852,192.168.0.113
213,3,12,-9,84,"-2,0,-175",-1,0,1,0,0,1,70,72,82,30,100,-57.34,3,-41.0,22.0,-993.0,15:51:46.580078,192.168.0.113
218,3,13,-9,82,"0,0,-175",-1,0,1,0,0,1,70,72,80,30,100,-57.42,4,-21.0,25.0,-1039.0,15:51:46.679500,192.168.0.113
223,3,11,-8,82,"-3,0,-176",-1,-1,1,0,0,1,70,72,79,30,100,-57.41,4,-43.0,46.0,-1004.0,15:51:46.786410,192.168.0.113
228,3,13,-7,79,"0,0,-179",-2,-1,0,0,0,0,70,72,77,30,100,-57.41,4,-54.0,36.0,-1025.0,15:51:46.883644,192.168.0.113
233,3,15,-7,78,"0,0,179",-2,-2,0,0,1,0,70,72,77,30,100,-57.41,4,-42.0,6.0,-991.0,15:51:46.985449,192.168.0.113
238,3,14,-12,77,"0,0,-179",-2,-3,0,0,0,0,70,72,76,30,100,-57.39,4,-22.0,4.0,-1015.0,15:51:47.087616,192.168.0.113
243,3,14,-8,77,"0,0,177",-2,-3,0,0,0,0,70,72,75,30,100,-57.43,4,-52.0,3.0,-998.0,15:51:47.194211,192.168.0.113
248,3,15,-13,75,"1,0,179",-1,-2,0,0,0,0,70,72,75,30,100,-57.63,4,-53.0,-9.0,-1039.0,15:51:47.291449,192.168.0.113
253,3,15,-14,74,"0,0,-179",-2,-1,0,0,0,0,70,72,74,30,100,-57.5,4,-47.0,-9.0,-1013.0,15:51:47.393567,192.168.0.113
258,3,13,-13,75,"0,0,-178",-2,0,0,0,0,0,70,72,74,30,100,-57.38,4,-18.0,18.0,-959.0,15:51:47.448383,192.168.0.113
263,3,14,-12,74,"1,0,-177",-2,0,0,0,0,0,70,72,74,30,100,-57.41,4,-42.0,7.0,-1017.0,15:51:47.549481,192.168.0.113
268,3,15,-13,74,"0,0,-176",-2,0,0,0,0,0,70,72,73,30,100,-57.39,5,-25.0,-3.0,-988.0,15:51:47.649285,192.168.0.113
273,3,16,-15,72,"1,0,-176",-1,-1,0,0,0,0,70,72,73,30,100,-57.31,5,-27.0,26.0,-1025.0,15:51:47.751409,192.168.0.113
278,3,16,-15,72,"0,0,-177",-2,-1,0,0,0,0,70,72,73,30,100,-57.23,5,-14.0,16.0,-992.0,15:51:47.853327,192.168.0.113
283,3,18,-15,71,"2,0,-177",-1,-1,0,0,0,0,70,72,73,30,100,-57.42,5,-40.0,21.0,-1049.0,15:51:47.955409,192.168.0.113
288,3,19,-15,71,"1,0,-176",0,-1,0,0,0,0,70,72,72,30,100,-57.53,5,-58.0,-7.0,-1010.0,15:51:48.059235,192.168.0.113
293,3,20,-16,71,"1,0,-176",-1,-1,0,0,0,0,70,72,73,30,100,-57.5,5,-51.0,7.0,-997.0,15:51:48.159366,192.168.0.113
298,3,20,-14,72,"1,0,-177",-1,0,0,0,0,0,70,72,73,20,100,-57.54,5,-66.0,13.0,-985.0,15:51:48.261465,192.168.0.113
303,3,20,-15,72,"1,0,-176",-2,0,0,0,0,0,70,72,73,20,100,-57.45,5,-34.0,11.0,-982.0,15:51:48.374122,192.168.0.113
308,3,19,-16,72,"1,0,-175",-2,0,0,0,0,0,70,72,73,20,100,-57.35,5,-32.0,27.0,-981.0,15:51:48.465353,192.168.0.113
313,3,20,-15,72,"2,0,-175",-1,-1,0,0,0,0,70,72,73,20,100,-57.38,5,-16.0,13.0,-1003.0,15:51:48.567378,192.168.0.113
318,3,20,-14,72,"1,0,-177",-1,-1,0,0,0,0,70,72,73,20,100,-57.44,6,-29.0,38.0,-989.0,15:51:48.669043,192.168.0.113
323,3,18,-16,72,"-1,0,-176",-1,-1,0,0,0,0,70,72,73,20,100,-57.63,6,-21.0,8.0,-1018.0,15:51:48.771290,192.168.0.113
328,3,20,-17,71,"0,0,-175",0,-1,0,0,0,0,70,72,73,20,100,-57.66,6,-8.0,-2.0,-1053.0,15:51:48.873277,192.168.0.113
333,3,22,-15,72,"0,0,-176",-1,0,0,0,0,0,70,72,74,20,100,-57.7,6,-25.0,30.0,-1042.0,15:51:48.975273,192.168.0.113
338,3,23,-15,73,"1,0,-176",-1,0,0,0,0,0,70,72,75,20,100,-57.71,6,-56.0,8.0,-993.0,15:51:49.077376,192.168.0.113
343,3,21,-18,73,"0,0,-174",-2,-1,0,0,0,0,70,72,75,30,100,-57.62,6,-75.0,30.0,-968.0,15:51:49.179658,192.168.0.113
348,3,24,-17,73,"3,0,-176",-2,-2,0,0,0,0,70,72,75,30,100,-57.53,6,-42.0,37.0,-973.0,15:51:49.281581,192.168.0.113
353,3,21,-18,75,"0,0,-177",-2,-3,0,0,0,0,70,72,75,30,100,-57.5,6,-53.0,8.0,-967.0,15:51:49.383335,192.168.0.113
358,3,24,-17,74,"2,0,-178",-1,-2,0,0,0,0,70,72,76,30,100,-57.46,6,-35.0,4.0,-1000.0,15:51:49.485429,192.168.0.113
363,3,23,-19,73,"1,0,-175",-1,0,0,0,0,0,70,72,77,30,100,-57.49,6,-24.0,-8.0,-1006.0,15:51:49.587311,192.168.0.113
368,3,22,-17,76,"0,0,-175",-1,0,0,0,0,0,71,73,77,30,100,-57.55,7,-49.0,45.0,-998.0,15:51:49.688828,192.168.0.113
373,3,24,-17,75,"1,0,-175",-1,0,0,0,0,0,71,73,78,30,100,-57.53,7,-46.0,45.0,-1000.0,15:51:49.791217,192.168.0.113
378,3,26,-18,75,"2,-1,-174",-1,0,0,0,0,0,71,73,78,30,100,-57.42,7,-38.0,60.0,-1005.0,15:51:49.893177,192.168.0.113
383,3,23,-19,76,"0,-1,-173",-1,-1,0,0,0,0,71,73,78,30,100,-57.44,7,-40.0,34.0,-997.0,15:51:49.996407,192.168.0.113
388,3,26,-16,77,"0,0,-177",0,-1,0,0,0,0,71,73,79,30,100,-57.33,7,-22.0,15.0,-985.0,15:51:50.097263,192.168.0.113
393,3,24,-20,77,"0,-1,-174",0,-1,0,0,0,0,71,73,79,30,100,-57.4,7,-56.0,18.0,-986.0,15:51:50.199233,192.168.0.113
398,3,25,-18,78,"0,0,-175",0,-2,0,0,0,0,71,73,79,30,100,-57.44,7,-67.0,14.0,-991.0,15:51:50.301267,192.168.0.113
404,3,28,-16,78,"0,0,-177",0,-2,0,0,0,0,71,73,79,30,100,-57.51,7,-80.0,-3.0,-1000.0,15:51:50.403149,192.168.0.113
409,3,28,-18,77,"0,0,-176",0,-1,0,0,0,0,71,73,80,30,100,-57.36,7,-56.0,20.0,-976.0,15:51:50.505192,192.168.0.113
414,3,29,-18,77,"2,0,-175",-2,0,0,-1,0,0,71,73,80,30,100,-57.37,7,-52.0,33.0,-987.0,15:51:50.607216,192.168.0.113
419,3,29,-16,77,"3,0,-175",-2,0,0,-1,0,0,70,72,80,30,100,-57.48,8,-48.0,33.0,-994.0,15:51:50.715901,192.168.0.113
425,3,27,-14,79,"3,0,-176",-2,0,0,0,0,0,70,72,80,30,100,-57.51,8,-44.0,10.0,-990.0,15:51:50.811175,192.168.0.113
430,3,21,-17,81,"-1,0,-175",-2,-1,0,0,0,0,70,72,80,30,100,-57.35,8,-56.0,22.0,-989.0,15:51:50.913250,192.168.0.113
435,3,27,-17,78,"2,0,-175",-1,-1,0,0,0,0,70,72,81,30,100,-57.63,8,-39.0,6.0,-1002.0,15:51:51.015187,192.168.0.113
440,3,29,-18,76,"4,0,-175",-2,-2,0,0,0,0,70,72,81,30,100,-57.57,8,-52.0,33.0,-1008.0,15:51:51.117194,192.168.0.113
443,3,26,-12,80,"1,0,-179",-2,-1,0,0,0,0,70,72,81,30,100,-57.41,8,-55.0,29.0,-980.0,15:51:51.170239,192.168.0.113
448,3,22,-18,80,"0,0,-174",-2,0,0,0,0,0,70,72,81,30,100,-57.5,8,-42.0,3.0,-1000.0,15:51:51.272303,192.168.0.113
453,3,26,-18,79,"2,0,-174",-2,-1,0,0,0,0,70,72,82,30,100,-57.44,8,-47.0,3.0,-971.0,15:51:51.372745,192.168.0.113
457,3,25,-16,80,"1,0,-176",-2,-1,0,0,0,0,70,72,82,30,100,-57.4,8,-41.0,19.0,-997.0,15:51:51.474897,192.168.0.113
463,3,26,-15,81,"1,0,-176",-2,0,0,0,0,0,70,72,82,30,100,-57.39,8,-68.0,19.0,-985.0,15:51:51.576376,192.168.0.113
470,3,26,-15,81,"1,0,-176",-1,0,0,0,0,0,70,72,82,30,100,-57.34,9,-40.0,-4.0,-957.0,15:51:51.729649,192.168.0.113
472,3,28,-14,81,"1,0,-175",0,-1,0,0,0,0,70,72,81,30,100,-57.44,9,-27.0,-7.0,-952.0,15:51:51.780344,192.168.0.113
477,3,28,-14,81,"1,0,-175",0,-1,0,0,0,1,70,72,80,30,100,-57.21,9,-32.0,-8.0,-976.0,15:51:51.882636,192.168.0.113
485,3,29,-13,80,"0,-1,-176",0,-1,0,0,0,1,70,72,79,30,100,-57.37,9,-33.0,37.0,-1012.0,15:51:52.035207,192.168.0.113
490,3,29,-13,80,"0,-1,-176",0,-1,0,0,0,0,70,72,78,30,100,-57.43,9,-23.0,-1.0,-1020.0,15:51:52.137097,192.168.0.113
493,3,29,-13,80,"0,-1,-176",0,-1,0,0,0,0,70,72,77,30,100,-57.31,9,-47.0,30.0,-984.0,15:51:52.187957,192.168.0.113
498,3,33,-15,75,"1,-2,-174",0,-2,0,0,-1,1,70,72,75,30,100,-57.52,9,-46.0,20.0,-991.0,15:51:52.290258,192.168.0.113
503,3,33,-15,75,"1,-2,-174",0,-1,0,0,-1,1,70,72,75,30,100,-57.38,9,-38.0,33.0,-1005.0,15:51:52.392619,192.168.0.113
508,3,32,-11,76,"0,-1,-176",0,-1,0,0,-1,0,70,72,74,30,100,-57.51,9,-21.0,7.0,-1007.0,15:51:52.495089,192.168.0.113
513,3,32,-11,76,"0,-1,-176",0,-1,0,0,-1,0,70,72,73,20,100,-57.5,10,-38.0,5.0,-1016.0,15:51:52.597390,192.168.0.113
517,3,32,-8,74,"0,0,-177",0,-1,0,0,-1,0,71,73,73,20,100,-57.63,10,-27.0,0.0,-1006.0,15:51:52.699790,192.168.0.113
522,3,32,-8,74,"0,0,-177",0,0,0,-1,-1,0,71,73,72,20,100,-57.63,10,-28.0,1.0,-1015.0,15:51:52.802250,192.168.0.113
528,3,32,-4,74,"0,0,-177",0,0,0,-1,-1,0,71,73,72,20,100,-57.68,10,-37.0,8.0,-1021.0,15:51:52.904696,192.168.0.113
533,3,32,-4,74,"0,0,-177",0,0,0,-1,-1,0,71,73,72,20,100,-57.59,10,-19.0,29.0,-1007.0,15:51:53.004292,192.168.0.113
539,3,32,-4,74,"0,0,-177",0,0,0,-1,0,0,71,73,72,20,100,-57.65,10,-31.0,-9.0,-1025.0,15:51:53.106296,192.168.0.113
544,3,30,-1,74,"-1,0,-176",0,0,0,-1,0,0,71,73,71,20,100,-57.59,10,-16.0,-25.0,-988.0,15:51:53.208257,192.168.0.113
549,3,30,-1,74,"-1,0,-176",0,0,0,-1,0,0,71,73,71,20,100,-57.7,10,-37.0,-1.0,-1008.0,15:51:53.310273,192.168.0.113
554,3,29,-1,74,"-1,0,-175",0,0,0,-1,0,0,71,73,71,20,100,-57.69,10,-54.0,-4.0,-993.0,15:51:53.412757,192.168.0.113
559,3,29,-1,74,"-1,0,-175",0,0,0,-1,0,0,71,73,71,20,100,-57.72,10,-59.0,-18.0,-1026.0,15:51:53.515093,192.168.0.113
564,3,30,-3,73,"0,0,-175",0,0,0,-1,0,0,71,73,71,20,100,-57.66,11,-54.0,-34.0,-993.0,15:51:53.616977,192.168.0.113
569,3,30,-3,73,"0,0,-175",0,0,0,-1,0,0,71,72,71,20,100,-57.7,11,-49.0,-5.0,-1001.0,15:51:53.719098,192.168.0.113
573,3,29,-3,72,"0,0,-174",-1,1,0,-1,0,0,71,72,71,20,100,-57.62,11,-23.0,-12.0,-987.0,15:51:53.821294,192.168.0.113
579,3,29,-3,72,"0,0,-174",-1,0,0,-1,0,0,71,72,71,20,100,-57.71,11,-50.0,-20.0,-1001.0,15:51:53.923046,192.168.0.113
584,3,28,1,71,"1,0,-177",-1,1,0,-1,0,0,71,72,70,20,100,-57.79,11,-75.0,0.0,-994.0,15:51:54.031035,192.168.0.113
589,3,28,1,71,"1,0,-177",-1,0,0,-1,0,0,71,72,71,20,100,-57.61,11,-36.0,-12.0,-1004.0,15:51:54.126976,192.168.0.113
594,3,27,-1,71,"1,0,-176",-2,0,0,-1,0,0,71,72,71,20,100,-57.59,11,-64.0,0.0,-1004.0,15:51:54.228535,192.168.0.113
600,3,27,-1,71,"1,0,-176",-5,0,0,-1,0,0,71,72,70,20,100,-57.83,11,-65.0,-14.0,-1024.0,15:51:54.331006,192.168.0.113
605,3,27,-1,71,"1,0,-176",-8,0,0,0,0,0,71,72,71,20,100,-57.67,11,-46.0,0.0,-988.0,15:51:54.433193,192.168.0.113
610,3,24,-4,72,"6,0,-174",-8,0,0,0,0,0,71,72,71,20,100,-57.63,11,-85.0,19.0,-996.0,15:51:54.534967,192.168.0.113
615,3,24,-4,72,"6,0,-174",-8,0,0,1,0,0,71,72,72,20,100,-57.65,12,-77.0,-2.0,-1011.0,15:51:54.636957,192.168.0.113
620,3,27,-1,73,"7,0,-177",-8,0,0,2,0,0,71,72,73,20,100,-57.78,12,-80.0,0.0,-1003.0,15:51:54.738605,192.168.0.113
625,3,27,-1,73,"7,0,-177",-8,-1,0,3,0,0,71,72,73,20,100,-57.67,12,-72.0,18.0,-975.0,15:51:54.841144,192.168.0.113
630,3,37,-8,72,"8,0,-175",-8,-1,0,3,0,0,71,72,73,20,100,-57.71,12,-79.0,25.0,-1019.0,15:51:54.942920,192.168.0.113
635,3,37,-8,72,"8,0,-175",-8,-1,0,4,0,0,71,72,73,20,100,-57.51,12,-87.0,1.0,-987.0,15:51:55.044938,192.168.0.113
640,3,24,-22,86,"-8,-4,-169",-8,0,0,5,0,0,71,72,73,20,100,-57.76,12,-87.0,-7.0,-1003.0,15:51:55.147106,192.168.0.113
645,3,24,-22,86,"-8,-4,-169",-8,-1,0,6,0,0,71,72,73,20,100,-57.59,12,-74.0,4.0,-972.0,15:51:55.249006,192.168.0.113
650,3,24,-22,86,"-8,-4,-169",-9,0,0,7,0,0,71,72,73,20,100,-57.69,12,-53.0,-1.0,-982.0,15:51:55.350975,192.168.0.113
655,3,24,-22,86,"-8,-4,-169",-8,0,0,8,0,0,71,72,72,20,100,-57.77,12,-87.0,11.0,-936.0,15:51:55.452897,192.168.0.113
660,3,24,-22,86,"-8,-4,-169",-7,-1,0,8,0,0,71,72,71,20,100,-57.69,12,-125.0,21.0,-1019.0,15:51:55.554959,192.168.0.113
665,3,24,-22,86,"-8,-4,-169",-6,-2,0,9,0,0,71,72,71,20,100,-57.7,13,-100.0,7.0,-994.0,15:51:55.656949,192.168.0.113
670,3,24,-22,86,"-8,-4,-169",-6,-3,0,9,0,0,71,73,70,20,100,-57.83,13,-97.0,-5.0,-991.0,15:51:55.758895,192.168.0.113
675,3,24,-22,86,"-8,-4,-169",-6,-2,0,9,0,0,71,73,69,20,100,-57.8,13,-78.0,-23.0,-996.0,15:51:55.861026,192.168.0.113
680,3,24,-22,86,"-8,-4,-169",-5,-1,0,10,0,0,71,73,69,20,100,-57.9,13,-126.0,12.0,-1031.0,15:51:55.962848,192.168.0.113
685,3,24,-22,86,"-8,-4,-169",-5,0,0,10,0,0,71,73,66,20,100,-57.63,13,-99.0,40.0,-983.0,15:51:56.064773,192.168.0.113
690,3,24,-22,86,"-8,-4,-169",-4,-2,0,10,0,0,71,73,69,20,100,-57.88,13,-119.0,-20.0,-980.0,15:51:56.166817,192.168.0.113
695,3,24,-22,86,"-8,-4,-169",-4,-3,0,10,0,0,71,73,68,20,100,-57.69,13,-122.0,18.0,-979.0,15:51:56.268875,192.168.0.113
700,3,24,-22,86,"-8,-4,-169",-3,-1,0,10,0,0,71,73,68,20,100,-57.68,13,-116.0,8.0,-1011.0,15:51:56.370704,192.168.0.113
705,3,24,-22,86,"-8,-4,-169",-1,-2,0,9,0,0,71,73,68,20,100,-57.75,13,-135.0,5.0,-1003.0,15:51:56.472976,192.168.0.113
710,3,24,-22,86,"-8,-4,-169",1,-2,0,9,0,0,71,73,68,20,100,-57.59,13,-106.0,49.0,-959.0,15:51:56.574823,192.168.0.113
715,7,-5,-14,69,"-1,-3,174",3,-2,0,7,0,0,71,73,69,20,100,-57.51,14,-121.0,33.0,-1000.0,15:51:56.676936,192.168.0.113
720,7,-5,-14,69,"-1,-3,174",4,-4,0,6,0,0,70,73,69,20,100,-57.7,14,-132.0,-15.0,-1037.0,15:51:56.778895,192.168.0.113
725,7,19,-9,71,"-5,0,168",5,-2,0,4,-1,0,70,73,69,20,100,-57.43,14,-111.0,12.0,-1063.0,15:51:56.881091,192.168.0.113
730,7,19,-9,71,"-5,0,168",5,2,0,3,-1,0,70,73,69,20,100,-57.64,14,-90.0,22.0,-1041.0,15:51:56.982731,192.168.0.113
735,7,33,-1,69,"-2,2,173",3,2,0,1,-1,0,70,73,69,20,100,-57.29,14,-69.0,26.0,-994.0,15:51:57.084737,192.168.0.113
740,7,33,-1,69,"-2,2,173",0,1,0,0,0,0,70,73,69,20,100,-57.41,14,-88.0,9.0,-987.0,15:51:57.186889,192.168.0.113
744,7,33,-1,69,"-2,2,173",0,0,0,0,0,0,70,73,69,20,100,-57.27,14,-55.0,-10.0,-953.0,15:51:57.237959,192.168.0.113
749,7,35,-5,71,"1,0,174",0,-1,0,0,0,0,70,73,69,20,100,-57.37,14,-47.0,-33.0,-1014.0,15:51:57.339928,192.168.0.113
755,7,35,-5,71,"1,0,174",-1,0,0,0,0,0,70,73,68,20,100,-57.44,14,-57.0,7.0,-1007.0,15:51:57.442189,192.168.0.113
760,7,40,3,68,"3,3,167",-1,0,0,0,0,0,70,73,68,20,100,-57.49,14,-29.0,-5.0,-1010.0,15:51:57.543964,192.168.0.113
765,7,40,3,68,"3,3,167",-1,1,0,0,0,0,70,73,68,20,100,-57.54,15,-44.0,31.0,-1040.0,15:51:57.646675,192.168.0.113
770,7,43,2,67,"4,2,170",-1,1,0,0,0,0,70,73,68,20,100,-57.55,15,-68.0,6.0,-1020.0,15:51:57.748038,192.168.0.113
775,7,43,2,67,"4,2,170",3,1,0,0,0,0,70,73,68,20,100,-57.5,15,-75.0,-33.0,-1022.0,15:51:57.849981,192.168.0.113
780,7,43,2,67,"4,2,170",2,1,0,0,0,0,70,73,67,20,100,-57.39,15,-55.0,1.0,-1041.0,15:51:57.952111,192.168.0.113
785,7,43,2,67,"4,2,170",0,1,0,-1,0,0,70,73,67,20,100,-57.43,15,-52.0,0.0,-971.0,15:51:58.054045,192.168.0.113
790,7,43,2,67,"4,2,170",0,0,0,-2,0,0,70,73,67,20,100,-57.45,15,-45.0,-45.0,-968.0,15:51:58.156053,192.168.0.113
795,7,43,2,67,"4,2,170",-1,0,0,-1,0,0,70,73,67,20,100,-57.29,15,-19.0,-8.0,-988.0,15:51:58.258030,192.168.0.113
800,7,43,2,67,"4,2,170",-1,0,0,-1,0,0,70,73,66,20,100,-57.21,15,-56.0,-26.0,-1022.0,15:51:58.359987,192.168.0.113
805,7,43,2,67,"4,2,170",0,0,0,-1,0,0,70,73,66,20,100,-57.25,15,-56.0,11.0,-1004.0,15:51:58.462271,192.168.0.113
810,7,43,2,67,"4,2,170",-1,1,0,-1,0,0,70,73,67,20,100,-57.29,15,-54.0,-15.0,-956.0,15:51:58.563845,192.168.0.113
815,7,43,2,67,"4,2,170",-2,-1,0,-1,0,0,70,73,67,20,100,-57.32,16,-67.0,22.0,-1053.0,15:51:58.665904,192.168.0.113
820,7,38,-6,68,"3,0,172",-2,0,0,-1,0,0,71,73,67,20,100,-57.13,16,-48.0,-29.0,-1070.0,15:51:58.770369,192.168.0.113
825,7,38,-6,68,"3,0,172",-1,0,1,-1,0,0,71,73,68,20,100,-57.32,16,-39.0,81.0,-989.0,15:51:58.869899,192.168.0.113
830,7,36,-1,70,"2,0,169",-2,0,0,-1,0,0,71,73,68,20,100,-57.07,16,-24.0,25.0,-942.0,15:51:58.971987,192.168.0.113
835,7,36,-1,70,"2,0,169",-3,-3,0,-1,1,0,71,73,69,20,100,-57.34,16,-48.0,-66.0,-1068.0,15:51:59.074194,192.168.0.113
840,8,35,24,70,"5,-3,178",-1,-4,0,-1,0,0,71,73,70,20,100,-57.39,16,-77.0,0.0,-943.0,15:51:59.176144,192.168.0.113
845,8,35,24,70,"5,-3,178",-1,0,0,-1,0,0,71,73,70,20,100,-57.29,16,-95.0,15.0,-993.0,15:51:59.277938,192.168.0.113
850,7,35,-2,73,"3,1,168",-1,0,0,-1,0,0,71,73,70,20,100,-57.28,16,-55.0,11.0,-974.0,15:51:59.380195,192.168.0.113
855,7,35,-2,73,"3,1,168",-2,-1,0,-1,0,0,71,73,70,20,100,-57.25,16,-31.0,-28.0,-991.0,15:51:59.481940,192.168.0.113
860,7,31,-7,74,"2,0,168",-1,-1,0,-1,0,0,71,73,69,20,100,-57.21,16,-34.0,-26.0,-1033.0,15:51:59.584058,192.168.0.113
865,7,31,-7,74,"2,0,168",-1,0,0,-1,0,0,71,73,69,20,100,-57.21,17,-12.0,-61.0,-1056.0,15:51:59.685479,192.168.0.113
870,7,30,-12,71,"2,0,173",-1,1,0,-1,0,0,71,73,69,20,100,-57.31,17,-29.0,-18.0,-963.0,15:51:59.787923,192.168.0.113
875,7,30,-12,71,"2,0,173",-1,1,0,-1,0,0,71,73,69,20,100,-57.34,17,-66.0,-21.0,-1005.0,15:51:59.889910,192.168.0.113
880,7,28,-19,69,"2,-3,179",-1,1,0,-1,0,0,71,73,69,20,100,-57.34,17,-55.0,-37.0,-1022.0,15:51:59.993200,192.168.0.113
885,7,28,-19,69,"2,-3,179",-2,0,0,-1,0,0,71,73,70,20,100,-57.47,17,-83.0,-13.0,-1001.0,15:52:00.094902,192.168.0.113
892,7,29,-9,72,"5,-1,172",-3,0,1,-1,0,0,71,73,71,20,100,-57.33,17,-62.0,-3.0,-995.0,15:52:00.247120,192.168.0.113
897,7,29,-9,72,"5,-1,172",-3,1,1,-1,0,0,71,73,71,20,100,-57.4,17,-62.0,22.0,-990.0,15:52:00.348809,192.168.0.113
902,7,25,-7,74,"4,-1,171",-2,0,0,-1,0,0,71,73,72,20,100,-57.35,17,-49.0,3.0,-962.0,15:52:00.450714,192.168.0.113
905,7,25,-7,74,"4,-1,171",-4,-4,1,-1,0,0,71,73,72,20,100,-57.35,17,-56.0,0.0,-964.0,15:52:00.501885,192.168.0.113
910,7,25,-7,74,"4,-1,171",-5,-3,0,0,0,0,71,73,72,20,100,-57.38,18,-63.0,44.0,-1034.0,15:52:00.603868,192.168.0.113
915,8,25,23,72,"8,-4,178",-3,-2,0,0,0,0,71,73,72,20,100,-57.29,18,-60.0,48.0,-976.0,15:52:00.705737,192.168.0.113
920,7,23,-12,75,"4,-2,169",-2,-2,0,0,0,0,71,73,72,20,100,-57.48,18,-54.0,35.0,-971.0,15:52:00.807937,192.168.0.113
925,7,23,-12,75,"4,-2,169",-2,-3,0,0,0,0,71,73,72,20,100,-57.46,18,-43.0,25.0,-964.0,15:52:00.909881,192.168.0.113
930,7,23,-12,75,"4,-2,169",0,-2,0,0,-1,0,71,73,71,20,100,-57.43,18,-78.0,1.0,-1018.0,15:52:01.011832,192.168.0.113
935,8,28,22,71,"7,-4,179",2,-1,0,0,-1,0,71,73,70,20,100,-57.29,18,-77.0,-9.0,-988.0,15:52:01.113728,192.168.0.113
940,8,28,22,71,"7,-4,179",0,1,0,-1,-1,0,71,73,70,20,100,-57.42,18,-71.0,-3.0,-1006.0,15:52:01.215967,192.168.0.113
945,7,26,-17,71,"0,-2,178",-2,2,0,-1,0,0,71,73,69,20,100,-57.4,18,-62.0,-2.0,-1007.0,15:52:01.318374,192.168.0.113
950,7,26,-17,71,"0,-2,178",-5,1,0,-1,0,0,71,73,68,20,100,-57.59,18,-78.0,31.0,-1024.0,15:52:01.421058,192.168.0.113
955,7,27,-13,70,"6,-2,177",-4,0,0,0,0,0,71,73,69,20,100,-57.61,18,-67.0,28.0,-1046.0,15:52:01.522530,192.168.0.113
960,7,27,-13,70,"6,-2,177",-3,0,0,0,0,0,71,73,69,20,100,-57.42,19,-62.0,4.0,-998.0,15:52:01.624423,192.168.0.113
966,7,26,-12,70,"3,-2,175",-2,0,0,0,0,0,71,73,68,20,100,-57.52,19,-39.0,35.0,-1015.0,15:52:01.731077,192.168.0.113
970,7,26,-12,70,"3,-2,175",-1,-2,0,0,0,0,71,73,68,20,100,-57.7,19,-39.0,-6.0,-1004.0,15:52:01.828547,192.168.0.113
975,7,26,-12,70,"3,-2,175",-1,-1,0,0,0,0,71,73,68,20,100,-57.63,19,-37.0,1.0,-993.0,15:52:01.930462,192.168.0.113
980,7,27,-13,71,"0,-2,172",-1,0,0,0,0,0,71,73,68,20,100,-57.6,19,-40.0,-42.0,-914.0,15:52:02.032408,192.168.0.113
985,7,27,-13,71,"0,-2,172",-1,0,0,0,0,1,71,73,67,20,100,-57.71,19,-38.0,-25.0,-902.0,15:52:02.134593,192.168.0.113
990,7,31,-13,69,"2,-1,175",-1,1,0,0,0,2,71,73,65,20,100,-57.6,19,-50.0,18.0,-952.0,15:52:02.236412,192.168.0.113
995,7,31,-13,69,"2,-1,175",-1,0,0,0,0,2,71,73,62,10,100,-57.63,19,-60.0,7.0,-937.0,15:52:02.338536,192.168.0.113
1000,7,31,-13,69,"2,-1,175",-1,0,0,0,0,3,71,73,59,10,100,-57.61,19,-51.0,-43.0,-999.0,15:52:02.440631,192.168.0.113
1005,7,31,-13,69,"2,-1,175",-2,0,0,0,0,4,71,73,55,10,100,-57.82,19,-68.0,-11.0,-924.0,15:52:02.542520,192.168.0.113
1010,7,31,-13,69,"2,-1,175",-2,1,0,0,0,4,71,73,50,0,100,-57.78,20,-64.0,-19.0,-983.0,15:52:02.644406,192.168.0.113
1015,7,31,-13,69,"2,-1,175",-3,1,0,0,0,4,71,73,46,0,100,-58.05,20,-12.0,-13.0,-988.0,15:52:02.746584,192.168.0.113
1020,7,31,-13,69,"2,-1,175",-1,0,0,0,0,4,72,74,41,0,100,-57.85,20,-86.0,-33.0,-1004.0,15:52:02.848875,192.168.0.113
1025,7,31,-13,69,"2,-1,175",-1,0,0,0,0,4,72,74,36,0,100,-58.03,20,-59.0,-33.0,-951.0,15:52:02.950647,192.168.0.113
1030,7,31,-13,69,"2,-1,175",-2,1,0,0,0,4,72,74,31,0,100,-58.1,20,-45.0,-16.0,-1003.0,15:52:03.052511,192.168.0.113
1035,7,31,-13,69,"2,-1,175",-2,1,0,0,0,4,72,74,27,-10,100,-57.9,20,-18.0,-15.0,-1034.0,15:52:03.103804,192.168.0.113
1040,7,31,-13,69,"2,-1,175",-2,0,0,0,0,4,72,74,22,-10,100,-57.9,20,-47.0,-7.0,-1006.0,15:52:03.205710,192.168.0.113
1044,7,31,-13,69,"2,-1,175",-1,0,0,0,0,4,72,74,19,-20,100,-57.7,20,-29.0,2.0,-987.0,15:52:03.307759,192.168.0.113
1049,7,31,-13,69,"2,-1,175",-1,0,0,0,0,4,72,74,13,-20,100,-58.22,20,1.0,-33.0,-1051.0,15:52:03.409957,192.168.0.113
1055,7,31,-13,69,"2,-1,175",0,2,0,0,0,4,72,74,10,-30,100,-58.84,20,0.0,9.0,-996.0,15:52:03.511712,192.168.0.113
1060,7,31,-13,69,"2,-1,175",0,0,0,1,0,3,72,74,10,-30,100,-59.23,21,-29.0,0.0,-1079.0,15:52:03.613644,192.168.0.113
1064,7,31,-13,69,"2,-1,175",1,0,0,1,0,3,72,74,10,-40,100,-61.51,21,41.0,-19.0,-1140.0,15:52:03.715759,192.168.0.113
1069,7,31,-13,69,"2,-1,175",0,2,2,0,0,0,72,74,10,0,100,-59.58,21,-2.0,13.0,-717.0,15:52:03.819808,192.168.0.113
1074,7,31,-13,69,"2,-1,175",1,0,5,-1,-1,1,72,74,10,0,100,-59.19,21,-462.0,100.0,-2975.0,15:52:03.919787,192.168.0.113
1079,7,31,-13,69,"2,-1,175",1,0,5,-2,0,0,72,74,10,0,100,-58.75,21,0.0,9.0,-1004.0,15:52:04.021634,192.168.0.113
1084,7,31,-13,69,"2,-1,175",1,0,5,-2,0,0,72,74,10,0,100,-58.59,21,-3.0,3.0,-1010.0,15:52:04.126301,192.168.0.113
1089,7,31,-13,69,"2,-1,175",1,0,5,-2,-1,0,72,74,10,0,100,-58.47,21,-8.0,3.0,-998.0,15:52:04.225797,192.168.0.113
1096,7,31,-13,69,"2,-1,175",1,0,5,-3,-1,0,72,74,10,0,100,-58.42,21,-16.0,7.0,-1002.0,15:52:04.335794,192.168.0.113
1100,7,31,-13,69,"2,-1,175",1,0,5,-3,-1,0,72,74,10,0,100,-58.38,21,-8.0,9.0,-1001.0,15:52:04.429419,192.168.0.113
1105,7,31,-13,69,"2,-1,175",1,0,5,-3,-1,0,72,74,10,0,100,-58.33,21,0.0,6.0,-1004.0,15:52:04.531710,192.168.0.113
1110,7,31,-13,69,"2,-1,175",1,0,5,-3,-1,0,72,74,10,0,100,-58.28,21,-2.0,5.0,-1001.0,15:52:04.633575,192.168.0.113
1115,7,31,-13,69,"2,-1,175",1,0,5,-4,-1,0,72,74,10,0,100,-58.26,21,-1.0,4.0,-1005.0,15:52:04.735347,192.168.0.113
1120,7,31,-13,69,"2,-1,175",1,0,5,-4,-1,0,71,73,10,0,100,-58.27,21,-1.0,5.0,-1004.0,15:52:04.837460,192.168.0.113
